~Version Information
VERS.                      2.0: CWLS Log ASCII Standard - VERSION 2.0
WRAP.                       NO: One line per depth step
~Well Information Block
STRT.FT                15.0000: 
STOP.FT              2556.5000: 
STEP.FT                 0.2500: 
NULL.                -999.2500: 
COMP.          Pioneer Natural Resources: COMPANY
WELL.              Quack 22-24: WELL
FLD.           Purgatoire River: FIELD
LOC.           2492' FNL & 2459' FWL: LOCATION
PROV.                 Colorado: PROVINCE
CNTY.               Las Animas: COUNTRY
SRVC.                Patterson: SERVICE COMPANY
DATE.          Tue Jul 26 07:02:30 2005: LOG DATE
UWI.           05 071 08402 00: UNIQUE WELL ID
~Curve Information Block
DEPT.FT            0 000 00 00: Depth
GR.GAPI                       : Gamma Ray
CCL.                          : Casing Collar Locator
TT3.usec                      : CBL 3' Travel Time
AMP3.mV                       : CBL 3' Amplitude
~Parameter Information Block
~A  Depth        GR         CCL         TT3         AMP3    
# ...
  2025.0000     91.3137      0.0000    628.8971      7.8654
  2025.2500     86.9874      0.0000    634.6091      7.4899
  2025.5000     83.9571      0.0000    638.9644      7.0882
  2025.7500     80.8237      0.0000    644.7720      6.7223
  2026.0000     76.4851      0.0000    656.9957      6.3981
  2026.2500     71.3728      0.0000    677.3345      6.1035
  2026.5000     66.8651      0.0000    701.3237      5.8651
  2026.7500     63.7778      0.0000    722.1870      5.7246
  2027.0000     61.9050      0.0000    736.5872      5.6813
  2027.2500     60.9423      0.0000    744.9562      5.6952
  2027.5000     61.2557      2.4898    747.4884      5.7342
  2027.7500     63.3518      0.0000    743.1817      5.8070
  2028.0000     66.6774      0.0000    732.8863      5.9636
  2028.2500     69.2971      0.0000    719.8534      6.2465
  2028.5000     69.1545      0.0000    706.2258      6.6136
  2028.7500     65.8801      0.0000    691.3939      6.9305
  2029.0000     61.1820      0.0000    674.6206      7.0878
  2029.2500     57.2500      0.0000    657.2902      7.1021
  2029.5000     55.0001      0.0000    641.6492      7.0662
  2029.7500     54.0434      0.0000    628.4404      7.0392
  2030.0000     53.8531      0.0000    616.5384      7.0211
  2030.2500     54.4464      0.0000    604.5828      6.9980
  2030.5000     56.1643      0.0000    592.7164      6.9721
  2030.7500     59.3821      0.0000    582.8528      6.9557
  2031.0000     64.5091      0.0000    577.3339      6.9569
  2031.2500     71.7969      0.0000    577.3352      6.9758
  2031.5000     80.6682      0.0000    582.2881      7.0091
  2031.7500     89.2343      0.0000    590.4015      7.0569
  2032.0000     94.9793      0.0000    599.5975      7.1246
  2032.2500     96.4233      0.0000    608.3531      7.2196
  2032.5000     94.1935      0.0000    616.0556      7.3468
  2032.7500     90.4331      0.0000    622.7383      7.5063
  2033.0000     87.1626      0.0000    628.5493      7.6912
  2033.2500     85.0265      0.0000    633.5028      7.8885
  2033.5000     83.3637      0.0000    637.4847      8.0823
  2033.7500     81.3593      0.0000    640.2209      8.2585
  2034.0000     79.0182      0.0000    641.4816      8.4084
  2034.2500     77.0865      0.0000    641.4860      8.5293
  2034.5000     76.3578      0.0000    640.9222      8.6212
  2034.7500     77.1385      0.0000    640.4266      8.6834
  2035.0000     78.9653      0.0000    640.2000      8.7134
  2035.2500     80.5423      0.0000    640.1201      8.7090
  2035.5000     80.2506      0.0000    640.0524      8.6699
  2035.7500     77.1784      0.0000    639.9946      8.5979
  2036.0000     71.7529      0.0000    640.0125      8.4955
  2036.2500     65.3411      0.0000    640.1313      8.3688
  2036.5000     59.3349      0.0000    640.3071      8.2325
  2036.7500     54.6151      0.0000    640.4834      8.1094
  2037.0000     51.5180      0.0000    640.6333      8.0209
  2037.2500     49.8822      0.0000    640.7515      7.9734
  2037.5000     49.1426      0.0000    640.8300      7.9560
  2037.7500     48.8169      0.0000    640.8560      7.9498
  2038.0000     49.1073      0.0000    640.8247      7.9380
  2038.2500     50.7420      0.0000    640.7478      7.9098
  2038.5000     53.9286      0.0000    640.6305      7.8594
  2038.7500     57.5585      0.0000    640.4296      7.7863
  2039.0000     59.6939      0.0000    640.0151      7.6965
  2039.2500     58.9516      0.0000    639.2132      7.6042
  2039.5000     55.5073      0.0000    638.0135      7.5310
  2039.7500     50.9378      0.0000    636.8115      7.4998
  2040.0000     47.2584      0.0000    636.2818      7.5239
  2040.2500     46.0837      0.0000    636.8077      7.6001
  2040.5000     48.4029      0.0000    638.0953      7.7113
  2040.7500     54.6851      0.0000    639.4767      7.8371
  2041.0000     64.7935      0.0000    640.4915      7.9643
  2041.2500     77.8890      0.0000    641.0856      8.0874
  2041.5000     92.7266      0.0000    641.4202      8.2044
  2041.7500    108.0888      0.0000    641.6653      8.3135
  2042.0000    122.7047      0.0000    641.9306      8.4171
  2042.2500    134.8217      0.0000    642.2506      8.5288
  2042.5000    142.3214      0.0000    642.5648      8.6684
  2042.7500    143.7086      0.0000    642.7402      8.8383
  2043.0000    139.1472      0.0000    642.6047      9.0027
  2043.2500    130.5235      0.0000    641.9279      9.0988
  2043.5000    120.4975      0.0000    640.3011      9.0783
  2043.7500    111.4510      0.0000    637.1985      8.9441
  2044.0000    105.0728      0.0000    632.6014      8.7493
  2044.2500    102.3426      0.0000    627.8401      8.5597
  2044.5000    103.3525      0.0000    625.4233      8.4101
  2044.7500    106.9492      0.0000    627.3788      8.2936
  2045.0000    110.6496      0.0000    633.5540      8.1886
  2045.2500    111.3178      0.0000    641.4386      8.0897
  2045.5000    106.7114      0.0000    647.4096      8.0145
  2045.7500     97.1591      0.0000    648.5386      7.9839
  2046.0000     85.6883      0.0000    644.1991      8.0009
  2046.2500     75.8808      0.0000    636.4220      8.0446
  2046.5000     69.3035      0.0000    628.4283      8.0820
  2046.7500     65.0723      0.0000    622.4599      8.0867
  2047.0000     61.5698      0.0000    618.7321      8.0554
  2047.2500     58.0951      0.0000    615.9088      8.0073
  2047.5000     55.0890      0.0000    612.1521      7.9683
  2047.7500     53.4512      0.0000    606.2011      7.9518
  2048.0000     53.7787      0.0000    598.4632      7.9524
  2048.2500     55.7715      0.0000    591.4445      7.9559
  2048.5000     58.1108      0.0000    588.4451      7.9539
  2048.7500     59.0534      0.0000    591.0950      7.9500
  2049.0000     57.3924      0.0000    598.1335      7.9531
  2049.2500     53.2035      0.0000    606.7893      7.9643
  2049.5000     48.0032      0.0000    615.1196      7.9749
  2049.7500     44.1837      0.0000    622.6727      7.9777
  2050.0000     43.9791      0.0000    629.2579      7.9781
  2050.2500     48.6089      0.0000    634.0699      7.9888
  2050.5000     58.0294      0.0000    636.5209      8.0184
  2050.7500     71.1880      0.0000    637.3012      8.0675
  2051.0000     86.4610      0.0000    637.8525      8.1320
  2051.2500    102.0098      0.0000    638.9767      8.2018
  2051.5000    116.1082      0.0000    640.4182      8.2611
  2051.7500    127.6785      0.0000    641.5240      8.2959
  2052.0000    136.6778      0.0000    641.8209      8.3024
  2052.2500    143.5130      0.0000    641.0588      8.2851
  2052.5000    147.8288      0.0000    639.1526      8.2496
  2052.7500    148.4298      0.0000    636.1834      8.2006
  2053.0000    144.9558      0.0000    632.1888      8.1451
  2053.2500    139.2618      0.0000    626.9843      8.0914
  2053.5000    134.4025      0.0000    620.7560      8.0431
  2053.7500    132.1908      0.0000    614.9631      7.9953
  2054.0000    132.2396      0.0000    611.7690      7.9422
  2054.2500    133.2614      0.0000    611.8724      7.8872
  2054.5000    134.3482      0.0000    613.4528      7.8393
  2054.7500    134.9476      0.0000    614.0031      7.8018
  2055.0000    134.7724      0.0000    612.8135      7.7673
  2055.2500    134.2321      0.0000    611.0225      7.7263
  2055.5000    134.3186      0.0000    609.8146      7.6747
  2055.7500    135.7669      0.0000    609.4867      7.6139
  2056.0000    138.4333      0.0000    609.9438      7.5471
  2056.2500    141.3273      0.0000    611.3579      7.4776
  2056.5000    143.1738      0.0000    614.3382      7.4122
  2056.7500    143.3374      0.0000    619.3743      7.3599
  2057.0000    142.3463      0.0000    625.7903      7.3260
  2057.2500    141.2978      0.0000    631.4952      7.3086
  2057.5000    140.7467      0.0000    634.2078      7.3008
  2057.7500    140.3823      0.0000    632.8483      7.2962
  2058.0000    139.7345      0.0000    627.7141      7.2912
  2058.2500    138.7676      0.0000    619.5536      7.2836
