~Version Information
VERS.                      2.0: CWLS Log ASCII Standard - VERSION 2.0
WRAP.                       NO: One line per depth step
~Well Information Block
STRT.FT               420.0000: 
STOP.FT              1528.5000: 
STEP.FT                 0.2500: 
NULL.                -999.2500: 
COMP.          Evergreen Operating Corporation: COMPANY
WELL.              Chase 21-10: WELL
FLD.           Purgatoire River: FIELD
LOC.           1122' FNL & 1544' FWL: LOCATION
PROV.                       CO: PROVINCE
CNTY.               Las Animas: COUNTRY
SRVC.                         : SERVICE COMPANY
DATE.          Sun May 23 21:20:45 2004: LOG DATE
UWI.           05 071 08006 00: UNIQUE WELL ID
~Curve Information Block
DEPT.FT            0 000 00 00: Depth
SN.Ohm-m                      : IEL Short Normal
SP.mV                         : IEL Spontaneous Potential
DIR.Ohm-m                     : IEL Induction Resistivity
GR.GAPI                       : Gamma Ray
~Parameter Information Block
~A  Depth        SN          SP         DIR          GR     
# ...
   554.0000   2000.0000   2038.0000     14.0074    146.8066
   554.2500   2000.0000   2038.0000     14.3730    145.3070
   554.5000   2000.0000   2038.0000     14.8706    142.9097
   554.7500   2000.0000   2038.0000     15.5007    141.1404
   555.0000   2000.0000   2038.0000     16.2332    138.7379
   555.2500   2000.0000   2038.0000     16.9996    137.7978
   555.5000   2000.0000   2038.0000     17.6912    137.4193
   555.7500   2000.0000   2038.0000     18.1738    136.9128
   556.0000   2000.0000   2038.0000     18.3274    132.6991
   556.2500   2000.0000   2038.0000     18.0957    125.8460
   556.5000   2000.0000   2038.0000     17.5128    108.9510
   556.7500   2000.0000   2038.0000     16.6825     94.8855
   557.0000   2000.0000   2038.0000     15.7281     74.1227
   557.2500   2000.0000   2038.0000     14.7490     62.8886
   557.5000   2000.0000   2038.0000     13.8034     52.5009
   557.7500   2000.0000   2038.0000     12.9151     50.6645
   558.0000   2000.0000   2038.0000     12.0888     55.9922
   558.2500   2000.0000   2038.0000     11.3237     64.4016
   558.5000   2000.0000   2038.0000     10.6197     81.4783
   558.7500   2000.0000   2038.0000      9.9780     93.5093
   559.0000   2000.0000   2038.0000      9.3997    109.3563
   559.2500   2000.0000   2038.0000      8.8861    117.7687
   559.5000   2000.0000   2038.0000      8.4395    127.3077
   559.7500   2000.0000   2038.0000      8.0628    131.7205
   560.0000   2000.0000   2038.0000      7.7586    135.3156
   560.2500   2000.0000   2038.0000      7.5271    135.9174
   560.5000   2000.0000   2038.0000      7.3655    135.5395
   560.7500   2000.0000   2038.0000      7.2694    135.5075
   561.0000   2000.0000   2038.0000      7.2350    136.7812
   561.2500   2000.0000   2038.0000      7.2613    138.2718
   561.5000   2000.0000   2038.0000      7.3502    140.2854
   561.7500   2000.0000   2038.0000      7.5052    140.9791
   562.0000   2000.0000   2038.0000      7.7289    141.0843
   562.2500   2000.0000   2038.0000      8.0220    140.8228
   562.5000   2000.0000   2038.0000      8.3822    140.0216
   562.7500   2000.0000   2038.0000      8.8050    138.9099
   563.0000   2000.0000   2038.0000      9.2835    136.1581
   563.2500   2000.0000   2038.0000      9.8077    134.1910
   563.5000   2000.0000   2038.0000     10.3636    132.7930
   563.7500   2000.0000   2038.0000     10.9342    133.4192
   564.0000   2000.0000   2038.0000     11.5041    135.7431
   564.2500   2000.0000   2038.0000     12.0643    136.9155
   564.5000   2000.0000   2038.0000     12.6151    135.9492
   564.7500   2000.0000   2038.0000     13.1636    132.8472
   565.0000   2000.0000   2038.0000     13.7186    125.0213
   565.2500   2000.0000   2038.0000     14.2880    118.8614
   565.5000   2000.0000   2038.0000     14.8786    110.8048
   565.7500   2000.0000   2038.0000     15.4954    107.4505
   566.0000   2000.0000   2038.0000     16.1342    106.3258
   566.2500   2000.0000   2038.0000     16.7708    108.0030
   566.5000   2000.0000   2038.0000     17.3533    112.9924
   566.7500   2000.0000   2038.0000     17.8112    116.8378
   567.0000   2000.0000   2038.0000     18.0833    120.9855
   567.2500   2000.0000   2038.0000     18.1489    121.6174
   567.5000   2000.0000   2038.0000     18.0372    119.2626
   567.7500   2000.0000   2038.0000     17.8087    116.2571
   568.0000   2000.0000   2038.0000     17.5256    111.0235
   568.2500   2000.0000   2038.0000     17.2306    107.5648
   568.5000   2000.0000   2038.0000     16.9421    103.0257
   568.7500   2000.0000   2038.0000     16.6598    100.8239
   569.0000   2000.0000   2038.0000     16.3764     99.4613
   569.2500   2000.0000   2038.0000     16.0860    100.1174
   569.5000   2000.0000   2038.0000     15.7855    103.3759
   569.7500   2000.0000   2038.0000     15.4700    106.7316
   570.0000   2000.0000   2038.0000     15.1295    112.7934
   570.2500   2000.0000   2038.0000     14.7510    117.0163
   570.5000   2000.0000   2038.0000     14.3250    122.6120
   570.7500   2000.0000   2038.0000     13.8525    125.5655
   571.0000   2000.0000   2038.0000     13.3480    129.8150
   571.2500   2000.0000   2038.0000     12.8381    133.6423
   571.5000   2000.0000   2038.0000     12.3550    141.5295
   571.7500   2000.0000   2038.0000     11.9295    147.1113
   572.0000   2000.0000   2038.0000     11.5855    152.8154
   572.2500   2000.0000   2038.0000     11.3377    153.7605
   572.5000   2000.0000   2038.0000     11.1926    151.7601
   572.7500   2000.0000   2038.0000     11.1511    149.6299
   573.0000   2000.0000   2038.0000     11.2110    147.4234
   573.2500   2000.0000   2038.0000     11.3679    147.1321
   573.5000   2000.0000   2038.0000     11.6146    148.1348
   573.7500   2000.0000   2038.0000     11.9408    149.0918
   574.0000   2000.0000   2038.0000     12.3336    149.7592
   574.2500   2000.0000   2038.0000     12.7809    149.3956
   574.5000   2000.0000   2038.0000     13.2751    147.5964
   574.7500   2000.0000   2038.0000     13.8150    145.3174
   575.0000   2000.0000   2038.0000     14.4038    139.4892
   575.2500   2000.0000   2038.0000     15.0431    133.9368
   575.5000   2000.0000   2038.0000     15.7258    124.5564
   575.7500   2000.0000   2038.0000     16.4308    119.0847
   576.0000   2000.0000   2038.0000     17.1236    113.9233
   576.2500   2000.0000   2038.0000     17.7616    112.3636
   576.5000   2000.0000   2038.0000     18.3022    110.7109
   576.7500   2000.0000   2038.0000     18.7094    108.8108
   577.0000   2000.0000   2038.0000     18.9549    104.4123
   577.2500   2000.0000   2038.0000     19.0188    101.3545
   577.5000   2000.0000   2038.0000     18.8937     98.7975
   577.7500   2000.0000   2038.0000     18.5921     99.3741
   578.0000   2000.0000   2038.0000     18.1491    103.9609
   578.2500   2000.0000   2038.0000     17.6145    108.9666
   578.5000   2000.0000   2038.0000     17.0377    117.7642
   578.7500   2000.0000   2038.0000     16.4571    123.4711
   579.0000   2000.0000   2038.0000     15.8956    130.5927
   579.2500   2000.0000   2038.0000     15.3630    134.2097
   579.5000   2000.0000   2038.0000     14.8597    138.2998
   579.7500   2000.0000   2038.0000     14.3835    140.3204
   580.0000   2000.0000   2038.0000     13.9346    142.2205
   580.2500   2000.0000   2038.0000     13.5178    142.7908
   580.5000   2000.0000   2038.0000     13.1406    143.5043
   580.7500   2000.0000   2038.0000     12.8080    144.4655
   581.0000   2000.0000   2038.0000     12.5204    146.0106
   581.2500   2000.0000   2038.0000     12.2744    145.7684
   581.5000   2000.0000   2038.0000     12.0652    141.9061
   581.7500   2000.0000   2038.0000     11.8893    137.6301
   582.0000   2000.0000   2038.0000     11.7443    131.8223
   582.2500   2000.0000   2038.0000     11.6280    130.0839
   582.5000   2000.0000   2038.0000     11.5377    131.5300
   582.7500   2000.0000   2038.0000     11.4696    134.3110
   583.0000   2000.0000   2038.0000     11.4207    138.5356
   583.2500   2000.0000   2038.0000     11.3906    140.1725
   583.5000   2000.0000   2038.0000     11.3824    140.5777
   583.7500   2000.0000   2038.0000     11.4018    140.1810
   584.0000   2000.0000   2038.0000     11.4531    139.8452
   584.2500   2000.0000   2038.0000     11.5357    139.9921
   584.5000   2000.0000   2038.0000     11.6424    140.3226
   584.7500   2000.0000   2038.0000     11.7603    140.2867
   585.0000   2000.0000   2038.0000     11.8769    139.7470
   585.2500   2000.0000   2038.0000     11.9859    139.2982
   585.5000   2000.0000   2038.0000     12.0914    138.6800
   585.7500   2000.0000   2038.0000     12.2060    137.8809
   586.0000   2000.0000   2038.0000     12.3447    135.1003
   586.2500   2000.0000   2038.0000     12.5195    132.3388
   586.5000   2000.0000   2038.0000     12.7377    128.7002
   586.7500   2000.0000   2038.0000     13.0043    127.8032
   587.0000   2000.0000   2038.0000     13.3244    129.3977
   587.2500   2000.0000   2038.0000     13.7025    131.9298
