~Version Information
VERS.                      2.0: CWLS Log ASCII Standard - VERSION 2.0
WRAP.                       NO: One line per depth step
~Well Information Block
STRT.FT               700.0000: 
STOP.FT              1869.5000: 
STEP.FT                 0.1000: 
NULL.                -999.2500: 
COMP.          Petrogulf Corporation: COMPANY
WELL.             State 16-24R: WELL
FLD.           Purgatorie River: FIELD
LOC.           541' FSL & 2371' FWL: LOCATION
PROV.                 Colorado: PROVINCE
CNTY.               Las Animas: COUNTRY
SRVC.                Patterson: SERVICE COMPANY
DATE.          Fri Aug 12 09:07:22 2005: LOG DATE
UWI.                071-08312 : UNIQUE WELL ID
~Curve Information Block
DEPT.FT            0 000 00 00: Depth
DCAL.in                       : CDL Caliper
RHOB.g/cc                     : CDL Bulk Density
RHOC.g/cc                     : CDL Density Correction
DPOR.pu                       : CDL Density Porosity
GR.GAPI                       : Gamma Ray
NPOR.pu                       : Neutron Porosity
~Parameter Information Block
~A  Depth       DCAL        RHOB        RHOC        DPOR         GR         NPOR    
# ...
  1228.0000      8.1319      2.3596      0.1038     17.6027    128.1634     33.0079
  1228.1000      8.1319      2.2976      0.0039     21.3583    131.2038     32.8151
  1228.2000      8.1319      2.2453      0.0169     24.5287    139.5215     32.7512
  1228.3000      8.1380      2.2153     -0.0069     26.3448    147.9719     32.7793
  1228.4000      8.1380      2.2045      0.0076     26.9984    152.0181     32.8472
  1228.5000      8.1185      2.2073     -0.0051     26.8321    154.5208     32.7680
  1228.6000      8.1185      2.2176      0.0181     26.2052    161.3183     32.4654
  1228.7000      8.1185      2.2279      0.0650     25.5832    170.9243     32.2058
  1228.8000      8.1445      2.2333      0.0763     25.2558    177.2756     32.4933
  1228.9000      8.1445      2.2344      0.1027     25.1895    178.0812     33.1251
  1229.0000      8.1746      2.2314      0.0767     25.3673    174.0270     33.3273
  1229.1000      8.1746      2.2251      0.0501     25.7495    165.6941     33.2187
  1229.2000      8.1746      2.2164      0.0277     26.2775    155.0617     33.4571
  1229.3000      8.1454      2.2107     -0.0133     26.6215    145.8095     34.0951
  1229.4000      8.1454      2.2194      0.0071     26.0965    139.4490     34.6843
  1229.5000      8.1681      2.2474      0.0225     24.4009    135.3257     34.8143
  1229.6000      8.1681      2.2847      0.0787     22.1403    131.0243     34.4963
  1229.7000      8.1681      2.3184      0.0743     20.0949    124.8884     34.0447
  1229.8000      8.2572      2.3538      0.0843     17.9493    118.7765     33.5010
  1229.9000      8.2572      2.3963      0.1086     15.3753    113.2613     32.9774
  1230.0000      8.2133      2.4339      0.1169     13.0939    106.3494     32.6886
  1230.1000      8.2133      2.4628      0.1155     11.3476    101.2621     32.5892
  1230.2000      8.2133      2.4918      0.1595      9.5853    101.4444     32.5557
  1230.3000      8.3247      2.5165      0.2142      8.0924    102.1220     32.3172
  1230.4000      8.3247      2.5205      0.1971      7.8493     99.2163     31.7875
  1230.5000      8.3251      2.5032      0.1751      8.8996     95.6918     31.4612
  1230.6000      8.3251      2.4847      0.0984     10.0202     93.9405     31.5890
  1230.7000      8.3251      2.4827      0.1395     10.1416     92.5005     31.3647
  1230.8000      8.1689      2.4913      0.1292      9.6197     91.5750     30.3907
  1230.9000      8.1689      2.4967      0.1344      9.2919     93.0751     29.5428
  1231.0000      8.1496      2.4974      0.1190      9.2509     96.2361     29.4947
  1231.1000      8.1496      2.4991      0.1265      9.1427     98.5187     29.7597
  1231.2000      8.1496      2.5047      0.1301      8.8035     98.9801     29.6535
  1231.3000      8.2014      2.5159      0.1078      8.1253     99.2987     29.3551
  1231.4000      8.2014      2.5335      0.1556      7.0612    100.4717     29.3108
  1231.5000      8.1447      2.5508      0.1611      6.0117    101.0310     29.5549
  1231.6000      8.1447      2.5570      0.1374      5.6358    100.0419     29.9509
  1231.7000      8.1447      2.5448      0.1307      6.3768     99.5726     30.4555
  1231.8000      8.1485      2.5156      0.1236      8.1428    100.6521     30.9313
  1231.9000      8.1485      2.4837      0.0736     10.0777    100.6878     31.1727
  1232.0000      8.2063      2.4652      0.0753     11.2011    100.8326     31.0539
  1232.1000      8.2063      2.4644      0.0783     11.2514    103.1788     30.7024
  1232.2000      8.2063      2.4778      0.0602     10.4359    104.3651     30.2745
  1232.3000      8.1582      2.4992      0.0667      9.1411    102.8972     29.8429
  1232.4000      8.1582      2.5202      0.1254      7.8659    101.3896     29.7406
  1232.5000      8.1281      2.5401      0.1037      6.6580    100.3406     30.0166
  1232.6000      8.1281      2.5677      0.1725      4.9853     99.7271     30.1728
  1232.7000      8.1281      2.6027      0.2165      2.8668     99.7411     29.9936
  1232.8000      8.2503      2.6257      0.2458      1.4729     99.8017     30.0350
  1232.9000      8.2503      2.6170      0.2428      1.9981     99.3715     30.7126
  1233.0000      8.1922      2.5831      0.1843      4.0542     98.3755     31.4416
  1233.1000      8.1922      2.5533      0.1047      5.8614     97.0204     31.5554
  1233.2000      8.1922      2.5452      0.1268      6.3487     96.5431     31.2734
  1233.3000      8.2368      2.5467      0.1468      6.2582     98.8187     31.1672
  1233.4000      8.2368      2.5361      0.1643      6.9011    101.8940     31.2166
  1233.5000      8.3314      2.5079      0.1132      8.6106    101.2249     30.9918
  1233.6000      8.3314      2.4748      0.0809     10.6171     97.9756     30.5706
  1233.7000      8.3314      2.4507      0.0289     12.0803     98.0080     30.4010
  1233.8000      8.2500      2.4395      0.0267     12.7559    100.9535     30.3893
  1233.9000      8.2500      2.4387      0.0130     12.8048    102.1169     30.1813
  1234.0000      8.2768      2.4473      0.0162     12.2835    101.4067     29.8746
  1234.1000      8.2768      2.4628      0.0412     11.3427    101.5353     29.8019
  1234.2000      8.2768      2.4788      0.0439     10.3769    101.5503     30.0179
  1234.3000      8.4063      2.4934      0.0412      9.4898    100.4093     30.2457
  1234.4000      8.4063      2.5079      0.0552      8.6142     99.2303     30.3231
  1234.5000      8.3937      2.5181      0.0674      7.9946     96.7834     30.5140
  1234.6000      8.3937      2.5232      0.0361      7.6874     92.5427     30.9894
  1234.7000      8.3937      2.5258      0.0752      7.5291     89.5418     31.2268
  1234.8000      8.4190      2.5228      0.0671      7.7085     89.1487     30.8448
  1234.9000      8.4190      2.5196      0.0081      7.9011     89.2979     30.2007
  1235.0000      8.4454      2.5284      0.0311      7.3695     88.5052     29.5998
  1235.1000      8.4454      2.5463      0.0549      6.2859     87.8247     29.1692
  1235.2000      8.4454      2.5585      0.1074      5.5441     88.1708     28.9844
  1235.3000      8.4703      2.5561      0.0924      5.6907     89.2597     28.8476
  1235.4000      8.4703      2.5416      0.0963      6.5703     90.3801     28.5634
  1235.5000      8.3283      2.5244     -0.0008      7.6148     91.6452     28.1605
  1235.6000      8.3283      2.5139      0.0275      8.2504     93.2360     27.8974
  1235.7000      8.3283      2.5130      0.0104      8.3048     93.7057     28.0350
  1235.8000      8.2787      2.5199      0.0413      7.8842     93.0249     28.2810
  1235.9000      8.2787      2.5290      0.0420      7.3350     92.7213     28.2603
  1236.0000      8.3091      2.5365      0.0555      6.8794     92.4368     28.0736
  1236.1000      8.3091      2.5430      0.0590      6.4855     91.2928     27.8415
  1236.2000      8.3091      2.5446      0.0549      6.3887     90.2419     27.4829
  1236.3000      8.2772      2.5337      0.0638      7.0484     90.4373     27.0518
  1236.4000      8.2772      2.5150      0.0242      8.1792     91.3361     26.7590
  1236.5000      8.1459      2.5079     -0.0049      8.6107     92.8308     26.5314
  1236.6000      8.1459      2.5162      0.0577      8.1087     94.4670     26.2147
  1236.7000      8.1459      2.5195      0.0751      7.9081     95.2670     25.8432
  1236.8000      8.1229      2.5084      0.0113      8.5836     94.8984     25.3552
  1236.9000      8.1229      2.4977     -0.0048      9.2284     93.1340     25.2058
  1237.0000      8.0855      2.4975      0.0322      9.2404     92.6626     25.7041
  1237.1000      8.0855      2.4989      0.0194      9.1605     95.7589     26.1981
  1237.2000      8.0855      2.4939      0.0553      9.4596    100.5053     26.3639
  1237.3000      8.0391      2.4878      0.0193      9.8316    104.3568     26.5530
  1237.4000      8.0391      2.4879      0.0482      9.8264    105.9271     27.0524
  1237.5000      8.0362      2.4904      0.0707      9.6717    105.7632     27.7697
