~Version Information
VERS.                      2.0: CWLS Log ASCII Standard - VERSION 2.0
WRAP.                       NO: One line per depth step
~Well Information Block
STRT.FT               710.0000: 
STOP.FT              2921.0000: 
STEP.FT                 0.1000: 
NULL.                -999.2500: 
COMP.          Petrogulf Corporation: COMPANY
WELL.            Montoya 1-41V: WELL
FLD.           Purgatorie River: FIELD
LOC.           610' FNL & 1205' FEL: LOCATION
PROV.                 Colorado: PROVINCE
CNTY.               Las Animas: COUNTRY
SRVC.                Patterson: SERVICE COMPANY
DATE.          Mon Aug 22 07:54:27 2005: LOG DATE
UWI.                          : UNIQUE WELL ID
~Curve Information Block
DEPT.FT            0 000 00 00: Depth
DCAL.in                       : CDL Caliper
RHOB.g/cc                     : CDL Bulk Density
RHOC.g/cc                     : CDL Density Correction
DPOR.pu                       : CDL Density Porosity
GR.GAPI                       : Gamma Ray
NPOR.pu                       : Neutron Porosity
~Parameter Information Block
~A  Depth       DCAL        RHOB        RHOC        DPOR         GR         NPOR    
# ...
  1151.6000      8.1063      2.5639      0.0933      5.2153    156.2125     27.6867
  1151.7000      8.1063      2.5626      0.0865      5.2945    153.9941     27.4892
  1151.8000      8.1097      2.5531      0.0926      5.8749    154.2354     27.2252
  1151.9000      8.1097      2.5362      0.0506      6.8956    156.8059     27.0488
  1152.0000      8.1241      2.5225      0.0723      7.7262    159.6420     26.9060
  1152.1000      8.1241      2.5191      0.0963      7.9346    162.1764     26.6414
  1152.2000      8.1241      2.5307      0.0840      7.2320    163.1697     26.2153
  1152.3000      8.1404      2.5547      0.1282      5.7742    161.2251     25.8415
  1152.4000      8.1404      2.5691      0.1585      4.9030    156.0604     25.7543
  1152.5000      8.1373      2.5573      0.1142      5.6184    149.8305     25.8960
  1152.6000      8.1373      2.5331      0.0931      7.0844    146.4898     26.2451
  1152.7000      8.1373      2.5201      0.1035      7.8745    146.1732     26.8376
  1152.8000      8.1540      2.5285      0.1217      7.3662    144.6863     27.3705
  1152.9000      8.1540      2.5550      0.1170      5.7564    140.7548     27.5920
  1153.0000      8.1431      2.5851      0.1173      3.9354    137.4786     27.7388
  1153.1000      8.1431      2.6041      0.1435      2.7848    137.4795     27.8910
  1153.2000      8.1431      2.6100      0.1372      2.4271    140.5930     27.8234
  1153.3000      8.1458      2.6067      0.1514      2.6242    144.2578     27.5095
  1153.4000      8.1458      2.5976      0.1306      3.1738    145.9670     27.0998
  1153.5000      8.1297      2.5895      0.0957      3.6680    146.7954     26.7472
  1153.6000      8.1297      2.5828      0.1210      4.0743    149.9377     26.5105
  1153.7000      8.1297      2.5690      0.0628      4.9091    153.6962     26.3213
  1153.8000      8.1093      2.5510      0.0233      5.9975    154.6747     26.0769
  1153.9000      8.1093      2.5400      0.0555      6.6661    153.4655     25.8593
  1154.0000      8.1067      2.5365      0.0532      6.8763    150.6317     25.8313
  1154.1000      8.1067      2.5314      0.0704      7.1876    148.8519     25.9162
  1154.2000      8.1067      2.5163      0.0476      8.1029    151.9629     25.9786
  1154.3000      8.1177      2.4959      0.0392      9.3368    157.5834     25.9836
  1154.4000      8.1177      2.4832      0.0165     10.1117    160.6133     25.9652
  1154.5000      8.1365      2.4829      0.0466     10.1279    160.4984     26.0648
  1154.6000      8.1365      2.4882      0.0533      9.8064    159.5674     26.3014
  1154.7000      8.1365      2.4889      0.1141      9.7614    158.2097     26.5220
  1154.8000      8.1608      2.4854      0.1359      9.9733    154.8061     26.6574
  1154.9000      8.1608      2.4901      0.1089      9.6892    149.8155     26.7540
  1155.0000      8.1520      2.5145      0.1458      8.2092    145.3401     26.8935
  1155.1000      8.1520      2.5629      0.1639      5.2782    141.6387     27.0686
  1155.2000      8.1520      2.6301      0.1740      1.2053    138.8204     27.1717
  1155.3000      8.1298      2.6933      0.2695     -2.6229    137.0324     27.1927
  1155.4000      8.1298      2.7256      0.2591     -4.5838    134.4644     27.2104
  1155.5000      8.1253      2.7288      0.2239     -4.7741    130.7744     27.2404
  1155.6000      8.1253      2.7174      0.2597     -4.0828    127.7690     27.1774
  1155.7000      8.1253      2.6956      0.1480     -2.7644    125.7786     27.0769
  1155.8000      8.1103      2.6740      0.1140     -1.4523    123.9482     27.0847
  1155.9000      8.1103      2.6653      0.0909     -0.9260    121.7772     27.1962
  1156.0000      8.0844      2.6680      0.0659     -1.0936    119.1840     27.3629
  1156.1000      8.0844      2.6701      0.1053     -1.2174    115.8214     27.4952
  1156.2000      8.0844      2.6625      0.0770     -0.7583    111.6551     27.4711
  1156.3000      8.0794      2.6481      0.0875      0.1133    108.3185     27.2737
  1156.4000      8.0794      2.6348      0.0449      0.9207    108.0626     26.9168
  1156.5000      8.1046      2.6312      0.0312      1.1400    109.3051     26.4196
  1156.6000      8.1046      2.6383      0.0698      0.7113    109.4249     26.0706
  1156.7000      8.1046      2.6432      0.0951      0.4142    109.5335     26.0101
  1156.8000      8.1155      2.6315      0.0879      1.1195    110.7458     25.8654
  1156.9000      8.1155      2.6064      0.0379      2.6441    112.3499     25.5687
  1157.0000      8.1150      2.5872      0.0193      3.8065    113.4723     25.4869
  1157.1000      8.1150      2.5824      0.0712      4.0956    113.1956     25.5307
  1157.2000      8.1150      2.5839      0.0682      4.0076    112.0673     25.4239
  1157.3000      8.1197      2.5855      0.0679      3.9102    110.4883     25.2299
  1157.4000      8.1197      2.5850      0.0672      3.9415    107.6595     25.1320
  1157.5000      8.0996      2.5828      0.0618      4.0706    103.0770     25.2188
  1157.6000      8.0996      2.5877      0.0657      3.7752     97.6599     25.2778
  1157.7000      8.0996      2.6052      0.0756      2.7167     95.9295     25.1470
  1157.8000      8.0930      2.6238      0.1489      1.5860    100.0191     25.0091
  1157.9000      8.0930      2.6318      0.1123      1.1033    105.1767     24.9470
  1158.0000      8.0733      2.6356      0.1512      0.8709    107.7740     24.9769
  1158.1000      8.0733      2.6383      0.1473      0.7101    108.5733     25.1763
  1158.2000      8.0733      2.6353      0.0699      0.8891    108.2622     25.3645
  1158.3000      8.0603      2.6314      0.0903      1.1297    107.4285     25.3576
  1158.4000      8.0603      2.6307      0.1252      1.1724    106.4463     25.2256
  1158.5000      8.0448      2.6281      0.0783      1.3271    105.9471     24.9114
  1158.6000      8.0448      2.6161      0.0768      2.0523    107.6287     24.4422
  1158.7000      8.0448      2.5953      0.0693      3.3128    110.5332     24.2042
  1158.8000      8.0814      2.5789      0.0085      4.3098    112.4181     24.3444
  1158.9000      8.0814      2.5818      0.0319      4.1319    115.0814     24.5234
  1159.0000      8.0927      2.6027      0.0716      2.8665    121.4780     24.5561
  1159.1000      8.0927      2.6261      0.0712      1.4492    129.6306     24.6364
  1159.2000      8.0927      2.6372      0.0923      0.7730    135.7156     24.8691
  1159.3000      8.0739      2.6281      0.0944      1.3291    140.1819     25.1948
  1159.4000      8.0739      2.6054      0.0791      2.7052    144.7425     25.6849
  1159.5000      8.0903      2.5932      0.0472      3.4404    147.9494     26.3187
  1159.6000      8.0903      2.6053      0.0926      2.7083    147.6296     26.9177
  1159.7000      8.0903      2.6233      0.1208      1.6170    147.3482     27.3935
  1159.8000      8.1089      2.6276      0.0899      1.3560    151.5513     27.6957
  1159.9000      8.1089      2.6271      0.0804      1.3881    156.3580     27.8225
  1160.0000      8.1070      2.6313      0.0954      1.1335    157.1763     27.8400
  1160.1000      8.1070      2.6282      0.0850      1.3198    156.1992     27.9362
  1160.2000      8.1070      2.6115      0.0572      2.3357    155.5809     28.1964
  1160.3000      8.1123      2.5978      0.0483      3.1641    154.8438     28.4175
  1160.4000      8.1123      2.6040      0.0710      2.7879    151.5272     28.5080
  1160.5000      8.0989      2.6245      0.1177      1.5456    143.9285     28.4391
  1160.6000      8.0989      2.6396      0.1118      0.6298    135.4313     28.2356
  1160.7000      8.0989      2.6376      0.0858      0.7508    129.6677     28.1557
  1160.8000      8.0977      2.6223      0.0726      1.6798    126.4311     28.1462
  1160.9000      8.0977      2.6010      0.0390      2.9685    124.3406     27.8484
  1161.0000      8.1036      2.5777      0.0361      4.3827    122.3328     27.4012
  1161.1000      8.1036      2.5655     -0.0532      5.1234    120.4834     27.1804
