~Version Information
VERS.                      2.0: CWLS Log ASCII Standard - VERSION 2.0
WRAP.                       NO: One line per depth step
~Well Information Block
STRT.FT                -7.0000: 
STOP.FT               867.2500: 
STEP.FT                 0.2500: 
NULL.                -999.2500: 
COMP.          Pioneer Natural Resources: COMPANY
WELL.          Claim Jumper 41-22: WELL
FLD.           Purgatorie River: FIELD
LOC.           1120' FNL & 977' FEL--: LOCATION
PROV.                       CO: PROVINCE
CNTY.               Las Animas: COUNTRY
SRVC.          Patterson Wireline: SERVICE COMPANY
DATE.          Mon Jun 27 12:47:30 2005: LOG DATE
UWI.           05 071 08405 00: UNIQUE WELL ID
~Curve Information Block
DEPT.FT            0 000 00 00: Depth
CCL.                          : Casing Collar Locator
TT3.usec                      : CBL 3' Travel Time
AMP3.mV                       : CBL 3' Amplitude
GR.GAPI                       : Gamma Ray
~Parameter Information Block
~A  Depth       CCL         TT3         AMP3         GR     
# ...
   395.0000      0.0000    743.7842      7.7016    109.5396
   395.2500      0.0000    738.3912      7.7247    109.6994
   395.5000      0.0000    733.1083      7.7635    111.4303
   395.7500      0.0000    727.6364      7.8090    113.1019
   396.0000      0.0000    721.7756      7.8448    113.9713
   396.2500      0.0000    716.1973      7.8565    115.0153
   396.5000      0.0000    711.6926      7.8375    117.6333
   396.7500      0.0000    708.1865      7.7894    121.8091
   397.0000      0.0000    705.0449      7.7233    125.7920
   397.2500      0.0000    702.0786      7.6596    127.5251
   397.5000      0.0000    699.7161      7.6204    126.2281
   397.7500      0.0000    698.3127      7.6176    122.5839
   398.0000      0.0000    697.7546      7.6478    117.7186
   398.2500      0.0000    697.7357      7.6998    112.2422
   398.5000      0.0000    698.1963      7.7631    106.0344
   398.7500      0.0000    699.3732      7.8300     98.7374
   399.0000      0.0000    701.3602      7.8910     90.5546
   399.2500      0.0000    703.6636      7.9362     82.5608
   399.5000      0.0000    705.5234      7.9598     76.1065
   399.7500      0.0000    706.9125      7.9635     72.0876
   400.0000      0.0000    708.8001      7.9527     71.0215
   400.2500      0.0000    711.9973      7.9278     73.4135
   400.5000      0.0000    716.1125      7.8828     79.3173
   400.7500      0.0000    720.1542      7.8152     87.4693
   401.0000      0.0000    723.7626      7.7366     95.4773
   401.2500      0.0000    727.2234      7.6693    101.1609
   401.5000      0.0000    730.6228      7.6338    103.6216
   401.7500      0.0000    733.7040      7.6365    103.1332
   402.0000      0.0000    736.5270      7.6659    100.3324
   402.2500      0.0000    739.8118      7.6981     95.6470
   402.5000      0.0000    744.4252      7.7134     89.6053
   402.7500      0.0000    750.4147      7.7105     83.5229
   403.0000      0.0000    756.4847      7.7010     79.1641
   403.2500      0.0000    760.6075      7.6945     77.2758
   403.5000      0.0000    761.5184      7.6947     76.8699
   403.7500      0.0000    759.8645      7.7070     76.3640
   404.0000      0.0000    757.8587      7.7363     75.1475
   404.2500      0.0000    757.4959      7.7805     73.7240
   404.5000      0.0000    758.9490      7.8325     72.5760
   404.7500      0.0000    760.9097      7.8893     71.3300
   405.0000      0.0000    762.4086      7.9531     69.2964
   405.2500      0.0000    763.7486      8.0254     66.7126
   405.5000      0.0000    765.5286      8.1027     64.8737
   405.7500      0.0000    767.3331      8.1770     64.6165
   406.0000      0.0000    767.7096      8.2407     65.0930
   406.2500      0.0000    765.1838      8.2911     64.6823
   406.5000      0.0000    759.6019      8.3305     62.8933
   406.7500      0.0000    753.0343      8.3611     60.6673
   407.0000      0.0000    748.6862      8.3764     58.9643
   407.2500      0.0000    747.0961      8.3516     57.8589
   407.5000      0.0000    743.9125      8.2388     57.0680
   407.7500      0.0000    735.0417      7.9918     56.7005
   408.0000      0.0000    725.5327      7.6222     57.3127
   408.2500      0.0000    729.0486      7.2256     59.4289
   408.5000      0.0000    754.1179      6.9178     62.7655
   408.7500      0.0000    793.1088      6.7408     65.8610
   409.0000      0.0000    828.6223      6.6537     66.9730
   409.2500      0.0000    848.9803      6.5998     65.5587
   409.5000      0.0000    854.9190      6.5464     62.6336
   409.7500      0.0000    854.3313      6.4749     59.7941
   410.0000     -2.0000    854.4153      6.3751     58.1695
   410.2500      0.0000    857.6587      6.2543     58.0074
   410.5000      0.0000    861.8922      6.1462     58.6693
   410.7500      0.0000    862.9852      6.1160     58.9864
   411.0000      0.0000    858.4822      6.2428     58.0306
   411.2500      0.0000    849.5291      6.5532     55.7962
   411.5000      0.0000    839.6449      6.9671     53.2085
   411.7500      0.0000    831.5761      7.3425     51.5732
   412.0000      0.0000    825.4292      7.5797     51.9060
   412.2500      0.0000    819.7157      7.6636     54.4793
   412.5000      0.0000    813.5887      7.6286     58.8759
   412.7500      0.0000    807.7368      7.5174     64.4983
   413.0000      0.0000    803.5280      7.3667     70.7887
   413.2500      0.0000    801.6024      7.2060     76.7765
   413.5000      0.0000    801.4732      7.0576     80.8585
   413.7500      0.0000    802.8402      6.9385     81.7350
   414.0000      0.0000    806.6760      6.8579     79.7394
   414.2500      0.0000    813.7717      6.8110     76.9238
   414.5000      0.0000    822.7124      6.7823     75.5587
   414.7500      0.0000    830.6878      6.7561     76.4081
   415.0000      0.0000    836.1108      6.7259     78.3898
   415.2500      0.0000    839.6421      6.6930     79.8023
   415.5000      0.0000    843.0302      6.6602     79.6792
   415.7500      0.0000    847.4127      6.6283     78.0496
   416.0000      0.0000    852.3054      6.5970     75.4966
   416.2500      0.0000    855.8624      6.5657     72.9080
   416.5000      0.0000    856.3350      6.5322     71.2174
   416.7500      0.0000    853.1616      6.4933     70.7427
   417.0000      0.0000    846.0474      6.4481     70.7570
   417.2500      0.0000    833.2573      6.4002     70.0928
   417.5000      0.0000    812.4423      6.3584     68.3669
   417.7500      0.0000    784.3727      6.3323     66.5118
   418.0000      0.0000    755.2023      6.3283     65.9413
   418.2500      0.0000    733.9903      6.3446     67.1419
   418.5000      0.0000    727.8542      6.3726     69.1959
   418.7500      0.0000    738.4862      6.4006     70.7713
   419.0000      0.0000    760.5818      6.4188     71.4339
   419.2500      0.0000    782.5307      6.4215     71.6968
   419.5000      0.0000    791.5510      6.4081     71.9797
   419.7500      0.0000    781.8218      6.3828     72.2218
   420.0000      0.0000    758.4133      6.3538     72.5215
   420.2500      0.0000    732.5437      6.3313     73.3469
   420.5000      0.0000    713.0290      6.3246     74.9449
   420.7500      0.0000    702.1030      6.3405     77.1509
   421.0000      0.0000    697.4232      6.3782     79.7810
   421.2500      0.0000    695.8857      6.4266     82.6771
   421.5000      0.0000    695.5400      6.4672     85.4655
   421.7500      0.0000    695.5602      6.4843     87.7666
   422.0000      0.0000    695.6633      6.4739     89.5605
   422.2500      0.0000    695.7587      6.4448     90.9558
   422.5000      0.0000    695.8238      6.4111     91.7349
   422.7500      0.0000    695.8841      6.3851     91.4853
   423.0000      0.0000    695.9601      6.3743     90.2376
   423.2500      0.0000    695.9854      6.3802     88.7810
   423.5000      0.0000    695.8770      6.3973     88.1157
   423.7500      0.0000    696.0697      6.4123     88.3968
   424.0000      0.0000    698.5679      6.4108     88.6156
   424.2500      0.0000    707.4699      6.3863     87.7240
   424.5000      0.0000    726.9541      6.3456     85.9179
   424.7500      0.0000    756.6779      6.3045     84.2911
   425.0000      0.0000    788.8651      6.2782     83.2948
   425.2500      0.0000    811.7609      6.2740     82.0396
   425.5000      0.0000    818.0236      6.2910     79.3039
   425.7500      0.0000    810.9318      6.3244     75.0206
   426.0000      0.0000    802.4550      6.3669     70.4615
   426.2500      0.0000    803.9533      6.4070     66.8597
   426.5000      0.0000    817.5536      6.4315     64.2081
   426.7500      0.0000    836.3870      6.4348     61.5845
   427.0000      0.0000    852.2630      6.4242     58.2365
   427.2500      0.0000    861.7650      6.4154     54.1261
   427.5000      0.0000    866.0438      6.4206     49.8978
   427.7500      0.0000    867.5450      6.4403     46.6071
   428.0000      0.0000    867.9550      6.4667     45.0718
   428.2500      0.0000    868.0269      6.4915     45.1913
