~Version Information
VERS.                      2.0: CWLS Log ASCII Standard - VERSION 2.0
WRAP.                       NO: One line per depth step
~Well Information Block
STRT.FT               840.0000: 
STOP.FT              2450.0000: 
STEP.FT                 0.1000: 
NULL.                -999.2500: 
COMP.          Petrogulf Corporation: COMPANY
WELL.             Leier 17-42V: WELL
FLD.           Purgatorie River: FIELD
LOC.           2309' FNL & 1062' FEL SENE 17 33S 67W: LOCATION
PROV.                 Colorado: PROVINCE
CNTY.               Las Animas: COUNTRY
SRVC.                Patterson: SERVICE COMPANY
DATE.          Thu Sep 22 09:35:36 2005: LOG DATE
UWI.           071 08409 : UNIQUE WELL ID
~Curve Information Block
DEPT.FT            0 000 00 00: Depth
DCAL.in                       : CDL Caliper
RHOB.g/cc                     : CDL Bulk Density
RHOC.g/cc                     : CDL Density Correction
DPOR.pu                       : CDL Density Porosity
GR.GAPI                       : Gamma Ray
NPOR.pu                       : Neutron Porosity
~Parameter Information Block
~A  Depth       DCAL        RHOB        RHOC        DPOR         GR         NPOR    
# ...
  1800.0000      7.9412      2.5158      0.0489      8.1359     58.9283     18.1117
  1800.1000      7.9412      2.5149      0.1123      8.1892     53.8517     18.0844
  1800.2000      7.9412      2.5179      0.0708      8.0042     48.4569     18.0396
  1800.3000      7.9352      2.5229      0.0689      7.7023     45.8272     18.2029
  1800.4000      7.9352      2.5289      0.0706      7.3414     48.7301     18.5954
  1800.5000      7.9216      2.5349      0.0885      6.9777     53.9176     18.8276
  1800.6000      7.9216      2.5428      0.1023      6.4979     56.0614     18.6624
  1800.7000      7.9216      2.5499      0.1426      6.0678     54.0939     18.4083
  1800.8000      7.8496      2.5538      0.1077      5.8309     51.4930     18.3015
  1800.9000      7.8496      2.5603      0.0771      5.4335     51.1881     18.2997
  1801.0000      7.8621      2.5677      0.1067      4.9887     53.2396     18.3701
  1801.1000      7.8621      2.5651      0.1219      5.1466     56.3178     18.6050
  1801.2000      7.8621      2.5512      0.0699      5.9857     59.6962     18.9639
  1801.3000      7.8711      2.5207      0.0913      7.8369     62.5624     19.1958
  1801.4000      7.8711      2.4541      0.0365     11.8713     64.9555     19.2935
  1801.5000      7.8699      2.3564      0.0128     17.7954     68.2927     19.4581
  1801.6000      7.8699      2.2570     -0.0041     23.8196     72.7382     19.7258
  1801.7000      7.8699      2.1599     -0.0227     29.7028     76.4064     20.1389
  1801.8000      7.8620      2.0408     -0.0567     36.9224     77.3924     21.1208
  1801.9000      7.8620      1.8913     -0.1201     45.9844     77.6844     22.9149
  1802.0000      7.8695      1.7316     -0.0955     55.6593     79.5611     24.9917
  1802.1000      7.8695      1.5854     -0.1016     64.5231     80.9390     26.6599
  1802.2000      7.8695      1.4684     -0.1599     71.6142     80.5641     27.8723
  1802.3000      7.9801      1.3881     -0.1245     76.4766     79.0693     28.9596
  1802.4000      7.9801      1.3480     -0.0960     78.9110     76.3130     29.9999
  1802.5000      8.1190      1.3527      0.0160     78.6268     73.8308     30.9149
  1802.6000      8.1190      1.3953      0.0517     76.0451     73.1728     31.6663
  1802.7000      8.1190      1.4682      0.0497     71.6254     73.5147     32.2563
  1802.8000      8.0855      1.5810      0.0724     64.7903     73.9639     32.9350
  1802.9000      8.0855      1.7370      0.1083     55.3324     74.9783     33.6656
  1803.0000      8.0911      1.9091      0.1937     44.9041     79.6508     33.7850
  1803.1000      8.0911      2.0596      0.2698     35.7819     90.6087     33.1412
  1803.2000      8.0911      2.1842      0.3073     28.2308    103.7848     32.5155
  1803.3000      8.1050      2.3085      0.2842     20.6972    113.3498     32.2651
  1803.4000      8.1050      2.4289      0.2944     13.4020    119.0934     31.8993
  1803.5000      7.9605      2.5043      0.2054      8.8279    125.7535     31.2843
  1803.6000      7.9605      2.5315      0.0653      7.1811    135.7110     30.6878
  1803.7000      7.9605      2.5473      0.0659      6.2249    145.6860     30.1116
  1803.8000      7.9497      2.5649      0.0926      5.1581    152.5129     29.4042
  1803.9000      7.9497      2.5795      0.0438      4.2757    155.5960     28.5649
  1804.0000      7.9655      2.5886      0.0433      3.7228    156.6755     27.9188
  1804.1000      7.9655      2.5837      0.0266      4.0184    161.4389     27.5736
  1804.2000      7.9655      2.5672      0.0167      5.0174    174.1792     27.2082
  1804.3000      7.9528      2.5569      0.0353      5.6443    187.5368     26.7252
  1804.4000      7.9528      2.5592      0.0477      5.5014    191.6476     26.4714
  1804.5000      7.9316      2.5694      0.0549      4.8832    187.7122     26.5475
  1804.6000      7.9316      2.5834      0.0743      4.0340    180.4438     26.4286
  1804.7000      7.9316      2.6004      0.0767      3.0090    174.1906     25.9151
  1804.8000      7.9232      2.6160      0.1169      2.0605    173.8224     25.6223
  1804.9000      7.9232      2.6170      0.1026      1.9972    177.3590     25.8493
  1805.0000      7.9257      2.6048      0.0584      2.7405    179.0284     26.0415
  1805.1000      7.9257      2.5993      0.0480      3.0748    178.2527     25.9182
  1805.2000      7.9257      2.6017      0.0544      2.9263    177.8559     25.9888
  1805.3000      7.9360      2.5981      0.0190      3.1464    179.5717     26.4040
  1805.4000      7.9360      2.5916      0.0408      3.5370    180.4619     26.7719
  1805.5000      7.9417      2.5911      0.0323      3.5720    177.5409     26.8795
  1805.6000      7.9417      2.5930      0.0291      3.4568    172.8920     26.7217
  1805.7000      7.9417      2.5882      0.0678      3.7481    169.6927     26.3882
  1805.8000      7.9378      2.5789     -0.0053      4.3089    170.9610     25.9827
  1805.9000      7.9378      2.5797      0.0380      4.2612    175.5085     25.6806
  1806.0000      7.9433      2.5888      0.0779      3.7088    178.1941     25.6642
  1806.1000      7.9433      2.5924      0.0209      3.4880    176.8725     25.7946
  1806.2000      7.9433      2.5882      0.0319      3.7466    172.6399     25.8447
  1806.3000      7.9604      2.5837      0.0210      4.0197    167.4928     25.7297
  1806.4000      7.9604      2.5954     -0.0069      3.3085    164.2888     25.5127
  1806.5000      7.9700      2.6237      0.0565      1.5955    164.0016     25.3448
  1806.6000      7.9700      2.6404      0.0448      0.5826    166.3220     25.2581
  1806.7000      7.9700      2.6408     -0.0055      0.5590    172.4798     25.2095
  1806.8000      7.9746      2.6464      0.0453      0.2209    180.7847     25.3514
  1806.9000      7.9746      2.6570      0.0166     -0.4232    185.0716     25.8338
  1807.0000      7.9858      2.6549      0.0500     -0.2944    182.9243     26.5475
  1807.1000      7.9858      2.6347      0.0104      0.9282    178.5392     27.1509
  1807.2000      7.9858      2.6087     -0.0126      2.5000    173.6967     27.1307
  1807.3000      7.9826      2.5823     -0.0040      4.1005    166.6306     26.4767
  1807.4000      7.9826      2.5534     -0.0408      5.8551    160.4829     25.7652
  1807.5000      7.9706      2.5355     -0.0234      6.9423    159.0067     25.5371
  1807.6000      7.9706      2.5422     -0.0138      6.5358    160.2686     25.7477
  1807.7000      7.9706      2.5651      0.0739      5.1446    162.7644     25.7905
  1807.8000      7.9756      2.5869      0.0191      3.8233    166.8502     25.5260
  1807.9000      7.9756      2.5982      0.0537      3.1386    170.0738     25.3406
  1808.0000      7.9794      2.5967      0.0257      3.2303    169.5444     25.2522
  1808.1000      7.9794      2.5922      0.0656      3.5055    164.8413     24.8753
  1808.2000      7.9794      2.5939      0.0592      3.4025    157.3125     24.2652
  1808.3000      7.9792      2.5972      0.0587      3.2016    151.2638     24.0909
  1808.4000      7.9792      2.6006      0.0386      2.9937    150.0340     24.6278
  1808.5000      7.9810      2.6069      0.0675      2.6118    151.8194     25.4307
  1808.6000      7.9810      2.6032      0.0895      2.8391    154.6741     26.1222
  1808.7000      7.9810      2.5823      0.0102      4.1054    159.5579     26.7049
  1808.8000      7.9731      2.5662     -0.0179      5.0799    162.1412     27.1305
  1808.9000      7.9731      2.5749      0.0089      4.5513    155.5579     27.1705
  1809.0000      7.9691      2.6022     -0.0036      2.8987    145.1248     26.7660
  1809.1000      7.9691      2.6261      0.0800      1.4463    138.5438     26.0651
  1809.2000      7.9691      2.6374      0.0251      0.7647    134.4049     25.4241
  1809.3000      7.9457      2.6455      0.0583      0.2728    132.9843     25.1281
  1809.4000      7.9457      2.6534      0.0849     -0.2038    138.2647     25.0276
  1809.5000      7.9285      2.6573      0.1430     -0.4426    147.1385     25.1262
