~Version Information
 VERS.                                  2.0 : CWLS LAS VERSION
 WRAP.                                   NO : WRAPING MODE
 SWARE .                 MController 2.5.0E : SOFTWARE VERSION
~Well Information
 WELL.                          Lynch 43-30 : WELL
 COMP.        Pioneer Natural Resources Inc : COMPANY
 FLD.                      Purgatoire River : FIELD
 LOC.                NE/SE Sec 30 T32S R67W : LOCATION
 DATE.                             10/25/04 : DATE(S) LOGGED
 SRVC.       Blanco Geological services LLc : SERVICE COMPANY
 STAT.                                   CO : STATE
 CNTY.                           Las Animas : COUNTY
 CTRY.                                  USA : COUNTRY
 API.                       05-071-08170-00 : API NUMBER
 STRT.FT                             410.00 : START DEPTH
 STOP.FT                            2845.00 : STOP DEPTH
 STEP.FT                               1.00 : DEPTH INCREMENT
 NULL.                                -9999 : NULL VALUE
~Curve information
 DEPTH.FT                                   :
 ROP.MIN/FT                                 :
 GAS.UNITS                                  :
~ASCII Log data
# ...
     2410.00        0.233         37.1 
     2411.00        0.267         36.8 
     2412.00        0.267         36.4 
     2413.00        0.300         35.8 
     2414.00        0.300         35.1 
     2415.00        0.300         34.1 
     2416.00        0.350         35.7 
     2417.00        0.267         39.0 
     2418.00        0.233         41.2 
     2419.00        0.200         41.7 
     2420.00        0.267         41.6 
     2421.00        0.200         40.6 
     2422.00        0.233         37.8 
     2423.00        0.267         33.5 
     2424.00        0.267         27.7 
     2425.00        0.267         24.1 
     2426.00        4.017         73.4 
     2427.00        0.317         73.2 
     2428.00        0.333         71.4 
     2429.00        0.300         67.7 
     2430.00        0.267         61.1 
     2431.00        0.233         55.5 
     2432.00        0.200         52.3 
     2433.00        0.167         50.2 
     2434.00        0.167         49.7 
     2435.00        0.167         49.6 
     2436.00        0.200         49.8 
     2437.00        0.200         50.1 
     2438.00        0.200         49.3 
     2439.00        0.200         47.8 
     2440.00        0.233         46.6 
     2441.00        0.233         46.0 
     2442.00        0.350         46.0 
     2443.00        0.333         49.7 
     2444.00        0.200         55.9 
     2445.00        0.167         58.9 
     2446.00        0.167         59.4 
     2447.00        0.133         59.4 
     2448.00        0.133         58.7 
     2449.00        0.167         57.2 
     2450.00        0.200         54.4 
     2451.00        0.167         49.9 
     2452.00        0.200         45.6 
     2453.00        0.233         41.5 
     2454.00        0.167         36.0 
     2455.00        0.200         32.8 
     2456.00        3.083         98.9 
     2457.00        0.500        119.6 
     2458.00        0.333        123.5 
     2459.00        0.350        122.4 
     2460.00        0.367        110.4 
     2461.00        0.267         98.5 
     2462.00        0.300         89.2 
     2463.00        0.367         79.7 
     2464.00        0.433         69.6 
     2465.00        0.500         59.6 
     2466.00        0.500         51.7 
     2467.00        0.383         47.7 
     2468.00        0.367         45.9 
     2469.00        0.300         44.8 
     2470.00        0.333         44.0 
     2471.00        0.333         42.8 
     2472.00        0.333         40.8 
     2473.00        0.333         40.0 
     2474.00        0.300         39.2 
     2475.00        0.233         38.6 
     2476.00        0.300         37.9 
     2477.00        0.267         37.3 
     2478.00        0.350         42.5 
     2479.00        0.267         44.3 
     2480.00        0.267         45.2 
     2481.00        0.300         44.1 
     2482.00        0.300         41.7 
     2483.00        0.300         38.3 
     2484.00        0.333         32.6 
     2485.00        0.300         26.2 
     2486.00        3.917         74.2 
     2487.00        0.583         73.7 
     2488.00        0.400         66.6 
     2489.00        0.367         59.3 
     2490.00        0.433         52.8 
     2491.00        0.400         46.7 
     2492.00        0.367         43.3 
     2493.00        0.400         41.0 
     2494.00        0.267         38.8 
     2495.00        0.300         38.2 
     2496.00        0.333         37.5 
     2497.00        0.317         37.0 
     2498.00        0.333         36.2 
     2499.00        0.333         36.2 
     2500.00        0.300         35.9 
     2501.00        0.267         34.9 
     2502.00        0.433         34.4 
     2503.00        0.300         34.1 
     2504.00        0.233         33.7 
     2505.00        0.267         37.2 
     2506.00        0.267         40.3 
     2507.00        0.200         41.4 
     2508.00        0.183         42.4 
     2509.00        0.233         42.5 
     2510.00        0.233         42.5 
     2511.00        0.233         40.9 
     2512.00        0.200         36.9 
     2513.00        0.133         32.9 
     2514.00        0.200         30.7 
     2515.00        0.233         27.8 
     2516.00        3.983         69.8 
     2517.00        0.300         69.8 
     2518.00        0.300         67.9 
     2519.00        0.167         66.1 
     2520.00        0.133         65.9 
     2521.00        0.133         65.2 
     2522.00        0.250         64.4 
     2523.00        0.233         61.7 
     2524.00        0.267         59.4 
     2525.00        0.300         55.6 
     2526.00        0.300         51.6 
     2527.00        0.300         47.6 
     2528.00        0.367         45.6 
     2529.00        0.367         43.9 
     2530.00        0.333         42.8 
     2531.00        0.300         42.1 
     2532.00        0.300         40.7 
     2533.00        0.283         39.9 
     2534.00        0.300         38.4 
     2535.00        0.333         37.3 
     2536.00        0.333         38.7 
     2537.00        0.433         42.9 
     2538.00        0.333         44.8 
     2539.00        0.200         45.0 
     2540.00        0.167         44.8 
     2541.00        0.167         43.7 
     2542.00        0.200         40.8 
     2543.00        0.167         36.6 
     2544.00        0.267         33.1 
     2545.00        0.250         28.3 
     2546.00        5.217         78.0 
     2547.00        0.500         78.3 
     2548.00        0.300         75.1 
     2549.00        0.233         69.5 
     2550.00        0.233         64.9 
     2551.00        0.317         60.8 
     2552.00        0.333         54.8 
     2553.00        0.400         49.8 
     2554.00        0.333         41.9 
     2555.00        0.300         42.1 
     2556.00        0.300         41.2 
     2557.00        0.400         39.5 
     2558.00        0.367         38.2 
     2559.00        0.367         38.3 
     2560.00        0.300         39.2 
     2561.00        0.217         39.7 
     2562.00        0.233         39.4 
     2563.00        0.233         39.5 
     2564.00        0.200         39.3 
     2565.00        0.300         39.1 
     2566.00        0.300         38.1 
     2567.00        0.200         37.3 
     2568.00        0.300         37.0 
     2569.00        0.267         40.2 
     2570.00        0.300         42.1 
     2571.00        0.267         42.3 
     2572.00        0.333         41.1 
     2573.00        0.383         37.3 
     2574.00        0.367         30.1 
     2575.00        0.333         24.1 
     2576.00        3.717         79.4 
     2577.00        0.600         78.7 
     2578.00        0.500         70.3 
     2579.00        0.500         60.5 
     2580.00        0.433         53.5 
     2581.00        0.417         48.2 
     2582.00        0.400         43.9 
     2583.00        0.367         39.7 
     2584.00        0.433         37.6 
     2585.00        0.400         36.2 
     2586.00        0.400         35.0 
     2587.00        0.367         34.3 
     2588.00        0.367         33.9 
     2589.00        0.417         33.1 
     2590.00        0.433         32.3 
     2591.00        0.400         31.9 
     2592.00        0.400         33.1 
     2593.00        0.400         33.0 
     2594.00        0.400         31.5 
     2595.00        0.333         30.7 
     2596.00        0.467         33.2 
     2597.00        0.383         38.0 
     2598.00        0.200         40.9 
     2599.00        0.200         41.2 
     2600.00        0.233         41.5 
     2601.00        0.200         39.0 
     2602.00        0.267         35.0 
     2603.00        0.233         29.5 
     2604.00        0.167         26.8 
     2605.00        0.167         24.9 
     2606.00        4.050         94.2 
     2607.00        0.233        108.9 
     2608.00        0.233        123.0 
     2609.00        0.100        128.3 
