~Version Information
VERS.                      2.0: CWLS Log ASCII Standard - VERSION 2.0
WRAP.                       NO: One line per depth step
~Well Information Block
STRT.FT               488.0000: 
STOP.FT              1824.7000: 
STEP.FT                 0.1000: 
NULL.                -999.2500: 
COMP.          Pioneer Natural Resources: COMPANY
WELL.            Buckeye 11-13: WELL
FLD.           Purgatoire River: FIELD
LOC.           211' FNL & 1054' FWL: LOCATION
STAT.                 Colorado: State
CNTY.               Las Animas: COUNTY
CTRY. USA : Country
SECT. 13 : Section
TOWN. 33S : Township
RANG. 67W : Range
SRVC.                Patterson: SERVICE COMPANY
DATE.          Mon Mar 07 02:06:39 2005: LOG DATE
API.           05 071 08317 00: UNIQUE WELL ID
~Curve Information Block
DEPT.FT            0 000 00 00: Depth
DCAL.in                       : CDL Caliper
RHOB.g/cc                     : CDL Bulk Density
RHOC.g/cc                     : CDL Density Correction
DPOR.pu                       : CDL Density Porosity
GR.GAPI                       : Gamma Ray
NPOR.pu                       : Neutron Porosity
~Parameter Information Block
~A  Depth       DCAL        RHOB        RHOC        DPOR         GR         NPOR    
# ...
  1726.4000      7.9609      2.5300      0.0649      7.2753     94.9991     22.9280
  1726.5000      7.9762      2.5464      0.0574      6.2809     96.4394     23.3618
  1726.6000      7.9762      2.5561      0.0357      5.6936     96.1756     24.5641
  1726.7000      7.9762      2.5565      0.0344      5.6693     92.9245     25.1674
  1726.8000      7.9745      2.5485     -0.0210      6.1518     89.2599     24.7062
  1726.9000      7.9745      2.5394      0.0357      6.7024     87.4788     24.3211
  1727.0000      7.9809      2.5239      0.0394      7.6419     89.5097     24.7357
  1727.1000      7.9809      2.5007     -0.0236      9.0490     95.4729     24.9438
  1727.2000      7.9809      2.4894     -0.0451      9.7329    103.0681     24.6672
  1727.3000      7.9830      2.4952      0.0091      9.3839    108.4555     24.7223
  1727.4000      7.9830      2.4974      0.0262      9.2497    110.1753     24.9014
  1727.5000      7.9442      2.4872     -0.0175      9.8652    109.4511     24.6264
  1727.6000      7.9442      2.4737      0.0273     10.6824    107.9100     24.1455
  1727.7000      7.9442      2.4658     -0.0057     11.1623    106.0287     24.1099
  1727.8000      7.9474      2.4705      0.0039     10.8793    103.6142     24.7501
  1727.9000      7.9474      2.4863      0.0195      9.9182    100.6564     25.6676
  1728.0000      7.9511      2.5012      0.0145      9.0164     97.3355     26.2539
  1728.1000      7.9511      2.5038      0.0420      8.8624     96.0132     26.1089
  1728.2000      7.9511      2.5013     -0.0665      9.0124     97.3188     25.5370
  1728.3000      7.9730      2.5113      0.0041      8.4084    100.3840     24.8917
  1728.4000      7.9730      2.5257     -0.0031      7.5306    105.1986     24.0627
  1728.5000      7.9666      2.5272     -0.0036      7.4396    109.0557     23.1171
  1728.6000      7.9666      2.5173     -0.0259      8.0415    110.2829     22.4240
  1728.7000      7.9666      2.5028      0.0029      8.9201    110.6483     22.4068
  1728.8000      7.9657      2.4848     -0.0276     10.0123    109.9400     23.0629
  1728.9000      7.9657      2.4688     -0.0308     10.9807    108.3281     23.4780
  1729.0000      7.9583      2.4664     -0.0290     11.1253    109.5843     22.6571
  1729.1000      7.9583      2.4824      0.0213     10.1573    113.3009     21.5337
  1729.2000      7.9583      2.5033      0.0209      8.8933    116.7449     21.4623
  1729.3000      7.9587      2.5066      0.0314      8.6926    122.7488     22.1644
  1729.4000      7.9587      2.4889      0.0006      9.7640    128.7757     23.2448
  1729.5000      7.9476      2.4673      0.0101     11.0750    128.1290     24.3683
  1729.6000      7.9476      2.4513      0.0287     12.0425    125.8589     24.9684
  1729.7000      7.9476      2.4369     -0.0158     12.9146    129.1305     25.1617
  1729.8000      7.9406      2.4206     -0.0426     13.9012    131.4618     25.1150
  1729.9000      7.9406      2.4000     -0.0002     15.1526    127.5019     24.9655
  1730.0000      7.9397      2.3743     -0.0431     16.7108    123.2844     25.4140
  1730.1000      7.9397      2.3435     -0.0509     18.5786    122.8311     26.5031
  1730.2000      7.9397      2.2864      0.0001     22.0366    123.2416     27.5848
  1730.3000      7.9672      2.1792     -0.0554     28.5350    120.3726     28.5625
  1730.4000      7.9672      2.0437     -0.1135     36.7464    113.4339     29.1410
  1730.5000      7.9775      1.9275     -0.1069     43.7864    105.5455     28.8045
  1730.6000      7.9775      1.8566     -0.1621     48.0857     97.8727     28.2128
  1730.7000      7.9775      1.8358     -0.1449     49.3452     90.0270     28.2399
  1730.8000      7.9614      1.8667     -0.1314     47.4741     85.3210     28.5834
  1730.9000      7.9614      1.9455      0.0134     42.6976     84.2954     28.5498
  1731.0000      7.9503      2.0454      0.1455     36.6448     82.9914     28.6496
  1731.1000      7.9503      2.1323      0.1911     31.3787     80.9915     29.6840
  1731.2000      7.9503      2.2003      0.2128     27.2547     82.5941     30.4979
  1731.3000      7.9851      2.2643      0.2258     23.3749     90.2439     29.6419
  1731.4000      7.9851      2.3233      0.1827     19.8018     98.4036     28.1200
  1731.5000      8.0322      2.3645     -0.0065     17.3041    101.2446     27.3980
  1731.6000      8.0322      2.3924     -0.0837     15.6120    102.0919     27.1117
  1731.7000      8.0322      2.4091      0.0112     14.6009    106.2668     26.3829
  1731.8000      7.9512      2.4052     -0.0077     14.8353    113.0890     25.3699
  1731.9000      7.9512      2.3942     -0.0654     15.5005    118.1516     24.5834
  1732.0000      7.9506      2.3955      0.0029     15.4231    119.4882     24.0764
  1732.1000      7.9506      2.4049     -0.0241     14.8563    117.3587     23.8315
  1732.2000      7.9506      2.4154      0.0002     14.2206    111.8574     23.6088
  1732.3000      7.9482      2.4307     -0.0065     13.2927    104.1268     23.2169
  1732.4000      7.9482      2.4523      0.0427     11.9830     96.6246     23.1974
  1732.5000      7.9416      2.4751      0.0749     10.6024     93.7980     23.8833
  1732.6000      7.9416      2.4953      0.0835      9.3749     97.8810     24.8454
  1732.7000      7.9416      2.5125      0.1067      8.3329    102.9363     25.5513
  1732.8000      7.9071      2.5298      0.1247      7.2864    104.6352     25.3851
  1732.9000      7.9071      2.5476      0.2051      6.2067    107.3266     24.4789
  1733.0000      7.9254      2.5641      0.1300      5.2083    111.8637     23.8439
  1733.1000      7.9254      2.5821      0.1228      4.1178    114.3474     23.6787
  1733.2000      7.9254      2.5901      0.1746      3.6293    115.7127     23.6344
  1733.3000      7.9677      2.5753      0.1075      4.5289    116.8161     23.9421
  1733.4000      7.9677      2.5487      0.1161      6.1417    115.5861     24.2423
  1733.5000      8.0119      2.5309      0.0067      7.2171    112.2945     23.7885
  1733.6000      8.0119      2.5342      0.0371      7.0161    109.6829     23.2407
  1733.7000      8.0119      2.5476      0.0406      6.2047    110.0156     23.3526
  1733.8000      8.0303      2.5567      0.0229      5.6542    115.4699     23.8750
  1733.9000      8.0303      2.5565      0.0548      5.6659    122.2103     24.7755
  1734.0000      7.9991      2.5414      0.0258      6.5830    120.9632     26.1907
  1734.1000      7.9991      2.5177      0.0079      8.0201    113.2847     27.7714
  1734.2000      7.9991      2.5039     -0.0204      8.8543    109.0186     28.8499
  1734.3000      7.9926      2.5113     -0.0084      8.4076    111.7727     29.0155
  1734.4000      7.9926      2.5291      0.0223      7.3243    118.5956     28.1878
  1734.5000      7.9848      2.5330      0.0191      7.0906    123.8133     26.4536
  1734.6000      7.9848      2.5212     -0.0137      7.8066    123.8185     24.7232
  1734.7000      7.9848      2.5183     -0.0250      7.9796    120.8286     23.7577
  1734.8000      7.9862      2.5304      0.0400      7.2474    115.0667     23.4589
  1734.9000      7.9862      2.5372      0.0724      6.8383    107.0409     23.7216
  1735.0000      7.9888      2.5299      0.0236      7.2770    103.8646     24.1897
  1735.1000      7.9888      2.5199      0.0299      7.8871    108.5202     24.0888
  1735.2000      7.9888      2.5130      0.0506      8.3049    114.2143     23.7033
  1735.3000      7.9967      2.5095      0.0065      8.5148    115.8307     24.2543
  1735.4000      7.9967      2.5152     -0.0094      8.1671    114.9146     25.7288
  1735.5000      7.9642      2.5299      0.0458      7.2776    113.5433     26.5773
  1735.6000      7.9642      2.5458      0.0183      6.3123    113.0368     25.6278
  1735.7000      7.9642      2.5565      0.0811      5.6655    114.6758     23.8208
  1735.8000      7.9527      2.5633      0.0542      5.2550    117.1202     23.2928
  1735.9000      7.9527      2.5750      0.0612      4.5461    117.9077     24.1802
