~Version Information
VERS.                      2.0: CWLS Log ASCII Standard - VERSION 2.0
WRAP.                       NO: One line per depth step
~Well Information Block
STRT.FT               550.0000: 
STOP.FT              2042.5000: 
STEP.FT                 0.1000: 
NULL.                -999.2500: 
COMP.          Petrogulf Corporation: COMPANY
WELL.          Robinson 15-12V: WELL
FLD.           Purgatorie River: FIELD
LOC.           1788' FNL & 466' FWL: LOCATION
PROV.                 Colorado: PROVINCE
CNTY.               Las Animas: COUNTRY
SRVC.                Patterson: SERVICE COMPANY
DATE.          Mon Sep 12 10:04:59 2005: LOG DATE
UWI.                          : UNIQUE WELL ID
~Curve Information Block
DEPT.FT            0 000 00 00: Depth
DCAL.in                       : CDL Caliper
RHOB.g/cc                     : CDL Bulk Density
RHOC.g/cc                     : CDL Density Correction
DPOR.pu                       : CDL Density Porosity
GR.GAPI                       : Gamma Ray
NPOR.pu                       : Neutron Porosity
~Parameter Information Block
~A  Depth       DCAL        RHOB        RHOC        DPOR         GR         NPOR    
# ...
  2009.2000      7.8038      2.5989      0.0473      3.1000     56.3077   -999.2500
  2009.3000      7.8027      2.5838      0.0339      4.0091     27.9760   -999.2500
  2009.4000      7.8027      2.5671     -0.0084      5.0241      8.6374   -999.2500
  2009.5000      7.8038      2.5732      0.0006      4.6556      1.5488   -999.2500
  2009.6000      7.8038      2.6020      0.0593      2.9073      0.1544   -999.2500
  2009.7000      7.8038      2.6298      0.0949      1.2243      0.0081   -999.2500
  2009.8000      7.8055      2.6416      0.0762      0.5103      0.0000   -999.2500
  2009.9000      7.8055      2.6396      0.0879      0.6312   -999.2500   -999.2500
  2010.0000      7.8019      2.6286      0.0641      1.2999   -999.2500   -999.2500
  2010.1000      7.8019      2.6192      0.0478      1.8648   -999.2500   -999.2500
  2010.2000      7.8019      2.6202      0.0586      1.8054   -999.2500   -999.2500
  2010.3000      7.8030      2.6179      0.0809      1.9478   -999.2500   -999.2500
  2010.4000      7.8030      2.5957      0.0445      3.2938   -999.2500   -999.2500
  2010.5000      7.8019      2.5639      0.0183      5.2183   -999.2500   -999.2500
  2010.6000      7.8019      2.5450      0.0054      6.3629   -999.2500   -999.2500
  2010.7000      7.8019      2.5468      0.0013      6.2523   -999.2500   -999.2500
  2010.8000      7.8166      2.5541      0.0669      5.8141   -999.2500   -999.2500
  2010.9000      7.8166      2.5414     -0.0077      6.5838   -999.2500   -999.2500
  2011.0000      7.8393      2.5062      0.0160      8.7162   -999.2500   -999.2500
  2011.1000      7.8393      2.4782     -0.0558     10.4147   -999.2500   -999.2500
  2011.2000      7.8393      2.4798      0.0218     10.3129   -999.2500   -999.2500
  2011.3000      7.8450      2.4968      0.0108      9.2840   -999.2500   -999.2500
  2011.4000      7.8450      2.5089      0.0486      8.5536   -999.2500   -999.2500
  2011.5000      7.8523      2.5052      0.0545      8.7768   -999.2500   -999.2500
  2011.6000      7.8523      2.4932     -0.0061      9.5006   -999.2500   -999.2500
  2011.7000      7.8523      2.4957     -0.0063      9.3492   -999.2500   -999.2500
  2011.8000      7.8555      2.5068      0.0652      8.6806   -999.2500   -999.2500
  2011.9000      7.8555      2.5053      0.0159      8.7675   -999.2500   -999.2500
  2012.0000      7.8254      2.4993      0.0021      9.1341   -999.2500   -999.2500
  2012.1000      7.8254      2.5023      0.0459      8.9513   -999.2500   -999.2500
  2012.2000      7.8254      2.5152      0.0305      8.1703   -999.2500   -999.2500
  2012.3000      7.8057      2.5416      0.0427      6.5704   -999.2500   -999.2500
  2012.4000      7.8057      2.5721      0.0975      4.7192   -999.2500   -999.2500
  2012.5000      7.7935      2.5857      0.0828      3.8943   -999.2500   -999.2500
  2012.6000      7.7935      2.5826      0.0898      4.0833   -999.2500   -999.2500
  2012.7000      7.7935      2.5763      0.0830      4.4685   -999.2500   -999.2500
  2012.8000      7.7849      2.5686      0.0734      4.9352   -999.2500   -999.2500
  2012.9000      7.7849      2.5556      0.0560      5.7223   -999.2500   -999.2500
  2013.0000      7.7849      2.5402      0.0138      6.6534   -999.2500   -999.2500
  2013.1000      7.7849      2.5264      0.0004      7.4887   -999.2500   -999.2500
  2013.2000      7.7849      2.5174      0.0004      8.0365   -999.2500   -999.2500
  2013.3000      7.7919      2.5174      0.0090      8.0357   -999.2500   -999.2500
  2013.4000      7.7919      2.5231      0.0033      7.6887   -999.2500   -999.2500
  2013.5000      7.7891      2.5267      0.0160      7.4741   -999.2500   -999.2500
  2013.6000      7.7891      2.5317     -0.0132      7.1707   -999.2500   -999.2500
  2013.7000      7.7891      2.5424      0.0483      6.5224   -999.2500   -999.2500
  2013.8000      7.7746      2.5474      0.0559      6.2207   -999.2500   -999.2500
  2013.9000      7.7746      2.5426      0.0556      6.5100   -999.2500   -999.2500
  2014.0000      7.7570      2.5419      0.0200      6.5515   -999.2500   -999.2500
  2014.1000      7.7570      2.5513      0.1129      5.9796   -999.2500   -999.2500
  2014.2000      7.7570      2.5577      0.1014      5.5933   -999.2500   -999.2500
  2014.3000      7.7343      2.5561      0.0790      5.6884   -999.2500   -999.2500
  2014.4000      7.7343      2.5579      0.0500      5.5838   -999.2500   -999.2500
  2014.5000      7.7153      2.5653      0.1223      5.1325   -999.2500   -999.2500
  2014.6000      7.7153      2.5735      0.0707      4.6389   -999.2500   -999.2500
  2014.7000      7.7153      2.5863      0.0757      3.8625   -999.2500   -999.2500
  2014.8000      7.7146      2.6066      0.0894      2.6300   -999.2500   -999.2500
  2014.9000      7.7146      2.6283      0.1471      1.3162   -999.2500   -999.2500
  2015.0000      7.7226      2.6447      0.1147      0.3194   -999.2500   -999.2500
  2015.1000      7.7226      2.6497      0.1445      0.0196   -999.2500   -999.2500
  2015.2000      7.7226      2.6373      0.1272      0.7679   -999.2500   -999.2500
  2015.3000      7.7608      2.6133      0.0673      2.2266   -999.2500   -999.2500
  2015.4000      7.7608      2.5807      0.0593      4.1982   -999.2500   -999.2500
  2015.5000      7.7866      2.5361      0.0201      6.9009   -999.2500   -999.2500
  2015.6000      7.7866      2.4943      0.0256      9.4358   -999.2500   -999.2500
  2015.7000      7.7866      2.4760      0.0141     10.5446   -999.2500   -999.2500
  2015.8000      7.7998      2.4828      0.0215     10.1322   -999.2500   -999.2500
  2015.9000      7.7998      2.5043      0.0288      8.8320   -999.2500   -999.2500
  2016.0000      7.8033      2.5320      0.0526      7.1499   -999.2500   -999.2500
  2016.1000      7.8033      2.5590      0.1311      5.5153   -999.2500   -999.2500
  2016.2000      7.8033      2.5800      0.1104      4.2396   -999.2500   -999.2500
  2016.3000      7.8066      2.6016      0.1045      2.9314   -999.2500   -999.2500
  2016.4000      7.8066      2.6267      0.1323      1.4108   -999.2500   -999.2500
  2016.5000      7.7684      2.6366      0.1945      0.8113   -999.2500   -999.2500
  2016.6000      7.7684      2.6167      0.1697      2.0168   -999.2500   -999.2500
  2016.7000      7.7684      2.5841      0.1267      3.9954   -999.2500   -999.2500
  2016.8000      7.7417      2.5606      0.1442      5.4172   -999.2500   -999.2500
  2016.9000      7.7417      2.5458      0.1312      6.3175   -999.2500   -999.2500
  2017.0000      7.6362      2.5368      0.1429      6.8605   -999.2500   -999.2500
  2017.1000      7.6362      2.5407      0.1126      6.6224   -999.2500   -999.2500
  2017.2000      7.6362      2.5630      0.1028      5.2726   -999.2500   -999.2500
  2017.3000      7.6353      2.5991      0.1444      3.0864   -999.2500   -999.2500
  2017.4000      7.6353      2.6387      0.1795      0.6878   -999.2500   -999.2500
  2017.5000      7.6915      2.6930      0.1711     -2.6057   -999.2500   -999.2500
  2017.6000      7.6915      2.7919      0.2411     -8.6016   -999.2500   -999.2500
  2017.7000      7.6915      2.8090      0.1820     -9.6349   -999.2500   -999.2500
  2017.8000      7.7698      2.3304      0.5739     19.3680   -999.2500   -999.2500
  2017.9000      7.7698      1.3151      0.0000     80.9015   -999.2500   -999.2500
  2018.0000      7.2570      0.4444      0.0000    133.6750   -999.2500   -999.2500
  2018.1000      7.2570      0.0842   -999.2500    155.5018   -999.2500   -999.2500
  2018.2000      7.2570      0.0087   -999.2500    160.0805   -999.2500   -999.2500
  2018.3000      3.2837      0.0005   -999.2500    160.5775   -999.2500   -999.2500
  2018.4000      3.2837      0.0000   -999.2500    160.6061   -999.2500   -999.2500
  2018.5000      2.7457      0.0000   -999.2500    160.6061   -999.2500   -999.2500
  2018.6000      2.7457   -999.2500   -999.2500   -999.2500   -999.2500   -999.2500
  2018.7000      2.7457   -999.2500   -999.2500   -999.2500   -999.2500   -999.2500
