~Version Information
VERS.                      2.0: CWLS Log ASCII Standard - VERSION 2.0
WRAP.                       NO: One line per depth step
~Well Information Block
STRT.FT               679.2000: 
STOP.FT              2289.5000: 
STEP.FT                 0.1000: 
NULL.                -999.2500: 
COMP.          Petrogulf Corporation: COMPANY
WELL.          Anderson 18-43V: WELL
FLD.           Purgatorie River: FIELD
LOC.           1782' FSL & 887' FEL: LOCATION
CNTY.               Las Animas: COUNTY
SRVC.                         : SERVICE COMPANY
DATE.          Thu Sep 02 08:33:50 2004: LOG DATE
UWI.           05 071 08156 00: UNIQUE WELL ID
STAT.                 Colorado: STATE
~Curve Information Block
DEPT.FT            0 000 00 00: Depth
GR.GAPI                       : Gamma Ray
DCAL.in                       : CDL Caliper
DPOR.pu                       : CDL Density Porosity
NPOR.pu                       : Neutron Porosity
RHOB.g/cc                     : CDL Bulk Density
RHOC.g/cc                     : CDL Density Correction
~Parameter Information Block
~A  Depth        GR         DCAL        DPOR        NPOR        RHOB        RHOC    
# ...
  1015.2000     88.9758      8.2423      8.5789     20.9452      2.5084      0.0473
  1015.3000     89.1931      8.2451      7.1760     21.2503      2.5316      0.0508
  1015.4000     89.6462      8.2451      5.7112     21.3983      2.5558      0.1163
  1015.5000     90.3514      8.2456      5.1949     21.4703      2.5643      0.1056
  1015.6000     91.3006      8.2456      5.2236     21.6568      2.5638      0.0560
  1015.7000     92.4620      8.2456      4.5947     21.8190      2.5742      0.0833
  1015.8000     93.7887      8.2411      3.4013     21.9516      2.5939      0.1123
  1015.9000     95.2240      8.2411      2.7788     22.3838      2.6041      0.1205
  1016.0000     96.7076      8.2383      3.2013     22.9318      2.5972      0.0573
  1016.1000     98.1872      8.2383      4.1040     22.9241      2.5823      0.0406
  1016.2000     99.6244      8.2383      4.9970     22.2558      2.5675      0.0720
  1016.3000    101.0002      8.2354      5.6747     21.3957      2.5564      0.0519
  1016.4000    102.3159      8.2354      5.9354     20.7742      2.5521      0.0518
  1016.5000    103.5940      8.2318      6.2158     20.5516      2.5474      0.0439
  1016.6000    104.8699      8.2318      6.8968     20.5813      2.5362      0.0400
  1016.7000    106.1827      8.2318      7.2666     20.8432      2.5301     -0.0046
  1016.8000    107.5656      8.2298      6.8426     21.3611      2.5371      0.0269
  1016.9000    109.0316      8.2298      6.2172     21.9927      2.5474      0.0418
  1017.0000    110.5666      8.2370      5.5611     22.5465      2.5582      0.0694
  1017.1000    112.1230      8.2370      4.3278     22.6464      2.5786      0.0792
  1017.2000    113.6221      8.2370      2.8137     22.3922      2.6036      0.1501
  1017.3000    114.9606      8.2442      2.4022     22.3866      2.6104      0.1389
  1017.4000    116.0239      8.2442      3.8870     22.6807      2.5859      0.1369
  1017.5000    116.7017      8.2432      6.6546     23.0094      2.5402      0.0749
  1017.6000    116.9018      8.2432      9.5412     23.2832      2.4926      0.0927
  1017.7000    116.5647      8.2432     11.7365     23.4594      2.4563      0.0272
  1017.8000    115.6691      8.2420     12.7007     23.4350      2.4404      0.0279
  1017.9000    114.2333      8.2420     12.0493     23.2201      2.4512      0.0125
  1018.0000    112.3110      8.2430      9.8441     23.0358      2.4876      0.0674
  1018.1000    109.9778      8.2430      6.8668     22.9698      2.5367      0.0969
  1018.2000    107.3228      8.2430      3.8285     23.0258      2.5868      0.1272
  1018.3000    104.4363      8.2435      1.0444     23.0650      2.6328      0.1648
  1018.4000    101.4008      8.2435     -0.9950     22.7634      2.6664      0.2035
  1018.5000     98.2891      8.2390     -1.6939     22.1135      2.6779      0.1989
  1018.6000     95.1633      8.2390     -0.9870     21.4242      2.6663      0.1552
  1018.7000     92.0770      8.2390      0.7017     20.9324      2.6384      0.1323
  1018.8000     89.0791      8.2262      2.8417     20.5933      2.6031      0.0710
  1018.9000     86.2138      8.2262      4.7202     20.3765      2.5721      0.0176
  1019.0000     83.5245      8.2250      5.8608     20.3244      2.5533      0.0058
  1019.1000     81.0489      8.2250      6.2501     20.3960      2.5469      0.0053
  1019.2000     78.8160      8.2250      6.3739     20.4225      2.5448      0.0421
  1019.3000     76.8419      8.2636      6.9399     20.1617      2.5355      0.0080
  1019.4000     75.1310      8.2636      8.1440     19.7166      2.5156      0.0238
  1019.5000     73.6707      8.2740      9.7800     19.2253      2.4886      0.0209
  1019.6000     72.4375      8.2740     11.2445     18.6796      2.4645     -0.0107
  1019.7000     71.3984      8.2740     12.1692     18.4722      2.4492      0.0104
  1019.8000     70.5182      8.2672     12.8351     18.8522      2.4382     -0.0153
  1019.9000     69.7615      8.2672     13.1993     19.1836      2.4322     -0.0025
  1020.0000     69.0992      8.2664     13.2587     18.9817      2.4312      0.0326
  1020.1000     68.5093      8.2664     13.3854     18.6856      2.4291      0.0533
  1020.2000     67.9749      8.2664     13.1766     18.6352      2.4326      0.0775
  1020.3000     67.4847      8.2617     11.7368     18.6478      2.4563      0.1492
  1020.4000     67.0317      8.2617      8.9268     18.6457      2.5027      0.1851
  1020.5000     66.6088      8.2498      5.4118     18.5593      2.5607      0.2260
  1020.6000     66.2093      8.2498      2.0670     18.2920      2.6159      0.2706
  1020.7000     65.8254      8.2498     -0.3822     17.9989      2.6563      0.2832
  1020.8000     65.4510      8.2479     -1.3540     17.6889      2.6723      0.3083
  1020.9000     65.0778      8.2479     -0.8096     17.3451      2.6634      0.2831
  1021.0000     64.7012      8.2456      0.3943     17.0217      2.6435      0.2510
  1021.1000     64.3173      8.2456      1.4671     16.7886      2.6258      0.1959
  1021.2000     63.9277      8.2456      2.5423     16.6181      2.6081      0.1705
  1021.3000     63.5352      8.2501      3.9836     16.4225      2.5843      0.1210
  1021.4000     63.1472      8.2501      5.5698     16.4454      2.5581      0.0550
  1021.5000     62.7735      8.2632      6.7017     16.9869      2.5394     -0.0028
  1021.6000     62.4242      8.2632      7.1196     17.8193      2.5325      0.0175
  1021.7000     62.1096      8.2632      7.3346     18.3882      2.5290      0.0524
  1021.8000     61.8373      8.2391      7.8192     18.4024      2.5210      0.0551
  1021.9000     61.6120      8.2391      8.4902     17.9613      2.5099      0.0608
  1022.0000     61.4341      8.2506      9.1637     17.1739      2.4988      0.0062
  1022.1000     61.2983      8.2506      9.3459     16.4711      2.4958     -0.0010
  1022.2000     61.1984      8.2506      8.7173     16.5595      2.5062      0.0446
  1022.3000     61.1229      8.2553      7.5697     17.2310      2.5251      0.0326
  1022.4000     61.0616      8.2553      6.0925     17.6552      2.5495      0.0328
  1022.5000     61.0056      8.2639      4.9266     17.7650      2.5687      0.0735
  1022.6000     60.9486      8.2639      5.0207     17.8012      2.5672      0.0609
  1022.7000     60.8909      8.2639      6.1605     17.8673      2.5484      0.0585
  1022.8000     60.8393      8.2652      7.2322     18.0631      2.5307      0.0289
  1022.9000     60.8036      8.2652      7.6830     18.1596      2.5232      0.0355
  1023.0000     60.7982      8.2691      7.8267     17.8915      2.5209      0.0288
  1023.1000     60.8326      8.2691      7.9018     17.4168      2.5196      0.0518
  1023.2000     60.9113      8.2691      7.9263     17.1046      2.5192      0.0640
  1023.3000     61.0265      8.2695      8.0222     17.2118      2.5176      0.0507
  1023.4000     61.1596      8.2695      8.3524     17.7051      2.5122      0.0222
  1023.5000     61.2798      8.2797      8.9427     18.1573      2.5024      0.0440
  1023.6000     61.3508      8.2797      9.3463     17.9883      2.4958      0.0170
  1023.7000     61.3380      8.2797      8.9775     17.0891      2.5019      0.0119
  1023.8000     61.2146      8.2814      8.1971     15.9931      2.5147      0.0590
  1023.9000     60.9684      8.2814      7.8791     15.3396      2.5200      0.0601
  1024.0000     60.6047      8.2811      7.9538     15.3061      2.5188      0.0351
  1024.1000     60.1428      8.2811      7.9731     15.6174      2.5184      0.0704
  1024.2000     59.6137      8.2811      8.1593     15.9860      2.5154      0.0833
  1024.3000     59.0535      8.2811      8.8333     16.1315      2.5043      0.0706
  1024.4000     58.4930      8.2811      9.5078     15.9129      2.4931      0.0487
  1024.5000     57.9569      8.2812      9.4164     15.5778      2.4946      0.0966
  1024.6000     57.4587      8.2812      8.9059     15.4815      2.5031      0.1159
  1024.7000     57.0012      8.2812      8.8053     15.7173      2.5047      0.1195
