~Version Information
 VERS.                                  2.0 : CWLS LAS VERSION
 WRAP.                                   NO : WRAPING MODE
 SWARE .                 MController 2.5.0E : SOFTWARE VERSION
~Well Information
 WELL.                          Nomad 32-10 : WELL
 COMP.            EVERGREEN OPERATING CORP. : COMPANY
 FLD.                      PURGATOIRE RIVER : FIELD
 LOC.                    SW/NE 26 T32S R66W : LOCATION
 DATE.                              6/11/04 : DATE(S) LOGGED
 SRVC.       BLANCO GEOLOGICAL SERVICES LLC : SERVICE COMPANY
 STAT.                             COLORADO : STATE
 CNTY.                           LAS ANIMAS : COUNTY
 CTRY.                                  USA : COUNTRY
 API.                       05-071-08127-00 : API NUMBER
 STRT.FT                             446.00 : START DEPTH
 STOP.FT                            2455.00 : STOP DEPTH
 STEP.FT                               1.00 : DEPTH INCREMENT
 NULL.                                -9999 : NULL VALUE
~Curve information
 DEPTH.FT                                   :
 ROP.MIN/FT                                 :
 GAS.UNITS                                  :
~ASCII Log data
# ...
     1446.00        0.133         96.2 
     1447.00        0.133         96.2 
     1448.00        0.133         99.7 
     1449.00        0.167        117.1 
     1450.00        0.167        141.1 
     1451.00        0.167        141.1 
     1452.00        0.167        116.6 
     1453.00        0.200        116.6 
     1454.00        0.167         84.1 
     1455.00        0.267         72.0 
     1456.00        0.250         71.5 
     1457.00        0.200         73.2 
     1458.00        0.233         67.2 
     1459.00        0.133         67.2 
     1460.00        0.167         64.5 
     1461.00        0.167         53.4 
     1462.00        0.167         46.6 
     1463.00        0.200         45.7 
     1464.00        0.167         45.7 
     1465.00        0.200         52.4 
     1466.00        4.933        441.4 
     1467.00        0.367         94.8 
     1468.00        0.333         97.1 
     1469.00        0.267        101.9 
     1470.00        0.267        101.1 
     1471.00        0.233         96.4 
     1472.00        0.200         94.2 
     1473.00        0.200         89.1 
     1474.00        0.200         88.9 
     1475.00        0.267         89.1 
     1476.00        0.267         89.9 
     1477.00        0.233         90.3 
     1478.00        0.200         90.3 
     1479.00        0.167         90.1 
     1480.00        0.183         89.7 
     1481.00        0.133         89.7 
     1482.00        0.333         92.1 
     1483.00        0.600         94.2 
     1484.00        0.467         95.3 
     1485.00        0.400         95.5 
     1486.00        0.433         97.6 
     1487.00        0.333        121.3 
     1488.00        0.367        137.4 
     1489.00        0.417        109.6 
     1490.00        0.433         75.8 
     1491.00        0.467         86.1 
     1492.00        0.533         77.8 
     1493.00        0.500         50.5 
     1494.00        0.233         50.9 
     1495.00        0.167         57.0 
     1496.00        5.067       1402.7 
     1497.00        0.133        127.7 
     1498.00        0.267        125.8 
     1499.00        0.267        121.0 
     1500.00        0.267        112.5 
     1501.00        0.167        106.8 
     1502.00        0.233        110.2 
     1503.00        0.300        113.9 
     1504.00        0.300        112.4 
     1505.00        0.450        100.9 
     1506.00        0.267         94.2 
     1507.00        0.200         94.8 
     1508.00        0.133         94.7 
     1509.00        0.167         94.7 
     1510.00        0.100         94.6 
     1511.00        0.200         94.6 
     1512.00        0.233         98.3 
     1513.00        0.233        113.7 
     1514.00        0.200        156.0 
     1515.00        0.200        164.2 
     1516.00        0.133        164.2 
     1517.00        0.167        135.8 
     1518.00        0.133        104.3 
     1519.00        0.200         93.6 
     1520.00        0.267         93.6 
     1521.00        0.200         90.9 
     1522.00        0.250         95.2 
     1523.00        0.200         98.2 
     1524.00        0.267         86.9 
     1525.00        0.300         83.0 
     1526.00        7.367       3114.9 
     1527.00        0.133        134.0 
     1528.00        0.767        123.9 
     1529.00        0.433        130.9 
     1530.00        0.367        134.8 
     1531.00        0.450        125.8 
     1532.00        0.100        130.2 
     1533.00        0.533        128.5 
     1534.00        0.267        128.6 
     1535.00        0.233        130.6 
     1536.00        0.233        133.1 
     1537.00        0.267        132.7 
     1538.00        0.467        130.8 
     1539.00        0.233        129.2 
     1540.00        0.267        130.9 
     1541.00        0.267        128.8 
     1542.00        0.200        128.8 
     1543.00        0.250        122.8 
     1544.00        0.200        121.9 
     1545.00        0.233        140.3 
     1546.00        0.267        188.8 
     1547.00        0.233        183.7 
     1548.00        0.233        166.3 
     1549.00        0.267        135.1 
     1550.00        0.233        116.3 
     1551.00        0.267        110.8 
     1552.00        0.233        113.4 
     1553.00        0.267        102.6 
     1554.00        0.233         83.4 
     1555.00        0.233         68.3 
     1556.00        7.517       4336.9 
     1557.00        0.367        134.8 
     1558.00        0.400        116.6 
     1559.00        0.333        117.1 
     1560.00        0.267        120.3 
     1561.00        0.267        121.0 
     1562.00        0.233        119.9 
     1563.00        0.233        115.8 
     1564.00        0.233        115.8 
     1565.00        0.367        112.6 
     1566.00        0.250        110.4 
     1567.00        0.133        110.4 
     1568.00        0.167        111.0 
     1569.00        0.167        112.1 
     1570.00        0.167        112.1 
     1571.00        0.267        113.6 
     1572.00        0.233        113.4 
     1573.00        0.233        114.9 
     1574.00        0.400        172.4 
     1575.00        0.267        164.2 
     1576.00        0.267        150.6 
     1577.00        0.533        114.2 
     1578.00        0.267        102.6 
     1579.00        0.550         91.4 
     1580.00        0.533         63.5 
     1581.00        0.267         51.1 
     1582.00        0.533         57.8 
     1583.00        0.267         74.8 
     1584.00        0.433        131.2 
     1585.00        0.267        162.7 
     1586.00        3.750        346.1 
     1587.00        0.250        160.3 
     1588.00        0.433        160.9 
     1589.00        0.200        160.6 
     1590.00        0.233        159.3 
     1591.00        0.267        157.1 
     1592.00        0.233        154.8 
     1593.00        0.200        154.6 
     1594.00        0.267        157.1 
     1595.00        0.300        157.7 
     1596.00        0.300        153.7 
     1597.00        0.300        149.4 
     1598.00        0.267        145.7 
     1599.00        0.317        152.7 
     1600.00        0.233        152.7 
     1601.00        0.367        167.1 
     1602.00        0.267        198.1 
     1603.00        0.300        214.7 
     1604.00        0.267        176.6 
     1605.00        0.233        152.5 
     1606.00        0.267        143.3 
     1607.00        0.200        136.7 
     1608.00        0.167        122.0 
     1609.00        0.233        106.6 
     1610.00        0.200         95.6 
     1611.00        0.167         95.6 
     1612.00        0.200         89.1 
     1613.00        0.150         89.3 
     1614.00        0.167         89.3 
     1615.00        0.133         94.2 
     1616.00        4.983        329.3 
     1617.00        0.367        165.2 
     1618.00        0.367        151.9 
     1619.00        0.233        149.1 
     1620.00        0.850        154.6 
     1621.00        0.600        152.9 
     1622.00        0.367        147.8 
     1623.00        0.367        151.6 
     1624.00        0.333        152.0 
     1625.00        0.267        147.3 
     1626.00        0.267        147.6 
     1627.00        0.267        148.3 
     1628.00        0.267        147.8 
     1629.00        0.250        147.6 
     1630.00        0.200        138.6 
     1631.00        0.200        129.9 
     1632.00        0.233        122.8 
     1633.00        0.300        147.3 
     1634.00        0.300        208.8 
     1635.00        0.267        225.8 
     1636.00        0.233        187.4 
     1637.00        0.267        150.6 
     1638.00        0.233        141.8 
     1639.00        0.233        136.5 
     1640.00        0.233        135.3 
     1641.00        0.233        122.4 
     1642.00        0.233        108.5 
     1643.00        0.150         98.6 
     1644.00        0.433         90.1 
     1645.00        0.200         91.2 
