~Version Information
VERS.                      2.0: CWLS Log ASCII Standard - VERSION 2.0
WRAP.                       NO: One line per depth step
~Well Information Block
STRT.FT               950.0000: 
STOP.FT              2417.7000: 
STEP.FT                 0.1000: 
NULL.                -999.2500: 
COMP.          Pioneer Natural Resources: COMPANY
WELL.            Chevron 13-13: WELL
FLD.           Purgatoire River: FIELD
LOC.           1560' FSL & 711' FWL--: LOCATION
CNTY.               Las Animas: COUNTY
SRVC.          Superior Well Services: SERVICE COMPANY
DATE.          Mon Feb 12 14:55:24 2007: LOG DATE
UWI.           05 071 08319 00: UNIQUE WELL ID
STAT.                 Colorado: STATE
~Curve Information Block
DEPT.FT            0 000 00 00: Depth
DCAL.in                       : CDL Caliper
RHOB.g/cc                     : CDL Bulk Density
RHOC.g/cc                     : CDL Density Correction
DPOR.pu                       : CDL Density Porosity
GR.GAPI                       : Gamma Ray
~Parameter Information Block
~A  Depth       DCAL        RHOB        RHOC        DPOR         GR     
# ...
  1902.0000      7.8508      2.5814      0.0427      4.1591     92.2120
  1902.1000      7.8508      2.5808      0.0542      4.1939     94.3364
  1902.2000      7.8508      2.5853      0.0293      3.9223     93.9702
  1902.3000      7.8509      2.5943      0.0754      3.3785     94.5084
  1902.4000      7.8509      2.5952      0.0545      3.3225     92.3773
  1902.5000      7.8507      2.5938      0.0522      3.4068     88.2278
  1902.6000      7.8507      2.5976      0.0588      3.1754     90.3419
  1902.7000      7.8507      2.5938      0.0714      3.4051     97.8059
  1902.8000      7.8523      2.5746      0.0431      4.5689    105.2776
  1902.9000      7.8523      2.5509      0.0235      6.0079    110.3519
  1903.0000      7.8540      2.5396      0.0220      6.6928    111.9824
  1903.1000      7.8540      2.5499      0.0425      6.0650    113.4678
  1903.2000      7.8540      2.5780      0.0561      4.3653    119.4499
  1903.3000      7.8548      2.6035      0.0808      2.8186    125.5260
  1903.4000      7.8548      2.5976      0.1379      3.1776    126.1188
  1903.5000      7.8548      2.5592      0.0295      5.5010    128.2763
  1903.6000      7.8548      2.5281      0.0236      7.3889    137.2552
  1903.7000      7.8548      2.5301      0.0171      7.2668    144.2556
  1903.8000      7.8528      2.5481      0.0799      6.1787    139.8395
  1903.9000      7.8528      2.5566      0.0636      5.6619    129.1476
  1904.0000      7.8507      2.5500      0.0927      6.0609    121.4471
  1904.1000      7.8507      2.5304      0.0589      7.2509    118.9344
  1904.2000      7.8507      2.5076      0.0119      8.6313    120.4692
  1904.3000      7.8514      2.4995      0.0230      9.1240    120.4790
  1904.4000      7.8514      2.5105      0.0871      8.4566    116.1090
  1904.5000      7.8524      2.5286      0.0416      7.3568    109.3804
  1904.6000      7.8524      2.5446      0.0587      6.3863    102.1205
  1904.7000      7.8524      2.5564      0.0315      5.6730     99.1672
  1904.8000      7.8516      2.5613      0.0227      5.3746    103.1574
  1904.9000      7.8516      2.5561      0.0219      5.6938    105.0157
  1905.0000      7.8507      2.5472      0.0383      6.2289     98.2088
  1905.1000      7.8507      2.5471      0.0597      6.2352     94.1322
  1905.2000      7.8507      2.5565      0.0452      5.6694     99.7953
  1905.3000      7.8515      2.5705      0.0622      4.8212    105.2803
  1905.4000      7.8515      2.5831      0.0960      4.0563    104.1688
  1905.5000      7.8512      2.5854      0.0992      3.9124    101.3688
  1905.6000      7.8512      2.5842      0.0484      3.9875     98.7640
  1905.7000      7.8512      2.5936      0.0918      3.4157     93.3820
  1905.8000      7.8493      2.6045      0.0930      2.7558     87.5742
  1905.9000      7.8493      2.5989      0.0749      3.0961     82.9936
  1906.0000      7.8495      2.5774      0.0466      4.3996     78.5291
  1906.1000      7.8495      2.5601      0.0087      5.4468     76.7147
  1906.2000      7.8495      2.5657      0.0420      5.1119     78.0051
  1906.3000      7.8517      2.5844      0.0879      3.9768     80.5217
  1906.4000      7.8517      2.5943      0.0851      3.3760     85.4924
  1906.5000      7.8537      2.5861      0.1039      3.8746     92.6895
  1906.6000      7.8537      2.5667      0.0139      5.0508     96.4806
  1906.7000      7.8537      2.5534      0.0228      5.8525     95.1389
  1906.8000      7.8553      2.5535      0.0518      5.8457     94.0802
  1906.9000      7.8553      2.5604      0.0665      5.4282     96.6594
  1907.0000      7.8559      2.5682      0.0637      4.9556    102.3062
  1907.1000      7.8559      2.5770      0.0503      4.4249    106.9265
  1907.2000      7.8559      2.5882      0.0690      3.7427    105.8181
  1907.3000      7.8543      2.5959      0.1362      3.2814    100.3984
  1907.4000      7.8543      2.5938      0.0784      3.4090     96.5787
  1907.5000      7.8506      2.5971      0.0562      3.2085     93.8596
  1907.6000      7.8506      2.6182      0.0663      1.9243     85.5659
  1907.7000      7.8506      2.6418      0.1004      0.4981     72.7787
  1907.8000      7.8467      2.6481      0.1093      0.1150     63.9900
  1907.9000      7.8467      2.6380      0.1033      0.7260     64.7946
  1908.0000      7.8467      2.6290      0.0637      1.2703     72.8869
  1908.1000      7.8467      2.6294      0.0819      1.2514     81.3819
  1908.2000      7.8467      2.6249      0.0825      1.5209     87.3196
  1908.3000      7.8497      2.6108      0.0625      2.3733     92.7466
  1908.4000      7.8497      2.6031      0.0566      2.8442     98.6485
  1908.5000      7.8516      2.6080      0.1099      2.5454    100.2821
  1908.6000      7.8516      2.6147      0.0972      2.1397     92.9318
  1908.7000      7.8516      2.6114      0.1119      2.3399     81.7906
  1908.8000      7.8511      2.5857      0.1188      3.8992     76.0473
  1908.9000      7.8511      2.5403      0.0193      6.6491     75.6322
  1909.0000      7.8502      2.5058     -0.0264      8.7383     74.7618
  1909.1000      7.8502      2.5005      0.0240      9.0592     73.3288
  1909.2000      7.8502      2.5145      0.0381      8.2105     72.8421
  1909.3000      7.8508      2.5397     -0.0062      6.6861     71.9518
  1909.4000      7.8508      2.5667      0.0923      5.0490     71.7043
  1909.5000      7.8508      2.5743      0.0627      4.5870     77.3419
  1909.6000      7.8508      2.5546      0.0492      5.7823     89.3726
  1909.7000      7.8508      2.5233      0.0130      7.6763     99.2150
  1909.8000      7.8524      2.4990      0.0204      9.1495    100.5237
  1909.9000      7.8524      2.4904     -0.0187      9.6746     94.7314
  1910.0000      7.8543      2.4945      0.0487      9.4265     87.7843
  1910.1000      7.8543      2.5027      0.0080      8.9298     86.5356
  1910.2000      7.8543      2.5230     -0.0219      7.6969     91.2407
  1910.3000      7.8543      2.5596      0.0657      5.4787     95.9200
  1910.4000      7.8543      2.5878      0.0978      3.7677     97.9045
  1910.5000      7.8525      2.5876      0.1213      3.7815    100.5145
  1910.6000      7.8525      2.5636      0.0924      5.2376    100.0871
  1910.7000      7.8525      2.5291      0.0702      7.3253     92.7827
  1910.8000      7.8505      2.4977      0.0340      9.2333     86.5982
  1910.9000      7.8505      2.4841      0.0220     10.0536     85.6977
  1911.0000      7.8519      2.4931      0.0386      9.5091     85.5622
  1911.1000      7.8519      2.5135      0.0439      8.2746     84.0033
  1911.2000      7.8519      2.5286      0.0724      7.3564     79.3849
  1911.3000      7.8536      2.5225      0.0763      7.7245     72.1008
  1911.4000      7.8536      2.4978      0.0289      9.2232     67.4685
  1911.5000      7.8514      2.4832      0.0270     10.1108     66.7771
  1911.6000      7.8514      2.4986      0.0601      9.1733     67.8797
  1911.7000      7.8514      2.5311      0.0646      7.2034     70.8644
  1911.8000      7.8469      2.5517      0.1202      5.9562     75.4354
  1911.9000      7.8469      2.5452      0.0765      6.3517     79.8862
  1912.0000      7.8461      2.5222      0.0604      7.7467     82.0731
  1912.1000      7.8461      2.5051      0.0113      8.7823     80.0949
  1912.2000      7.8461      2.5056      0.0719      8.7490     76.1790
  1912.3000      7.8479      2.5088      0.0658      8.5570     74.2964
  1912.4000      7.8479      2.5015      0.0252      9.0008     74.7453
  1912.5000      7.8473      2.4961      0.0501      9.3282     76.7364
  1912.6000      7.8473      2.5049      0.0226      8.7936     77.6772
  1912.7000      7.8473      2.5192      0.0685      7.9267     78.2340
  1912.8000      7.8467      2.5243      0.0430      7.6185     80.4220
  1912.9000      7.8467      2.5219      0.0044      7.7611     82.0004
  1913.0000      7.8478      2.5234      0.0209      7.6700     81.8843
  1913.1000      7.8478      2.5336      0.0585      7.0516     83.1691
