~Version Information
 VERS.                                  2.0 : CWLS LAS VERSION
 WRAP.                                   NO : WRAPING MODE
 SWARE .                 MController 2.5.0E : SOFTWARE VERSION
~Well Information
 WELL.                                  N/A : WELL
 COMP.                                  N/A : COMPANY
 FLD.                                   N/A : FIELD
 LOC.                                   N/A : LOCATION
 DATE.                                  N/A : DATE(S) LOGGED
 SRVC.                                  N/A : SERVICE COMPANY
 STAT.                                  N/A : STATE
 CNTY.                                  N/A : COUNTY
 CTRY.                                  N/A : COUNTRY
 API.                                   N/A : API NUMBER
 STRT.FT                             838.00 : START DEPTH
 STOP.FT                            2499.00 : STOP DEPTH
 STEP.FT                               1.00 : DEPTH INCREMENT
 NULL.                                -9999 : NULL VALUE
~Curve information
 DEPTH.FT                                   :
 ROP.MIN/FT                                 :
 GAS.UNITS                                  :
~ASCII Log data
# ...
     1638.00        0.200          4.4 
     1639.00        0.233          4.1 
     1640.00        0.167          4.1 
     1641.00        0.167          4.3 
     1642.00        0.167          4.3 
     1643.00        0.167          4.2 
     1644.00        0.300          4.2 
     1645.00        0.300          4.4 
     1646.00        4.300         16.2 
     1647.00        0.300          3.9 
     1648.00        0.333          3.7 
     1649.00        0.300          4.0 
     1650.00        0.233          3.5 
     1651.00        0.233          4.1 
     1652.00        0.267          3.9 
     1653.00        0.267          3.8 
     1654.00        0.300          4.0 
     1655.00        0.283          3.8 
     1656.00        0.233          3.8 
     1657.00        0.200          4.0 
     1658.00        0.200          3.8 
     1659.00        0.167          3.8 
     1660.00        0.200          3.6 
     1661.00        0.167          3.8 
     1662.00        0.167          3.8 
     1663.00        0.167          3.7 
     1664.00        0.167          3.7 
     1665.00        0.167          3.5 
     1666.00        0.167          3.9 
     1667.00        0.167          3.9 
     1668.00        0.167          3.6 
     1669.00        0.200          3.5 
     1670.00        0.200          3.5 
     1671.00        0.167          4.1 
     1672.00        0.167          3.9 
     1673.00        0.183          3.9 
     1674.00        0.200          3.9 
     1675.00        0.267          4.0 
     1676.00        2.883         14.9 
     1677.00        0.400         13.7 
     1678.00        0.400          8.2 
     1679.00        0.367          3.7 
     1680.00        0.300          4.0 
     1681.00        0.267          3.3 
     1682.00        0.300          3.7 
     1683.00        0.300          3.2 
     1684.00        0.267          3.6 
     1685.00        0.267          3.8 
     1686.00        0.367          3.8 
     1687.00        0.350          3.6 
     1688.00        0.300          3.7 
     1689.00        0.200          3.5 
     1690.00        0.200          3.7 
     1691.00        0.267          4.1 
     1692.00        0.200          4.0 
     1693.00        0.200          3.9 
     1694.00        0.167          4.1 
     1695.00        0.200          4.0 
     1696.00        0.167          4.0 
     1697.00        0.167          3.9 
     1698.00        0.167          3.9 
     1699.00        0.167          4.3 
     1700.00        0.200          3.8 
     1701.00        0.200          4.1 
     1702.00        0.167          4.1 
     1703.00        0.217          4.4 
     1704.00        0.167          4.2 
     1705.00        0.200          4.2 
     1706.00        4.450         11.5 
     1707.00        0.233          4.1 
     1708.00        0.200          4.2 
     1709.00        0.267          4.4 
     1710.00        0.333          4.2 
     1711.00        0.300          4.4 
     1712.00        0.333          4.4 
     1713.00        0.283          4.3 
     1714.00        0.267          4.4 
     1715.00        0.233          4.1 
     1716.00        0.267          4.5 
     1717.00        0.233          4.5 
     1718.00        0.233          4.5 
     1719.00        0.233          4.9 
     1720.00        0.200          4.4 
     1721.00        0.200          4.6 
     1722.00        0.200          4.4 
     1723.00        0.200          4.4 
     1724.00        0.233          4.5 
     1725.00        0.200          4.5 
     1726.00        0.200          4.8 
     1727.00        0.233          4.6 
     1728.00        0.183          4.6 
     1729.00        0.200          4.8 
     1730.00        0.200          4.8 
     1731.00        0.167          4.8 
     1732.00        0.200          4.7 
     1733.00        0.267          5.3 
     1734.00        0.267          4.9 
     1735.00        0.267          5.0 
     1736.00        2.583         22.2 
     1737.00        0.567         15.9 
     1738.00        0.467          7.4 
     1739.00        0.400          5.2 
     1740.00        0.333          4.9 
     1741.00        0.350          5.0 
     1742.00        0.267          5.0 
     1743.00        0.200          5.0 
     1744.00        0.267          5.0 
     1745.00        0.267          5.3 
     1746.00        0.233          5.2 
     1747.00        0.267          5.3 
     1748.00        0.267          5.6 
     1749.00        0.200          5.0 
     1750.00        0.267          5.0 
     1751.00        0.233          5.1 
     1752.00        0.200          5.0 
     1753.00        0.183          5.0 
     1754.00        0.200          5.4 
     1755.00        0.200          5.5 
     1756.00        0.167          5.4 
     1757.00        0.200          5.4 
     1758.00        0.200          5.4 
     1759.00        0.167          5.4 
     1760.00        0.200          5.5 
     1761.00        0.233          5.2 
     1762.00        0.200          5.2 
     1763.00        0.267          5.6 
     1764.00        0.367          5.1 
     1765.00        0.367          5.4 
     1766.00        4.333         16.1 
     1767.00        0.333          5.1 
     1768.00        0.267          5.3 
     1769.00        0.300          5.4 
     1770.00        0.267          5.4 
     1771.00        0.300          5.5 
     1772.00        0.267          5.7 
     1773.00        0.267          6.2 
     1774.00        0.267          6.4 
     1775.00        0.167          6.4 
     1776.00        0.200          6.5 
     1777.00        0.167          6.1 
     1778.00        0.250          5.9 
     1779.00        0.200          5.9 
     1780.00        0.233          5.6 
     1781.00        0.200          5.8 
     1782.00        0.200          5.7 
     1783.00        0.200          5.4 
     1784.00        0.200          5.5 
     1785.00        0.233          5.2 
     1786.00        0.233          5.2 
     1787.00        0.233          5.1 
     1788.00        0.200          5.1 
     1789.00        0.233          5.2 
     1790.00        0.200          4.7 
     1791.00        0.167          4.9 
     1792.00        0.233          4.7 
     1793.00        0.200          4.7 
     1794.00        0.217          4.6 
     1795.00        0.267          4.6 
     1796.00        4.250         19.6 
     1797.00        0.333         15.4 
     1798.00        0.333         14.4 
     1799.00        0.333         13.9 
     1800.00        0.267         13.4 
     1801.00        0.233         13.7 
     1802.00        0.233         12.6 
     1803.00        0.233         12.9 
     1804.00        0.250         12.1 
     1805.00        0.200         11.4 
     1806.00        0.200         10.6 
     1807.00        0.200         10.2 
     1808.00        0.167         10.2 
     1809.00        0.200         10.1 
     1810.00        0.200          9.8 
     1811.00        0.200          9.2 
     1812.00        0.200          9.5 
     1813.00        0.200          9.3 
     1814.00        0.167          9.6 
     1815.00        0.200          9.6 
     1816.00        0.200         10.0 
     1817.00        0.233         11.0 
     1818.00        0.267         12.2 
     1819.00        0.233         10.4 
     1820.00        0.250          8.5 
     1821.00        0.200          8.5 
     1822.00        0.233          7.8 
     1823.00        0.200          7.6 
     1824.00        0.267          7.3 
     1825.00        0.267          8.0 
     1826.00        3.583         87.0 
     1827.00        0.400         32.5 
     1828.00        0.333         31.4 
     1829.00        0.333         19.7 
     1830.00        0.300         17.1 
     1831.00        0.333         12.8 
     1832.00        0.283         11.7 
     1833.00        0.267         10.9 
     1834.00        0.267         10.8 
     1835.00        0.233         10.8 
     1836.00        0.233         10.5 
     1837.00        0.233         10.3 
