~Version Information
VERS.                      2.0: CWLS Log ASCII Standard - VERSION 2.0
WRAP.                       NO: One line per depth step
~Well Information Block
STRT.FT              1736.0000: 
STOP.FT              1964.5000: 
STEP.FT                 0.2500: 
NULL.                -999.2500: 
COMP.          Petrogulf Corporation: COMPANY
WELL.              Royal 8-33R: WELL
FLD.           Purgatorie River: FIELD
LOC.           2401' FSL & 2270' FEL: LOCATION
CNTY.               Las Animas: COUNTY
SRVC.                         : SERVICE COMPANY
DATE.          Mon Apr 26 06:49:48 2004: LOG DATE
UWI.           05 071 08041 00: UNIQUE WELL ID
STAT.                 Colorado: STATE
~Curve Information Block
DEPT.FT            0 000 00 00: Depth
SP.mV                         : DIL Spontaneous Potential
RILD.Ohm-m                    : DIL Deep Resistivity
RILM.Ohm-m                    : DIL Medium Resistivity
RLL3.Ohm-m                    : DIL Shallow Resistivity
GR.GAPI                       : Gamma Ray
~Parameter Information Block
~A  Depth        SP         RILD        RILM        RLL3         GR     
# ...
  1904.0000     39.5387     10.5409     11.1860     15.5022    134.6440
  1904.2500     38.6600     10.2845     10.8255     15.3181    138.7383
  1904.5000     37.6499     10.0658     10.5094     15.0427    145.2495
  1904.7500     36.5673      9.8898     10.2403     14.7378    148.8900
  1905.0000     35.4795      9.7606     10.0224     14.5072    151.4050
  1905.2500     34.4489      9.6814      9.8593     14.4366    150.6837
  1905.5000     33.5317      9.6532      9.7533     14.5432    146.4256
  1905.7500     32.7761      9.6752      9.7063     14.7669    141.9861
  1906.0000     32.2186      9.7458      9.7213     15.0090    134.3298
  1906.2500     31.8802      9.8633      9.8038     15.1846    129.8385
  1906.5000     31.7715     10.0254      9.9636     15.2576    126.2611
  1906.7500     31.9026     10.2263     10.2155     15.2669    126.5098
  1907.0000     32.2892     10.4540     10.5771     15.3656    129.6044
  1907.2500     32.9467     10.6910     11.0645     15.8728    131.8938
  1907.5000     33.8794     10.9184     11.6823     17.2895    132.9978
  1907.7500     35.0723     11.1208     12.4100     20.1604    131.1400
  1908.0000     36.4896     11.2901     13.1873     24.6564    123.7686
  1908.2500     38.0717     11.4239     13.9103     30.0184    116.3089
  1908.5000     39.7335     11.5236     14.4553     34.4653    104.4189
  1908.7500     41.3721     11.5920     14.7308     36.0849     98.6296
  1909.0000     42.8843     11.6335     14.7236     34.1956     96.1172
  1909.2500     44.1873     11.6526     14.4972     29.8534     98.1955
  1909.5000     45.2337     11.6511     14.1464     24.9738    103.5147
  1909.7500     46.0145     11.6254     13.7496     21.0298    106.5053
  1910.0000     46.5500     11.5667     13.3494     18.4867    108.8602
  1910.2500     46.8770     11.4647     12.9584     17.0747    109.3799
  1910.5000     47.0410     11.3117     12.5730     16.2986    109.5049
  1910.7500     47.0905     11.1056     12.1865     15.7671    109.3413
  1911.0000     47.0689     10.8520     11.7972     15.2965    108.8132
  1911.2500     47.0092     10.5649     11.4112     14.8704    108.4620
  1911.5000     46.9374     10.2640     11.0396     14.5347    108.0585
  1911.7500     46.8754      9.9701     10.6937     14.3140    107.6594
  1912.0000     46.8305      9.6994     10.3810     14.1855    106.8087
  1912.2500     46.7861      9.4604     10.1058     14.0926    106.6488
  1912.5000     46.7088      9.2555      9.8716     13.9715    108.1840
  1912.7500     46.5687      9.0840      9.6824     13.7943    110.3900
  1913.0000     46.3501      8.9451      9.5410     13.6086    114.1817
  1913.2500     46.0482      8.8389      9.4448     13.5188    116.1274
  1913.5000     45.6643      8.7655      9.3842     13.6029    117.1034
  1913.7500     45.2052      8.7231      9.3453     13.8349    116.1794
  1914.0000     44.6820      8.7083      9.3151     14.0870    112.5951
  1914.2500     44.1050      8.7168      9.2884     14.2117    109.3025
  1914.5000     43.4807      8.7461      9.2701     14.1423    104.5696
  1914.7500     42.8144      8.7965      9.2723     13.9408    102.5156
  1915.0000     42.1167      8.8698      9.3088     13.7554    102.0670
  1915.2500     41.4082      8.9670      9.3899     13.7258    103.2429
  1915.5000     40.7173      9.0866      9.5188     13.9187    105.1477
  1915.7500     40.0717      9.2255      9.6918     14.3292    105.1427
  1916.0000     39.4876      9.3810      9.9002     14.9069    102.8090
  1916.2500     38.9644      9.5540     10.1335     15.5694    100.9533
  1916.5000     38.4861      9.7502     10.3835     16.2231    100.1953
  1916.7500     38.0251      9.9793     10.6470     16.7956    101.0743
  1917.0000     37.5445     10.2529     10.9268     17.2393    102.0853
  1917.2500     37.0018     10.5812     11.2325     17.5014    101.3987
  1917.5000     36.3614     10.9696     11.5823     17.5193     99.0439
  1917.7500     35.6088     11.4162     12.0059     17.2821     98.0564
  1918.0000     34.7571     11.9104     12.5429     16.9188     99.2503
  1918.2500     33.8397     12.4336     13.2373     16.7442    101.6476
  1918.5000     32.8965     12.9631     14.1238     17.2225    105.2928
  1918.7500     31.9631     13.4764     15.2103     18.8229    105.8754
  1919.0000     31.0709     13.9549     16.4587     21.7658    101.8973
  1919.2500     30.2523     14.3865     17.7733     25.7470     96.2176
  1919.5000     29.5453     14.7682     19.0130     29.8650     85.6086
  1919.7500     28.9926     15.1073     20.0344     32.9555     78.9493
  1920.0000     28.6334     15.4205     20.7459     34.2060     71.6387
  1920.2500     28.4913     15.7274     21.1361     33.5842     68.4829
  1920.5000     28.5616     16.0419     21.2573     31.7335     64.4776
  1920.7500     28.8046     16.3649     21.1860     29.4868     61.4210
  1921.0000     29.1495     16.6825     20.9905     27.4328     57.0047
  1921.2500     29.5097     16.9702     20.7189     25.7857     55.5767
  1921.5000     29.8069     17.2013     20.4023     24.4983     57.4796
  1921.7500     29.9955     17.3554     20.0612     23.4504     61.2287
  1922.0000     30.0737     17.4228     19.7118     22.5905     68.2952
  1922.2500     30.0751     17.4056     19.3692     21.9620     72.2472
  1922.5000     30.0480     17.3151     19.0474     21.6146     74.8068
  1922.7500     30.0351     17.1698     18.7582     21.4999     74.0166
  1923.0000     30.0612     16.9925     18.5106     21.4617     70.8471
  1923.2500     30.1331     16.8075     18.3107     21.3383     69.0844
  1923.5000     30.2501     16.6356     18.1616     21.0744     68.7583
  1923.7500     30.4177     16.4901     18.0625     20.7400     69.8683
  1924.0000     30.6539     16.3764     18.0091     20.4541     71.7222
  1924.2500     30.9832     16.2932     17.9952     20.2997     72.1339
  1924.5000     31.4237     16.2328     18.0153     20.2960     71.2683
  1924.7500     31.9777     16.1806     18.0634     20.4149     70.2328
  1925.0000     32.6262     16.1168     18.1292     20.6021     68.7278
  1925.2500     33.3292     16.0200     18.1951     20.7931     67.7148
  1925.5000     34.0301     15.8736     18.2375     20.9321     66.1361
  1925.7500     34.6694     15.6718     18.2326     20.9897     65.4159
  1926.0000     35.2011     15.4245     18.1637     20.9698     65.5063
  1926.2500     35.6065     15.1570     18.0238     20.9021     66.2989
  1926.5000     35.8940     14.9004     17.8155     20.8185     67.9910
  1926.7500     36.0878     14.6779     17.5485     20.7196     69.2174
  1927.0000     36.2137     14.4942     17.2365     20.5621     71.0078
  1927.2500     36.2922     14.3373     16.8942     20.2903     71.8122
  1927.5000     36.3338     14.1894     16.5350     19.8899     71.2333
  1927.7500     36.3386     14.0394     16.1712     19.4059     69.2179
  1928.0000     36.3048     13.8879     15.8158     18.9039     64.8098
  1928.2500     36.2418     13.7417     15.4842     18.4189     62.5354
  1928.5000     36.1764     13.6060     15.1935     17.9536     62.4308
  1928.7500     36.1438     13.4815     14.9610     17.5286     64.5870
  1929.0000     36.1679     13.3681     14.7998     17.2256     69.1656
  1929.2500     36.2489     13.2675     14.7148     17.1602     71.8974
  1929.5000     36.3613     13.1829     14.6989     17.3901     74.7422
  1929.7500     36.4599     13.1158     14.7335     17.8386     75.9700
  1930.0000     36.4881     13.0643     14.7923     18.3107     77.3610
  1930.2500     36.3922     13.0259     14.8493     18.6049     78.1816
  1930.5000     36.1379     13.0004     14.8868     18.6354     78.8672
  1930.7500     35.7232     12.9913     14.9008     18.4710     78.3374
  1931.0000     35.1761     13.0042     14.8992     18.2652     75.4828
  1931.2500     34.5435     13.0431     14.8959     18.1445     72.8420
  1931.5000     33.8793     13.1080     14.9028     18.1389     70.1295
  1931.7500     33.2377     13.1956     14.9265     18.1937     70.2351
