~Version Information
VERS.                      2.0: CWLS Log ASCII Standard - VERSION 2.0
WRAP.                       NO: One line per depth step
~Well Information Block
STRT.FT               275.0000: 
STOP.FT               811.2000: 
STEP.FT                 0.1000: 
NULL.                -999.2500: 
COMP.          Pioneer Natural Resources: COMPANY
WELL.          Barrelman 41-27: WELL
FLD.           Purgatoire River: FIELD
LOC.           371' FNL & 493' FEL--: LOCATION
PROV.                 Colorado: PROVINCE
CNTY.               Las Animas: COUNTRY
SRVC.                Patterson: SERVICE COMPANY
DATE.          Fri May 20 11:50:01 2005: LOG DATE
UWI.           05 071 08334 00: UNIQUE WELL ID
~Curve Information Block
DEPT.FT            0 000 00 00: Depth
DCAL.in                       : CDL Caliper
RHOB.g/cc                     : CDL Bulk Density
RHOC.g/cc                     : CDL Density Correction
DPOR.pu                       : CDL Density Porosity
NPOR.pu                       : Neutron Porosity
GR.GAPI                       : Gamma Ray
~Parameter Information Block
~A  Depth       DCAL        RHOB        RHOC        DPOR        NPOR         GR     
# ...
   342.2000      8.0660      2.6567      0.1167     -0.4032     24.2552     75.1539
   342.3000      8.0686      2.6213      0.0728      1.7385     24.2551     70.8771
   342.4000      8.0686      2.5765      0.0088      4.4573     24.2082     67.1048
   342.5000      8.0738      2.5369      0.0314      6.8528     24.4380     63.6348
   342.6000      8.0738      2.5146     -0.0365      8.2049     24.6211     62.7684
   342.7000      8.0738      2.5161     -0.0140      8.1129     24.3004     65.5249
   342.8000      8.0806      2.5290      0.0068      7.3305     23.7339     70.4587
   342.9000      8.0806      2.5372      0.0279      6.8367     23.7033     75.3258
   343.0000      8.0839      2.5376      0.0365      6.8137     24.2551     80.4804
   343.1000      8.0839      2.5381      0.0137      6.7837     24.5916     88.3472
   343.2000      8.0839      2.5450      0.0544      6.3629     24.4052     97.8154
   343.3000      8.0853      2.5546      0.0657      5.7840     24.1890    104.0089
   343.4000      8.0853      2.5633      0.1037      5.2541     24.0532    104.5636
   343.5000      8.0937      2.5684      0.1195      4.9436     23.8722    103.3544
   343.6000      8.0937      2.5670      0.0624      5.0277     24.0515    102.8526
   343.7000      8.0937      2.5587      0.0632      5.5364     24.6150    101.8342
   343.8000      8.1050      2.5427      0.0169      6.5020     24.9768    102.2378
   343.9000      8.1050      2.5255      0.0217      7.5440     25.1898    104.4161
   344.0000      8.1090      2.5114      0.0424      8.3995     25.5718    105.8667
   344.1000      8.1090      2.4948      0.0380      9.4054     25.8473    109.9756
   344.2000      8.1090      2.4783      0.0056     10.4085     25.8621    120.0879
   344.3000      8.1098      2.4744     -0.0030     10.6399     25.8190    127.8380
   344.4000      8.1098      2.4806      0.0264     10.2681     25.7369    123.9062
   344.5000      8.1120      2.4783      0.0739     10.4074     25.7879    115.5825
   344.6000      8.1120      2.4698      0.0524     10.9230     26.0748    114.9240
   344.7000      8.1120      2.4742      0.0453     10.6576     26.2919    122.3987
   344.8000      8.1132      2.4836      0.0805     10.0870     26.3320    130.8464
   344.9000      8.1132      2.4758      0.0645     10.5578     26.3532    133.9597
   345.0000      8.1125      2.4579      0.0414     11.6434     26.2846    132.5366
   345.1000      8.1125      2.4481      0.0728     12.2340     26.0162    132.9478
   345.2000      8.1125      2.4480      0.0765     12.2400     25.7871    135.6835
   345.3000      8.1119      2.4517      0.0875     12.0209     25.7540    135.1629
   345.4000      8.1119      2.4569      0.0661     11.7033     25.8900    130.9380
   345.5000      8.1113      2.4660      0.0861     11.1513     26.3272    127.7476
   345.6000      8.1113      2.4815      0.0424     10.2150     27.1543    128.3302
   345.7000      8.1113      2.5006      0.0821      9.0540     27.9992    131.5666
   345.8000      8.1110      2.5138      0.0829      8.2562     28.0905    134.7271
   345.9000      8.1110      2.5172      0.1012      8.0463     27.5145    136.8214
   346.0000      8.1114      2.5191      0.0905      7.9314     27.3667    135.9979
   346.1000      8.1114      2.5304      0.0624      7.2486     27.9058    131.4707
   346.2000      8.1114      2.5528      0.1356      5.8933     28.1429    128.5868
   346.3000      8.1116      2.5771      0.1155      4.4163     27.6350    128.0457
   346.4000      8.1116      2.5966      0.1227      3.2365     27.1390    124.0129
   346.5000      8.1118      2.6083      0.0965      2.5260     27.3707    117.8100
   346.6000      8.1118      2.6130      0.0769      2.2431     28.1433    115.1242
   346.7000      8.1118      2.6132      0.1027      2.2331     28.5672    116.3181
   346.8000      8.1119      2.6039      0.1275      2.7942     28.2499    119.6196
   346.9000      8.1119      2.5791      0.0793      4.2956     27.7941    124.2748
   347.0000      8.1113      2.5478      0.0308      6.1949     27.6493    127.9239
   347.1000      8.1113      2.5230      0.0484      7.6980     27.5958    126.1083
   347.2000      8.1113      2.5074      0.0070      8.6419     27.6825    118.4948
   347.3000      8.1116      2.5012      0.0184      9.0162     28.0765    112.1911
   347.4000      8.1116      2.5041      0.0150      8.8438     28.2950    112.7254
   347.5000      8.1121      2.5081      0.0500      8.5987     28.1724    117.3499
   347.6000      8.1121      2.5049      0.0539      8.7947     28.0737    119.6860
   347.7000      8.1121      2.5010      0.0307      9.0281     28.0733    119.0763
   347.8000      8.1119      2.5056      0.0563      8.7524     28.0536    121.1611
   347.9000      8.1119      2.5144      0.0607      8.2210     27.8149    125.6073
   348.0000      8.1124      2.5222      0.0813      7.7463     27.3334    126.2911
   348.1000      8.1124      2.5251      0.0908      7.5693     26.9702    124.2669
   348.2000      8.1124      2.5202      0.0701      7.8660     26.7875    126.1566
   348.3000      8.1127      2.5130      0.0717      8.3029     26.5213    132.9963
   348.4000      8.1127      2.5089      0.0809      8.5487     26.1637    138.1220
   348.5000      8.1110      2.5067      0.0736      8.6856     25.8868    134.4405
   348.6000      8.1110      2.5081      0.0371      8.5970     25.7273    127.6177
   348.7000      8.1110      2.5155      0.0630      8.1488     25.8078    127.5848
   348.8000      8.1129      2.5230      0.0661      7.6987     25.8969    130.6229
   348.9000      8.1129      2.5289      0.0312      7.3369     25.6213    129.8439
   349.0000      8.1223      2.5404      0.0284      6.6452     25.3700    126.5563
   349.1000      8.1223      2.5545      0.0880      5.7900     25.5290    122.4508
   349.2000      8.1223      2.5553      0.1128      5.7423     25.9807    117.2178
   349.3000      8.1326      2.5414      0.0092      6.5822     26.3086    114.7438
   349.4000      8.1326      2.5327      0.0302      7.1061     26.1969    115.1219
   349.5000      8.1373      2.5327      0.0529      7.1062     25.9183    113.8257
   349.6000      8.1373      2.5322      0.0256      7.1370     25.8017    113.5877
   349.7000      8.1373      2.5371      0.0351      6.8398     25.7979    116.7187
   349.8000      8.1376      2.5504      0.0768      6.0375     25.8495    118.8140
   349.9000      8.1376      2.5615      0.0604      5.3614     25.8256    117.2713
   350.0000      8.1377      2.5654      0.0469      5.1281     25.5978    114.4543
   350.1000      8.1377      2.5630      0.0660      5.2732     25.5247    113.6303
   350.2000      8.1377      2.5586      0.0642      5.5384     25.8158    115.2309
   350.3000      8.1390      2.5589      0.0443      5.5185     26.1420    117.2760
   350.4000      8.1390      2.5643      0.0430      5.1949     26.5773    117.0551
   350.5000      8.1390      2.5716      0.0753      4.7503     27.2936    115.1760
   350.6000      8.1390      2.5771      0.0773      4.4181     27.8178    115.1854
   350.7000      8.1390      2.5743      0.0682      4.5867     27.8074    116.0113
   350.8000      8.1385      2.5638      0.0538      5.2260     27.4107    113.6391
   350.9000      8.1385      2.5534      0.0596      5.8531     26.8967    109.0140
   351.0000      8.1379      2.5491      0.0414      6.1124     26.6704    106.2317
   351.1000      8.1379      2.5520      0.0242      5.9418     26.8693    109.0533
   351.2000      8.1379      2.5536      0.0399      5.8413     26.9653    117.1011
   351.3000      8.1365      2.5395      0.0376      6.6976     26.5016    123.6484
   351.4000      8.1365      2.5097      0.0293      8.5058     25.9144    124.7532
   351.5000      8.1370      2.4849      0.0092     10.0062     25.7502    124.1140
   351.6000      8.1370      2.4769      0.0217     10.4933     25.7882    126.0167
   351.7000      8.1370      2.4669      0.0525     11.0996     25.7426    128.7247
