~Version Information
VERS.                      2.0: CWLS Log ASCII Standard - VERSION 2.0
WRAP.                       NO: One line per depth step
~Well Information Block
STRT.FT                -8.8000: 
STOP.FT              2006.2000: 
STEP.FT                 0.1000: 
NULL.                -999.2500: 
COMP.          Petrogulf Corporation: COMPANY
WELL.             J & P 12-33V: WELL
FLD.           Purgatorie River: FIELD
LOC.           2005' FSL & 1928' FEL: LOCATION
CNTY.               Las Animas: COUNTY
SRVC.                         : SERVICE COMPANY
DATE.          Fri Jul 29 13:37:28 2005: LOG DATE
UWI.                          : UNIQUE WELL ID
STAT.                 Colorado: STATE
~Curve Information Block
DEPT.FT            0 000 00 00: Depth
GR.GAPI                       : Gamma Ray
CCL.                          : Casing Collar Locator
TT3.usec                      : CBL 3' Travel Time
AMP3.mV                       : CBL 3' Amplitude
~Parameter Information Block
~A  Depth        GR         CCL         TT3         AMP3    
# ...
  1183.8000     79.4701      0.0000    256.1847     74.5921
  1183.9000     79.4701      0.0000    256.1847     74.5921
  1184.0000     84.4487      0.0000    256.2138     74.5057
  1184.1000     84.4487      0.0000    256.2138     74.5057
  1184.2000     84.4487      0.0000    256.2138     74.5057
  1184.3000     93.0096      0.0000    256.2442     74.4213
  1184.4000     93.0096      0.0000    256.2442     74.4213
  1184.5000    102.4059      0.0000    256.2531     74.4024
  1184.6000    102.4059      0.0000    256.2531     74.4024
  1184.7000    102.4059      0.0000    256.2531     74.4024
  1184.8000    109.6249      0.0000    256.2361     74.4630
  1184.9000    109.6249      0.0000    256.2361     74.4630
  1185.0000    113.2191      0.0000    256.2061     74.5527
  1185.1000    113.2191      0.0000    256.2061     74.5527
  1185.2000    113.2191      0.0000    256.2061     74.5527
  1185.3000    113.8652      0.0000    256.1800     74.6145
  1185.4000    113.8652      0.0000    256.1800     74.6145
  1185.5000    113.1022      0.0000    256.1685     74.6270
  1185.6000    113.1022      0.0000    256.1685     74.6270
  1185.7000    113.1022      0.0000    256.1685     74.6270
  1185.8000    111.6596      0.0000    256.1731     74.5989
  1185.9000    111.6596      0.0000    256.1731     74.5989
  1186.0000    109.3661      0.0000    256.1876     74.5375
  1186.1000    109.3661      0.0000    256.1876     74.5375
  1186.2000    109.3661      0.0000    256.1876     74.5375
  1186.3000    106.4170      0.0000    256.2031     74.4355
  1186.4000    106.4170      0.0000    256.2031     74.4355
  1186.5000    103.8280      0.0000    256.2116     74.3019
  1186.6000    103.8280      0.0000    256.2116     74.3019
  1186.7000    103.8280      0.0000    256.2116     74.3019
  1186.8000    102.4194      0.0000    256.2131     74.1852
  1186.9000    102.4194      0.0000    256.2131     74.1852
  1187.0000    102.1102      0.0000    256.2122     74.1474
  1187.1000    102.1102      0.0000    256.2122     74.1474
  1187.2000    102.1102      0.0000    256.2122     74.1474
  1187.3000    102.6090      0.0000    256.2100     74.2043
  1187.4000    102.6090      0.0000    256.2100     74.2043
  1187.5000    104.3042      0.0000    256.2052     74.3027
  1187.6000    104.3042      0.0000    256.2052     74.3027
  1187.7000    104.3042      0.0000    256.2052     74.3027
  1187.8000    108.0714      0.0000    256.1946     74.3947
  1187.9000    108.0714      0.0000    256.1946     74.3947
  1188.0000    114.3006      0.0000    256.1700     74.4990
  1188.1000    114.3006      0.0000    256.1700     74.4990
  1188.2000    114.3006      0.0000    256.1700     74.4990
  1188.3000    122.1052      0.0000    256.1307     74.6259
  1188.4000    122.1052      0.0000    256.1307     74.6259
  1188.5000    129.3014      0.0000    256.0947     74.7086
  1188.6000    129.3014      0.0000    256.0947     74.7086
  1188.7000    129.3014      0.0000    256.0947     74.7086
  1188.8000    133.4719      0.0000    256.0860     74.6748
  1188.9000    133.4719      0.0000    256.0860     74.6748
  1189.0000    133.6574      0.0000    256.1031     74.5404
  1189.1000    133.6574      0.0000    256.1031     74.5404
  1189.2000    133.6574      0.0000    256.1031     74.5404
  1189.3000    131.0427      0.0000    256.1235     74.3821
  1189.4000    131.0427      0.0000    256.1235     74.3821
  1189.5000    127.7709      0.0000    256.1440     74.2518
  1189.6000    127.7709      0.0000    256.1440     74.2518
  1189.7000    127.7709      0.0000    256.1440     74.2518
  1189.8000    125.3434      0.0000    256.1788     74.1718
  1189.9000    125.3434      0.0000    256.1788     74.1718
  1190.0000    124.3874      0.0000    256.2224     74.1665
  1190.1000    124.3874      0.0000    256.2224     74.1665
  1190.2000    124.3874      0.0000    256.2224     74.1665
  1190.3000    125.5433      0.0000    256.2520     74.2260
  1190.4000    125.5433      0.0000    256.2520     74.2260
  1190.5000    129.9252      0.0000    256.2587     74.2919
  1190.6000    129.9252      0.0000    256.2587     74.2919
  1190.7000    129.9252      0.0000    256.2587     74.2919
  1190.8000    138.4330      0.0000    256.2531     74.3355
  1190.9000    138.4330      0.0000    256.2531     74.3355
  1191.0000    150.4574      0.0000    256.2425     74.3916
  1191.1000    150.4574      0.0000    256.2425     74.3916
  1191.2000    150.4574      0.0000    256.2425     74.3916
  1191.3000    163.1207      0.0000    256.2256     74.4781
  1191.4000    163.1207      0.0000    256.2256     74.4781
  1191.5000    172.2457      0.0000    256.2042     74.5450
  1191.6000    172.2457      0.0000    256.2042     74.5450
  1191.7000    172.2457      0.0000    256.2042     74.5450
  1191.8000    174.9627      0.0000    256.1849     74.5340
  1191.9000    174.9627      0.0000    256.1849     74.5340
  1192.0000    171.7866      0.0000    256.1702     74.4545
  1192.1000    171.7866      0.0000    256.1702     74.4545
  1192.2000    171.7866      0.0000    256.1702     74.4545
  1192.3000    165.9768      0.0000    256.1580     74.3780
  1192.4000    165.9768      0.0000    256.1580     74.3780
  1192.5000    160.8628      0.0000    256.1479     74.3603
  1192.6000    160.8628      0.0000    256.1479     74.3603
  1192.7000    160.8628      0.0000    256.1479     74.3603
  1192.8000    157.8487      0.0000    256.1393     74.3944
  1192.9000    157.8487      0.0000    256.1393     74.3944
  1193.0000    156.4638      0.0000    256.1321     74.4331
  1193.1000    156.4638      0.0000    256.1321     74.4331
  1193.2000    156.4638      0.0000    256.1321     74.4331
  1193.3000    155.5162      0.0000    256.1342     74.4168
  1193.4000    155.5162      0.0000    256.1342     74.4168
  1193.5000    154.0625      0.0000    256.1573     74.3101
  1193.6000    154.0625      0.0000    256.1573     74.3101
  1193.7000    154.0625      0.0000    256.1573     74.3101
  1193.8000    151.8019      0.0000    256.2006     74.1636
  1193.9000    151.8019      0.0000    256.2006     74.1636
  1194.0000    149.0243      0.0000    256.2427     74.0993
  1194.1000    149.0243      0.0000    256.2427     74.0993
  1194.2000    149.0243      0.0000    256.2427     74.0993
  1194.3000    146.2929      0.0000    256.2584     74.1867
  1194.4000    146.2929      0.0000    256.2584     74.1867
  1194.5000    144.0217      0.0000    256.2442     74.3652
  1194.6000    144.0217      0.0000    256.2442     74.3652
  1194.7000    144.0217      0.0000    256.2442     74.3652
  1194.8000    142.1537      0.0000    256.2197     74.5214
  1194.9000    142.1537      0.0000    256.2197     74.5214
  1195.0000    140.3280      0.0000    256.2075     74.6032
  1195.1000    140.3280      0.0000    256.2075     74.6032
  1195.2000    140.3280      0.0000    256.2075     74.6032
  1195.3000    138.5571      0.0000    256.2140     74.6240
  1195.4000    138.5571      0.0000    256.2140     74.6240
  1195.5000    137.3938      0.0000    256.2217     74.6141
  1195.6000    137.3938      0.0000    256.2217     74.6141
  1195.7000    137.3938      0.0000    256.2217     74.6141
  1195.8000    136.9819      0.0000    256.2132     74.5824
  1195.9000    136.9819      0.0000    256.2132     74.5824
  1196.0000    136.3194      0.0000    256.1970     74.4925
  1196.1000    136.3194      0.0000    256.1970     74.4925
  1196.2000    136.3194      0.0000    256.1970     74.4925
  1196.3000    134.1870      0.0000    256.1894     74.3024
  1196.4000    134.1870      0.0000    256.1894     74.3024
  1196.5000    130.8118      0.0000    256.1949     74.0457
  1196.6000    130.8118      0.0000    256.1949     74.0457
  1196.7000    130.8118      0.0000    256.1949     74.0457
  1196.8000    128.0664      0.0000    256.2095     73.8305
  1196.9000    128.0664      0.0000    256.2095     73.8305
  1197.0000    127.8154      0.0000    256.2289     73.7115
  1197.1000    127.8154      0.0000    256.2289     73.7115
