~Version Information
VERS.                      2.0: CWLS Log ASCII Standard - VERSION 2.0
WRAP.                       NO: One line per depth step
~Well Information Block
STRT.FT                -9.2500: 
STOP.FT              2685.7500: 
STEP.FT                 0.2500: 
NULL.                -999.2500: 
COMP.          Pioneer Natural Resources: COMPANY
WELL.          Beacon 11-18 Tr: WELL
FLD.           Purgatorie River: FIELD
LOC.           409' FNL & 203' FWL--: LOCATION
PROV.                       CO: PROVINCE
CNTY.               Las Animas: COUNTRY
SRVC.                         : SERVICE COMPANY
DATE.          Fri Jan 21 09:45:44 2005: LOG DATE
UWI.        005 071 08251  : UNIQUE WELL ID
~Curve Information Block
DEPT.FT            0 000 00 00: Depth
CCL.                          : Casing Collar Locator
TT3.usec                      : CBL 3' Travel Time
AMP3.mV                       : CBL 3' Amplitude
GR.GAPI                       : Gamma Ray
~Parameter Information Block
~A  Depth       CCL         TT3         AMP3         GR     
    -9.2500   -999.2500   -999.2500   -999.2500   -999.2500
    -9.0000   -999.2500   -999.2500   -999.2500   -999.2500
    -8.7500   -999.2500   -999.2500   -999.2500    140.7728
    -8.5000   -999.2500   -999.2500   -999.2500    140.1540
    -8.2500   -999.2500   -999.2500   -999.2500    137.9694
    -8.0000   -999.2500   -999.2500   -999.2500    134.6509
    -7.7500   -999.2500   -999.2500   -999.2500    131.7343
    -7.5000   -999.2500   -999.2500   -999.2500    131.0687
    -7.2500   -999.2500   -999.2500   -999.2500    133.4859
    -7.0000   -999.2500   -999.2500   -999.2500    137.9881
    -6.7500   -999.2500   -999.2500   -999.2500    142.1019
    -6.5000   -999.2500   -999.2500   -999.2500    143.4444
    -6.2500   -999.2500   -999.2500   -999.2500    141.4822
    -6.0000   -999.2500   -999.2500   -999.2500    137.9618
    -5.7500   -999.2500   -999.2500   -999.2500    135.5847
    -5.5000   -999.2500   -999.2500   -999.2500    136.0626
    -5.2500   -999.2500   -999.2500   -999.2500    139.1228
    -5.0000   -999.2500   -999.2500   -999.2500    142.9619
    -4.7500   -999.2500   -999.2500   -999.2500    145.5114
    -4.5000   -999.2500   -999.2500   -999.2500    145.7266
    -4.2500   -999.2500   -999.2500   -999.2500    144.2313
    -4.0000   -999.2500   -999.2500   -999.2500    142.6230
    -3.7500   -999.2500    798.0000      1.1691    141.8423
    -3.5000   -999.2500    798.0000      1.1673    141.3201
    -3.2500   -999.2500    798.0000      1.1665    140.0397
    -3.0000   -999.2500    798.0000      1.1640    138.1763
    -2.7500   -999.2500    798.0000      1.1594    136.9951
    -2.5000   -999.2500    798.0000      1.1568    136.8333
    -2.2500   -999.2500    798.0000      1.1614    135.8434
    -2.0000   -999.2500    798.0000      1.1735    131.4463
    -1.7500   -999.2500    798.0000      1.1878    112.9909
    -1.5000   -999.2500    798.0000      1.1972    104.2989
    -1.2500   -999.2500    798.0000      1.1972     98.4212
    -1.0000   -999.2500    798.0000      1.1885     94.8208
    -0.7500   -999.2500    798.0000      1.1737     92.3690
    -0.5000   -999.2500    798.0000      1.1547     89.8217
    -0.2500   -999.2500    798.0000      1.1348     85.3106
     0.0000   -999.2500    798.0000      1.1175     66.0472
     0.2500   -999.2500    798.0000      1.1230     55.1062
     0.5000   -999.2500    798.0000      1.1297     47.9868
     0.7500   -999.2500    798.0000      1.1334     46.2913
     1.0000   -999.2500    798.0000      1.1366     48.9432
     1.2500   -999.2500    798.0000      1.1422     53.1823
     1.5000   -999.2500    798.0000      1.1478     56.1683
     1.7500      0.0000    798.0000      1.1485     56.5056
     2.0000      0.0000    798.0000      1.1431     54.8439
     2.2500      0.0000    798.0000      1.1350     52.9220
     2.5000      0.0000    798.0000      1.1288     51.9737
     2.7500      0.0000    798.0000      1.1279     52.2252
     3.0000      0.0000    798.0000      1.1330     53.7366
     3.2500      0.0000    798.0000      1.1423     56.9488
     3.5000      0.0000    798.0000      1.1522     61.8906
     3.7500      0.0000    798.0000      1.1578     67.3478
     4.0000      0.0000    798.0000      1.1556     71.8283
     4.2500      0.0000    797.9644      1.1503     75.2876
     4.5000      0.0000    797.7324      1.1690     78.8075
     4.7500      0.0000    796.5543      1.3149     82.6327
     5.0000     -2.0000    791.8948      1.9050     85.8641
     5.2500      0.0000    777.5420      3.6923     88.0831
     5.5000      0.0000    743.1105      7.9236     89.8987
     5.7500      0.0000    678.7814     15.7691     91.6792
     6.0000      0.0000    585.1780     27.1439     92.6746
     6.2500      0.0000    479.1024     40.0338     91.7179
     6.5000      0.0000    385.4798     51.4660     88.5027
     6.7500      0.0000    321.1235     59.4436     84.0475
     7.0000      0.0000    286.6701     63.9078     80.0857
     7.2500      0.0000    272.3053     66.0573     78.0977
     7.5000      2.0000    267.6377     67.1463     78.6060
     7.7500      0.0000    266.4498     67.8776     80.7947
     8.0000      0.0000    266.2090     68.4624     82.6260
     8.2500      0.0000    266.1717     68.9076     81.9221
     8.5000      0.0000    266.1774     69.2149     78.1124
     8.7500      0.0000    266.1870     69.4173     72.9399
     9.0000      0.0000    266.2006     69.5353     68.9458
     9.2500      0.0000    266.2209     69.5772     67.1948
     9.5000      0.0000    266.2456     69.5796     66.7986
     9.7500      0.0000    266.2671     69.6164     66.4437
    10.0000      0.0000    266.2787     69.7486     65.7683
    10.2500      0.0000    266.2790     69.9708     65.1432
    10.5000      0.0000    266.2704     70.2142     64.7121
    10.7500      0.0000    266.2604     70.3935     64.2638
    11.0000      0.0000    266.2664     70.4356     63.9486
    11.2500      0.0000    266.3289     70.2361     64.4787
    11.5000      0.0000    266.5282     69.5992     66.2995
    11.7500      0.0000    266.9815     68.3368     68.8170
    12.0000      0.0000    267.7882     66.4920     70.8133
    12.2500      0.0000    268.9376     64.3363     71.7032
    12.5000      0.0000    270.2637     62.0334     72.1668
    12.7500      0.0000    271.5090     59.4955     73.2928
    13.0000      0.0000    272.4583     56.7409     75.1988
    13.2500      0.0000    273.0395     54.1615     76.9187
    13.5000      0.0000    273.3206     52.2242     77.6930
    13.7500      0.0000    273.4255     51.0797     77.7942
    14.0000      0.0000    273.4463     50.6276     77.7274
    14.2500     -2.0000    273.4096     50.8467     77.0819
    14.5000      0.0000    273.2881     51.9526     74.8307
    14.7500      0.0000    273.0087     54.2068     70.6756
    15.0000      0.0000    272.4549     57.5183     65.6089
    15.2500      0.0000    271.5175     61.2349     61.2645
    15.5000      0.0000    270.2120     64.4921     59.0570
    15.7500      0.0000    268.7542     66.8710     59.5726
    16.0000      0.0000    267.4665     68.5869     62.1363
    16.2500      0.0000    266.5746     70.0204     65.0132
    16.5000      0.0000    266.0948     71.2811     66.5896
    16.7500      0.0000    265.8967     72.2761     66.6284
    17.0000      0.0000    265.8332     72.9617     66.2767
    17.2500      0.0000    265.8132     73.3933     66.7189
    17.5000      0.0000    265.7996     73.6350     67.9426
    17.7500      0.0000    265.7820     73.7288     69.1815
    18.0000      0.0000    265.7614     73.7351     70.2876
    18.2500      0.0000    265.7456     73.7456     71.6359
    18.5000      0.0000    265.7443     73.8423     72.5892
    18.7500      0.0000    265.7592     74.0539     71.3489
    19.0000      0.0000    265.7832     74.3492     66.9276
    19.2500      0.0000    265.8081     74.6614     60.5293
    19.5000      0.0000    265.8299     74.9254     54.6326
    19.7500      0.0000    265.8460     75.1180     51.2578
    20.0000      0.0000    265.8523     75.2691     51.1784
    20.2500      0.0000    265.8446     75.4254     53.9749
    20.5000      0.0000    265.8245     75.6075     58.3305
    20.7500      0.0000    265.7994     75.8083     62.6686
    21.0000      0.0000    265.7779     76.0156     66.1215
    21.2500      0.0000    265.7621     76.2206     68.9738
    21.5000      0.0000    265.7486     76.4131     71.9753
    21.7500      0.0000    265.7339     76.5851     75.2102
    22.0000      0.0000    265.7195     76.7397     77.7942
    22.2500      0.0000    265.7097     76.8894     78.7145
    22.5000      0.0000    265.7049     77.0453     77.9220
    22.7500      0.0000    265.7024     77.2061     76.6570
    23.0000      0.0000    265.7009     77.3539     76.8200
    23.2500      0.0000    265.7037     77.4650     79.8816
    23.5000      0.0000    265.7158     77.5290     85.9927
    23.7500      0.0000    265.7393     77.5606     93.7541
    24.0000      0.0000    265.7732     77.5950    100.6536
