~Version Information
VERS.                      2.0: CWLS Log ASCII Standard - VERSION 2.0
WRAP.                       NO: One line per depth step
~Well Information Block
STRT.FT                -9.0000: 
STOP.FT              2130.0000: 
STEP.FT                 0.2500: 
NULL.                -999.2500: 
COMP.          Pioneer Natural Resources: COMPANY
WELL.               King 22-13: WELL
FLD.           Purgatorie River: FIELD
LOC.           2419' FNL & 1806' FWL: LOCATION
PROV.                 Colorado: PROVINCE
CNTY.               Las Animas: COUNTRY
SRVC.                Patterson: SERVICE COMPANY
DATE.          Wed Apr 20 09:20:28 2005: LOG DATE
UWI.           05-071-08318-00: UNIQUE WELL ID
~Curve Information Block
DEPT.FT            0 000 00 00: Depth
CCL.                          : Casing Collar Locator
TT3.usec                      : CBL 3' Travel Time
AMP3.mV                       : CBL 3' Amplitude
GR.GAPI                       : Gamma Ray
~Parameter Information Block
~A  Depth       CCL         TT3         AMP3         GR     
# ...
  1398.0000      0.0000    747.3803      8.2438    104.2377
  1398.2500      0.0000    743.4257      8.2275    110.1392
  1398.5000      0.0000    738.4007      8.1803    113.2328
  1398.7500      0.0000    732.5005      8.1168    111.4190
  1399.0000      0.0000    728.1259      8.0495    104.6732
  1399.2500      0.0000    729.0914      7.9780     95.4190
  1399.5000      0.0000    738.1723      7.8888     86.7916
  1399.7500      0.0000    754.6908      7.7685     80.5829
  1400.0000      0.0000    774.1800      7.6202     76.6463
  1400.2500      0.0000    790.6246      7.4669     73.8597
  1400.5000      0.0000    799.7484      7.3354     71.6085
  1400.7500      0.0000    801.0488      7.2330     70.4230
  1401.0000      0.0000    797.2988      7.1432     71.2753
  1401.2500      0.0000    792.1522      7.0445     74.4845
  1401.5000      0.0000    787.8188      6.9334     79.5246
  1401.7500      0.0000    784.3501      6.8307     85.7021
  1402.0000      0.0000    780.4507      6.7682     92.7183
  1402.2500      0.0000    774.8296      6.7676    100.5235
  1402.5000      0.0000    767.3627      6.8281    108.7341
  1402.7500      0.0000    759.5005      6.9324    116.3102
  1403.0000      0.0000    753.4687      7.0601    121.8123
  1403.2500      0.0000    750.7162      7.1974    124.0103
  1403.5000      0.0000    750.8264      7.3378    122.5007
  1403.7500      0.0000    751.6326      7.4792    118.1075
  1404.0000      0.0000    750.4897      7.6252    112.6287
  1404.2500      0.0000    746.2395      7.7878    107.7053
  1404.5000      0.0000    740.6445      7.9856    103.7392
  1404.7500      0.0000    737.6550      8.2325    100.0917
  1405.0000      0.0000    740.3447      8.5229     96.2541
  1405.2500      0.0000    747.9702      8.8269     92.5597
  1405.5000      0.0000    756.2469      9.1056     89.9178
  1405.7500      0.0000    760.8718      9.3368     89.3111
  1406.0000      0.0000    760.7302      9.5220     91.6522
  1406.2500      0.0000    757.7709      9.6686     97.5300
  1406.5000      0.0000    754.5455      9.7704    106.4475
  1406.7500      0.0000    752.4620      9.8098    116.3593
  1407.0000      0.0000    751.9607      9.7734    124.5096
  1407.2500      0.0000    753.3375      9.6680    129.0235
  1407.5000      0.0000    756.7228      9.5222    129.7157
  1407.7500      0.0000    761.2484      9.3702    127.6673
  1408.0000      0.0000    764.8726      9.2271    124.3011
  1408.2500      0.0000    765.9351      9.0838    120.6580
  1408.5000      0.0000    765.1141      8.9268    117.0925
  1408.7500      0.0000    765.1799      8.7564    113.5231
  1409.0000      0.0000    768.3566      8.5850    110.1362
  1409.2500      0.0000    774.2192      8.4249    107.8031
  1409.5000      0.0000    780.3652      8.2838    107.3996
  1409.7500      0.0000    784.6461      8.1641    108.5886
  1410.0000      0.0000    786.3314      8.0574    109.6926
  1410.2500      0.0000    785.4479      7.9415    109.0789
  1410.5000      0.0000    781.8299      7.7929    106.4996
  1410.7500      0.0000    775.5064      7.6080    102.8181
  1411.0000      0.0000    768.0571      7.4091     98.5961
  1411.2500      0.0000    762.6896      7.2275     93.3695
  1411.5000      0.0000    761.9009      7.0820     86.5170
  1411.7500      0.0000    765.1744      6.9751     78.6587
  1412.0000      0.0000    769.7747      6.9040     71.7906
  1412.2500      0.0000    773.6462      6.8671     67.8819
  1412.5000      0.0000    776.7687      6.8580     67.4901
  1412.7500      0.0000    779.9327      6.8606     69.7763
  1413.0000      0.0000    783.2520      6.8553     73.5822
  1413.2500      0.0000    786.1600      6.8329     78.4587
  1413.5000      0.0000    788.1544      6.8022     84.8976
  1413.7500      0.0000    789.0980      6.7807     93.6714
  1414.0000      0.0000    789.1379      6.7798    104.7732
  1414.2500      0.0000    788.6406      6.8003    116.7049
  1414.5000      0.0000    788.1705      6.8385    126.7093
  1414.7500      0.0000    788.4279      6.8948    132.0347
  1415.0000      0.0000    790.3802      6.9741    131.4091
  1415.2500      0.0000    795.3229      7.0780    125.5504
  1415.5000      0.0000    803.8235      7.1975    116.4930
  1415.7500      0.0000    813.5986      7.3165    106.5343
  1416.0000      0.0000    819.2281      7.4223     97.3766
  1416.2500      0.0000    816.0419      7.5119     89.6131
  1416.5000      0.0000    804.7358      7.5882     82.9228
  1416.7500      0.0000    790.9277      7.6517     77.0878
  1417.0000      0.0000    780.1013      7.6942     72.9291
  1417.2500      0.0000    773.8528      7.7013     72.1043
  1417.5000      0.0000    770.5829      7.6619     75.8997
  1417.7500      0.0000    768.5074      7.5792     84.1127
  1418.0000      0.0000    767.5706      7.4700     94.9087
  1418.2500      0.0000    768.7865      7.3558    105.5765
  1418.5000      0.0000    772.4131      7.2561    113.6311
  1418.7500      0.0000    777.4424      7.1845    117.7966
  1419.0000      0.0000    782.9635      7.1466    118.4368
  1419.2500      0.0000    789.3145      7.1380    117.1838
  1419.5000      0.0000    797.4645      7.1467    115.8925
  1419.7500      0.0000    807.4385      7.1580    115.4438
  1420.0000      0.0000    817.5661      7.1619    115.3582
  1420.2500      0.0000    825.0386      7.1599    114.6568
  1420.5000      0.0000    827.1248      7.1674    113.0180
  1420.7500      0.0000    822.6897      7.2054    110.9225
  1421.0000      0.0000    813.4175      7.2865    108.9407
  1421.2500      0.0000    803.1595      7.4050    107.3034
  1421.5000      0.0000    795.3214      7.5394    106.0877
  1421.7500      0.0000    790.8020      7.6643    105.3648
  1422.0000      0.0000    788.2328      7.7619    105.1867
  1422.2500      0.0000    785.5242      7.8262    105.8276
  1422.5000      0.0000    781.3002      7.8588    108.1171
  1422.7500      0.0000    775.7546      7.8629    112.9646
  1423.0000      0.0000    770.5976      7.8412    120.0294
  1423.2500      0.0000    767.8433      7.7985    126.8902
  1423.5000      0.0000    768.4003      7.7443    130.0488
  1423.7500      0.0000    771.7189      7.6881    127.2629
  1424.0000      0.0000    776.4285      7.6336    118.9976
  1424.2500      0.0000    781.1506      7.5791    107.5573
  1424.5000      0.0000    785.1957      7.5237     95.2485
  1424.7500      0.0000    788.8816      7.4690     83.6935
  1425.0000      0.0000    793.0938      7.4158     74.2910
  1425.2500      0.0000    798.3521      7.3632     68.3248
  1425.5000      0.0000    804.2012      7.3136     66.3416
  1425.7500      0.0000    809.6025      7.2762     67.6900
  1426.0000      0.0000    814.0934      7.2603     70.8508
  1426.2500      0.0000    818.4886      7.2656     74.2637
  1426.5000      0.0000    823.7662      7.2827     77.0428
  1426.7500      0.0000    828.8831      7.3025     79.0181
  1427.0000      0.0000    830.1606      7.3245     80.1353
  1427.2500      0.0000    823.9884      7.3462     80.1180
  1427.5000      0.0000    811.3730      7.3386     78.9182
  1427.7500      0.0000    799.2871      7.2431     77.0042
  1428.0000      0.0000    794.6138      7.0260     74.6472
  1428.2500      0.0000    796.1721      6.7423     71.3874
  1428.5000      0.0000    796.2914      6.5107     67.0618
  1428.7500      0.0000    791.4114      6.4091     63.1159
  1429.0000      0.0000    787.5107      6.4134     61.9660
  1429.2500      0.0000    793.2164      6.4427     64.8894
  1429.5000     -5.0000    809.8519      6.4360     71.0390
  1429.7500      0.0000    829.6877      6.3831     78.5939
  1430.0000      0.0000    843.0150      6.3107     86.4764
  1430.2500      0.0000    845.4667      6.2527     94.5617
  1430.5000      0.0000    838.1852      6.2230    102.3493
  1430.7500      0.0000    823.6590      6.2227    108.1654
  1431.0000      0.0000    804.7229      6.2825    110.4193
  1431.2500      0.0000    786.5851      6.4549    109.4368
