~Version Information
VERS.                      2.0: CWLS Log ASCII Standard - VERSION 2.0
WRAP.                       NO: One line per depth step
~Well Information Block
STRT.FT               765.4000: 
STOP.FT              2581.2000: 
STEP.FT                 0.1000: 
NULL.                -999.2500: 
COMP.          Petrogulf Corporation: COMPANY
WELL.            Montoya 7-12V: WELL
FLD.           Purgatorie River: FIELD
LOC.           728' FWL & 1764' FNL: LOCATION
CNTY.               Las Animas: COUNTY
SRVC.                         : SERVICE COMPANY
DATE.          Fri Feb 20 09:23:58 2004: LOG DATE
UWI.           05-071-07887-00: UNIQUE WELL ID
STAT.                 Colorado: STATE
~Curve Information Block
DEPT.FT            0 000 00 00: Depth
DCAL.in                       : CDL Caliper
RHOB.g/cc                     : CDL Bulk Density
RHOC.g/cc                     : CDL Density Correction
DPOR.pu                       : CDL Density Porosity
GR.GAPI                       : Gamma Ray
NPOR.pu                       : Neutron Porosity
~Parameter Information Block
~A  Depth       DCAL        RHOB        RHOC        DPOR         GR         NPOR    
# ...
  2455.0000      7.8552      2.4585     -0.0175     11.6036     51.0076     12.7200
  2455.1000      7.8552      2.4647      0.0318     11.2283     43.0270     12.1527
  2455.2000      7.8552      2.4930      0.0131      9.5161     36.6378     12.6755
  2455.3000      7.8672      2.5075      0.0158      8.6360     37.7407     13.8950
  2455.4000      7.8672      2.4963      0.0055      9.3130     41.0317     14.8685
  2455.5000      7.8578      2.4901     -0.0334      9.6880     41.6838     15.4007
  2455.6000      7.8578      2.5087      0.0618      8.5665     41.7106     15.9525
  2455.7000      7.8578      2.5307      0.0724      7.2286     43.2594     16.4815
  2455.8000      7.8558      2.5323      0.0455      7.1328     45.5557     16.5676
  2455.9000      7.8558      2.5090      0.0533      8.5447     49.2954     16.5823
  2456.0000      7.8664      2.4748     -0.0139     10.6210     53.5395     17.1443
  2456.1000      7.8664      2.4557     -0.0542     11.7778     56.5682     17.8686
  2456.2000      7.8664      2.4566     -0.0128     11.7207     63.3317     18.2323
  2456.3000      7.8752      2.4565      0.0161     11.7284     72.1814     18.2393
  2456.4000      7.8752      2.4442     -0.0132     12.4697     71.2087     17.7923
  2456.5000      7.8912      2.4390     -0.0340     12.7889     59.3319     16.9271
  2456.6000      7.8912      2.4635     -0.0234     11.3016     46.6235     15.8096
  2456.7000      7.8912      2.5077     -0.0098      8.6227     39.8078     15.0231
  2456.8000      7.9048      2.5401      0.0270      6.6608     39.3222     14.9165
  2456.9000      7.9048      2.5499      0.0322      6.0681     41.2467     14.8638
  2457.0000      7.9116      2.5462      0.0352      6.2935     41.0621     14.4696
  2457.1000      7.9116      2.5345      0.0426      6.9986     40.0513     14.2011
  2457.2000      7.9116      2.5221     -0.0374      7.7496     41.5369     14.2492
  2457.3000      7.9086      2.5108      0.1103      8.4374     41.7603     14.4270
  2457.4000      7.9086      2.5004     -0.0665      9.0651     36.0776     14.6205
  2457.5000      7.8916      2.5127      0.0036      8.3204     29.0823     14.8256
  2457.6000      7.8916      2.5467      0.0672      6.2610     27.9110     14.8192
  2457.7000      7.8916      2.5739      0.0601      4.6132     32.4617     14.5885
  2457.8000      7.8682      2.5830      0.0458      4.0607     39.5164     14.6089
  2457.9000      7.8682      2.5740      0.0559      4.6045     45.6138     15.0883
  2458.0000      7.8690      2.5546      0.0649      5.7833     45.8746     15.8556
  2458.1000      7.8690      2.5433      0.0090      6.4656     43.1795     16.8683
  2458.2000      7.8690      2.5458      0.0939      6.3131     45.5277     17.9242
  2458.3000      7.8698      2.5492      0.0711      6.1099     48.9179     18.4356
  2458.4000      7.8698      2.5516      0.0520      5.9641     46.1770     18.1726
  2458.5000      7.8657      2.5583      0.0549      5.5559     40.6537     17.6534
  2458.6000      7.8657      2.5703      0.0634      4.8302     38.2691     17.5152
  2458.7000      7.8657      2.5836      0.0803      4.0228     39.8664     17.9203
  2458.8000      7.8679      2.5913      0.0164      3.5569     42.5820     18.8857
  2458.9000      7.8679      2.5854      0.0820      3.9157     43.3891     20.0159
  2459.0000      7.8692      2.5576      0.0419      5.6005     42.7722     20.2794
  2459.1000      7.8692      2.5207      0.0062      7.8361     45.5361     19.7941
  2459.2000      7.8692      2.4928      0.0607      9.5294     51.7565     19.5751
  2459.3000      7.8697      2.4676      0.0651     11.0529     56.6021     19.7001
  2459.4000      7.8697      2.4464     -0.0232     12.3406     59.9599     19.6425
  2459.5000      7.8722      2.4476     -0.0203     12.2690     63.2863     19.3185
  2459.6000      7.8722      2.4641      0.0563     11.2644     63.9328     18.8751
  2459.7000      7.8722      2.4758     -0.0293     10.5549     62.5351     18.3422
  2459.8000      7.8710      2.4796      0.0439     10.3258     61.8041     17.8576
  2459.9000      7.8710      2.4825     -0.0356     10.1498     60.8902     17.4273
  2460.0000      7.8721      2.4973     -0.0397      9.2517     59.4537     16.8534
  2460.1000      7.8721      2.5149      0.0594      8.1902     59.0501     16.2535
  2460.2000      7.8721      2.5184     -0.0193      7.9752     58.2799     16.0059
  2460.3000      7.8686      2.5201      0.0258      7.8757     54.3544     16.0485
  2460.4000      7.8686      2.5209      0.1024      7.8265     49.0546     16.0028
  2460.5000      7.8674      2.5144      0.0565      8.2199     47.6183     16.2229
  2460.6000      7.8674      2.5228      0.0245      7.7096     50.4229     16.8988
  2460.7000      7.8674      2.5582      0.0585      5.5666     54.5374     17.3171
  2460.8000      7.8676      2.5884      0.1034      3.7338     58.1288     17.3467
  2460.9000      7.8676      2.5834      0.1001      4.0375     57.8434     17.6268
  2461.0000      7.8515      2.5554      0.0551      5.7313     54.6905     18.1390
  2461.1000      7.8515      2.5283      0.0684      7.3754     50.7834     18.3129
  2461.2000      7.8515      2.5074      0.0335      8.6438     44.9010     18.0062
  2461.3000      7.8090      2.4970      0.0144      9.2741     41.1175     17.5521
  2461.4000      7.8090      2.4925      0.0421      9.5457     43.3619     17.3103
  2461.5000      7.7906      2.4784      0.0642     10.3993     46.1105     17.7407
  2461.6000      7.7906      2.4716     -0.0240     10.8100     43.2027     19.1129
  2461.7000      7.7906      2.5028      0.0315      8.9193     36.4671     20.9712
  2461.8000      7.7752      2.5479      0.0931      6.1857     31.7086     22.2846
  2461.9000      7.7752      2.5569      0.1059      5.6447     31.5562     22.5070
  2462.0000      7.7808      2.5315      0.0575      7.1816     32.1720     22.2696
  2462.1000      7.7808      2.5135      0.0494      8.2739     31.3244     22.5011
  2462.2000      7.7808      2.5162      0.0246      8.1075     32.7582     23.0297
  2462.3000      7.7968      2.5244      0.0321      7.6110     36.3969     22.8094
  2462.4000      7.7968      2.5253      0.0873      7.5546     39.4213     21.5026
  2462.5000      7.7965      2.5172      0.0624      8.0465     42.8512     19.9033
  2462.6000      7.7965      2.5134      0.0454      8.2778     44.2198     18.9452
  2462.7000      7.7965      2.5242      0.0757      7.6244     40.3645     18.8038
  2462.8000      7.7998      2.5384      0.0699      6.7634     35.3467     19.1797
  2462.9000      7.7998      2.5425      0.0790      6.5162     36.4432     19.7100
  2463.0000      7.8063      2.5349      0.0712      6.9756     43.7679     20.0116
  2463.1000      7.8063      2.5206      0.0794      7.8428     51.1523     20.0761
  2463.2000      7.8063      2.5018      0.0759      8.9826     53.1112     20.3589
  2463.3000      7.8066      2.4802      0.0301     10.2910     49.8148     20.9461
  2463.4000      7.8066      2.4671      0.0227     11.0850     51.1874     21.1464
  2463.5000      7.8153      2.4686      0.0817     10.9913     61.5900     20.4003
  2463.6000      7.8153      2.4818      0.0146     10.1946     71.1069     19.3001
  2463.7000      7.8153      2.5042      0.0273      8.8372     69.6838     18.9499
  2463.8000      7.8148      2.5224      0.0838      7.7330     61.4555     19.6387
  2463.9000      7.8148      2.5254      0.0976      7.5496     55.6680     20.7616
  2464.0000      7.8158      2.5261      0.1048      7.5108     52.3750     21.6513
  2464.1000      7.8158      2.5356      0.1121      6.9350     51.6237     21.9499
  2464.2000      7.8158      2.5487      0.0501      6.1387     57.3235     21.6166
  2464.3000      7.8180      2.5609      0.0554      5.4024     68.3359     21.1285
  2464.4000      7.8180      2.5691      0.0590      4.9016     75.8409     20.9821
  2464.5000      7.8227      2.5743      0.0860      4.5885     73.0049     20.7969
