~Version Information
VERS.                      2.0: CWLS Log ASCII Standard - VERSION 2.0
WRAP.                       NO: One line per depth step
~Well Information Block
STRT.FT                -7.7500: 
STOP.FT              2394.2500: 
STEP.FT                 0.2500: 
NULL.                -999.2500: 
COMP.      PIONEER NATURAL RESOURCES  : COMPANY
WELL.         NOMAD 32-10  : WELL
FLD.                          : FIELD
LOC.      SWNE 10 32S 66W 6PM : LOCATION
PROV.                         : PROVINCE
CNTY.                         : COUNTRY
SRVC.                         : SERVICE COMPANY
DATE.          Thu Aug 26 13:45:47 2004: LOG DATE
UWI.      005 071 08127  : UNIQUE WELL ID
~Curve Information Block
DEPT.FT            0 000 00 00: Depth
CCL.                          : Casing Collar Locator
TT3.usec                      : CBL 3' Travel Time
AMP3.mV                       : CBL 3' Amplitude
GR.GAPI                       : Gamma Ray
~Parameter Information Block
~A  Depth       CCL         TT3         AMP3         GR     
# ...
   461.2500      0.0000    739.4346      7.7098     82.8926
   461.5000      0.0000    740.9421      7.6983     80.1577
   461.7500      0.0000    743.0957      7.6408     78.7164
   462.0000      0.0000    744.9888      7.5830     79.1686
   462.2500      0.0000    746.0245      7.5963     81.4667
   462.5000      0.0000    746.2106      7.6809     84.8341
   462.7500      0.0000    745.7588      7.7603     87.8221
   463.0000      0.0000    744.6519      7.7721     88.9178
   463.2500      0.0000    742.3654      7.7277     87.5675
   463.5000      0.0000    737.6860      7.6569     84.6316
   463.7500      0.0000    728.5400      7.5302     81.6678
   464.0000      0.0000    712.7483      7.2918     79.7542
   464.2500      0.0000    691.0306      6.9667     78.9951
   464.5000      0.0000    670.3550      6.6763     78.7945
   464.7500      0.0000    661.5797      6.5258     78.2818
   465.0000      0.0000    670.1790      6.5143     76.6294
   465.2500      0.0000    690.3751      6.5662     73.4293
   465.5000      0.0000    711.0824      6.6241     69.1353
   465.7500     -1.7700    726.1616      6.6890     65.1968
   466.0000     -2.0000    736.3937      6.7791     63.3575
   466.2500      0.0000    743.0380      6.8781     64.2976
   466.5000      0.0000    742.2382      6.9627     66.8789
   466.7500      0.0000    726.3516      7.0703     68.9402
   467.0000      0.0000    691.5718      7.2698     68.8611
   467.2500      0.0000    645.3842      7.5407     66.4473
   467.5000      0.0000    605.0948      7.7542     62.7626
   467.7500      0.0000    586.5769      7.8284     59.3738
   468.0000      0.0000    595.0639      7.8252     57.4094
   468.2500      0.0000    625.9242      7.8322     56.9022
   468.5000      0.0000    669.1269      7.8321     56.9191
   468.7500      0.0000    711.7866      7.7547     56.3822
   469.0000      0.0000    742.0540      7.5854     54.8605
   469.2500      0.0000    754.5640      7.3539     52.7527
   469.5000      0.0000    752.0598      7.0701     50.7782
   469.7500      0.0000    742.1013      6.7354     49.2577
   470.0000      0.0000    732.4415      6.3915     47.9398
   470.2500      0.0000    727.8328      6.0960     46.4873
   470.5000      0.0000    728.9943      5.8507     44.8112
   470.7500      0.0000    733.6436      5.6038     42.8580
   471.0000      0.0000    738.7079      5.3327     40.4561
   471.2500      0.0000    742.1708      5.0792     37.6648
   471.5000      0.0000    743.6400      4.8888     35.1416
   471.7500      0.0000    743.7202      4.7600     33.8514
   472.0000      0.0000    743.1689      4.6749     34.2667
   472.2500      0.0000    742.5178      4.6372     35.8966
   472.5000      0.0000    742.1141      4.6431     37.6501
   472.7500      0.0000    742.2167      4.6571     38.6878
   473.0000      0.0000    742.9584      4.6591     39.1105
   473.2500      0.0000    744.2055      4.6847     40.0681
   473.5000      0.0000    745.4542      4.7787     43.1791
   473.7500      0.0000    745.8527      4.9359     49.4916
   474.0000      0.0000    744.3887      5.1277     58.8072
   474.2500      0.0000    740.3932      5.3577     70.1052
   474.5000      0.0000    734.3535      5.6446     82.4566
   474.7500      0.0000    728.4432      5.9770     95.0950
   475.0000      0.0000    725.8532      6.3214    106.7641
   475.2500      0.0000    728.8150      6.6510    115.8004
   475.5000      0.0000    736.5229      6.9349    121.1363
   475.7500      0.0000    744.8558      7.1309    122.9710
   476.0000      0.0000    748.9438      7.2260    122.5795
   476.2500      0.0000    747.1188      7.2576    121.6889
   476.5000      0.0000    742.6446      7.2705    121.6787
   476.7500      0.0000    741.0520      7.2785    122.8983
   477.0000      0.0000    745.2589      7.2838    124.6942
   477.2500      0.0000    753.1384      7.2947    126.1025
   477.5000      0.0000    759.7300      7.3070    126.6596
   477.7500      0.0000    761.5583      7.3005    127.0495
   478.0000      0.0000    758.8495      7.2735    128.9211
   478.2500      0.0000    754.2419      7.2487    133.0265
   478.5000      0.0000    750.1658      7.2380    137.3072
   478.7500      0.0000    747.5309      7.2358    138.1264
   479.0000      0.0000    746.1317      7.2482    133.9748
   479.2500      0.0000    745.5115      7.2862    127.1786
   479.5000      0.0000    745.3379      7.3328    121.8483
   479.7500      0.0000    745.3795      7.3622    120.8511
   480.0000      0.0000    745.4504      7.3857    124.3560
   480.2500      0.0000    745.4306      7.4349    130.1182
   480.5000      0.0000    745.2923      7.5068    135.0750
   480.7500      0.0000    745.1073      7.5736    137.5402
   481.0000      0.0000    745.0157      7.6320    138.4825
   481.2500      0.0000    745.1462      7.6982    140.5824
   481.5000      0.0000    745.5341      7.7706    145.5596
   481.7500      0.0000    746.1120      7.8368    152.1821
   482.0000      0.0000    746.7689      7.9002    156.9972
   482.2500      0.0000    747.4089      7.9703    157.0169
   482.5000      0.0000    747.9739      8.0455    151.8359
   482.7500      0.0000    748.4405      8.1208    143.8157
   483.0000      0.0000    748.7983      8.1885    136.6132
   483.2500      0.0000    749.0262      8.2338    132.7327
   483.5000      0.0000    749.0969      8.2564    131.4353
   483.7500      0.0000    749.0037      8.2876    129.1350
   484.0000      0.0000    748.7612      8.3566    122.6001
   484.2500      0.0000    748.3902      8.4519    112.0935
   484.5000      0.0000    747.9390      8.5385    101.2856
   484.7500      0.0000    747.5453      8.5919     94.1281
   485.0000      0.0000    747.4946      8.6069     91.9050
   485.2500      0.0000    748.2789      8.5978     92.9605
   485.5000      0.0000    750.5908      8.5888     94.5357
   485.7500      0.0000    755.0313      8.5884     94.4592
   486.0000      0.0000    761.4967      8.5817     91.5445
   486.2500      0.0000    768.8090      8.5561     85.5908
   486.5000      0.0000    775.2167      8.5139     77.7819
   486.7500      0.0000    779.3974      8.4605     70.5188
   487.0000      0.0000    780.8763      8.4036     65.8311
   487.2500      0.0000    779.5997      8.3578     63.7352
   487.5000      0.0000    775.5688      8.3308     62.5499
   487.7500      0.0000    769.1821      8.3175     60.8275
   488.0000      0.0000    761.7042      8.3148     58.7176
   488.2500      0.0000    754.9213      8.3268     57.4822
   488.5000      0.0000    750.1323      8.3518     57.9785
   488.7500      0.0000    747.5353      8.3813     59.7534
   489.0000      0.0000    746.5085      8.4094     61.5010
   489.2500      0.0000    746.2792      8.4342     62.5068
   489.5000      0.0000    746.3526      8.4643     63.7190
   489.7500      0.0000    746.5698      8.5203     67.2469
   490.0000      0.0000    746.9540      8.6156     74.5345
   490.2500      0.0000    747.5180      8.7400     84.7726
   490.5000      0.0000    748.1605      8.8741     95.0668
   490.7500      0.0000    748.6993      9.0047    102.7318
   491.0000      0.0000    748.9855      9.1210    107.8750
   491.2500      0.0000    748.9979      9.2138    113.1158
   491.5000      0.0000    748.8313      9.2790    120.1079
   491.7500      0.0000    748.6011      9.3186    126.9818
   492.0000      0.0000    748.4119      9.3404    129.9934
   492.2500      0.0000    748.4887      9.3534    127.0200
   492.5000      0.0000    749.3644      9.3567    118.6948
   492.7500      0.0000    751.8672      9.3403    107.0329
   493.0000      0.0000    756.6858      9.2978     94.2802
   493.2500      0.0000    763.6463      9.2287     82.6448
   493.5000      0.0000    771.3904      9.1461     73.5957
   493.7500      0.0000    778.0613      9.0877     67.1525
   494.0000      0.0000    782.4991      9.0942     62.5754
   494.2500      0.0000    784.7538      9.1666     59.7785
   494.5000      0.0000    785.5607      9.2637     59.5002
