~Version Information
VERS.                      2.0: CWLS Log ASCII Standard - VERSION 2.0
WRAP.                       NO: One line per depth step
~Well Information Block
STRT.FT                -4.7500: 
STOP.FT              2809.5000: 
STEP.FT                 0.2500: 
NULL.                -999.2500: 
COMP.          Pioneer Natural Resources: COMPANY
WELL.              Lynch 43-30: WELL
FLD.           Purgatorie River: FIELD
LOC.           1438' FSL & 429' FEL--: LOCATION
PROV.                       CO: PROVINCE
CNTY.               Las Animas: COUNTRY
SRVC.                         : SERVICE COMPANY
DATE.          Sat Oct 30 09:52:34 2004: LOG DATE
UWI.          005 071 08170   : UNIQUE WELL ID
~Curve Information Block
DEPT.FT            0 000 00 00: Depth
GR.GAPI                       : Gamma Ray
CCL.                          : Casing Collar Locator
TT3.usec                      : CBL 3' Travel Time
AMP3.mV                       : CBL 3' Amplitude
~Parameter Information Block
~A  Depth        GR         CCL         TT3         AMP3    
# ...
  1670.2500    122.5495      0.0000    748.4565      3.2573
  1670.5000    115.5362      0.0000    746.8778      3.3495
  1670.7500    113.5938      2.0000    744.5233      3.4836
  1671.0000    116.6531      0.0000    743.2720      3.5774
  1671.2500    121.9790      0.0000    743.4347      3.6241
  1671.5000    126.4983      0.0000    742.6711      3.6747
  1671.7500    128.5459      0.0000    736.3214      3.8087
  1672.0000    128.1044      0.0000    719.2573      4.0771
  1672.2500    126.3382      0.0000    689.0089      4.4354
  1672.5000    124.9807      0.0000    648.8703      4.7582
  1672.7500    125.7168      0.0000    607.9158      4.9533
  1673.0000    129.5396      0.0000    576.4147      5.0453
  1673.2500    135.8296      0.0000    560.1400      5.1212
  1673.5000    142.0466      0.0000    558.5551      5.2258
  1673.7500    145.4737      0.0000    567.6642      5.3354
  1674.0000    145.8187      0.0000    583.8712      5.4052
  1674.2500    145.4909      0.0000    605.0417      5.4157
  1674.5000    147.1239      0.0000    628.4723      5.3815
  1674.7500    151.2944      0.0000    649.4728      5.3334
  1675.0000    156.3821      0.0000    663.5670      5.2934
  1675.2500    159.7790      0.0000    669.8913      5.2642
  1675.5000    159.2764      0.0000    671.4122      5.2344
  1675.7500    154.3915      0.0000    672.2106      5.1904
  1676.0000    147.0022      0.0000    675.3925      5.1278
  1676.2500    140.2547      0.0000    682.7699      5.0542
  1676.5000    136.1025      0.0000    694.7567      4.9833
  1676.7500    133.9303      0.0000    709.8269      4.9272
  1677.0000    131.8589      0.0000    724.7297      4.8923
  1677.2500    128.9997      0.0000    736.1206      4.8764
  1677.5000    126.1089      0.0000    742.3689      4.8725
  1677.7500    124.5959      0.0000    744.1187      4.8736
  1678.0000    125.3015      0.0000    743.5234      4.8765
  1678.2500    127.6577      0.0000    742.8034      4.8823
  1678.5000    129.7978      0.0000    742.8051      4.8923
  1678.7500    130.0995      0.0000    742.4575      4.9017
  1679.0000    128.8445      0.0000    739.8381      4.8977
  1679.2500    128.1014      0.0000    734.2286      4.8671
  1679.5000    130.0171      0.0000    727.2741      4.8070
  1679.7500    135.2249      0.0000    721.4415      4.7318
  1680.0000    142.4389      0.0000    716.7927      4.6680
  1680.2500    149.2320      0.0000    710.2566      4.6344
  1680.5000    153.3516      0.0000    699.4144      4.6290
  1680.7500    153.8914      0.0000    686.3522      4.6414
  1681.0000    151.9348      0.0000    676.2205      4.6724
  1681.2500    150.0761      0.0000    672.4124      4.7282
  1681.5000    150.3944      0.0000    674.6821      4.7979
  1681.7500    152.1088      0.0000    681.4608      4.8519
  1682.0000    151.6451      0.0000    691.6721      4.8696
  1682.2500    145.8838      0.0000    703.8025      4.8559
  1682.5000    135.3586      0.0000    714.9711      4.8282
  1682.7500    123.7616      0.0000    721.3510      4.7945
  1683.0000    114.5157      0.0000    718.6804      4.7545
  1683.2500    108.3807      0.0000    702.9953      4.7154
  1683.5000    104.0156      0.0000    672.8527      4.6938
  1683.7500     99.9902      0.0000    632.7929      4.7002
  1684.0000     96.2365      0.0000    595.5211      4.7273
  1684.2500     94.1698      0.0000    578.2039      4.7569
  1684.5000     95.5511      0.0000    591.2584      4.7704
  1684.7500    101.0545      0.0000    628.2612      4.7546
  1685.0000    110.0528      0.0000    668.9516      4.7026
  1685.2500    121.4066      0.0000    693.4310      4.6157
  1685.5000    133.7269      0.0000    692.9983      4.5081
  1685.7500    144.9349      0.0000    670.0145      4.4083
  1686.0000    152.7455      0.0000    632.2043      4.3494
  1686.2500    156.4442      0.0000    588.7076      4.3495
  1686.5000    157.7573      0.0000    549.1553      4.4012
  1686.7500    159.0589      0.0000    522.6609      4.4752
  1687.0000    160.6907      0.0000    514.7031      4.5302
  1687.2500    160.8033      0.0000    524.3655      4.5253
  1687.5000    158.1799      0.0000    545.8765      4.4411
  1687.7500    154.5933      0.0000    573.4167      4.2949
  1688.0000    153.5700      0.0000    603.7886      4.1292
  1688.2500    156.6992      0.0000    634.6152      3.9858
  1688.5000    161.7800      0.0000    661.9280      3.8936
  1688.7500    164.7541      0.0000    681.5700      3.8683
  1689.0000    162.8767      0.0000    692.8376      3.9082
  1689.2500    155.9826      0.0000    699.2474      3.9952
  1689.5000    145.7422      0.0000    705.3823      4.1137
  1689.7500    134.5081      0.0000    713.6619      4.2655
  1690.0000    124.6695      0.0000    723.7526      4.4598
  1690.2500    118.1130      0.0000    733.8061      4.6948
  1690.5000    115.6287      0.0000    741.9382      4.9582
  1690.7500    116.7107      0.0000    747.2784      5.2361
  1691.0000    119.7615      0.0000    750.1976      5.5136
  1691.2500    122.5261      0.0000    751.6798      5.7689
  1691.5000    123.1305      0.0000    752.5245      5.9755
  1691.7500    121.3853      0.0000    753.0139      6.1122
  1692.0000    118.8695      0.0000    753.1146      6.1660
  1692.2500    117.3047      0.0000    752.8169      6.1331
  1692.5000    117.0333      0.0000    752.2750      6.0258
  1692.7500    117.2299      0.0000    751.6910      5.8752
  1693.0000    117.3539      0.0000    751.1136      5.7128
  1693.2500    118.2221      0.0000    750.3012      5.5464
  1693.5000    121.5218      0.0000    748.8143      5.3630
  1693.7500    127.9817      0.0000    746.4517      5.1528
  1694.0000    136.0910      0.0000    743.6724      4.9267
  1694.2500    143.1756      0.0000    741.2119      4.7103
  1694.5000    147.7747      0.0000    738.9617      4.5281
  1694.7500    150.2746      0.0000    735.5560      4.3942
  1695.0000    151.4054      0.0000    729.5161      4.3123
  1695.2500    151.1725      0.0000    720.4985      4.2803
  1695.5000    149.4733      0.0000    708.9551      4.2944
  1695.7500    146.9176      0.0000    695.0333      4.3515
  1696.0000    144.5300      0.0000    678.6137      4.4475
  1696.2500    142.9026      0.0000    660.2735      4.5675
  1696.5000    141.8943      0.0000    641.4875      4.6795
  1696.7500    141.1062      0.0000    623.9150      4.7466
  1697.0000    140.4206      0.0000    608.9466      4.7518
  1697.2500    139.7847      0.0000    597.6177      4.7078
  1697.5000    138.6445      0.0000    590.3105      4.6431
  1697.7500    136.3868      0.0000    586.6469      4.5824
  1698.0000    133.5275      0.0000    586.1518      4.5366
  1698.2500    131.7329      0.0000    589.3082      4.5067
  1698.5000    132.2123      0.0000    597.8542      4.4942
  1698.7500    134.3869      0.0000    613.5106      4.5034
  1699.0000    136.2925      0.0000    635.8046      4.5340
  1699.2500    136.1395      0.0000    661.1647      4.5757
  1699.5000    133.6121      0.0000    684.4821      4.6099
  1699.7500    130.1382      0.0000    701.5561      4.6202
  1700.0000    127.9280      0.0000    710.5043      4.6021
  1700.2500    128.1496      0.0000    711.9819      4.5676
  1700.5000    129.8219      0.0000    708.4068      4.5348
  1700.7500    130.9837      0.0000    702.6268      4.5148
  1701.0000    131.0238      0.0000    697.0787      4.5048
  1701.2500    131.4127      0.0000    693.4763      4.4923
  1701.5000    134.1010      0.0000    692.1119      4.4687
  1701.7500    139.4638      0.0000    691.4018      4.4416
  1702.0000    145.8037      0.0000    689.0823      4.4284
  1702.2500    150.8059      0.0000    684.0755      4.4369
  1702.5000    153.4018      0.0000    677.0073      4.4577
  1702.7500    154.0760      0.0000    669.6212      4.4797
  1703.0000    153.4913      0.0000    664.2414      4.5063
  1703.2500    151.5607      0.0000    662.6374      4.5545
  1703.5000    148.4332      0.0000    664.1870      4.6353
