~Version Information
VERS.                      2.0: CWLS Log ASCII Standard - VERSION 2.0
WRAP.                       NO: One line per depth step
~Well Information Block
STRT.FT               546.0000: 
STOP.FT              1771.5000: 
STEP.FT                 0.2500: 
NULL.                -999.2500: 
COMP.          Petrogulf Corporation: COMPANY
WELL.             McLeod 9-42R: WELL
FLD.           Purgatorie River: FIELD
LOC.           1748' FNL & 372' FEL: LOCATION
PROV.                 Colorado: PROVINCE
CNTY.               Las Animas: COUNTRY
SRVC.                Patterson: SERVICE COMPANY
DATE.          Tue Aug 16 11:11:38 2005: LOG DATE
UWI.           071 08092  : UNIQUE WELL ID
~Curve Information Block
DEPT.FT            0 000 00 00: Depth
SP.mV                         : DIL Spontaneous Potential
RILD.Ohm-m                    : DIL Deep Resistivity
RILM.Ohm-m                    : DIL Medium Resistivity
RLL3.Ohm-m                    : DIL Shallow Resistivity
GR.GAPI                       : Gamma Ray
~Parameter Information Block
~A  Depth        SP         RILD        RILM        RLL3         GR     
# ...
   770.0000   -143.0008     25.9594     32.0499     79.5094    100.4580
   770.2500   -141.6125     26.1739     30.0714     68.5030    105.3142
   770.5000   -140.4950     24.8701     25.9881     54.0690    100.6995
   770.7500   -139.8049     25.3293     25.1387     43.4622     99.0002
   771.0000   -139.0830     23.0865     23.6110     30.1852    104.9618
   771.2500   -137.4363     22.9452     20.0494     21.8614    100.1057
   771.5000   -134.9914     21.9084     19.3332     22.3896    115.7665
   771.7500   -132.6109     20.7554     17.5742     21.9951    113.2415
   772.0000   -131.1090     19.6133     15.9978     21.5865    121.7439
   772.2500   -129.8561     20.5589     15.6425     20.7613    124.0688
   772.5000   -128.3724     18.9773     13.4279     16.2073    119.7485
   772.7500   -127.2719     18.4725     13.7949     13.0838    120.7594
   773.0000   -127.4840     16.6199     13.6836     12.1575    126.2684
   773.2500   -127.7117     15.8094     14.1820     12.9091    119.9529
   773.5000   -128.5551     15.2454     14.5776     13.9935    119.3167
   773.7500   -130.5061     16.1798     16.2948     15.5318    114.7770
   774.0000   -132.4409     16.9545     16.7611     17.5879    112.0855
   774.2500   -133.8063     17.9406     18.3626     20.4116    107.3832
   774.5000   -134.9316     18.8712     20.0387     24.8220    100.6008
   774.7500   -136.1268     17.7023     21.9761     32.7864     98.8852
   775.0000   -137.0162     20.0320     22.0694     45.3370     96.7614
   775.2500   -138.0109     22.1086     22.2893     58.6670     99.8394
   775.5000   -138.2862     23.8782     22.3168     63.3626    100.5203
   775.7500   -138.5782     26.9813     24.4673     47.2603     98.4317
   776.0000   -138.4392     29.1681     26.7785     37.7440     92.8028
   776.2500   -137.7644     34.5414     29.9329     38.8573     90.8829
   776.5000   -137.7970     34.6091     31.8488     52.0366     95.3210
   776.7500   -137.9830     35.9345     36.1909     74.1567     95.7166
   777.0000   -137.9283     36.2383     41.6531     92.3548     97.3639
   777.2500   -137.2935     34.3267     42.6248     87.1382     96.6339
   777.5000   -136.6428     34.2832     41.3144     75.6960    100.7499
   777.7500   -135.4401     37.6972     40.2864     60.5392     98.5144
   778.0000   -134.5543     40.2134     34.5605     52.9904    104.6536
   778.2500   -134.8352     39.6221     34.9534     51.7075    111.5164
   778.5000   -135.1421     38.5169     33.7456     45.1130    113.9660
   778.7500   -134.8026     38.5143     29.3107     33.3502    118.5450
   779.0000   -135.0525     37.0568     29.7895     26.2367     99.9289
   779.2500   -135.5426     34.9601     29.1245     25.6825    105.6747
   779.5000   -136.5272     33.1604     28.3229     28.2312    116.5704
   779.7500   -137.8321     35.4481     27.8397     28.0344    116.1124
   780.0000   -139.9438     32.2301     25.5684     25.0420    106.9284
   780.2500   -142.5044     34.2285     24.1558     23.1617    103.9174
   780.5000   -145.0575     30.1719     23.8380     23.1872    101.0729
   780.7500   -148.6241     34.1104     25.9342     24.8810    101.5805
   781.0000   -153.1172     32.7096     27.7407     28.0255     88.4026
   781.2500   -158.6851     34.9862     29.6616     34.7824     81.0338
   781.5000   -162.9834     36.2943     30.7687     45.3800     82.2486
   781.7500   -163.0029     36.5952     31.5099     52.6734     94.6288
   782.0000   -160.9748     39.2311     33.1860     50.9010     86.3305
   782.2500   -162.0767     37.8116     35.3709     46.6290     82.5787
   782.5000   -162.7771     36.1621     37.9522     48.1654     77.0517
   782.7500   -164.9347     33.0609     41.9901     57.2443     72.5722
   783.0000   -164.3788     30.8674     42.7841     74.1464     82.8862
   783.2500   -162.6060     31.8041     43.2443     98.3127     84.1131
   783.5000   -160.2030     31.0275     34.8265    100.1627     90.8156
   783.7500   -157.3919     29.3651     34.0802     80.9254     95.6733
   784.0000   -154.6668     29.6405     28.2878     65.9800    108.1611
   784.2500   -151.2251     26.9002     26.4404     55.8302    117.4504
   784.5000   -147.4008     25.4376     23.4058     41.6408    114.7975
   784.7500   -144.3785     21.8135     20.8172     27.5496    109.8768
   785.0000   -140.7887     18.2667     17.9417     21.5854    112.9669
   785.2500   -137.0749     18.0597     16.7821     21.1251    119.4950
   785.5000   -134.2991     17.5308     16.1344     20.7275    119.7012
   785.7500   -132.7167     18.0680     14.2647     17.0120    128.0543
   786.0000   -131.8977     17.6059     13.8418     13.8521    126.3979
   786.2500   -131.5428     16.7840     14.2527     12.5919    123.2317
   786.5000   -129.7489     16.2003     15.2141     11.9846    101.6792
   786.7500   -128.0378     17.4144     16.4615     13.3437     93.7629
   787.0000   -130.2208     15.6641     17.1717     16.6955     88.9666
   787.2500   -131.4597     17.8392     18.4067     25.0666     78.4979
   787.5000   -131.6030     18.0745     18.9892     43.0348     87.2055
   787.7500   -131.4216     18.1653     18.5396     62.8469     99.5244
   788.0000   -131.2419     18.9866     18.4192     62.9611    108.6040
   788.2500   -129.9345     21.5609     19.1030     45.4136    110.0895
   788.5000   -128.5625     22.6906     19.7527     29.3804    103.4886
   788.7500   -128.6398     23.8961     23.4044     23.0813     89.0896
   789.0000   -128.4650     29.4280     24.4080     22.6975     74.1492
   789.2500   -127.4229     31.2376     29.9082     31.2133     60.6676
   789.5000   -126.2536     29.3746     32.2931     51.9315     57.3162
   789.7500   -124.8250     28.6967     38.7360     79.9742     63.3481
   790.0000   -122.4865     23.4450     44.9319     96.1423     65.6726
   790.2500   -121.2534     21.9117     38.8970    101.0728     68.4029
   790.5000   -119.9523     23.2592     33.3464     99.2812     75.8350
   790.7500   -117.6991     22.3043     33.5546     88.2711     85.5773
   791.0000   -114.4542     19.8458     26.7339     75.8348     97.4324
   791.2500   -111.5224     18.9854     23.6128     59.9161    103.2574
   791.5000   -108.3322     18.5765     21.2218     37.5631    106.3952
   791.7500   -106.1284     19.0387     19.7810     24.0640    106.1806
   792.0000   -104.5343     17.2496     18.3113     19.0394    111.6987
   792.2500   -103.5164     17.3051     16.9201     17.3685    104.2069
   792.5000   -102.5195     16.3031     17.4787     16.5659    109.9400
   792.7500   -101.7784     15.3180     16.1484     15.8650    107.5524
   793.0000   -101.2645     14.8857     15.7634     16.0203    111.8699
   793.2500   -101.7913     15.2516     16.1975     16.6736    101.7169
   793.5000   -102.7447     15.3125     15.0960     17.7638    110.1251
   793.7500   -103.8188     14.2683     15.1785     19.4202    109.0927
   794.0000   -105.2527     14.3906     14.9453     20.1982    108.8908
   794.2500   -106.5588     15.0188     15.2578     20.2937    103.9956
   794.5000   -108.3280     15.5880     15.6618     19.6667     99.9761
   794.7500   -110.0466     16.1342     16.9520     21.1622    101.5852
   795.0000   -109.6271     16.5941     18.0389     23.8084    102.4906
   795.2500   -108.2432     16.0860     18.0968     25.3764     96.8594
   795.5000   -109.4464     16.9395     18.4517     24.9538     96.7957
   795.7500   -110.7730     18.0096     21.0828     24.9959    102.0404
   796.0000   -112.0595     17.5434     19.8297     26.1837     95.7432
   796.2500   -113.6928     19.4195     21.0435     28.3635     92.6250
   796.5000   -116.0625     19.0383     24.3230     28.7437     98.0907
   796.7500   -118.6721     19.1232     23.5229     30.7458     97.2832
   797.0000   -121.8796     19.7076     22.6292     33.6588     95.7163
   797.2500   -125.4050     19.5514     23.0259     35.6162     92.9566
   797.5000   -128.4010     19.8620     22.8989     35.3466    100.8050
   797.7500   -130.3724     20.1019     22.5970     32.4871    100.2006
