~Version Information
VERS.                      2.0: CWLS Log ASCII Standard - VERSION 2.0
WRAP.                       NO: One line per depth step
~Well Information Block
STRT.FT               360.0000: 
STOP.FT              1622.7000: 
STEP.FT                 0.1000: 
NULL.                -999.2500: 
COMP.          Pioneer Natural Resources: COMPANY
WELL.                Eric 42-9: WELL
FLD.           Purgatoire River: FIELD
LOC.           2050' FNL & 850' FEL: LOCATION
PROV.                 Colorado: PROVINCE
CNTY.               Las Animas: COUNTRY
SRVC.                Patterson: SERVICE COMPANY
DATE.          Mon Nov 01 08:19:51 2004: LOG DATE
UWI.           05 071 07999 00: UNIQUE WELL ID
~Curve Information Block
DEPT.FT            0 000 00 00: Depth
DCAL.in                       : CDL Caliper
RHOB.g/cc                     : CDL Bulk Density
RHOC.g/cc                     : CDL Density Correction
DPOR.pu                       : CDL Density Porosity
NPOR.pu                       : Neutron Porosity
GR.GAPI                       : Gamma Ray
~Parameter Information Block
~A  Depth       DCAL        RHOB        RHOC        DPOR        NPOR         GR     
# ...
   609.6000      8.3419      2.5129      0.0009      8.3105     21.1966     70.0274
   609.7000      8.3419      2.5105     -0.0035      8.4547     21.3397     73.6503
   609.8000      8.3418      2.5116     -0.0097      8.3897     21.6175     76.9526
   609.9000      8.3418      2.5167      0.0069      8.0806     22.1740     79.1292
   610.0000      8.3422      2.5149      0.0315      8.1851     22.8497     83.2257
   610.1000      8.3422      2.4972     -0.0059      9.2614     23.4244     89.7013
   610.2000      8.3422      2.4815     -0.0780     10.2094     23.7572     93.3973
   610.3000      8.3413      2.4873      0.0057      9.8623     23.9285     92.9816
   610.4000      8.3413      2.5030      0.0122      8.9099     24.4055     93.0504
   610.5000      8.3427      2.5175      0.0024      8.0320     25.1573     95.9959
   610.6000      8.3427      2.5324     -0.0038      7.1261     25.5854    100.9412
   610.7000      8.3427      2.5449      0.0475      6.3682     25.5734    106.8973
   610.8000      8.3487      2.5479      0.0645      6.1883     25.5466    113.5771
   610.9000      8.3487      2.5423      0.0396      6.5255     25.6990    118.6675
   611.0000      8.3579      2.5325      0.0739      7.1222     25.7292    118.1690
   611.1000      8.3579      2.5198      0.0491      7.8914     25.4850    112.1033
   611.2000      8.3579      2.5135      0.0374      8.2713     25.0068    105.6732
   611.3000      8.3644      2.5170      0.0721      8.0615     24.2922    103.2070
   611.4000      8.3644      2.5161      0.0629      8.1160     23.7179    104.4631
   611.5000      8.3659      2.5108      0.0105      8.4379     23.8191    107.1451
   611.6000      8.3659      2.5149      0.0619      8.1888     24.3729    109.2474
   611.7000      8.3659      2.5262      0.0813      7.5029     24.5372    110.0797
   611.8000      8.3653      2.5361      0.0259      6.9009     24.3390    111.7142
   611.9000      8.3653      2.5420      0.0189      6.5465     24.3030    116.4504
   612.0000      8.3659      2.5431      0.0395      6.4800     24.3865    120.7388
   612.1000      8.3659      2.5495      0.0118      6.0885     24.4288    120.3751
   612.2000      8.3659      2.5680      0.0506      4.9706     24.3783    118.2970
   612.3000      8.3686      2.5866      0.0175      3.8451     24.3829    117.0439
   612.4000      8.3686      2.5969      0.0315      3.2212     24.6763    114.4140
   612.5000      8.3697      2.5970      0.0546      3.2138     25.1696    110.1800
   612.6000      8.3697      2.5874      0.0311      3.7947     25.6763    107.5109
   612.7000      8.3697      2.5803      0.0165      4.2272     26.1564    106.4532
   612.8000      8.3700      2.5829      0.0600      4.0664     26.6955    104.8670
   612.9000      8.3700      2.5866      0.0249      3.8440     27.1265    103.0980
   613.0000      8.3691      2.5813      0.0493      4.1616     27.1925    101.7607
   613.1000      8.3691      2.5665      0.0186      5.0595     27.1545    100.9229
   613.2000      8.3691      2.5527     -0.0068      5.8956     27.3036    102.0117
   613.3000      8.3677      2.5418      0.0091      6.5593     27.6453    106.2460
   613.4000      8.3677      2.5225      0.0256      7.7263     28.1018    111.3737
   613.5000      8.3697      2.4953     -0.0440      9.3784     28.3986    113.4267
   613.6000      8.3697      2.4658     -0.0058     11.1639     28.1901    110.6913
   613.7000      8.3697      2.4205     -0.0151     13.9063     27.4973    107.3735
   613.8000      8.3790      2.3434     -0.0306     18.5788     26.6721    107.5466
   613.9000      8.3790      2.2365     -0.0610     25.0586     25.7342    110.8608
   614.0000      8.3997      2.1123     -0.1310     32.5866     24.5222    115.1848
   614.1000      8.3997      1.9804     -0.1178     40.5827     23.0988    116.5775
   614.2000      8.3997      1.8434     -0.1585     48.8855     21.3129    112.5812
   614.3000      8.4349      1.7065     -0.1889     57.1832     19.1912    106.1656
   614.4000      8.4349      1.5759     -0.1611     65.0958     17.0108    101.0575
   614.5000      8.4963      1.4589     -0.1846     72.1868     14.7829     95.6721
   614.6000      8.4963      1.3646     -0.1411     77.9030     12.6413     89.4078
   614.7000      8.4963      1.2970     -0.1063     81.9996     10.9106     85.6535
   614.8000      8.5951      1.2573     -0.0358     84.4055      9.6367     81.9978
   614.9000      8.5951      1.2427      0.0271     85.2920      8.5837     73.4710
   615.0000      8.7046      1.2413      0.0853     85.3756      7.5108     62.6075
   615.1000      8.7046      1.2391      0.0868     85.5116      6.5514     54.3661
   615.2000      8.7046      1.2303      0.0613     86.0435      5.9073     48.6604
   615.3000      8.7772      1.2160      0.0581     86.9081      5.3990     44.3687
   615.4000      8.7772      1.1962      0.0395     88.1064      4.8788     42.0871
   615.5000      8.7979      1.1722      0.0253     89.5633      4.4365     41.6985
   615.6000      8.7979      1.1565     -0.0047     90.5162      4.2620     43.6030
   615.7000      8.7979      1.1703     -0.0043     89.6794      4.4834     47.5332
   615.8000      8.7808      1.2250      0.0386     86.3618      4.9411     51.2377
   615.9000      8.7808      1.3123      0.0977     81.0719      5.4666     53.8507
   616.0000      8.7246      1.4146      0.1736     74.8725      6.3265     56.5877
   616.1000      8.7246      1.5211      0.2214     68.4158      7.9141     59.1398
   616.2000      8.7246      1.6309      0.2698     61.7620      9.6410     60.4516
   616.3000      8.6249      1.7486      0.2883     54.6292     10.4231     60.8543
   616.4000      8.6249      1.8789      0.3157     46.7322     10.7422     62.6824
   616.5000      8.5242      2.0168      0.3323     38.3745     11.4207     68.3624
   616.6000      8.5242      2.1459      0.3622     30.5486     12.4491     76.5783
   616.7000      8.5242      2.2454      0.3587     24.5187     13.7080     84.7466
   616.8000      8.4782      2.3026      0.2750     21.0550     15.1275     92.1400
   616.9000      8.4782      2.3232      0.2222     19.8067     16.5312     99.2742
   617.0000      8.4730      2.3242      0.1661     19.7467     17.6623    104.5333
   617.1000      8.4730      2.3129      0.1792     20.4274     18.4589    106.6758
   617.2000      8.4730      2.2875      0.0990     21.9678     19.1712    110.4310
   617.3000      8.4789      2.2612      0.0552     23.5655     20.0927    117.2685
   617.4000      8.4789      2.2540      0.0483     23.9998     21.1255    118.9560
   617.5000      8.4890      2.2638      0.0754     23.4082     21.7839    112.9021
   617.6000      8.4890      2.2719      0.0865     22.9179     21.8809    106.1148
   617.7000      8.4890      2.2714      0.0811     22.9429     21.7129    103.8727
   617.8000      8.4981      2.2746      0.0355     22.7516     21.4430    107.3892
   617.9000      8.4981      2.2913      0.0739     21.7369     20.9430    115.5909
   618.0000      8.5050      2.3140      0.0955     20.3656     20.4354    124.8645
   618.1000      8.5050      2.3348      0.0762     19.1013     20.3129    132.9252
   618.2000      8.5050      2.3492      0.1143     18.2307     20.4272    137.7299
   618.3000      8.5202      2.3457      0.0946     18.4403     20.4475    136.2867
   618.4000      8.5202      2.3241      0.0443     19.7505     20.2401    131.6719
   618.5000      8.5413      2.2939      0.0680     21.5813     19.7034    129.3125
   618.6000      8.5413      2.2635      0.0532     23.4248     19.1831    127.9322
   618.7000      8.5413      2.2455      0.0576     24.5166     19.1673    126.7888
   618.8000      8.5524      2.2415      0.1183     24.7595     19.4928    127.5798
   618.9000      8.5524      2.2334      0.1039     25.2495     19.9648    127.5250
   619.0000      8.5571      2.2080      0.0592     26.7905     20.5722    123.6520
   619.1000      8.5571      2.1659      0.0545     29.3389     20.8950    118.7422
