~Version Information
VERS.                      2.0: CWLS Log ASCII Standard - VERSION 2.0
WRAP.                       NO: One line per depth step
~Well Information Block
STRT.FT                -7.0000: 
STOP.FT               867.2500: 
STEP.FT                 0.2500: 
NULL.                -999.2500: 
COMP.          Pioneer Natural Resources: COMPANY
WELL.          Claim Jumper 41-22: WELL
FLD.           Purgatorie River: FIELD
LOC.           1120' FNL & 977' FEL--: LOCATION
PROV.                       CO: PROVINCE
CNTY.               Las Animas: COUNTRY
SRVC.          Patterson Wireline: SERVICE COMPANY
DATE.          Mon Jun 27 12:47:30 2005: LOG DATE
UWI.           05 071 08405 00: UNIQUE WELL ID
~Curve Information Block
DEPT.FT            0 000 00 00: Depth
CCL.                          : Casing Collar Locator
TT3.usec                      : CBL 3' Travel Time
AMP3.mV                       : CBL 3' Amplitude
GR.GAPI                       : Gamma Ray
~Parameter Information Block
~A  Depth       CCL         TT3         AMP3         GR     
    -7.0000   -999.2500   -999.2500   -999.2500     90.1751
    -6.7500   -999.2500   -999.2500   -999.2500     91.4121
    -6.5000   -999.2500   -999.2500   -999.2500     92.4114
    -6.2500   -999.2500   -999.2500   -999.2500     93.5590
    -6.0000   -999.2500   -999.2500   -999.2500     95.1750
    -5.7500   -999.2500   -999.2500   -999.2500     96.9532
    -5.5000   -999.2500   -999.2500   -999.2500     97.8601
    -5.2500   -999.2500   -999.2500   -999.2500     96.7654
    -5.0000   -999.2500   -999.2500   -999.2500     93.3271
    -4.7500   -999.2500   -999.2500   -999.2500     88.4013
    -4.5000   -999.2500   -999.2500   -999.2500     83.6600
    -4.2500   -999.2500   -999.2500   -999.2500     80.5990
    -4.0000   -999.2500   -999.2500   -999.2500     79.5623
    -3.7500   -999.2500   -999.2500   -999.2500     79.6702
    -3.5000   -999.2500   -999.2500   -999.2500     79.7545
    -3.2500   -999.2500   -999.2500   -999.2500     79.3959
    -3.0000   -999.2500   -999.2500   -999.2500     79.1596
    -2.7500   -999.2500   -999.2500   -999.2500     79.9878
    -2.5000   -999.2500   -999.2500   -999.2500     82.3573
    -2.2500   -999.2500   1170.0000      0.6493     85.7777
    -2.0000   -999.2500   1170.0000      0.6499     88.8956
    -1.7500   -999.2500   1170.0000      0.6478     90.2669
    -1.5000   -999.2500   1170.0000      0.6435     89.4088
    -1.2500   -999.2500   1170.0000      0.6387     87.0856
    -1.0000   -999.2500   1170.0000      0.6354     84.3647
    -0.7500   -999.2500   1170.0000      0.6349     81.5697
    -0.5000   -999.2500   1170.0000      0.6375     78.3597
    -0.2500   -999.2500   1170.0000      0.6411     74.5158
     0.0000   -999.2500   1170.0000      0.6426     70.2204
     0.2500   -999.2500   1170.0000      0.6431     60.8698
     0.5000   -999.2500   1170.0000      0.6496     55.6820
     0.7500   -999.2500   1170.0000      0.6587     50.0291
     1.0000   -999.2500   1170.0000      0.6616     44.0083
     1.2500   -999.2500   1170.0000      0.6521     38.4268
     1.5000   -999.2500   1170.0000      0.6343     35.0185
     1.7500   -999.2500   1170.0000      0.6208     35.4571
     2.0000   -999.2500   1170.0000      0.6196     39.7954
     2.2500   -999.2500   1170.0000      0.6247     46.0497
     2.5000   -999.2500   1170.0000      0.6217     51.5157
     2.7500   -999.2500   1170.0000      0.6045     54.5612
     3.0000   -999.2500   1170.0000      0.5832     55.2839
     3.2500      0.0000   1170.0000      0.5750     54.8346
     3.5000      0.0000   1169.9425      0.5879     54.4276
     3.7500      0.0000   1169.5680      0.6192     54.7873
     4.0000      0.0000   1167.6655      0.6890     55.9792
     4.2500      0.0000   1160.1416      0.9087     57.4836
     4.5000      0.0000   1136.9670      1.5661     58.5684
     4.7500      0.0000   1081.3755      3.1360     58.7367
     5.0000      0.0000    977.5193      6.0587     57.8775
     5.2500      0.0000    826.4111     10.3014     56.0751
     5.5000      0.0000    655.1771     15.1100     53.4746
     5.7500      2.0000    504.0368     19.3807     50.4916
     6.0000      0.0000    400.0854     22.4126     47.9523
     6.2500      0.0000    344.2786     24.3067     46.6081
     6.5000      0.0000    320.6971     25.6899     46.5527
     6.7500      0.0000    312.5056     27.1046     47.4957
     7.0000      0.0000    309.6795     28.5549     49.4693
     7.2500      0.0000    308.3622     29.5209     52.6906
     7.5000      0.0000    308.4782     29.4275     56.6907
     7.7500      0.0000    313.3900     28.1220     60.0923
     8.0000      0.0000    331.5430     25.8969     61.4703
     8.2500      0.0000    376.8172     23.1685     60.3203
     8.5000      0.0000    462.1393     20.2634     57.3347
     8.7500      0.0000    586.5266     17.4229     54.0054
     9.0000      0.0000    727.6337     14.8309     51.7510
     9.2500      0.0000    852.4223     12.5909     50.9435
     9.5000      0.0000    938.4366     10.7232     50.6775
     9.7500      0.0000    984.1990      9.1997     49.7450
    10.0000      0.0000   1001.4904      7.9743     48.0210
    10.2500      0.0000   1002.7919      6.9968     46.7901
    10.5000      0.0000    996.5250      6.2240     47.4832
    10.7500      0.0000    989.0829      5.6299     50.0217
    11.0000      0.0000    985.9395      5.2026     52.5869
    11.2500      0.0000    988.9233      4.9277     53.1724
    11.5000      0.0000    994.0613      4.7753     51.2592
    11.7500      0.0000    994.2338      4.7035     47.9123
    12.0000      0.0000    985.0424      4.6730     44.7346
    12.2500      0.0000    968.7981      4.6588     43.1597
    12.5000      0.0000    952.8504      4.6517     44.2151
    12.7500      0.0000    942.5723      4.6518     48.0555
    13.0000      0.0000    935.7048      4.6614     53.5212
    13.2500      0.0000    925.3938      4.6824     58.5674
    13.5000      0.0000    908.6693      4.7163     61.4601
    13.7500      0.0000    889.5695      4.7615     61.7458
    14.0000      0.0000    874.0719      4.8108     60.2305
    14.2500      0.0000    864.6199      4.8524     58.1297
    14.5000      0.0000    859.8536      4.8767     56.2750
    14.7500      0.0000    857.2843      4.8841     55.0187
    15.0000      0.0000    855.1183      4.8862     54.5810
    15.2500      0.0000    852.7267      4.8986     55.1490
    15.5000      0.0000    850.6318      4.9323     56.5846
    15.7500      0.0000    849.9587      4.9907     58.2940
    16.0000      0.0000    851.2688      5.0751     59.6652
    16.2500      0.0000    853.8934      5.1909     60.6249
    16.5000      0.0000    856.6039      5.3436     61.5400
    16.7500      0.0000    858.9664      5.5253     62.5590
    17.0000      0.0000    862.1398      5.7072     63.3470
    17.2500      0.0000    869.0699      5.8519     63.5482
    17.5000      0.0000    883.8571      5.9388     63.1435
    17.7500      0.0000    909.4427      5.9776     62.2742
    18.0000      0.0000    944.3350      5.9990     61.1530
    18.2500      0.0000    981.4761      6.0325     60.3242
    18.5000      0.0000   1010.7277      6.0911     60.5856
    18.7500      0.0000   1023.4861      6.1717     62.2489
    19.0000      0.0000   1017.5642      6.2662     64.6518
    19.2500      0.0000    998.8853      6.3645     66.7365
    19.5000      0.0000    976.2997      6.4476     68.0512
    19.7500      0.0000    954.8855      6.4862     68.8073
    20.0000      0.0000    937.4393      6.4561     69.0927
    20.2500      0.0000    930.1208      6.3606     68.6932
    20.5000      0.0000    939.3395      6.2336     67.8224
    20.7500      0.0000    961.0899      6.1178     67.4155
    21.0000      0.0000    978.1698      6.0398     68.3979
    21.2500      0.0000    972.7995      6.0023     70.8452
    21.5000      0.0000    942.1403      5.9914     73.8514
    21.7500      0.0000    899.5429      5.9893     75.9747
    22.0000      0.0000    861.6092      5.9847     76.0299
    22.2500      0.0000    836.5441      5.9759     73.9477
    22.5000      0.0000    823.3060      5.9646     70.8730
    22.7500      0.0000    817.2224      5.9473     68.1247
    23.0000      0.0000    814.4121      5.9180     66.0688
    23.2500      0.0000    812.8498      5.8795     64.1771
    23.5000      0.0000    811.7527      5.8464     62.0580
    23.7500      0.0000    810.8998      5.8315     60.0731
    24.0000      0.0000    810.2957      5.8312     58.8161
    24.2500      0.0000    809.9825      5.8306     58.1968
    24.5000      0.0000    809.8932      5.8195     57.3611
    24.7500      0.0000    809.8582      5.8015     55.5987
    25.0000      0.0000    809.7313      5.7883     53.2137
    25.2500      0.0000    809.5012      5.7897     51.4093
    25.5000      0.0000    809.2900      5.8076     51.3958
    25.7500      0.0000    809.2643      5.8353     53.5539
    26.0000      0.0000    809.6290      5.8620     57.2324
    26.2500      0.0000    810.8082      5.8802     61.3256
