~Version Information
VERS.                      2.0: CWLS Log ASCII Standard - VERSION 2.0
WRAP.                       NO: One line per depth step
~Well Information Block
STRT.FT               750.6000: 
STOP.FT              2495.5000: 
STEP.FT                 0.1000: 
NULL.                -999.2500: 
COMP.                         : COMPANY
WELL.                         : WELL
FLD.                          : FIELD
LOC.                          : LOCATION
CNTY.                         : COUNTY
SRVC.                         : SERVICE COMPANY
DATE.          Sat Feb 28 14:05:57 2004: LOG DATE
UWI.                          : UNIQUE WELL ID
STAT.                         : STATE
~Curve Information Block
DEPT.FT            0 000 00 00: Depth
DCAL.in                       : CDL Caliper
RHOB.g/cc                     : CDL Bulk Density
RHOC.g/cc                     : CDL Density Correction
DPOR.pu                       : CDL Density Porosity
GR.GAPI                       : Gamma Ray
NPOR.pu                       : Neutron Porosity
~Parameter Information Block
~A  Depth       DCAL        RHOB        RHOC        DPOR         GR         NPOR    
# ...
   904.2000      8.0565      2.5414      0.0104      6.5803     97.2845     25.1558
   904.3000      8.0742      2.5460      0.0790      6.3017     92.8430     25.3321
   904.4000      8.0742      2.5425      0.0456      6.5168     91.7480     25.6879
   904.5000      8.0776      2.5476      0.0065      6.2049     94.7271     26.1249
   904.6000      8.0776      2.5826      0.0867      4.0819    102.6437     26.1721
   904.7000      8.0776      2.6189      0.1447      1.8876    113.1978     26.0201
   904.8000      8.0644      2.6172      0.1098      1.9859    122.0947     26.0965
   904.9000      8.0644      2.5844      0.0477      3.9786    127.6563     26.3415
   905.0000      8.0516      2.5585      0.0268      5.5443    128.9497     26.7533
   905.1000      8.0516      2.5636      0.0774      5.2387    128.3867     27.1947
   905.2000      8.0516      2.5883      0.0655      3.7383    126.1995     27.5929
   905.3000      8.0584      2.6080      0.0609      2.5465    118.1678     28.0502
   905.4000      8.0584      2.6158      0.0614      2.0746    105.8172     28.0862
   905.5000      8.0873      2.6315      0.0067      1.1241     96.1504     27.4794
   905.6000      8.0873      2.6660      0.1195     -0.9716     93.3279     26.9449
   905.7000      8.0873      2.6907      0.1307     -2.4641     97.4682     26.8444
   905.8000      8.1374      2.6765      0.1584     -1.6084    105.6850     26.8076
   905.9000      8.1374      2.6416      0.0708      0.5077    112.9511     26.4130
   906.0000      8.1060      2.6228      0.0768      1.6463    114.1613     25.6128
   906.1000      8.1060      2.6209      0.0937      1.7627    108.6195     24.5642
   906.2000      8.1060      2.6123      0.0727      2.2851    104.2241     23.4591
   906.3000      8.0955      2.5912      0.0556      3.5608    105.3773     22.7792
   906.4000      8.0955      2.5640      0.0821      5.2126    108.9712     22.5108
   906.5000      8.1008      2.5344      0.0942      7.0043    110.9575     22.0092
   906.6000      8.1008      2.5072      0.1002      8.6559    108.3991     21.4439
   906.7000      8.1008      2.4850      0.0487      9.9981    105.3358     21.5749
   906.8000      8.0944      2.4722      0.0151     10.7732    107.3762     22.3230
   906.9000      8.0944      2.4603      0.1065     11.4950    110.3536     23.0824
   907.0000      8.1000      2.4334      0.0552     13.1296    110.8905     23.4215
   907.1000      8.1000      2.4063      0.0140     14.7686    113.6682     23.2517
   907.2000      8.1000      2.3990      0.0709     15.2100    119.3732     23.0962
   907.3000      8.1096      2.4039      0.0339     14.9176    124.7874     23.3977
   907.4000      8.1096      2.4168      0.0812     14.1308    129.0058     23.8295
   907.5000      8.1547      2.4470      0.0936     12.3038    132.3349     24.1398
   907.6000      8.1547      2.4977      0.1332      9.2287    135.3302     24.4368
   907.7000      8.1547      2.5591      0.1567      5.5092    136.5770     24.7624
   907.8000      8.1125      2.6122      0.2692      2.2900    134.0575     25.1920
   907.9000      8.1125      2.6436      0.2741      0.3889    133.1593     25.7786
   908.0000      8.1019      2.6503      0.3592     -0.0174    135.7486     26.3437
   908.1000      8.1019      2.6358      0.3313      0.8629    136.3461     26.8911
   908.2000      8.1019      2.6092      0.2085      2.4755    135.5406     27.5820
   908.3000      8.1024      2.5718      0.2051      4.7409    137.2170     28.1967
   908.4000      8.1024      2.5268      0.0987      7.4663    140.8740     28.7421
   908.5000      8.1264      2.4989      0.0578      9.1586    142.7269     29.3461
   908.6000      8.1264      2.5081      0.1169      8.6009    142.6584     29.7166
   908.7000      8.1264      2.5445      0.0816      6.3964    144.4969     29.9742
   908.8000      8.1073      2.5808      0.1299      4.1950    146.7421     30.5202
   908.9000      8.1073      2.5997      0.1281      3.0481    148.5556     31.2584
   909.0000      8.1045      2.6127      0.0592      2.2615    151.3007     31.8602
   909.1000      8.1045      2.6273      0.1470      1.3755    154.3204     32.1883
   909.2000      8.1045      2.6279      0.1443      1.3398    153.9950     32.2366
   909.3000      8.0999      2.6142      0.1563      2.1711    147.0173     32.2827
   909.4000      8.0999      2.6034      0.1107      2.8257    139.1745     32.5435
   909.5000      8.0983      2.5925      0.1045      3.4835    139.0241     32.8344
   909.6000      8.0983      2.5640      0.0490      5.2105    142.2504     33.1174
   909.7000      8.0983      2.5292     -0.0133      7.3193    141.6518     33.5599
   909.8000      8.1062      2.5203     -0.0015      7.8620    140.1114     34.1809
   909.9000      8.1062      2.5325      0.0331      7.1202    142.7031     34.7331
   910.0000      8.1729      2.5315      0.0447      7.1815    145.7187     34.5748
   910.1000      8.1729      2.5150     -0.0087      8.1833    144.1979     33.3566
   910.2000      8.1729      2.5053      0.0266      8.7703    141.8270     31.8800
   910.3000      8.1791      2.5033      0.0327      8.8903    144.7107     30.9593
   910.4000      8.1791      2.5030     -0.0200      8.9084    149.7415     30.5756
   910.5000      8.1180      2.5085      0.0490      8.5788    150.7757     30.5722
   910.6000      8.1180      2.5138      0.0824      8.2520    149.4138     30.7730
   910.7000      8.1180      2.5124      0.0483      8.3419    148.3931     30.6572
   910.8000      8.1068      2.5076      0.0308      8.6306    146.1884     29.9730
   910.9000      8.1068      2.5081      0.1006      8.6028    144.4127     29.1000
   911.0000      8.0976      2.5187      0.0816      7.9590    143.9228     28.3669
   911.1000      8.0976      2.5277      0.1416      7.4109    141.1323     27.6212
   911.2000      8.0976      2.5255      0.1067      7.5435    140.5489     26.7386
   911.3000      8.0920      2.5315      0.1160      7.1833    149.6576     26.0847
   911.4000      8.0920      2.5497      0.1885      6.0765    159.5522     25.9693
   911.5000      8.0919      2.5535      0.2148      5.8485    159.8688     26.1357
   911.6000      8.0919      2.5357      0.1887      6.9279    157.4302     26.2929
   911.7000      8.0919      2.5131      0.1791      8.2955    154.9684     26.6438
   911.8000      8.0897      2.4991      0.1290      9.1457    149.9678     27.3280
   911.9000      8.0897      2.4957      0.1697      9.3508    147.4118     27.9804
   912.0000      8.0907      2.4939      0.1422      9.4600    147.6810     28.3955
   912.1000      8.0907      2.4966      0.1049      9.2943    146.7335     28.6336
   912.2000      8.0907      2.5123      0.1362      8.3431    147.4646     28.7312
   912.3000      8.0842      2.5284      0.1884      7.3693    150.0008     28.6107
   912.4000      8.0842      2.5264      0.1685      7.4926    148.4539     28.5203
   912.5000      8.1043      2.4997      0.1314      9.1088    141.8414     28.9076
   912.6000      8.1043      2.4648      0.0368     11.2250    133.7613     29.5287
   912.7000      8.1043      2.4546      0.0921     11.8445    126.7385     29.7967
   912.8000      8.0890      2.4744      0.0612     10.6448    120.8321     29.5962
   912.9000      8.0890      2.5013      0.0794      9.0116    114.9313     28.9370
   913.0000      8.0770      2.5127      0.1255      8.3218    113.0857     28.1201
   913.1000      8.0770      2.5067      0.0317      8.6870    117.5457     27.7805
   913.2000      8.0770      2.5099      0.1063      8.4929    119.4713     28.0540
   913.3000      8.0668      2.5372      0.0877      6.8372    112.5883     28.3961
   913.4000      8.0668      2.5718      0.1236      4.7386    102.5335     28.3666
   913.5000      8.0720      2.5955      0.1279      3.3010     98.2892     28.0930
   913.6000      8.0720      2.6148      0.1169      2.1345    100.1580     27.7009
   913.7000      8.0720      2.6416      0.1804      0.5094    102.1022     27.0816
