~Version Information
 VERS.                                  2.0 : CWLS LAS VERSION
 WRAP.                                   NO : WRAPING MODE
 SWARE .                 MController 2.5.0J : SOFTWARE VERSION
~Well Information
 WELL.                          DYLAN 42-25 : WELL
 COMP.    PIONEER NATURAL RESOURCES USA INC : COMPANY
 FLD.                      PURGATOIRE RIVER : FIELD
 LOC.                SE/NE Sec 25 T34S R65W : LOCATION
 DATE.                              4/23/05 : DATE(S) LOGGED
 SRVC.       BLANCO GEOLOGICAL SERVICES LLC : SERVICE COMPANY
 STAT.                                   CO : STATE
 CNTY.                           LAS ANIMAS : COUNTY
 CTRY.                                  USA : COUNTRY
 API.                       05 071 08229 00 : API NUMBER
 STRT.FT                             474.00 : START DEPTH
 STOP.FT                            1000.00 : STOP DEPTH
 STEP.FT                               1.00 : DEPTH INCREMENT
 NULL.                                -9999 : NULL VALUE
~Curve information
 DEPTH.FT                                   :
 ROP.MIN/FT                                 :
 GAS.UNITS                                  :
~ASCII Log data
# ...
       674.0         0.23          4.0 
       675.0         0.20          3.6 
       676.0         0.23          4.2 
       677.0         0.23          4.7 
       678.0         0.20          4.6 
       679.0         0.27          5.1 
       680.0         0.20          5.3 
       681.0         0.23          5.6 
       682.0         0.23          6.0 
       683.0         0.23          6.5 
       684.0         0.22          6.9 
       685.0         0.23          7.0 
       686.0         1.53         51.5 
       687.0         0.50         50.3 
       688.0         0.37         24.0 
       689.0         0.30         14.3 
       690.0         0.23         10.6 
       691.0         0.28          9.0 
       692.0         0.23          8.2 
       693.0         0.30          7.7 
       694.0         0.23          7.7 
       695.0         0.23          7.8 
       696.0         0.20          7.7 
       697.0         0.23          8.0 
       698.0         0.20          8.5 
       699.0         0.17          8.3 
       700.0         0.20          8.0 
       701.0         0.20          7.7 
       702.0         0.23          8.0 
       703.0         0.20          9.5 
       704.0         0.23          9.2 
       705.0         0.20          8.7 
       706.0         0.22          8.6 
       707.0         0.27          7.9 
       708.0         0.23          7.6 
       709.0         0.23          7.4 
       710.0         0.30          6.6 
       711.0         0.23          7.1 
       712.0         0.27          7.6 
       713.0         0.30          7.1 
       714.0         0.27          7.2 
       715.0         0.27          6.4 
       716.0         1.95         35.1 
       717.0         0.40         35.8 
       718.0         0.33         24.3 
       719.0         0.40         15.8 
       720.0         0.37          9.8 
       721.0         0.53          8.5 
       722.0         0.42         10.4 
       723.0         0.20         10.8 
       724.0         0.27         10.1 
       725.0         0.23          9.2 
       726.0         0.23          7.9 
       727.0         0.23          7.5 
       728.0         0.27          7.2 
       729.0         0.23          7.4 
       730.0         0.23          7.0 
       731.0         0.30          7.5 
       732.0         0.27          7.2 
       733.0         0.27          6.6 
       734.0         0.23          7.5 
       735.0         0.25          9.4 
       736.0         0.17          9.9 
       737.0         0.13         16.7 
       738.0         0.17         39.2 
       739.0         0.20         75.6 
       740.0         0.17         92.2 
       741.0         0.13         96.0 
       742.0         0.27         95.9 
       743.0         0.30         88.3 
       744.0         0.30         74.3 
       745.0         0.30         61.5 
       746.0         2.05        101.5 
       747.0         0.30        100.1 
       748.0         0.27         78.0 
       749.0         0.30         54.7 
       750.0         0.30         40.5 
       751.0         0.17         31.5 
       752.0         0.23         27.2 
       753.0         0.30         22.6 
       754.0         0.30         19.5 
       755.0         0.38         18.6 
       756.0         0.30         19.8 
       757.0         0.30         24.4 
       758.0         0.27         25.4 
       759.0         0.30         25.2 
       760.0         0.37         24.2 
       761.0         0.30         23.1 
       762.0         0.27         21.9 
       763.0         0.23         21.7 
       764.0         0.40         22.0 
       765.0         0.27         21.1 
       766.0         0.28         20.5 
       767.0         0.43         20.2 
       768.0         0.37         20.4 
       769.0         0.33         19.7 
       770.0         0.27         19.4 
       771.0         0.30         18.9 
       772.0         0.37         18.3 
       773.0         0.30         18.0 
       774.0         0.37         18.4 
       775.0         0.27         17.0 
       776.0         1.88         51.6 
       777.0         0.30         41.5 
       778.0         0.27         33.9 
       779.0         0.27         27.0 
       780.0         0.27         22.7 
       781.0         0.37         45.5 
       782.0         0.32         79.2 
       783.0         0.27         90.6 
       784.0         0.27         91.2 
       785.0         0.13         89.7 
       786.0         0.17         88.7 
       787.0         0.17         90.0 
       788.0         0.27         91.3 
       789.0         0.23         89.8 
       790.0         0.23         85.1 
       791.0         0.20         77.9 
       792.0         0.30         72.3 
       793.0         0.27         64.9 
       794.0         0.20         60.2 
       795.0         0.23         57.9 
       796.0         0.28         54.2 
       797.0         0.33         50.7 
       798.0         0.47         47.0 
       799.0         0.37         44.1 
       800.0         0.33         41.8 
       801.0         0.37         40.0 
       802.0         0.27         38.6 
       803.0         0.30         37.7 
       804.0         0.27         34.1 
       805.0         0.47         32.6 
       806.0         1.98        170.1 
       807.0         0.53         83.8 
       808.0         0.40         50.8 
       809.0         0.43         76.4 
       810.0         0.25         85.7 
       811.0         0.17         85.7 
       812.0         0.23         83.6 
       813.0         0.23         76.4 
       814.0         0.33         68.2 
       815.0         0.27         59.1 
       816.0         0.27         53.4 
       817.0         0.30         49.9 
       818.0         0.30         46.6 
       819.0         0.37         43.0 
       820.0         0.30         39.8 
       821.0         0.33         38.8 
       822.0         0.32         37.5 
       823.0         0.30         36.3 
       824.0         0.30         34.7 
       825.0         0.30         35.6 
       826.0         0.23         37.3 
       827.0         0.20         37.2 
       828.0         0.20         37.0 
       829.0         0.20         35.6 
       830.0         0.27         34.3 
       831.0         0.37         33.0 
       832.0         0.27         32.6 
       833.0         0.27         32.0 
       834.0         0.28         29.2 
       835.0         0.23         23.4 
       836.0         2.83        176.2 
       837.0         0.42         67.1 
       838.0         0.33         44.8 
       839.0         0.30         34.3 
       840.0         0.27         30.1 
       841.0         0.27         26.4 
       842.0         0.27         25.4 
       843.0         0.27         25.7 
       844.0         0.17         25.2 
       845.0         0.33         25.3 
       846.0         0.27         24.2 
       847.0         0.23         23.1 
       848.0         0.23         23.5 
       849.0         0.25         23.5 
       850.0         0.23         22.7 
       851.0         0.23         23.5 
       852.0         0.27         23.2 
       853.0         0.23         23.1 
       854.0         0.27         24.1 
       855.0         0.20         24.1 
       856.0         0.23         24.5 
       857.0         0.27         23.9 
       858.0         0.23         24.1 
       859.0         0.27         23.1 
       860.0         0.27         22.1 
       861.0         0.27         22.8 
       862.0         0.25         22.8 
       863.0         0.27         22.5 
       864.0         0.27         22.3 
       865.0         0.23         20.9 
       866.0         3.95        131.5 
       867.0         0.33         26.2 
       868.0         0.33         20.4 
       869.0         0.40         16.2 
       870.0         0.43         22.8 
       871.0         0.23         28.4 
       872.0         0.38         30.6 
       873.0         0.37         28.9 
