~Version Information
VERS.                      2.0: CWLS Log ASCII Standard - VERSION 2.0
WRAP.                       NO: One line per depth step
~Well Information Block
STRT.FT               451.7500: 
STOP.FT              1387.0000: 
STEP.FT                 0.2500: 
NULL.                -999.2500: 
COMP.          Petrogulf Corporation: COMPANY
WELL.          Great Plains 22-22R: WELL
FLD.           Purgatoire River: FIELD
LOC.           2042' FNL & 1657' FWL--: LOCATION
PROV.                 Colorado: PROVINCE
CNTY.               Las Animas: COUNTRY
SRVC.                Patterson: SERVICE COMPANY
DATE.          Fri Sep 09 10:42:01 2005: LOG DATE
UWI.           05 071 08028 00: UNIQUE WELL ID
~Curve Information Block
DEPT.FT            0 000 00 00: Depth
SP.mV                         : DIL Spontaneous Potential
RILD.Ohm-m                    : DIL Deep Resistivity
RILM.Ohm-m                    : DIL Medium Resistivity
RLL3.Ohm-m                    : DIL Shallow Resistivity
GR.GAPI                       : Gamma Ray
~Parameter Information Block
~A  Depth        SP         RILD        RILM        RLL3         GR     
# ...
  1235.7500     88.5274     10.3370     12.7673     42.8842    116.8019
  1236.0000     88.5991     10.0579     12.3425     41.1463    126.9638
  1236.2500     88.6726      9.8230     11.7810     34.2916    135.8155
  1236.5000     88.7255      9.6328     11.1822     25.6052    147.2397
  1236.7500     88.7463      9.4787     10.6184     18.2793    152.0497
  1237.0000     88.7393      9.3455     10.1232     13.6508    155.1490
  1237.2500     88.7211      9.2150      9.7000     11.3588    155.6147
  1237.5000     88.7124      9.0705      9.3382     10.4256    156.0599
  1237.7500     88.7295      8.9020      9.0265     10.0326    156.8019
  1238.0000     88.7803      8.7092      8.7597      9.7382    158.4236
  1238.2500     88.8653      8.5004      8.5384      9.4225    159.5253
  1238.5000     88.9794      8.2886      8.3641      9.1533    160.9317
  1238.7500     89.1137      8.0863      8.2349      9.0354    161.6637
  1239.0000     89.2572      7.9030      8.1437      9.1093    162.3365
  1239.2500     89.3980      7.7449      8.0801      9.3387    162.3690
  1239.5000     89.5258      7.6155      8.0330      9.6475    161.6223
  1239.7500     89.6332      7.5177      7.9936      9.9437    160.7304
  1240.0000     89.7148      7.4531      7.9579     10.1335    159.5105
  1240.2500     89.7639      7.4213      7.9269     10.1546    159.1128
  1240.5000     89.7699      7.4180      7.9060     10.0107    158.8845
  1240.7500     89.7172      7.4355      7.9016      9.7724    158.5390
  1241.0000     89.5900      7.4648      7.9189      9.5419    157.3803
  1241.2500     89.3773      7.4987      7.9591      9.4088    156.2122
  1241.5000     89.0779      7.5338      8.0186      9.4177    153.6972
  1241.7500     88.7016      7.5698      8.0898      9.5621    151.4397
  1242.0000     88.2690      7.6079      8.1628      9.8012    147.9840
  1242.2500     87.8095      7.6497      8.2285     10.0832    146.4538
  1242.5000     87.3535      7.6972      8.2804     10.3552    145.8547
  1242.7500     86.9234      7.7540      8.3168     10.5665    146.0463
  1243.0000     86.5275      7.8263      8.3417     10.6692    145.8420
  1243.2500     86.1625      7.9220      8.3648     10.6191    145.0965
  1243.5000     85.8212      8.0483      8.4007     10.3926    143.7374
  1243.7500     85.4968      8.2100      8.4679     10.0333    143.1474
  1244.0000     85.1846      8.4081      8.5848      9.6936    142.4885
  1244.2500     84.8830      8.6406      8.7674      9.6140    141.4050
  1244.5000     84.5966      8.9048      9.0262     10.0360    137.4818
  1244.7500     84.3353      9.1997      9.3668     11.0893    133.2623
  1245.0000     84.1077      9.5286      9.7906     12.6947    125.8603
  1245.2500     83.9150      9.8994     10.2974     14.5395    121.2935
  1245.5000     83.7517     10.3233     10.8900     16.2101    116.0139
  1245.7500     83.6130     10.8118     11.5789     17.4626    113.3779
  1246.0000     83.5005     11.3727     12.3865     18.4562    109.8434
  1246.2500     83.4250     12.0043     13.3479     19.7642    107.3994
  1246.5000     83.4041     12.6902     14.5062     22.1364    103.5763
  1246.7500     83.4581     13.3936     15.8995     26.1464    101.1232
  1247.0000     83.6050     14.0582     17.5390     31.9235     98.1147
  1247.2500     83.8582     14.6168     19.3737     39.1767     96.9175
  1247.5000     84.2236     15.0087     21.2476     47.4974     96.7151
  1247.7500     84.6979     15.1984     22.8727     56.4921     97.5653
  1248.0000     85.2679     15.1831     23.8711     65.2794     99.9962
  1248.2500     85.9111     14.9867     23.9306     71.7950    102.4230
  1248.5000     86.5973     14.6448     22.9981     73.1698    107.7411
  1248.7500     87.2896     14.1926     21.3271     67.5913    112.5514
  1249.0000     87.9470     13.6617     19.3186     56.0831    121.1928
  1249.2500     88.5290     13.0814     17.3184     42.2083    127.3570
  1249.5000     89.0038     12.4787     15.5269     29.8158    136.4155
  1249.7500     89.3573     11.8761     14.0157     20.9738    142.0417
  1250.0000     89.5967     11.2876     12.7790     15.6687    149.3153
  1250.2500     89.7459     10.7199     11.7767     12.8367    152.9286
  1250.5000     89.8342     10.1762     10.9603     11.4063    155.8837
  1250.7500     89.8863      9.6616     10.2863     10.6979    156.2736
  1251.0000     89.9185      9.1842      9.7204     10.3610    155.4363
  1251.2500     89.9379      8.7532      9.2386     10.2165    154.7400
  1251.5000     89.9447      8.3766      8.8245     10.1583    154.6777
  1251.7500     89.9354      8.0594      8.4674     10.1089    155.6054
  1252.0000     89.9075      7.8033      8.1605     10.0086    158.2217
  1252.2500     89.8624      7.6067      7.8999      9.8265    160.3734
  1252.5000     89.8026      7.4656      7.6841      9.5666    163.4686
  1252.7500     89.7277      7.3744      7.5137      9.2580    165.0463
  1253.0000     89.6332      7.3272      7.3911      8.9478    165.9442
  1253.2500     89.5153      7.3187      7.3188      8.7078    165.1541
  1253.5000     89.3768      7.3451      7.2978      8.6247    161.7032
  1253.7500     89.2276      7.4056      7.3269      8.7526    158.1951
  1254.0000     89.0794      7.5025      7.4027      9.0604    151.9878
  1254.2500     88.9409      7.6393      7.5218      9.4329    147.7464
  1254.5000     88.8155      7.8179      7.6839      9.7390    142.1776
  1254.7500     88.7055      8.0363      7.8948      9.9319    139.4310
  1255.0000     88.6167      8.2878      8.1670     10.1254    136.6217
  1255.2500     88.5586      8.5641      8.5170     10.6249    134.9614
  1255.5000     88.5432      8.8580      8.9616     11.9163    131.6023
  1255.7500     88.5821      9.1648      9.5113     14.5922    128.6095
  1256.0000     88.6870      9.4815     10.1625     19.0819    123.8762
  1256.2500     88.8683      9.8057     10.8897     25.1078    121.5959
  1256.5000     89.1311     10.1359     11.6414     31.2432    121.5265
  1256.7500     89.4709     10.4737     12.3444     35.3135    124.5296
  1257.0000     89.8678     10.8244     12.9224     35.7417    133.4359
  1257.2500     90.2844     11.1954     13.3252     32.6908    141.1506
  1257.5000     90.6698     11.5926     13.5544     27.8081    152.3054
  1257.7500     90.9721     12.0148     13.6658     22.9209    157.7975
  1258.0000     91.1537     12.4502     13.7434     19.0836    161.6239
  1258.2500     91.2015     12.8757     13.8638     16.6161    161.1175
  1258.5000     91.1266     13.2617     14.0710     15.5442    156.1501
  1258.7500     90.9560     13.5814     14.3702     15.7579    150.5100
  1259.0000     90.7211     13.8202     14.7358     16.9013    140.1275
  1259.2500     90.4465     13.9829     15.1295     18.4011    133.1128
  1259.5000     90.1452     14.0928     15.5178     19.7673    123.9897
  1259.7500     89.8191     14.1845     15.8847     20.8627    119.1183
  1260.0000     89.4649     14.2948     16.2327     21.8212    113.2028
  1260.2500     89.0798     14.4535     16.5747     22.7319    109.6925
  1260.5000     88.6627     14.6781     16.9220     23.4786    104.3153
  1260.7500     88.2141     14.9694     17.2777     23.8747    100.5367
  1261.0000     87.7346     15.3118     17.6391     23.8657     95.2213
  1261.2500     87.2246     15.6792     18.0063     23.5777     92.5908
  1261.5000     86.6849     16.0437     18.3875     23.2224     90.7934
  1261.7500     86.1169     16.3830     18.7951     22.9913     90.8835
  1262.0000     85.5238     16.6811     19.2338     23.0074     91.7361
  1262.2500     84.9083     16.9283     19.6911     23.3167     91.8915
  1262.5000     84.2699     17.1206     20.1347     23.8819     90.6399
  1262.7500     83.6051     17.2629     20.5215     24.5746     89.0489
  1263.0000     82.9133     17.3680     20.8145     25.2056     86.7864
  1263.2500     82.2039     17.4530     20.9991     25.6039     85.9291
  1263.5000     81.4968     17.5319     21.0862     25.6868     85.7489
