~Version Information
VERS.                      2.0: CWLS Log ASCII Standard - VERSION 2.0
WRAP.                       NO: One line per depth step
~Well Information Block
STRT.FT                -4.2500: 
STOP.FT              2500.7500: 
STEP.FT                 0.2500: 
NULL.                -999.2500: 
COMP.          Pioneer Natural Resources: COMPANY
WELL.          Cock-a-doodle-doo 44-27: WELL
FLD.           Purgatoire River: FIELD
LOC.           163' FSL & 54' FEL--: LOCATION
PROV.                 Colorado: PROVINCE
CNTY.               Las Animas: COUNTRY
SRVC.                Patterson: SERVICE COMPANY
DATE.          Wed Jul 06 10:56:34 2005: LOG DATE
UWI.                071 08429 : UNIQUE WELL ID
~Curve Information Block
DEPT.FT            0 000 00 00: Depth
CCL.                          : Casing Collar Locator
TT3.usec                      : CBL 3' Travel Time
AMP3.mV                       : CBL 3' Amplitude
GR.GAPI                       : Gamma Ray
~Parameter Information Block
~A  Depth       CCL         TT3         AMP3         GR     
    -4.2500   -999.2500   -999.2500   -999.2500     80.3546
    -4.0000   -999.2500   -999.2500   -999.2500     80.4458
    -3.7500   -999.2500   -999.2500   -999.2500     81.6661
    -3.5000   -999.2500   -999.2500   -999.2500     83.4153
    -3.2500   -999.2500   -999.2500   -999.2500     85.1263
    -3.0000   -999.2500   -999.2500   -999.2500     86.7979
    -2.7500   -999.2500   -999.2500   -999.2500     88.8663
    -2.5000   -999.2500   -999.2500   -999.2500     91.1460
    -2.2500   -999.2500   -999.2500   -999.2500     92.1213
    -2.0000   -999.2500   -999.2500   -999.2500     89.8965
    -1.7500   -999.2500   -999.2500   -999.2500     83.9125
    -1.5000   -999.2500   -999.2500   -999.2500     75.3878
    -1.2500   -999.2500   -999.2500   -999.2500     66.2816
    -1.0000   -999.2500   -999.2500   -999.2500     58.1587
    -0.7500   -999.2500   -999.2500   -999.2500     51.6922
    -0.5000   -999.2500   -999.2500   -999.2500     46.6550
    -0.2500   -999.2500   -999.2500   -999.2500     42.3350
     0.0000   -999.2500   -999.2500   -999.2500     38.2319
     0.2500   -999.2500   -999.2500   -999.2500     31.7801
     0.5000   -999.2500   1410.0000      0.3299     30.7268
     0.7500   -999.2500   1410.0000      0.3132     31.5289
     1.0000   -999.2500   1410.0000      0.2961     33.8322
     1.2500   -999.2500   1410.0000      0.2844     36.8264
     1.5000   -999.2500   1410.0000      0.2809     39.4175
     1.7500   -999.2500   1410.0000      0.2865     40.6743
     2.0000   -999.2500   1410.0000      0.3025     40.4346
     2.2500   -999.2500   1410.0000      0.3269     39.3692
     2.5000   -999.2500   1410.0000      0.3509     38.3353
     2.7500   -999.2500   1410.0000      0.3587     37.7926
     3.0000   -999.2500   1410.0000      0.3382     37.7715
     3.2500   -999.2500   1410.0000      0.2939     38.0944
     3.5000   -999.2500   1410.0000      0.2468     38.5939
     3.7500   -999.2500   1410.0000      0.2180     39.3180
     4.0000   -999.2500   1410.0000      0.2147     40.5592
     4.2500   -999.2500   1410.0000      0.2294     42.5442
     4.5000   -999.2500   1410.0000      0.2478     45.0965
     4.7500   -999.2500   1410.0000      0.2566     47.7060
     5.0000   -999.2500   1410.0000      0.2484     49.8761
     5.2500   -999.2500   1410.0000      0.2258     51.3948
     5.5000   -999.2500   1410.0000      0.2009     52.4202
     5.7500   -999.2500   1410.0000      0.1868     53.3058
     6.0000   -999.2500   1410.0000      0.1875     54.1769
     6.2500      0.0000   1410.0000      0.1954     54.6846
     6.5000      0.0000   1410.0000      0.1986     54.3392
     6.7500      0.0000   1410.0000      0.1892     53.1089
     7.0000      0.0000   1410.0000      0.1691     51.4632
     7.2500      0.0000   1410.0000      0.1496     49.7429
     7.5000      0.0000   1410.0000      0.1449     47.8434
     7.7500      0.0000   1410.0000      0.1608     45.7564
     8.0000      0.0000   1410.0000      0.1889     44.0584
     8.2500      0.0000   1410.0000      0.2162     43.4575
     8.5000      0.0000   1410.0000      0.2373     44.0508
     8.7500      0.0000   1410.0000      0.2556     45.3207
     9.0000      0.0000   1410.0000      0.2763     46.6260
     9.2500      0.0000   1410.0000      0.2988     47.4169
     9.5000      0.0000   1410.0000      0.3143     47.3047
     9.7500      0.0000   1410.0000      0.3124     46.4154
    10.0000      0.0000   1410.0000      0.2913     45.6514
    10.2500      0.0000   1410.0000      0.2604     46.2419
    10.5000      0.0000   1410.0000      0.2326     48.6801
    10.7500      0.0000   1410.0000      0.2153     51.8719
    11.0000      0.0000   1410.0000      0.2081     53.5739
    11.2500      0.0000   1410.0000      0.2063     52.2484
    11.5000      0.0000   1410.0000      0.2057     48.4834
    11.7500      0.0000   1410.0000      0.2043     44.2181
    12.0000      0.0000   1410.0000      0.2008     40.8633
    12.2500      0.0000   1409.9884      0.1962     38.6450
    12.5000      0.0000   1409.9243      0.1968     37.3371
    12.7500      0.0000   1409.6156      0.2137     36.8845
    13.0000      0.0000   1408.4799      0.2532     37.2142
    13.2500      0.0000   1405.3175      0.3068     37.8552
    13.5000      0.0000   1398.7673      0.3547     38.0615
    13.7500      0.0000   1388.9601      0.3823     37.4093
    14.0000      0.0000   1379.0594      0.3941     36.3067
    14.2500      0.0000   1373.2053      0.4126     35.9099
    14.5000      0.0000   1370.2125      0.4778     37.3210
    14.7500      2.0000   1358.0724      0.6696     40.5502
    15.0000     -2.0000   1315.9301      1.1363     44.2392
    15.2500      0.0000   1225.7344      2.0651     46.6542
    15.5000      0.0000   1088.2374      3.5511     47.0098
    15.7500      0.0000    929.5694      5.4488     45.7388
    16.0000      0.0000    787.5058      7.3895     43.7138
    16.2500      0.0000    687.6245      9.0021     41.6555
    16.5000      0.0000    632.4388     10.1262     40.2734
    16.7500      0.0000    609.8578     10.8146     40.3951
    17.0000      0.0000    606.5705     11.1981     42.3881
    17.2500      0.0000    614.0385     11.3954     45.3891
    17.5000      0.0000    627.6091     11.5019     47.5997
    17.7500      0.0000    643.7767     11.5842     47.8192
    18.0000      0.0000    658.6685     11.6673     46.4966
    18.2500      0.0000    668.3149     11.7438     44.9273
    18.5000      0.0000    669.7851     11.8031     43.7476
    18.7500      0.0000    662.0579     11.8489     42.6987
    19.0000      0.0000    646.6738     11.8918     41.6294
    19.2500      0.0000    627.6845     11.9336     41.0526
    19.5000      0.0000    609.9163     11.9628     41.5120
    19.7500      0.0000    596.4110     11.9672     42.7032
    20.0000      0.0000    587.5506     11.9499     43.4889
    20.2500      0.0000    582.3474     11.9316     42.8693
    20.5000      0.0000    579.6456     11.9361     40.9954
    20.7500      0.0000    577.9592     11.9728     39.2602
    21.0000      0.0000    575.4418     12.0315     39.2887
    21.2500      0.0000    571.3242     12.0910     41.5806
    21.5000      0.0000    567.3904     12.1347     45.0842
    21.7500      0.0000    567.3468     12.1621     48.1901
    22.0000      0.0000    574.4924     12.1896     50.1107
    22.2500      0.0000    589.9014     12.2334     51.2839
    22.5000      0.0000    612.0104     12.2919     52.6324
    22.7500      0.0000    636.5195     12.3476     54.4503
    23.0000      0.0000    656.0671     12.3887     55.9851
    23.2500      0.0000    661.0427     12.4223     56.2984
    23.5000      0.0000    643.3090     12.4642     55.4965
    23.7500      0.0000    602.0634     12.5224     54.6978
    24.0000      0.0000    547.6254     12.5939     54.7540
    24.2500      0.0000    497.7137     12.6739     55.3265
    24.5000      0.0000    466.0248     12.7600     55.2034
    24.7500      0.0000    452.2333     12.8525     53.3017
    25.0000      0.0000    444.2695     12.9532     49.5566
    25.2500      0.0000    431.2587     13.0652     45.1115
    25.5000      0.0000    412.6973     13.1868     41.4790
    25.7500      0.0000    395.0773     13.3070     39.3211
    26.0000      0.0000    383.3028     13.4109     38.2547
    26.2500      0.0000    377.4174     13.4919     37.8286
    26.5000      0.0000    375.0609     13.5595     38.1618
    26.7500      0.0000    374.3211     13.6352     39.4112
    27.0000      0.0000    374.7696     13.7382     41.0538
    27.2500      0.0000    377.8236     13.8729     42.0721
    27.5000      0.0000    387.7186     14.0134     41.8387
    27.7500      0.0000    411.9397     14.0728     40.7680
    28.0000      0.0000    458.5096     13.8982     40.0576
    28.2500      0.0000    529.2203     13.3586     40.6377
    28.5000      0.0000    614.1526     12.4921     42.4184
    28.7500      0.0000    694.7573     11.5345     44.6631
    29.0000      0.0000    755.0683     10.7540     46.8018
