~Version Information
VERS.                      2.0: CWLS Log ASCII Standard - VERSION 2.0
WRAP.                       NO: One line per depth step
~Well Information Block
STRT.FT               840.0000: 
STOP.FT              2266.0000: 
STEP.FT                 0.1000: 
NULL.                -999.2500: 
COMP.          Pioneer Natural Resources: COMPANY
WELL.              Tonto 42-23: WELL
FLD.           Purgatoire River: FIELD
LOC.           2217' FNL & 423' FEL: LOCATION
PROV.                 Colorado: PROVINCE
CNTY.               Las Animas: COUNTRY
SRVC.                Patterson: SERVICE COMPANY
DATE.          Mon Apr 18 07:15:48 2005: LOG DATE
UWI.           05 071 08335 00: UNIQUE WELL ID
~Curve Information Block
DEPT.FT            0 000 00 00: Depth
DCAL.in                       : CDL Caliper
RHOB.g/cc                     : CDL Bulk Density
RHOC.g/cc                     : CDL Density Correction
DPOR.pu                       : CDL Density Porosity
GR.GAPI                       : Gamma Ray
NPOR.pu                       : Neutron Porosity
~Parameter Information Block
~A  Depth       DCAL        RHOB        RHOC        DPOR         GR         NPOR    
# ...
  1780.8000      7.9449      2.4597      0.0223     11.5309    115.1894     28.5101
  1780.9000      7.9449      2.4527      0.0469     11.9579    111.9889     28.8429
  1781.0000      7.9448      2.4464      0.1286     12.3384    108.4018     28.7921
  1781.1000      7.9448      2.4331      0.0462     13.1430    106.6462     28.9678
  1781.2000      7.9448      2.4299      0.0717     13.3413    109.8264     29.4191
  1781.3000      7.9552      2.4483      0.0490     12.2214    117.6431     29.4630
  1781.4000      7.9552      2.4887      0.0723      9.7744    124.0896     28.9561
  1781.5000      7.9302      2.5367      0.1853      6.8696    125.8869     29.0098
  1781.6000      7.9302      2.5782      0.1965      4.3500    125.8002     30.0460
  1781.7000      7.9302      2.6191      0.2528      1.8719    125.9355     31.0914
  1781.8000      7.9048      2.6596      0.2647     -0.5813    126.0606     31.8658
  1781.9000      7.9048      2.6890      0.2588     -2.3634    127.5871     32.2609
  1782.0000      7.9015      2.7009      0.2160     -3.0825    130.3206     31.4531
  1782.1000      7.9015      2.6950      0.2003     -2.7269    131.8493     29.4966
  1782.2000      7.9015      2.6742      0.1960     -1.4696    132.5379     27.4059
  1782.3000      7.8982      2.6464      0.1171      0.2188    133.8825     25.9641
  1782.4000      7.8982      2.6209      0.0619      1.7666    132.4642     25.3398
  1782.5000      7.8423      2.6013      0.0678      2.9523    125.5002     25.4973
  1782.6000      7.8423      2.5839      0.0512      4.0078    120.3050     26.0260
  1782.7000      7.8423      2.5619      0.0645      5.3401    123.7020     26.2029
  1782.8000      7.8512      2.5365      0.0295      6.8771    126.7197     25.5077
  1782.9000      7.8512      2.5176      0.0372      8.0227    116.8045     24.1040
  1783.0000      7.8803      2.5107      0.0702      8.4413    100.9215     23.2806
  1783.1000      7.8803      2.5116      0.0822      8.3881     93.7054     23.9960
  1783.2000      7.8803      2.4985      0.1319      9.1801     96.5685     25.6662
  1783.3000      7.8679      2.4389      0.1178     12.7938    103.1859     27.2298
  1783.4000      7.8679      2.3181      0.1065     20.1161    108.9657     28.0338
  1783.5000      7.8895      2.1685     -0.0172     29.1827    112.8781     28.2693
  1783.6000      7.8895      2.0567     -0.0775     35.9583    116.6522     27.9447
  1783.7000      7.8895      2.0054      0.0198     39.0665    120.4611     27.2021
  1783.8000      7.8973      1.9835      0.0014     40.3948    123.8443     27.4167
  1783.9000      7.8973      1.9774      0.0136     40.7633    128.1281     29.3636
  1784.0000      7.9403      1.9990      0.0283     39.4535    132.3637     31.7929
  1784.1000      7.9403      2.0513      0.1366     36.2843    132.3463     33.1585
  1784.2000      7.9403      2.1211      0.1518     32.0522    126.1059     33.2340
  1784.3000      7.9454      2.1998      0.1645     27.2867    116.9775     32.5735
  1784.4000      7.9454      2.2899      0.2035     21.8212    108.6305     32.0456
  1784.5000      8.0003      2.3835      0.1278     16.1516    104.1494     31.8562
  1784.6000      8.0003      2.4524      0.1510     11.9752    105.5718     31.6747
  1784.7000      8.0003      2.4774      0.1231     10.4599    107.5396     31.5292
  1784.8000      8.0778      2.4724      0.1204     10.7620    104.3639     31.5586
  1784.9000      8.0778      2.4609      0.0548     11.4625    100.6624     31.5513
  1785.0000      8.0221      2.4565      0.0349     11.7292    102.9728     31.4689
  1785.1000      8.0221      2.4627      0.0804     11.3536    108.1463     31.3359
  1785.2000      8.0221      2.4691      0.1152     10.9618    111.7637     30.7785
  1785.3000      8.0118      2.4670      0.0506     11.0935    114.0658     29.8482
  1785.4000      8.0118      2.4702      0.0105     10.8968    113.6148     29.4983
  1785.5000      8.0502      2.4932      0.1089      9.5041    110.3179     30.1531
  1785.6000      8.0502      2.5263      0.1051      7.4998    110.7536     30.6604
  1785.7000      8.0502      2.5444      0.1600      6.3976    117.8310     30.0912
  1785.8000      8.0916      2.5287      0.1291      7.3503    126.9496     29.4723
  1785.9000      8.0916      2.4869      0.0639      9.8820    132.4484     29.5133
  1786.0000      8.0699      2.4466      0.0720     12.3275    130.7886     29.7770
  1786.1000      8.0699      2.4317      0.0536     13.2296    123.9281     30.0474
  1786.2000      8.0699      2.4539      0.0456     11.8858    117.1737     30.2766
  1786.3000      8.0817      2.4987      0.0624      9.1716    115.7190     30.5059
  1786.4000      8.0817      2.5268      0.1041      7.4696    119.0252     30.6275
  1786.5000      8.0780      2.5187      0.0927      7.9588    121.6627     30.3917
  1786.6000      8.0780      2.5072      0.0248      8.6525    120.5210     30.1938
  1786.7000      8.0780      2.5326      0.1045      7.1164    118.9160     30.6471
  1786.8000      8.0872      2.5859      0.2164      3.8821    119.0961     31.3482
  1786.9000      8.0872      2.6326      0.2074      1.0551    118.2805     31.4782
  1787.0000      8.0574      2.6593      0.2296     -0.5621    115.9745     30.9249
  1787.1000      8.0574      2.6708      0.2186     -1.2599    115.4273     30.1615
  1787.2000      8.0574      2.6686      0.2398     -1.1296    118.2644     29.8442
  1787.3000      7.8904      2.6538      0.1490     -0.2292    121.4147     30.1199
  1787.4000      7.8904      2.6320      0.1666      1.0937    119.8730     30.4183
  1787.5000      7.9356      2.6052      0.0719      2.7145    114.9574     30.2125
  1787.6000      7.9356      2.5754      0.1232      4.5218    114.1423     29.6726
  1787.7000      7.9356      2.5463      0.0874      6.2841    117.4957     29.2718
  1787.8000      7.9166      2.5313      0.0183      7.1934    117.1697     28.9314
  1787.9000      7.9166      2.5482      0.0077      6.1671    110.9100     28.6483
  1788.0000      7.9255      2.5867      0.1100      3.8381    106.8811     28.4542
  1788.1000      7.9255      2.6160      0.0721      2.0591    110.6964     27.9971
  1788.2000      7.9255      2.6219      0.1287      1.7061    117.0809     27.1499
  1788.3000      7.9091      2.6110      0.0808      2.3621    120.5557     26.4204
  1788.4000      7.9091      2.6089      0.0463      2.4894    123.3244     26.2958
  1788.5000      7.9244      2.6266      0.0732      1.4189    129.2197     26.8945
  1788.6000      7.9244      2.6372      0.1431      0.7731    136.0977     28.2836
  1788.7000      7.9244      2.6224      0.0473      1.6740    136.1857     29.5200
  1788.8000      7.9170      2.6001      0.0915      3.0253    128.0645     29.3108
  1788.9000      7.9170      2.5824      0.1186      4.0950    117.3612     27.8778
  1789.0000      7.8770      2.5656      0.0886      5.1141    107.4567     26.3243
  1789.1000      7.8770      2.5559      0.0757      5.7007    102.1313     25.4687
  1789.2000      7.8770      2.5615      0.0598      5.3660    103.9461     25.8173
  1789.3000      7.8656      2.5727      0.0788      4.6843    108.5340     27.4777
  1789.4000      7.8656      2.5664      0.0966      5.0645    110.2490     29.3513
  1789.5000      7.8746      2.5393      0.0566      6.7116    107.7586     29.7808
  1789.6000      7.8746      2.5206      0.0333      7.8426    103.5558     28.9346
  1789.7000      7.8746      2.5335      0.0359      7.0610    103.0946     28.4371
  1789.8000      7.8999      2.5703      0.1138      4.8292    107.3695     28.3969
  1789.9000      7.8999      2.6105      0.1079      2.3928    110.9713     27.8141
  1790.0000      7.8880      2.6393      0.1818      0.6498    110.7758     27.1081
  1790.1000      7.8880      2.6425      0.2164      0.4530    107.1451     27.3677
  1790.2000      7.8880      2.6123      0.1946      2.2834    104.0740     28.5747
  1790.3000      7.7977      2.5700      0.0660      4.8510    106.2187     29.8242
