~Version Information
VERS.                      2.0: CWLS Log ASCII Standard - VERSION 2.0
WRAP.                       NO: One line per depth step
~Well Information Block
STRT.FT               460.5000: 
STOP.FT              2197.0000: 
STEP.FT                 0.2500: 
NULL.                -999.2500: 
COMP.          Petrogulf Corporation: COMPANY
WELL.              Silva 1-43R: WELL
FLD.           Purgatorie River: FIELD
LOC.           1971' FSL & 526' FEL: LOCATION
CNTY.               Las Animas: COUNTY
SRVC.                Patterson: SERVICE COMPANY
DATE.          Sun Jun 18 03:37:26 2006: LOG DATE
UWI.           05 071 08372 00: UNIQUE WELL ID
STAT.                 Colorado: STATE
~Curve Information Block
DEPT.FT            0 000 00 00: Depth
SN.Ohm-m                      : IEL Short Normal
SP.mV                         : IEL Spontaneous Potential
DIR.Ohm-m                     : IEL Induction Resistivity
GR.GAPI                       : Gamma Ray
~Parameter Information Block
~A  Depth        SN          SP         DIR          GR     
# ...
  1264.5000     81.3327     21.4119     53.0337     69.3148
  1264.7500     82.4354     21.4322     53.1446     70.5512
  1265.0000     83.3777     21.4313     53.0613     72.3139
  1265.2500     84.1641     21.4299     52.8772     73.2045
  1265.5000     84.8556     21.4497     52.6831     73.3840
  1265.7500     85.5324     21.5013     52.5379     72.5314
  1266.0000     86.2320     21.5801     52.4676     70.4177
  1266.2500     86.9419     21.6700     52.4873     69.1003
  1266.5000     87.6531     21.7514     52.6125     67.8895
  1266.7500     88.3810     21.8068     52.8383     67.5282
  1267.0000     89.1339     21.8239     53.1079     67.2337
  1267.2500     89.8860     21.7970     53.3237     66.9963
  1267.5000     90.5754     21.7257     53.4070     66.3203
  1267.7500     91.1307     21.6133     53.3579     65.5463
  1268.0000     91.5026     21.4649     53.2463     64.0342
  1268.2500     91.6433     21.2892     53.1406     63.2090
  1268.5000     91.4875     21.1008     53.0250     63.1738
  1268.7500     91.0036     20.9215     52.7729     64.1202
  1269.0000     90.2404     20.7778     52.2205     66.2906
  1269.2500     89.2929     20.6940     51.3154     67.6233
  1269.5000     88.2202     20.6813     50.2183     68.8540
  1269.7500     86.9963     20.7314     49.2423     69.1504
  1270.0000     85.5704     20.8176     48.6742     69.0371
  1270.2500     84.0008     20.9080     48.6224     68.7088
  1270.5000     82.4663     20.9796     48.9782     67.8660
  1270.7500     81.1266     21.0274     49.4888     66.9575
  1271.0000     80.0459     21.0647     49.9002     64.8486
  1271.2500     79.2399     21.1154     50.0924     63.0801
  1271.5000     78.7176     21.2035     50.1124     60.9628
  1271.7500     78.4519     21.3446     50.0883     60.7174
  1272.0000     78.3551     21.5416     50.1098     62.3828
  1272.2500     78.3312     21.7830     50.1739     64.0178
  1272.5000     78.3480     22.0428     50.2201     65.3048
  1272.7500     78.4314     22.2867     50.2023     64.9523
  1273.0000     78.6016     22.4845     50.1337     63.5843
  1273.2500     78.8357     22.6237     50.0780     63.0274
  1273.5000     79.0782     22.7116     50.0991     63.4723
  1273.7500     79.2572     22.7678     50.1975     64.4073
  1274.0000     79.2966     22.8121     50.2778     65.9469
  1274.2500     79.1301     22.8556     50.1857     66.7469
  1274.5000     78.6974     22.8998     49.8091     67.7645
  1274.7500     77.9301     22.9422     49.1578     68.7941
  1275.0000     76.7751     22.9807     48.3452     71.7591
  1275.2500     75.2416     23.0144     47.4956     74.8397
  1275.5000     73.3894     23.0432     46.6722     80.3573
  1275.7500     71.2687     23.0681     45.8679     83.7480
  1276.0000     68.8876     23.0892     45.0408     87.0849
  1276.2500     66.2195     23.1033     44.1507     88.0658
  1276.5000     63.2789     23.1012     43.1772     88.9009
  1276.7500     60.2209     23.0707     42.1096     89.9442
  1277.0000     57.2962     23.0058     40.9204     92.7149
  1277.2500     54.6796     22.9186     39.5532     94.7976
  1277.5000     52.3786     22.8393     37.9509     96.7300
  1277.7500     50.2748     22.8002     36.1074     96.6937
  1278.0000     48.2238     22.8166     34.0920     95.1297
  1278.2500     46.1467     22.8832     32.0216     94.0290
  1278.5000     44.0184     22.9815     30.0075     93.9800
  1278.7500     41.7912     23.0883     28.1256     95.3978
  1279.0000     39.4098     23.1834     26.4208     99.0192
  1279.2500     36.8960     23.2549     24.9228    101.6964
  1279.5000     34.3589     23.3033     23.6515    105.3781
  1279.7500     31.9299     23.3403     22.6074    107.5807
  1280.0000     29.7110     23.3830     21.7614    110.2772
  1280.2500     27.7470     23.4462     21.0580    111.1427
  1280.5000     25.9954     23.5371     20.4318    110.2295
  1280.7500     24.3345     23.6546     19.8283    108.3173
  1281.0000     22.6576     23.7912     19.2179    104.7768
  1281.2500     20.9918     23.9341     18.5959    102.6852
  1281.5000     19.5236     24.0684     17.9772    100.5467
  1281.7500     18.5005     24.1803     17.3887    100.0208
  1282.0000     18.0787     24.2654     16.8620    101.0612
  1282.2500     18.1949     24.3329     16.4257    103.0205
  1282.5000     18.5509     24.4003     16.0959    107.1381
  1282.7500     18.7806     24.4774     15.8709    109.9994
  1283.0000     18.6743     24.5586     15.7318    113.4748
  1283.2500     18.2623     24.6324     15.6498    114.9300
  1283.5000     17.7307     24.6928     15.5975    115.9094
  1283.7500     17.2576     24.7402     15.5550    116.1576
  1284.0000     16.9152     24.7744     15.5089    116.6615
  1284.2500     16.6978     24.7926     15.4473    117.2421
  1284.5000     16.5767     24.7905     15.3584    118.2595
  1284.7500     16.5112     24.7621     15.2356    118.8668
  1285.0000     16.4498     24.6999     15.0817    119.6330
  1285.2500     16.3503     24.5981     14.9079    120.1024
  1285.5000     16.1983     24.4596     14.7282    120.5594
  1285.7500     16.0097     24.3003     14.5565    120.3405
  1286.0000     15.8162     24.1465     14.4053    118.7528
  1286.2500     15.6372     24.0251     14.2880    117.2266
  1286.5000     15.4584     23.9516     14.2147    116.0929
  1286.7500     15.2476     23.9237     14.1843    117.0054
  1287.0000     14.9975     23.9260     14.1777    120.3919
  1287.2500     14.7344     23.9403     14.1616    122.7614
  1287.5000     14.4964     23.9544     14.1052    124.8233
  1287.7500     14.3162     23.9635     13.9983    125.1937
  1288.0000     14.2162     23.9711     13.8520    125.3506
  1288.2500     14.1961     23.9893     13.6840    125.7701
  1288.5000     14.2168     24.0349     13.5035    126.9468
  1288.7500     14.2261     24.1216     13.3088    127.6797
  1289.0000     14.1950     24.2518     13.0970    127.9398
  1289.2500     14.1113     24.4132     12.8711    127.4260
  1289.5000     13.9731     24.5818     12.6413    125.9432
  1289.7500     13.7901     24.7292     12.4214    124.7373
  1290.0000     13.5821     24.8329     12.2269    123.0962
  1290.2500     13.3836     24.8836     12.0747    122.6175
  1290.5000     13.2290     24.8878     11.9816    123.7306
  1290.7500     13.1148     24.8630     11.9606    125.6452
  1291.0000     13.0029     24.8269     12.0159    128.8204
  1291.2500     12.8662     24.7888     12.1424    130.0655
  1291.5000     12.7177     24.7473     12.3264    129.5823
  1291.7500     12.6106     24.6977     12.5496    127.6674
  1292.0000     12.6215     24.6393     12.7920    122.8704
  1292.2500     12.8265     24.5768     13.0344    118.7515
  1292.5000     13.2842     24.5151     13.2610    112.0945
  1292.7500     14.0194     24.4535     13.4631    108.1246
  1293.0000     14.9909     24.3845     13.6422    104.1834
  1293.2500     16.0637     24.2968     13.8112    103.2074
  1293.5000     17.0490     24.1809     13.9919    103.9218
  1293.7500     17.7952     24.0355     14.2069    105.5311
  1294.0000     18.2357     23.8687     14.4693    109.1832
  1294.2500     18.3883     23.6959     14.7749    112.0624
  1294.5000     18.3482     23.5348     15.1016    115.9262
  1294.7500     18.2368     23.4035     15.4168    117.4771
  1295.0000     18.1108     23.3195     15.6874    117.7801
  1295.2500     17.9275     23.2939     15.8849    117.0916
  1295.5000     17.6162     23.3220     15.9848    116.3624
  1295.7500     17.1788     23.3809     15.9680    116.8830
  1296.0000     16.7086     23.4410     15.8286    119.1723
  1296.2500     16.3124     23.4815     15.5818    120.7846
  1296.5000     16.0312     23.4981     15.2629    121.3045
  1296.7500     15.8197     23.5006     14.9138    119.8436
  1297.0000     15.5849     23.5063     14.5668    115.9298
  1297.2500     15.2693     23.5299     14.2379    113.4797
  1297.5000     14.9013     23.5779     13.9315    111.9837
  1297.7500     14.5560     23.6487     13.6508    112.8196
