~Version Information
VERS.                      2.0: CWLS Log ASCII Standard - VERSION 2.0
WRAP.                       NO: One line per depth step
~Well Information Block
STRT.FT               806.0000: 
STOP.FT              1814.0000: 
STEP.FT                 0.2500: 
NULL.                -999.2500: 
COMP.          Pioneer Natural Resources: COMPANY
WELL.            Hill 33-22 Tr: WELL
FLD.           Purgatoire River: FIELD
LOC.           1573' FSL & 1585' FEL: LOCATION
PROV.                 Colorado: PROVINCE
CNTY.               Las Animas: COUNTRY
SRVC.                Patterson: SERVICE COMPANY
DATE.          Thu Apr 14 09:13:17 2005: LOG DATE
UWI.           05 071 08316 00: UNIQUE WELL ID
~Curve Information Block
DEPT.FT            0 000 00 00: Depth
SN.Ohm-m                      : IEL Short Normal
SP.mV                         : IEL Spontaneous Potential
DIR.Ohm-m                     : IEL Induction Resistivity
GR.GAPI                       : Gamma Ray
~Parameter Information Block
~A  Depth        SN          SP         DIR          GR     
# ...
  1710.5000      8.4238     47.3777      5.9743    125.1454
  1710.7500      8.5316     47.1686      5.9864    124.4915
  1711.0000      8.7398     46.9664      6.0213    123.8360
  1711.2500      8.9172     46.8124      6.0829    123.5578
  1711.5000      8.9638     46.7323      6.1744    123.4529
  1711.7500      8.9202     46.7259      6.2973    123.4482
  1712.0000      8.9080     46.7652      6.4506    122.7662
  1712.2500      9.0583     46.8072      6.6313    121.3855
  1712.5000      9.3848     46.8161      6.8359    117.5609
  1712.7500      9.7390     46.7817      7.0612    113.9740
  1713.0000     10.0014     46.7269      7.3054    107.9853
  1713.2500     10.1617     46.6997      7.5700    104.5424
  1713.5000     10.2258     46.7515      7.8606    101.8314
  1713.7500     10.2674     46.9100      8.1864    102.0641
  1714.0000     10.4927     47.1616      8.5579    104.7079
  1714.2500     11.0849     47.4549      8.9819    106.9170
  1714.5000     12.0650     47.7213      9.4581    108.9756
  1714.7500     13.3463     47.9020      9.9768    108.8947
  1715.0000     14.7443     47.9725     10.5204    106.8399
  1715.2500     15.9439     47.9507     11.0659    104.9052
  1715.5000     16.7052     47.8829     11.5851    102.4754
  1715.7500     17.0780     47.8155     12.0431    101.4827
  1716.0000     17.2671     47.7753     12.4001    100.4528
  1716.2500     17.3945     47.7660     12.6231     99.5281
  1716.5000     17.4658     47.7761     12.7035     97.4498
  1716.7500     17.4473     47.7909     12.6656     96.1327
  1717.0000     17.2737     47.8034     12.5574     95.9157
  1717.2500     16.8879     47.8171     12.4333     97.6308
  1717.5000     16.3635     47.8364     12.3403    103.0165
  1717.7500     15.8486     47.8547     12.3116    108.0381
  1718.0000     15.3833     47.8509     12.3647    116.6031
  1718.2500     14.9720     47.7990     12.4980    122.1270
  1718.5000     14.7123     47.6875     12.6904    128.3347
  1718.7500     14.6476     47.5344     12.9057    130.0434
  1719.0000     14.6765     47.3836     13.1032    127.4791
  1719.2500     14.7062     47.2840     13.2504    122.0444
  1719.5000     14.7571     47.2633     13.3301    109.7294
  1719.7500     14.9392     47.3110     13.3396    100.7092
  1720.0000     15.3624     47.3826     13.2878     89.6603
  1720.2500     16.0180     47.4240     13.1927     85.2782
  1720.5000     16.7319     47.4038     13.0797     83.4372
  1720.7500     17.2752     47.3333     12.9740     84.6881
  1721.0000     17.5439     47.2586     12.8913     88.7652
  1721.2500     17.5857     47.2304     12.8320     92.2657
  1721.5000     17.4339     47.2745     12.7840     97.9758
  1721.7500     17.0512     47.3843     12.7319    101.7804
  1722.0000     16.4789     47.5357     12.6645    107.0316
  1722.2500     15.8480     47.7041     12.5756    110.1379
  1722.5000     15.2461     47.8684     12.4610    114.4238
  1722.7500     14.6914     48.0062     12.3177    117.1698
  1723.0000     14.1811     48.0985     12.1489    120.9945
  1723.2500     13.7288     48.1435     11.9690    123.1246
  1723.5000     13.3682     48.1607     11.8032    125.4846
  1723.7500     13.1127     48.1773     11.6781    126.5950
  1724.0000     12.9526     48.2103     11.6106    127.7855
  1724.2500     12.8706     48.2602     11.6023    128.1349
  1724.5000     12.8521     48.3160     11.6423    127.2339
  1724.7500     12.9275     48.3604     11.7160    125.2705
  1725.0000     13.1729     48.3758     11.8147    120.4408
  1725.2500     13.6329     48.3495     11.9377    116.6223
  1725.5000     14.2121     48.2748     12.0859    111.3207
  1725.7500     14.6947     48.1482     12.2509    108.4904
  1726.0000     14.9396     47.9695     12.4093    105.2925
  1726.2500     14.9633     47.7464     12.5295    103.6855
  1726.5000     14.8707     47.5006     12.5866    101.8073
  1726.7500     14.7942     47.2689     12.5737    100.7756
  1727.0000     14.8162     47.0921     12.5006     99.4815
  1727.2500     14.9007     46.9935     12.3841     99.0310
  1727.5000     14.9127     46.9619     12.2395     99.9614
  1727.7500     14.7337     46.9582     12.0796    102.3037
  1728.0000     14.3857     46.9397     11.9182    108.8359
  1728.2500     13.9855     46.8840     11.7706    114.6772
  1728.5000     13.5930     46.7956     11.6472    123.5101
  1728.7500     13.2105     46.6977     11.5426    128.0775
  1729.0000     12.8414     46.6198     11.4342    131.6100
  1729.2500     12.4796     46.5900     11.2942    131.6527
  1729.5000     12.1573     46.6268     11.1134    128.8041
  1729.7500     11.9313     46.7302     10.9135    125.5878
  1730.0000     11.7819     46.8771     10.7378    120.0934
  1730.2500     11.6899     47.0261     10.6271    116.5986
  1730.5000     11.7211     47.1310     10.5988    112.0698
  1730.7500     11.9377     47.1608     10.6434    109.4909
  1731.0000     12.3022     47.1162     10.7334    105.9750
  1731.2500     12.6800     47.0304     10.8387    103.7637
  1731.5000     12.9837     46.9507     10.9356    101.0127
  1731.7500     13.2317     46.9137     11.0074    100.1143
  1732.0000     13.4134     46.9316     11.0393    101.2279
  1732.2500     13.4605     46.9963     11.0164    103.8343
  1732.5000     13.3365     47.0853     10.9275    109.7145
  1732.7500     13.0632     47.1609     10.7736    113.9567
  1733.0000     12.7193     47.1793     10.5711    119.1979
  1733.2500     12.4387     47.1191     10.3468    121.4734
  1733.5000     12.3018     46.9987     10.1227    123.2689
  1733.7500     12.2068     46.8577      9.9043    123.9716
  1734.0000     11.9444     46.7230      9.6803    125.3612
  1734.2500     11.4226     46.5978      9.4376    126.6802
  1734.5000     10.7860     46.4769      9.1767    128.5590
  1734.7500     10.2973     46.3631      8.9160    129.2672
  1735.0000     10.1154     46.2719      8.6810    129.6150
  1735.2500     10.1779     46.2225      8.4907    129.9122
  1735.5000     10.2810     46.2229      8.3527    131.0795
  1735.7500     10.2633     46.2597      8.2659    132.1314
  1736.0000     10.1251     46.3014      8.2261    133.3837
  1736.2500     10.0129     46.3158      8.2305    133.9157
  1736.5000     10.0469     46.2901      8.2775    134.6376
  1736.7500     10.2001     46.2351      8.3666    135.0170
  1737.0000     10.3931     46.1728      8.4992    134.5803
  1737.2500     10.6002     46.1207      8.6808    133.2797
  1737.5000     10.8383     46.0905      8.9223    130.4439
  1737.7500     11.1153     46.0901      9.2367    128.6518
  1738.0000     11.4369     46.1159      9.6325    126.4061
  1738.2500     11.8773     46.1479     10.1082    124.6572
  1738.5000     12.5606     46.1659     10.6519    120.4283
  1738.7500     13.4701     46.1792     11.2491    116.1500
  1739.0000     14.3746     46.2323     11.8955    107.5767
  1739.2500     15.0981     46.3710     12.6052    100.8217
  1739.5000     15.7528     46.6055     13.4074     90.6848
  1739.7500     16.6115     46.9127     14.3350     85.2146
  1740.0000     17.9206     47.2646     15.4153     80.4513
  1740.2500     19.7819     47.6469     16.6684     79.2266
  1740.5000     22.0354     48.0555     18.1103     77.7062
  1740.7500     24.2981     48.4845     19.7509     75.2624
  1741.0000     26.2156     48.9173     21.5809     68.6451
  1741.2500     27.7029     49.3209     23.5546     63.2741
  1741.5000     28.9175     49.6488     25.5808     56.4698
  1741.7500     30.0331     49.8589     27.5417     53.7102
  1742.0000     31.1161     49.9412     29.3429     52.0177
  1742.2500     32.1411     49.9245     30.9658     51.8367
  1742.5000     33.0040     49.8512     32.4635     51.9862
  1742.7500     33.5706     49.7494     33.8904     52.0837
  1743.0000     33.8152     49.6329     35.2155     52.2009
  1743.2500     33.9058     49.5132     36.3065     52.4599
  1743.5000     34.0143     49.4022     37.0275     53.5738
  1743.7500     34.0487     49.3066     37.3780     54.8816
