~Version Information
VERS.                      2.0: CWLS Log ASCII Standard - VERSION 2.0
WRAP.                       NO: One line per depth step
~Well Information Block
STRT.FT               491.0000: 
STOP.FT              1055.5000: 
STEP.FT                 0.1000: 
NULL.                -999.2500: 
COMP.          Evergreen Operating Corporation: COMPANY
WELL.              Sunset 24-3: WELL
FLD.           Purgatorie River: FIELD
LOC.           467' FSL & 2262' FWL: LOCATION
PROV.                 Colorado: PROVINCE
CNTY.               Las Animas: COUNTRY
SRVC.                         : SERVICE COMPANY
DATE.          Wed Sep 22 14:05:09 2004: LOG DATE
UWI.           05 071 08158 00: UNIQUE WELL ID
~Curve Information Block
DEPT.FT            0 000 00 00: Depth
DCAL.in                       : CDL Caliper
RHOB.g/cc                     : CDL Bulk Density
RHOC.g/cc                     : CDL Density Correction
DPOR.pu                       : CDL Density Porosity
GR.GAPI                       : Gamma Ray
NPOR.pu                       : Neutron Porosity
~Parameter Information Block
~A  Depth       DCAL        RHOB        RHOC        DPOR         GR         NPOR    
# ...
   855.8000      7.9033      2.5310      0.1033      7.2136    122.6447     25.3980
   855.9000      7.9033      2.5353      0.0848      6.9513    132.8197     24.6108
   856.0000      7.9013      2.5434      0.0413      6.4585    133.8940     23.2715
   856.1000      7.9013      2.5714      0.0836      4.7657    126.5270     22.2051
   856.2000      7.9013      2.6094      0.1123      2.4622    121.5727     21.2807
   856.3000      7.9001      2.6357      0.1363      0.8663    118.7480     20.3966
   856.4000      7.9001      2.6412      0.1257      0.5317    111.6726     20.3267
   856.5000      7.8970      2.6289      0.1019      1.2782    106.4434     21.3623
   856.6000      7.8970      2.6066      0.0779      2.6311    107.6447     22.4348
   856.7000      7.8970      2.5860      0.0766      3.8794    107.9680     22.7723
   856.8000      7.8974      2.5745      0.0678      4.5750    106.0761     22.5898
   856.9000      7.8974      2.5696      0.0507      4.8741    106.8731     22.3010
   857.0000      7.9026      2.5647      0.0541      5.1678    108.7322     21.7131
   857.1000      7.9026      2.5578      0.0261      5.5909    108.3433     20.6921
   857.2000      7.9026      2.5510      0.0481      6.0013    106.4253     19.6827
   857.3000      7.9309      2.5510      0.0388      6.0029    104.9615     19.1617
   857.4000      7.9309      2.5647      0.0478      5.1703    104.4679     19.4068
   857.5000      7.9394      2.5889      0.0782      3.7019    104.2914     19.9711
   857.6000      7.9394      2.6106      0.0782      2.3859    102.9910     19.9581
   857.7000      7.9394      2.6178      0.0778      1.9535     98.5941     19.5579
   857.8000      7.9195      2.6092      0.0679      2.4749     92.2935     19.4524
   857.9000      7.9195      2.5946      0.0544      3.3603     87.2035     19.5258
   858.0000      7.9160      2.5795      0.0477      4.2745     84.3143     19.3466
   858.1000      7.9160      2.5652      0.0376      5.1412     82.1972     18.9358
   858.2000      7.9160      2.5575      0.0463      5.6045     79.9401     18.4794
   858.3000      7.9157      2.5601      0.0126      5.4456     79.0545     18.3413
   858.4000      7.9157      2.5672      0.0219      5.0211     80.1493     18.6880
   858.5000      7.9144      2.5703     -0.0040      4.8284     83.3055     18.9529
   858.6000      7.9144      2.5702      0.0196      4.8381     86.2110     18.7063
   858.7000      7.9144      2.5660      0.0434      5.0891     86.2061     18.1842
   858.8000      7.9151      2.5607      0.0280      5.4139     86.5476     17.6545
   858.9000      7.9151      2.5671      0.0280      5.0264     88.8333     17.2179
   859.0000      7.9165      2.5814      0.0716      4.1579     88.3609     16.7674
   859.1000      7.9165      2.5852      0.0585      3.9265     81.3998     16.3695
   859.2000      7.9165      2.5790      0.0521      4.3049     70.4342     16.4362
   859.3000      7.9164      2.5762      0.0441      4.4710     62.7464     17.1975
   859.4000      7.9164      2.5786      0.0695      4.3258     62.9714     17.9917
   859.5000      7.9165      2.5784      0.0454      4.3385     66.0859     17.7682
   859.6000      7.9165      2.5744      0.0419      4.5809     66.6691     16.5867
   859.7000      7.9165      2.5722      0.0258      4.7159     66.3024     15.4883
   859.8000      7.9149      2.5746      0.0537      4.5699     66.3871     14.8988
   859.9000      7.9149      2.5765      0.0646      4.4552     65.2994     14.6687
   860.0000      7.9151      2.5773      0.0480      4.4084     62.7726     14.7019
   860.1000      7.9151      2.5845      0.0592      3.9715     62.7833     14.9496
   860.2000      7.9151      2.5943      0.0985      3.3766     66.1316     15.3285
   860.3000      7.9092      2.5936      0.0506      3.4157     69.9226     15.7219
   860.4000      7.9092      2.5823      0.0949      4.1057     74.0722     16.3566
   860.5000      7.8998      2.5731      0.0814      4.6629     76.3842     17.3635
   860.6000      7.8998      2.5743      0.0409      4.5885     73.5280     18.0915
   860.7000      7.8998      2.5757      0.0730      4.5046     68.2917     18.0645
   860.8000      7.8994      2.5656      0.0418      5.1178     66.7415     17.9304
   860.9000      7.8994      2.5518      0.0317      5.9502     70.2144     18.0474
   861.0000      7.9062      2.5449      0.0387      6.3693     74.1469     17.8306
   861.1000      7.9062      2.5418      0.0328      6.5548     76.1532     17.2396
   861.2000      7.9062      2.5370      0.0414      6.8477     79.2933     16.7149
   861.3000      7.9140      2.5307      0.0393      7.2275     84.9738     16.2623
   861.4000      7.9140      2.5333     -0.0222      7.0726     89.8111     15.9025
   861.5000      7.9016      2.5517      0.0243      5.9574     91.4342     15.7367
   861.6000      7.9016      2.5700      0.0663      4.8470     90.4179     15.9378
   861.7000      7.9016      2.5697      0.0618      4.8666     87.4796     16.3692
   861.8000      7.9057      2.5557      0.0227      5.7168     84.7078     16.4840
   861.9000      7.9057      2.5440      0.0352      6.4249     85.7725     16.3555
   862.0000      7.9017      2.5390      0.0263      6.7275     91.1848     16.2884
   862.1000      7.9017      2.5403      0.0368      6.6498     95.9653     16.1556
   862.2000      7.9017      2.5498      0.0126      6.0736     95.7029     16.0625
   862.3000      7.9146      2.5621      0.0477      5.3298     91.4680     16.3133
   862.4000      7.9146      2.5680      0.0323      4.9671     88.0032     16.8451
   862.5000      7.9272      2.5670      0.0409      5.0313     87.7131     17.0945
   862.6000      7.9272      2.5620      0.0461      5.3344     89.7828     16.5887
   862.7000      7.9272      2.5546      0.0094      5.7800     92.4418     15.7273
   862.8000      7.9378      2.5504      0.0248      6.0393     93.1822     15.5724
   862.9000      7.9378      2.5526      0.0478      5.9025     90.9846     16.5170
   863.0000      7.9281      2.5561      0.0080      5.6924     87.0857     17.5562
   863.1000      7.9281      2.5578      0.0428      5.5884     80.8591     17.5659
   863.2000      7.9281      2.5595      0.0362      5.4879     75.3053     16.7179
   863.3000      7.9390      2.5598      0.0470      5.4675     75.4957     15.9040
   863.4000      7.9390      2.5592      0.0164      5.5043     79.0190     15.7573
   863.5000      7.9194      2.5630      0.0234      5.2722     81.1520     16.3237
   863.6000      7.9194      2.5701      0.0598      4.8445     81.8373     16.9294
   863.7000      7.9194      2.5779      0.0399      4.3719     84.1246     16.9766
   863.8000      7.8961      2.5863      0.0899      3.8598     88.1079     16.4428
   863.9000      7.8961      2.5892      0.0477      3.6873     88.5694     15.6232
   864.0000      7.8615      2.5853      0.0725      3.9235     84.0533     14.9841
   864.1000      7.8615      2.5829      0.0386      4.0691     81.5088     14.4837
   864.2000      7.8615      2.5898      0.0711      3.6488     86.3107     13.9467
   864.3000      7.8618      2.5985      0.0961      3.1185     93.2564     13.7680
   864.4000      7.8618      2.5964      0.0509      3.2507     92.0264     14.0119
   864.5000      7.8964      2.5837      0.0805      4.0187     82.1311     14.5775
   864.6000      7.8964      2.5648      0.0564      5.1630     72.0301     15.2929
   864.7000      7.8964      2.5471      0.0333      6.2376     69.0911     15.5042
   864.8000      7.8998      2.5430      0.0254      6.4847     75.5283     15.2159
   864.9000      7.8998      2.5500      0.0451      6.0635     84.6357     15.0311
   865.0000      7.9040      2.5439      0.0442      6.4318     88.2542     15.0144
   865.1000      7.9040      2.5166     -0.0074      8.0824     86.0178     14.9630
   865.2000      7.9040      2.4968     -0.0165      9.2859     81.6256     14.9106
   865.3000      7.9072      2.5102     -0.0058      8.4737     78.0816     14.8585
