~Version Information
 VERS.                                  2.0 : CWLS LAS VERSION
 WRAP.                                   NO : WRAPING MODE
 SWARE .                 MController 2.5.0J : SOFTWARE VERSION
~Well Information
 WELL.                         Sliva 01-43V : WELL
 COMP.                Petrogulf Corporation : COMPANY
 FLD.                      Purgatoire River : FIELD
 LOC.                 NE/SE Sec 1 T33S R68W : LOCATION
 DATE.                          08/26-27/05 : DATE(S) LOGGED
 SRVC.       BLANCO Geological Services LLC : SERVICE COMPANY
 STAT.                                   CO : STATE
 CNTY.                           Las Animas : COUNTY
 CTRY.                                  USA : COUNTRY
 API.                       05-071-08371-00 : API NUMBER
 STRT.FT                             503.00 : START DEPTH
 STOP.FT                            2764.00 : STOP DEPTH
 STEP.FT                               1.00 : DEPTH INCREMENT
 NULL.                                -9999 : NULL VALUE
~Curve information
 DEPTH.FT                                   :
 ROP.MIN/FT                                 :
 GAS.UNITS                                  :
~ASCII Log data
# ...
      1703.0         0.20          9.3 
      1704.0         0.53          9.1 
      1705.0         0.33          7.4 
      1706.0         0.30          7.8 
      1707.0         0.27          9.3 
      1708.0         0.32         15.6 
      1709.0         0.33         32.8 
      1710.0         2.43         86.6 
      1711.0         0.68         15.4 
      1712.0         0.73          8.8 
      1713.0         0.80          7.5 
      1714.0         0.57          7.1 
      1715.0         0.40          7.0 
      1716.0         0.45          6.7 
      1717.0         0.37          6.7 
      1718.0         0.37          6.7 
      1719.0         0.33          6.9 
      1720.0         0.37          7.0 
      1721.0         0.27          7.1 
      1722.0         0.27          7.4 
      1723.0         0.30          7.3 
      1724.0         0.23          7.0 
      1725.0         0.38          7.3 
      1726.0         0.30          7.2 
      1727.0         0.23          7.4 
      1728.0         0.43          7.8 
      1729.0         0.43          7.8 
      1730.0         0.43          7.7 
      1731.0         0.23          7.4 
      1732.0         0.20          7.9 
      1733.0         0.23          7.5 
      1734.0         0.20          6.9 
      1735.0         0.27          6.7 
      1736.0         0.32          6.9 
      1737.0         0.33          8.2 
      1738.0         0.33         11.5 
      1739.0         0.37         22.9 
      1740.0         2.52        111.7 
      1741.0         0.83         23.1 
      1742.0         0.73          9.8 
      1743.0         0.70          8.0 
      1744.0         0.50          7.4 
      1745.0         0.52          7.0 
      1746.0         0.47          6.7 
      1747.0         0.43          6.7 
      1748.0         0.40          6.5 
      1749.0         0.47          6.8 
      1750.0         0.30          6.6 
      1751.0         0.30          7.0 
      1752.0         0.43          7.3 
      1753.0         0.38          7.1 
      1754.0         0.37          7.1 
      1755.0         0.37          7.4 
      1756.0         0.37          7.8 
      1757.0         0.33          7.7 
      1758.0         0.23          7.3 
      1759.0         0.27          7.3 
      1760.0         0.23          7.7 
      1761.0         0.20          7.5 
      1762.0         0.20          7.1 
      1763.0         0.17          6.7 
      1764.0         0.25          6.3 
      1765.0         0.23          6.5 
      1766.0         0.23          7.5 
      1767.0         0.23          8.6 
      1768.0         0.27         11.8 
      1769.0         0.33         22.6 
      1770.0         2.42        125.9 
      1771.0         0.53         32.2 
      1772.0         0.30         16.1 
      1773.0         0.33         11.6 
      1774.0         0.43          8.7 
      1775.0         0.40          8.0 
      1776.0         0.33          7.6 
      1777.0         0.52          7.1 
      1778.0         0.47          7.0 
      1779.0         0.47          7.0 
      1780.0         0.50          7.2 
      1781.0         0.40          7.4 
      1782.0         0.40          6.6 
      1783.0         0.23          6.6 
      1784.0         0.30          7.1 
      1785.0         0.27          7.4 
      1786.0         0.25          7.1 
      1787.0         0.27          7.2 
      1788.0         0.27          7.3 
      1789.0         0.20          6.8 
      1790.0         0.20          7.4 
      1791.0         0.37          7.8 
      1792.0         0.37          8.5 
      1793.0         0.37          8.5 
      1794.0         0.30          7.7 
      1795.0         0.30          7.6 
      1796.0         0.20          7.4 
      1797.0         0.23          8.7 
      1798.0         0.28         10.4 
      1799.0         0.33         18.7 
      1800.0         3.45        116.9 
      1801.0         0.30         11.6 
      1802.0         0.33          9.0 
      1803.0         0.53          8.8 
      1804.0         0.50          8.2 
      1805.0         0.40          7.4 
      1806.0         0.48          7.4 
      1807.0         0.43          7.2 
      1808.0         0.33          7.0 
      1809.0         0.40          7.2 
      1810.0         0.40          7.0 
      1811.0         0.27          7.0 
      1812.0         0.37          6.9 
      1813.0         0.30          7.0 
      1814.0         0.30          7.1 
      1815.0         0.30          6.9 
      1816.0         0.32          7.1 
      1817.0         0.33          7.2 
      1818.0         0.33          7.3 
      1819.0         0.30          7.0 
      1820.0         0.27          7.1 
      1821.0         0.27          7.1 
      1822.0         0.27          7.5 
      1823.0         0.27          7.3 
      1824.0         0.27          6.6 
      1825.0         0.30          7.0 
      1826.0         0.13          6.6 
      1827.0         0.20          7.6 
      1828.0         0.28          7.6 
      1829.0         0.30          9.3 
      1830.0         0.33         12.3 
      1831.0         0.37         24.1 
      1832.0         2.38        105.1 
      1833.0         0.47         34.2 
      1834.0         0.50         18.8 
      1835.0         0.40         10.1 
      1836.0         0.33          9.1 
      1837.0         0.33          9.4 
      1838.0         0.33          9.5 
      1839.0         0.23          8.8 
      1840.0         0.48          8.1 
      1841.0         0.50          7.4 
      1842.0         0.40          6.4 
      1843.0         0.40          6.2 
      1844.0         0.33          6.6 
      1845.0         0.37          6.4 
      1846.0         0.37          7.2 
      1847.0         0.37          7.4 
      1848.0         0.48          8.0 
      1849.0         0.37          7.8 
      1850.0         0.27          7.2 
      1851.0         0.30          7.4 
      1852.0         0.27          7.5 
      1853.0         0.27          7.6 
      1854.0         0.30          7.9 
      1855.0         0.27          7.4 
      1856.0         0.27          7.5 
      1857.0         0.27          7.3 
      1858.0         0.30          6.6 
      1859.0         0.28          6.4 
      1860.0         0.30          7.0 
      1861.0         0.30          7.8 
      1862.0         2.40         42.3 
      1863.0         0.35         25.0 
      1864.0         0.40         17.5 
      1865.0         0.43         12.6 
      1866.0         0.40         10.0 
      1867.0         0.50          8.7 
      1868.0         0.40          8.4 
      1869.0         0.37          8.0 
      1870.0         0.37          7.7 
      1871.0         0.35          7.4 
      1872.0         0.37          7.4 
      1873.0         0.33          6.9 
      1874.0         0.30          6.7 
      1875.0         0.30          6.9 
      1876.0         0.33          6.5 
      1877.0         0.30          6.7 
      1878.0         0.40          6.4 
      1879.0         0.50          7.0 
      1880.0         0.35          7.5 
      1881.0         0.40          7.7 
      1882.0         0.33          7.6 
      1883.0         0.30          7.3 
      1884.0         0.30          7.3 
      1885.0         0.27          7.4 
      1886.0         0.33          7.4 
      1887.0         0.40          7.7 
      1888.0         0.30          7.4 
      1889.0         0.37          6.5 
      1890.0         0.42          7.3 
      1891.0         0.27          7.3 
      1892.0         3.85         22.7 
      1893.0         0.57         11.1 
      1894.0         0.27          9.5 
      1895.0         0.43          8.5 
      1896.0         0.43          8.4 
      1897.0         0.30          8.2 
      1898.0         0.28          7.9 
      1899.0         0.27          7.8 
      1900.0         0.27          7.7 
      1901.0         0.33          7.4 
      1902.0         0.43          7.6 
