~Version Information
 VERS.                                  2.0 : CWLS LAS VERSION
 WRAP.                                   NO : WRAPING MODE
 SWARE .                 MController 2.5.0E : SOFTWARE VERSION
~Well Information
 WELL.                       Parklane 43-34 : WELL
 COMP.             Evergreen Operating Corp : COMPANY
 FLD.                      Purgatorie River : FIELD
 LOC.                NE/SE Sec 34 T32S R66W : LOCATION
 DATE.                          10/04-06/04 : DATE(S) LOGGED
 SRVC.       Blanco Geological Services LLC : SERVICE COMPANY
 STAT.                                   CO : STATE
 CNTY.                           Las Animas : COUNTY
 CTRY.                                  USA : COUNTRY
 API.                       05-071-08162-00 : API NUMBER
 STRT.FT                             467.00 : START DEPTH
 STOP.FT                            2245.00 : STOP DEPTH
 STEP.FT                               1.00 : DEPTH INCREMENT
 NULL.                                -9999 : NULL VALUE
~Curve information
 DEPTH.FT                                   :
 ROP.MIN/FT                                 :
 GAS.UNITS                                  :
~ASCII Log data
# ...
      667.00        0.233         13.1 
      668.00        0.200         12.4 
      669.00        0.167         10.1 
      670.00        0.167          9.1 
      671.00        0.133          7.9 
      672.00        0.133          8.3 
      673.00        0.200          9.6 
      674.00        0.233         12.9 
      675.00        0.200         14.3 
      676.00        0.167         15.8 
      677.00        0.200         15.5 
      678.00        0.133         15.6 
      679.00        0.133         14.7 
      680.00        0.167         15.8 
      681.00        0.183         22.4 
      682.00        0.133         35.9 
      683.00        0.167         49.6 
      684.00        0.133         63.0 
      685.00        0.167         74.3 
      686.00        1.200         79.1 
      687.00        0.333         35.4 
      688.00        0.233         29.9 
      689.00        0.267         26.9 
      690.00        0.200         23.9 
      691.00        0.167         20.5 
      692.00        0.167         19.3 
      693.00        0.183         18.5 
      694.00        0.133         17.9 
      695.00        0.167         16.6 
      696.00        0.167         17.3 
      697.00        0.133         18.3 
      698.00        0.200         18.4 
      699.00        0.200         16.3 
      700.00        0.233         12.8 
      701.00        0.167         12.2 
      702.00        0.167         13.7 
      703.00        0.133         14.0 
      704.00        0.167         14.8 
      705.00        0.133         15.0 
      706.00        0.100         14.6 
      707.00        0.133         14.7 
      708.00        0.100         16.0 
      709.00        0.100         18.1 
      710.00        0.100         23.8 
      711.00        0.100         30.9 
      712.00        0.133         47.0 
      713.00        0.100         60.5 
      714.00        0.133         74.0 
      715.00        0.133         83.1 
      716.00        1.217         86.7 
      717.00        0.300         29.4 
      718.00        0.200         23.2 
      719.00        0.167         20.2 
      720.00        0.167         17.3 
      721.00        0.167         15.2 
      722.00        0.067         12.3 
      723.00        0.167         12.3 
      724.00        0.167          9.2 
      725.00        0.167          8.3 
      726.00        0.167          6.5 
      727.00        0.233          5.8 
      728.00        0.183          4.4 
      729.00        0.167          4.2 
      730.00        0.133          3.7 
      731.00        0.167          2.9 
      732.00        0.133          2.6 
      733.00        0.167          2.7 
      734.00        0.133          2.4 
      735.00        0.133          2.9 
      736.00        0.133          3.0 
      737.00        0.133          2.7 
      738.00        0.167          2.8 
      739.00        0.267          2.3 
      740.00        0.267          2.8 
      741.00        0.133          2.4 
      742.00        0.200          4.8 
      743.00        0.167         10.2 
      744.00        0.167         17.2 
      745.00        0.167         25.1 
      746.00        1.683         85.9 
      747.00        0.233         36.7 
      748.00        0.267         32.5 
      749.00        0.167         24.6 
      750.00        0.100         20.0 
      751.00        0.167         18.5 
      752.00        0.200         15.8 
      753.00        0.133         13.6 
      754.00        0.100         12.2 
      755.00        0.067         10.8 
      756.00        0.167         11.3 
      757.00        0.167         10.1 
      758.00        0.100         10.2 
      759.00        0.133         10.5 
      760.00        0.150          9.9 
      761.00        0.167          8.5 
      762.00        0.133          6.6 
      763.00        0.133          6.0 
      764.00        0.167          5.7 
      765.00        0.167          5.5 
      766.00        0.167          5.6 
      767.00        0.133          6.2 
      768.00        0.167          7.9 
      769.00        0.133          8.1 
      770.00        0.167          8.8 
      771.00        0.133         10.7 
      772.00        0.067         12.0 
      773.00        0.167         18.5 
      774.00        0.133         27.7 
      775.00        0.233         45.2 
      776.00        1.483         55.6 
      777.00        0.133         30.4 
      778.00        0.200         26.2 
      779.00        0.167         21.5 
      780.00        0.133         16.0 
      781.00        0.167         13.7 
      782.00        0.267         10.8 
      783.00        0.233          8.0 
      784.00        0.200          6.0 
      785.00        0.067          6.1 
      786.00        0.200          5.7 
      787.00        0.267          6.6 
      788.00        0.167          7.6 
      789.00        0.133          8.3 
      790.00        0.200          8.9 
      791.00        0.133         10.4 
      792.00        0.100          9.7 
      793.00        0.183          9.4 
      794.00        0.267         10.1 
      795.00        0.300         11.5 
      796.00        0.133         10.9 
      797.00        0.167         10.4 
      798.00        0.200         10.1 
      799.00        0.300          8.8 
      800.00        0.133          6.8 
      801.00        0.200          6.4 
      802.00        0.200          8.1 
      803.00        0.233         16.1 
      804.00        0.200         28.1 
      805.00        0.133         36.7 
      806.00        1.883         53.9 
      807.00        0.133         19.2 
      808.00        0.167         17.3 
      809.00        0.200         15.5 
      810.00        0.200         12.8 
      811.00        0.233         11.2 
      812.00        0.200          9.7 
      813.00        0.267          8.8 
      814.00        0.200          8.7 
      815.00        0.167          6.6 
      816.00        0.233          5.2 
      817.00        0.233          3.9 
      818.00        0.183          4.0 
      819.00        0.167          4.8 
      820.00        0.233          4.3 
      821.00        0.233          4.6 
      822.00        0.133          4.4 
      823.00        0.167          4.7 
      824.00        0.233          4.6 
      825.00        0.233          4.7 
      826.00        0.200          6.5 
      827.00        0.233         17.9 
      828.00        0.200         39.2 
      829.00        0.200         54.5 
      830.00        0.267         68.4 
      831.00        0.233         72.9 
      832.00        0.200         71.7 
      833.00        0.200         61.1 
      834.00        0.183         50.7 
      835.00        0.167         43.0 
      836.00        1.133         36.1 
      837.00        0.233         14.0 
      838.00        0.233         11.2 
      839.00        0.200          8.5 
      840.00        0.100          8.1 
      841.00        0.133          7.1 
      842.00        0.133          6.4 
      843.00        0.200          4.8 
      844.00        0.133          4.2 
      845.00        0.100          5.1 
      846.00        0.200          4.9 
      847.00        0.100          4.0 
      848.00        0.200          3.9 
      849.00        0.150          4.3 
      850.00        0.100          4.0 
      851.00        0.167          3.6 
      852.00        0.133          3.4 
      853.00        0.067          3.0 
      854.00        0.100          3.2 
      855.00        0.133          2.9 
      856.00        0.133          3.9 
      857.00        0.200          4.9 
      858.00        0.167          8.6 
      859.00        0.200         18.6 
      860.00        0.200         30.7 
      861.00        0.167         40.1 
      862.00        0.267         50.6 
      863.00        0.200         55.7 
      864.00        0.167         58.4 
      865.00        0.100         60.2 
      866.00        0.817         60.4 
