~Version Information
VERS.                      2.0: CWLS Log ASCII Standard - VERSION 2.0
WRAP.                       NO: One line per depth step
~Well Information Block
STRT.FT               964.0000: 
STOP.FT              2440.0000: 
STEP.FT                 0.2500: 
NULL.                -999.2500: 
COMP.          Petrogulf Corporation: COMPANY
WELL.              Hand 8-44 V: WELL
FLD.           Purgatorie River: FIELD
LOC.           1076' FEL & 820' FSL: LOCATION
CNTY.               Las Animas: COUNTY
SRVC.                         : SERVICE COMPANY
DATE.          Fri Nov 21 11:54:17 2003: LOG DATE
UWI.                          : UNIQUE WELL ID
STAT.                 Colorado: STATE
~Curve Information Block
DEPT.FT            0 000 00 00: Depth
SP.mV                         : IEL Spontaneous Potential
DIR.Ohm-m                     : IEL Induction Resistivity
GR.GAPI                       : Gamma Ray
~Parameter Information Block
~A  Depth        SP         DIR          GR     
# ...
  1924.2500     -4.0116     10.6976    200.9597
  1924.5000     -4.0165     10.9436    197.6429
  1924.7500     -4.0243     11.2003    195.3518
  1925.0000     -4.0341     11.4639    192.6919
  1925.2500     -4.0440     11.7367    190.8932
  1925.5000     -4.0518     12.0238    186.8604
  1925.7500     -4.0559     12.3301    183.1601
  1926.0000     -4.0562     12.6602    176.9397
  1926.2500     -4.0532     13.0178    173.1574
  1926.5000     -4.0479     13.4048    169.5031
  1926.7500     -4.0414     13.8183    168.8092
  1927.0000     -4.0344     14.2478    169.5845
  1927.2500     -4.0269     14.6746    170.3766
  1927.5000     -4.0182     15.0757    170.6479
  1927.7500     -4.0077     15.4348    169.6308
  1928.0000     -3.9950     15.7555    165.2420
  1928.2500     -3.9806     16.0674    159.9231
  1928.5000     -3.9655     16.4130    148.3592
  1928.7500     -3.9504     16.8209    138.6858
  1929.0000     -3.9362     17.2857    122.2277
  1929.2500     -3.9237     17.7673    110.6911
  1929.5000     -3.9133     18.2105     94.3338
  1929.7500     -3.9048     18.5712     85.2213
  1930.0000     -3.8977     18.8333     75.4804
  1930.2500     -3.8912     19.0109     71.5290
  1930.5000     -3.8845     19.1349     68.0499
  1930.7500     -3.8770     19.2368     66.2807
  1931.0000     -3.8686     19.3351     63.0381
  1931.2500     -3.8600     19.4348     60.2282
  1931.5000     -3.8521     19.5359     55.5761
  1931.7500     -3.8459     19.6436     52.7985
  1932.0000     -3.8410     19.7701     50.0132
  1932.2500     -3.8366     19.9275     49.2904
  1932.5000     -3.8317     20.1200     49.9212
  1932.7500     -3.8262     20.3428     51.4320
  1933.0000     -3.8206     20.5881     54.8969
  1933.2500     -3.8160     20.8535     57.3889
  1933.5000     -3.8135     21.1438     60.1272
  1933.7500     -3.8137     21.4684     60.8393
  1934.0000     -3.8165     21.8355     60.2482
  1934.2500     -3.8206     22.2474     59.0498
  1934.5000     -3.8246     22.6987     56.6522
  1934.7500     -3.8275     23.1748     54.8864
  1935.0000     -3.8287     23.6537     52.0637
  1935.2500     -3.8286     24.1107     50.0728
  1935.5000     -3.8284     24.5253     47.2572
  1935.7500     -3.8292     24.8873     45.8413
  1936.0000     -3.8317     25.2005     44.7262
  1936.2500     -3.8351     25.4813     44.4890
  1936.5000     -3.8381     25.7466     44.3138
  1936.7500     -3.8388     25.9968     44.1221
  1937.0000     -3.8359     26.2032     43.8126
  1937.2500     -3.8291     26.3171     43.7665
  1937.5000     -3.8188     26.2996     44.3283
  1937.7500     -3.8071     26.1524     45.4268
  1938.0000     -3.7961     25.9203     48.5213
  1938.2500     -3.7881     25.6642     51.3753
  1938.5000     -3.7836     25.4275     55.9921
  1938.7500     -3.7812     25.2205     58.9850
  1939.0000     -3.7789     25.0252     63.7716
  1939.2500     -3.7744     24.8170     67.6243
  1939.5000     -3.7673     24.5849     74.2785
  1939.7500     -3.7583     24.3408     78.4604
  1940.0000     -3.7482     24.1080     82.5247
  1940.2500     -3.7377     23.9000     83.2004
  1940.5000     -3.7269     23.7100     81.5376
  1940.7500     -3.7154     23.5211     79.2940
  1941.0000     -3.7035     23.3260     75.1520
  1941.2500     -3.6918     23.1366     72.1285
  1941.5000     -3.6818     22.9752     67.3453
  1941.7500     -3.6753     22.8574     63.9634
  1942.0000     -3.6734     22.7831     58.3354
  1942.2500     -3.6762     22.7407     54.1325
  1942.5000     -3.6831     22.7181     47.7698
  1942.7500     -3.6928     22.7090     44.2804
  1943.0000     -3.7035     22.7126     41.3375
  1943.2500     -3.7137     22.7268     40.9722
  1943.5000     -3.7224     22.7452     41.9439
  1943.7500     -3.7295     22.7587     42.9641
  1944.0000     -3.7356     22.7578     44.3570
  1944.2500     -3.7416     22.7337     45.0528
  1944.5000     -3.7484     22.6782     45.8670
  1944.7500     -3.7561     22.5830     46.5653
  1945.0000     -3.7633     22.4400     48.5936
  1945.2500     -3.7680     22.2426     50.8549
  1945.5000     -3.7681     21.9940     55.2950
  1945.7500     -3.7627     21.7162     58.3644
  1946.0000     -3.7526     21.4486     61.8089
  1946.2500     -3.7401     21.2335     62.6648
  1946.5000     -3.7281     21.0980     61.4333
  1946.7500     -3.7195     21.0484     59.3608
  1947.0000     -3.7164     21.0769     55.8159
  1947.2500     -3.7195     21.1727     53.9806
  1947.5000     -3.7280     21.3272     52.7978
  1947.7500     -3.7395     21.5330     53.0408
  1948.0000     -3.7514     21.7800     54.2064
  1948.2500     -3.7608     22.0537     54.8913
  1948.5000     -3.7652     22.3369     55.1310
  1948.7500     -3.7623     22.6137     54.9235
  1949.0000     -3.7508     22.8757     55.0377
  1949.2500     -3.7314     23.1245     55.9047
  1949.5000     -3.7071     23.3699     58.2928
  1949.7500     -3.6824     23.6244     59.9462
  1950.0000     -3.6622     23.8973     61.1279
  1950.2500     -3.6503     24.1902     60.6028
  1950.5000     -3.6487     24.4964     58.1163
  1950.7500     -3.6567     24.8043     56.0880
  1951.0000     -3.6714     25.1027     54.4297
  1951.2500     -3.6882     25.3806     55.2210
  1951.5000     -3.7023     25.6225     59.6411
  1951.7500     -3.7099     25.8088     64.1835
  1952.0000     -3.7082     25.9221     71.8950
  1952.2500     -3.6960     25.9569     76.8500
  1952.5000     -3.6735     25.9215     82.8561
  1952.7500     -3.6430     25.8306     85.2468
  1953.0000     -3.6093     25.6966     85.4843
  1953.2500     -3.5777     25.5262     83.2362
  1953.5000     -3.5517     25.3257     76.6873
  1953.7500     -3.5318     25.1057     70.7376
  1954.0000     -3.5161     24.8802     60.6776
  1954.2500     -3.5027     24.6573     54.0694
  1954.5000     -3.4916     24.4315     45.5783
  1954.7500     -3.4842     24.1863     41.2453
  1955.0000     -3.4833     23.9056     36.8275
  1955.2500     -3.4917     23.5867     35.2699
  1955.5000     -3.5121     23.2465     35.4239
  1955.7500     -3.5457     22.9193     37.7849
  1956.0000     -3.5906     22.6439     46.0334
  1956.2500     -3.6416     22.4437     55.0678
  1956.5000     -3.6907     22.3110     72.9085
  1956.7500     -3.7309     22.2082     86.0628
  1957.0000     -3.7587     22.0866    104.5836
  1957.2500     -3.7753     21.9115    115.0134
  1957.5000     -3.7841     21.6757    127.5741
  1957.7500     -3.7889     21.3991    134.1808
  1958.0000     -3.7924     21.1189    141.3832
  1958.2500     -3.7960     20.8798    144.0452
  1958.5000     -3.8002     20.7248    144.9596
  1958.7500     -3.8048     20.6854    144.4386
  1959.0000     -3.8094     20.7654    144.2064
  1959.2500     -3.8139     20.9240    145.0685
  1959.5000     -3.8180     21.0728    146.5559
  1959.7500     -3.8210     21.1088    145.9823
  1960.0000     -3.8214     20.9749    141.0463
  1960.2500     -3.8180     20.6940    135.7599
  1960.5000     -3.8106     20.3396    128.2599
  1960.7500   -304.0009     19.9764    125.4512
  1961.0000   -302.9835     19.6304    125.5932
  1961.2500   -301.8914     19.3036    127.7440
  1961.5000   -300.8459     19.0011    131.2097
  1961.7500   -299.9826     18.7430    132.1318
  1962.0000   -299.3864     18.5525    130.2989
  1962.2500   -299.0378     18.4405    127.3197
  1962.5000   -298.8339     18.3963    121.9190
  1962.7500   -298.6624     18.3916    118.6868
  1963.0000   -298.4625     18.3939    115.3776
  1963.2500   -298.2378     18.3841    114.2764
  1963.5000   -298.0258     18.3662    113.6782
  1963.7500   -297.8569     18.3636    113.4204
  1964.0000   -297.7316     18.3998    112.5796
  1964.2500   -297.6299     18.4793    111.6728
  1964.5000   -297.5453     18.5840    110.0231
  1964.7500   -297.5175     18.6900    108.9125
  1965.0000   -297.6330     18.7923    107.6436
  1965.2500   -297.9804     18.9148    107.2468
  1965.5000   -298.6029     19.0960    107.2115
  1965.7500   -299.4916     19.3678    107.2978
