~Version Information
VERS.                      2.0: CWLS Log ASCII Standard - VERSION 2.0
WRAP.                       NO: One line per depth step
~Well Information Block
STRT.FT               528.0000: 
STOP.FT              2251.5000: 
STEP.FT                 0.2500: 
NULL.                -999.2500: 
COMP.          Pioneer Natural Resources: COMPANY
WELL.           Parklane 43-34: WELL
FLD.           Purgatorie River: FIELD
LOC.           1704' FSL & 1119' FEL: LOCATION
PROV.                 Colorado: PROVINCE
CNTY.               Las Animas: COUNTRY
SRVC.                         : SERVICE COMPANY
DATE.          Thu Oct 07 01:37:17 2004: LOG DATE
UWI.           05 071 08162 00: UNIQUE WELL ID
~Curve Information Block
DEPT.FT            0 000 00 00: Depth
LTEN.lb                       : Surface Line Tension
SN.Ohm-m                      : IEL Short Normal
SP.mV                         : IEL Spontaneous Potential
DIR.Ohm-m                     : IEL Induction Resistivity
GR.GAPI                       : Gamma Ray
~Parameter Information Block
~A  Depth       LTEN         SN          SP         DIR          GR     
   528.0000    614.6394   2000.0000   2000.0000     53.2670    159.4300
   528.2500    615.0765   2000.0000   2000.0000     57.0534    165.5995
   528.5000    615.4420   2000.0000   2000.0000     61.7234    169.9340
   528.7500    615.8397   2000.0000   2000.0000     66.0520    169.5569
   529.0000    616.4944   2000.0000   2000.0000     68.5441    164.5067
   529.2500    617.7605   2000.0000   2000.0000     68.4259    158.6072
   529.5000    619.8431   2000.0000   2000.0000     66.3294    147.3057
   529.7500    622.5080   2000.0000   2000.0000     63.7467    139.2453
   530.0000    625.0096   2000.0000   2000.0000     61.9444    128.2147
   530.2500    626.3914   2000.0000   2000.0000     61.3757    122.1973
   530.5000    626.1397   2000.0000   2000.0000     61.6868    115.5308
   530.7500    624.6557   2000.0000   2000.0000     62.1158    112.9116
   531.0000    623.0928   2000.0000   2000.0000     62.1509    112.6085
   531.2500    622.6818   2000.0000   2000.0000     61.9846    115.0573
   531.5000    623.9747   2000.0000   2000.0000     62.2709    121.2963
   531.7500    626.5088   2000.0000   2000.0000     63.5498    125.3829
   532.0000    629.2563   2000.0000   2000.0000     65.9465    128.6082
   532.2500    631.4975   2000.0000   2000.0000     69.1543    128.4270
   532.5000    633.2700   2000.0000   2000.0000     72.5439    126.4742
   532.7500    634.9792   2000.0000   2000.0000     75.3292    125.7605
   533.0000    636.5231   2000.0000   2000.0000     76.8075    127.5126
   533.2500    636.8854   2000.0000   2000.0000     76.6380    130.5178
   533.5000    635.0103   2000.0000   2000.0000     74.9758    136.2018
   533.7500    631.1650   2000.0000   2000.0000     72.4355    139.7080
   534.0000    626.9329   2000.0000   2000.0000     69.9253    143.5486
   534.2500    623.7593   2000.0000   2000.0000     68.3470    145.2107
   534.5000    621.9765   2000.0000   2000.0000     68.2393    146.9809
   534.7500    621.3032   2000.0000   2000.0000     69.5074    147.9671
   535.0000    621.8538   2000.0000   2000.0000     71.3915    149.5603
   535.2500    624.2700   2000.0000   2000.0000     72.9415    151.1036
   535.5000    628.6565   2000.0000   2000.0000     73.9177    154.4850
   535.7500    633.4851   2000.0000   2000.0000     75.1324    156.7560
   536.0000    636.1064   2000.0000   2000.0000     77.6557    157.8783
   536.2500    634.6985   2000.0000   2000.0000     81.6933    156.3740
   536.5000    629.7156   2000.0000   2000.0000     85.9031    152.1597
   536.7500    623.6305   2000.0000   2000.0000     87.8900    149.8068
   537.0000    619.4918   2000.0000   2000.0000     86.3206    148.9036
   537.2500    619.2747   2000.0000   2000.0000     82.3613    149.8217
   537.5000    622.8115   2000.0000   2000.0000     78.3354    151.9822
   537.7500    627.9513   2000.0000   2000.0000     75.8110    153.4749
   538.0000    632.0425   2000.0000   2000.0000     75.1750    155.7741
   538.2500    633.7076   2000.0000   2000.0000     76.0005    157.1308
   538.5000    633.5079   2000.0000   2000.0000     77.5231    158.1122
   538.7500    633.1879   2000.0000   2000.0000     79.2199    158.0816
   539.0000    634.2880   2000.0000   2000.0000     81.1423    158.1625
   539.2500    637.0266   2000.0000   2000.0000     83.5163    158.8059
   539.5000    640.1132   2000.0000   2000.0000     85.7938    160.0410
   539.7500    641.8264   2000.0000   2000.0000     86.0872    160.2560
   540.0000    641.5706   2000.0000   2000.0000     82.1753    158.9870
   540.2500    640.2938   2000.0000   2000.0000     73.9371    157.2069
   540.5000    639.2304   2000.0000   2000.0000     64.0208    153.5221
   540.7500    638.4297   2000.0000   2000.0000     55.5739    150.5167
   541.0000    636.9423   2000.0000   2000.0000     50.5111    145.6802
   541.2500    634.4368   2000.0000   2000.0000     49.9042    142.8549
   541.5000    631.9229   2000.0000   2000.0000     55.2858    140.1710
   541.7500    630.3964   2000.0000   2000.0000     70.4718    139.4245
   542.0000    629.4594   2000.0000   2000.0000    104.9388    139.0985
   542.2500    628.1713   2000.0000   2000.0000    176.5748    139.0594
   542.5000    626.9256   2000.0000   2000.0000    271.8755    139.3239
   542.7500    627.4526   2000.0000   2000.0000    270.4076    139.9352
   543.0000    630.7155   2000.0000   2000.0000    198.4754    141.7486
   543.2500    635.4593   2000.0000   2000.0000    147.6354    143.4670
   543.5000    639.1373   2000.0000   2000.0000    121.8830    146.1327
   543.7500    639.8728   2000.0000   2000.0000    111.7152    147.4122
   544.0000    637.3707   2000.0000   2000.0000    113.8663    147.8875
   544.2500    632.5584   2000.0000   2000.0000    131.6399    147.1090
   544.5000    626.9693   2000.0000   2000.0000    174.1787    144.5427
   544.7500    622.2977   2000.0000   2000.0000    230.7067    142.3175
   545.0000    619.7726   2000.0000   2000.0000    199.6299    139.0777
   545.2500    619.5608   2000.0000   2000.0000    112.5493    137.3295
   545.5000    620.9565   2000.0000   2000.0000     65.4067    135.6972
   545.7500    623.1601   2000.0000   2000.0000     47.1115    135.5517
   546.0000    625.6378   2000.0000   2000.0000     44.5755    137.2037
   546.2500    627.9136   2000.0000   2000.0000     64.6755    139.7738
   546.5000    629.5101   2000.0000   2000.0000 100000.0000    146.6203
   546.7500    630.2631   2000.0000   2000.0000 100000.0000    153.8347
   547.0000    630.4482   2000.0000   2000.0000 100000.0000    168.7296
   547.2500    630.4249   2000.0000   2000.0000 100000.0000    163.3301
   547.5000    630.2536   2000.0000   2000.0000 100000.0000    177.9911
   547.7500    629.8008   2000.0000   2000.0000 100000.0000    185.4466
   548.0000    629.0954   2000.0000   2000.0000 100000.0000    191.7904
   548.2500    628.4219   2000.0000   2000.0000     40.2825    173.0587
   548.5000    628.1417   2000.0000   2000.0000      8.3577    172.2139
   548.7500    628.5768   2000.0000   2000.0000      4.8574    171.1279
   549.0000    629.9500   2000.0000   2000.0000      3.9071    170.2519
   549.2500    632.1833   2000.0000   2000.0000      3.8226    150.8403
   549.5000    634.6893   2000.0000   2000.0000      4.2741    152.0229
   549.7500    636.6120   2000.0000   2000.0000      5.2405    152.8776
   550.0000    637.4730   2000.0000   2000.0000      6.8989    153.4740
   550.2500    637.3511   2000.0000   2000.0000      9.8414    133.4507
   550.5000    636.3166   2000.0000   2000.0000     15.9789    133.9592
   550.7500    634.1581   2000.0000   2000.0000     32.7935    135.1980
   551.0000    630.9432   2000.0000   2000.0000    105.8053    137.9510
   551.2500    627.4309   2000.0000   2000.0000    415.6972    139.4206
   551.5000    624.7506   2000.0000   2000.0000    113.5138    139.7721
   551.7500    623.8410   2000.0000   2000.0000     40.7806    138.7935
   552.0000    625.0095   2000.0000   2000.0000     23.2103    136.6992
   552.2500    627.6163   2000.0000   2000.0000     17.0091    135.7808
   552.5000    630.2582   2000.0000   2000.0000     14.4846    136.0854
   552.7500    631.6857   2000.0000   2000.0000     13.4747    137.3190
   553.0000    631.6563   2000.0000   2000.0000     13.1470    139.5871
   553.2500    630.8098   2000.0000   2000.0000     13.1164    140.6622
   553.5000    629.9158   2000.0000   2000.0000     13.2026    141.1478
   553.7500    629.3972   2000.0000   2000.0000     13.3445    140.8772
   554.0000    629.3215   2000.0000   2000.0000     13.5663    139.9591
   554.2500    629.5225   2000.0000   2000.0000     13.9555    138.9866
   554.5000    629.7313   2000.0000   2000.0000     14.6208    136.5633
   554.7500    629.7499   2000.0000   2000.0000     15.6263    134.2600
   555.0000    629.5851   2000.0000   2000.0000     16.9060    130.9510
   555.2500    629.3809   2000.0000   2000.0000     18.2176    129.9821
   555.5000    629.2560   2000.0000   2000.0000     19.2310    131.1668
   555.7500    629.2582   2000.0000   2000.0000     19.7510    132.8471
