~Version Information
 VERS.                                  2.0 : CWLS LAS VERSION
 WRAP.                                   NO : WRAPING MODE
 SWARE .                 MController 2.5.0E : SOFTWARE VERSION
~Well Information
 WELL.                      Robinson 15-11v : WELL
 COMP.                       Petrogulf Corp : COMPANY
 FLD.                      Purgatoire River : FIELD
 LOC.                NW/NW Sec 15 T33S R67W : LOCATION
 DATE.                               8/3/04 : DATE(S) LOGGED
 SRVC.       Blanco Geological Services LLC : SERVICE COMPANY
 STAT.                                   CO : STATE
 CNTY.                           Las Animas : COUNTY
 CTRY.                                  USA : COUNTRY
 API.                       05-071-08027-00 : API NUMBER
 STRT.FT                             588.00 : START DEPTH
 STOP.FT                            2101.00 : STOP DEPTH
 STEP.FT                               1.00 : DEPTH INCREMENT
 NULL.                                -9999 : NULL VALUE
~Curve information
 DEPTH.FT                                   :
 ROP.MIN/FT                                 :
 GAS.UNITS                                  :
~ASCII Log data
# ...
      788.00        0.167         10.9 
      789.00        0.100          9.9 
      790.00        0.133         10.8 
      791.00        0.133         10.7 
      792.00        0.133         10.0 
      793.00        0.133          9.8 
      794.00        0.167          9.8 
      795.00        0.167          9.0 
      796.00        0.167          9.5 
      797.00        0.167         10.3 
      798.00        0.133          9.8 
      799.00        0.167          9.5 
      800.00        0.200          9.0 
      801.00        0.233          8.6 
      802.00        0.233          7.8 
      803.00        0.233          6.3 
      804.00        0.217          6.3 
      805.00        0.167          7.2 
      806.00        1.367         34.2 
      807.00        0.167         32.1 
      808.00        0.433         46.1 
      809.00        0.333         52.6 
      810.00        0.233         53.9 
      811.00        0.233         55.4 
      812.00        0.383         55.4 
      813.00        0.267         50.3 
      814.00        0.200         45.8 
      815.00        0.167         41.8 
      816.00        0.167         42.1 
      817.00        0.133         42.8 
      818.00        0.133         44.7 
      819.00        0.133         46.9 
      820.00        0.100         47.0 
      821.00        0.133         49.5 
      822.00        0.100         51.2 
      823.00        0.100         52.2 
      824.00        0.100         52.5 
      825.00        0.100         52.0 
      826.00        0.100         52.6 
      827.00        0.100         51.9 
      828.00        0.133         51.7 
      829.00        0.133         50.8 
      830.00        0.167         51.0 
      831.00        0.167         47.9 
      832.00        0.167         52.3 
      833.00        0.167         63.0 
      834.00        0.200         77.8 
      835.00        0.283         95.5 
      836.00        2.633       1389.3 
      837.00        0.400        780.6 
      838.00        0.283        676.9 
      839.00        0.233        628.0 
      840.00        0.167        601.8 
      841.00        0.200        587.1 
      842.00        0.200        573.5 
      843.00        0.233        571.4 
      844.00        0.200        555.1 
      845.00        0.200        550.8 
      846.00        0.200        540.0 
      847.00        0.200        529.6 
      848.00        0.200        511.1 
      849.00        0.167        501.9 
      850.00        0.167        499.1 
      851.00        0.200        501.9 
      852.00        0.200        517.6 
      853.00        0.133        534.5 
      854.00        0.167        550.5 
      855.00        0.167        560.0 
      856.00        0.183        564.3 
      857.00        0.133        566.5 
      858.00        0.167        572.0 
      859.00        0.167        573.5 
      860.00        0.233        563.1 
      861.00        0.200        546.2 
      862.00        0.200        535.1 
      863.00        0.233        519.1 
      864.00        0.300        488.0 
      865.00        0.267        493.3 
      866.00        1.817       2147.9 
      867.00        0.200       2142.1 
      868.00        0.100       1960.0 
      869.00        0.167       1819.1 
      870.00        0.167       1517.0 
      871.00        0.200       1254.0 
      872.00        0.300       1078.3 
      873.00        0.200        846.7 
      874.00        0.200        748.9 
      875.00        0.200        674.8 
      876.00        0.167        624.9 
      877.00        0.167        590.5 
      878.00        0.133        563.4 
      879.00        0.200        549.6 
      880.00        0.200        530.5 
      881.00        0.183        514.5 
      882.00        0.167        502.8 
      883.00        0.167        496.0 
      884.00        0.167        489.6 
      885.00        0.167        489.3 
      886.00        0.200        490.2 
      887.00        0.167        486.8 
      888.00        0.167        492.6 
      889.00        0.167        487.1 
      890.00        0.167        482.8 
      891.00        0.167        480.3 
      892.00        0.133        464.3 
      893.00        0.133        458.8 
      894.00        0.167        451.7 
      895.00        0.100        440.0 
      896.00        0.267        440.0 
      897.00        0.233         99.5 
      898.00        1.683       1443.5 
      899.00        0.133       1193.7 
      900.00        0.200       1079.3 
      901.00        0.100        891.0 
      902.00        0.100        826.1 
      903.00        0.133        770.1 
      904.00        0.100        709.5 
      905.00        0.067        673.2 
      906.00        0.133        652.0 
      907.00        0.200        615.7 
      908.00        0.267        572.9 
      909.00        0.267        535.7 
      910.00        0.267        505.3 
      911.00        0.350        484.3 
      912.00        0.333        480.0 
      913.00        0.167        464.3 
      914.00        0.133        458.8 
      915.00        0.133        458.2 
      916.00        0.100        451.4 
      917.00        0.133        448.3 
      918.00        0.133        443.4 
      919.00        0.167        444.7 
      920.00        0.133        442.8 
      921.00        0.133        440.0 
      922.00        0.100        440.0 
      923.00        0.133        440.0 
      924.00        0.100         87.3 
      925.00        0.100         82.7 
      926.00        0.100         79.6 
      927.00        0.133         78.5 
      928.00        1.983        352.1 
      929.00        0.133        236.8 
      930.00        0.133        212.3 
      931.00        0.133        193.3 
      932.00        0.133        171.1 
      933.00        0.133        153.1 
      934.00        0.133        140.9 
      935.00        0.100        129.8 
      936.00        0.100        122.5 
      937.00        0.100        118.0 
      938.00        0.100        114.9 
      939.00        0.100        110.4 
      940.00        0.133        104.6 
      941.00        0.167         97.4 
      942.00        0.167         90.6 
      943.00        0.233         83.8 
      944.00        0.133         74.6 
      945.00        0.100         70.9 
      946.00        0.150         70.4 
      947.00        0.133         71.1 
      948.00        0.100         69.5 
      949.00        0.100         66.1 
      950.00        0.133         63.1 
      951.00        0.100         60.4 
      952.00        0.167         58.2 
      953.00        0.167         54.1 
      954.00        0.133         48.3 
      955.00        0.200         44.7 
      956.00        0.233         40.0 
      957.00        0.167         41.0 
      958.00        1.817        160.8 
      959.00        0.300        105.7 
      960.00        0.233         83.5 
      961.00        0.233         70.8 
      962.00        0.267         62.0 
      963.00        0.333         56.2 
      964.00        0.267         49.9 
      965.00        0.333         47.9 
      966.00        0.233         44.6 
      967.00        0.167         43.0 
      968.00        0.300         41.9 
      969.00        0.367         41.3 
      970.00        0.250         40.4 
      971.00        0.267         41.9 
      972.00        0.267         41.1 
      973.00        0.233         40.8 
      974.00        0.167         39.8 
      975.00        0.167         39.6 
      976.00        0.133         39.5 
      977.00        0.133         38.9 
      978.00        0.167         37.9 
      979.00        0.133         38.1 
      980.00        0.100         36.6 
      981.00        0.100         36.4 
      982.00        0.100         33.9 
      983.00        0.100         31.9 
      984.00        0.100         29.8 
      985.00        0.133         29.2 
      986.00        0.200         28.2 
      987.00        0.133         29.9 
