~Version Information
VERS.                      2.0: CWLS Log ASCII Standard - VERSION 2.0
WRAP.                       NO: One line per depth step
~Well Information Block
STRT.FT                -7.5000: 
STOP.FT              2304.7500: 
STEP.FT                 0.2500: 
NULL.                -999.2500: 
COMP.          Pioneer Natural Resources: COMPANY
WELL.          Foothills 12-36: WELL
FLD.           Purgatorie River: FIELD
LOC.           2450' FNL & 201' FWL--: LOCATION
PROV.                       CO: PROVINCE
CNTY.               Las Animas: COUNTRY
SRVC.          Patterson Wireline: SERVICE COMPANY
DATE.          Tue Apr 26 11:10:08 2005: LOG DATE
UWI.           05 071 08339 00: UNIQUE WELL ID
~Curve Information Block
DEPT.FT            0 000 00 00: Depth
CCL.                          : Casing Collar Locator
TT3.usec                      : CBL 3' Travel Time
AMP3.mV                       : CBL 3' Amplitude
GR.GAPI                       : Gamma Ray
~Parameter Information Block
~A  Depth       CCL         TT3         AMP3         GR     
# ...
  1801.5000      0.0000    713.1765      4.2150    135.7087
  1801.7500      0.0000    712.9266      4.2333    138.9998
  1802.0000      0.0000    713.0078      4.3373    141.2942
  1802.2500      0.0000    713.4510      4.4961    142.7191
  1802.5000      0.0000    714.0914      4.6666    143.2094
  1802.7500      0.0000    714.7215      4.8150    142.9254
  1803.0000      0.0000    715.2448      4.9249    142.0869
  1803.2500      0.0000    715.6846      4.9876    141.0257
  1803.5000      0.0000    716.0692      4.9815    140.3327
  1803.7500      0.0000    716.3188      4.8746    140.4349
  1804.0000      0.0000    716.2071      4.6674    141.0077
  1804.2500      0.0000    715.3772      4.4332    141.2035
  1804.5000      0.0000    713.5041      4.2902    140.5218
  1804.7500      0.0000    710.7158      4.3181    139.1026
  1805.0000      0.0000    707.9629      4.5025    137.0708
  1805.2500      0.0000    706.6384      4.7542    134.1066
  1805.5000      0.0000    707.4460      4.9721    129.9216
  1805.7500      0.0000    709.7217      5.0972    124.7508
  1806.0000      0.0000    711.9607      5.1283    119.3273
  1806.2500      0.0000    712.7369      5.1043    114.6953
  1806.5000      0.0000    710.8910      5.0766    111.8117
  1806.7500      0.0000    705.3165      5.0782    110.8531
  1807.0000      0.0000    695.3043      5.0957    110.9238
  1807.2500      0.0000    681.4023      5.0709    110.6897
  1807.5000      0.0000    665.7289      4.9518    109.4122
  1807.7500      0.0000    651.5418      4.7455    107.5721
  1808.0000      0.0000    642.8474      4.5219    106.7811
  1808.2500      0.0000    643.4745      4.3699    109.0732
  1808.5000      0.0000    654.6331      4.3457    115.5371
  1808.7500      0.0000    673.1101      4.4436    124.7434
  1809.0000      0.0000    693.3327      4.6074    132.7183
  1809.2500      0.0000    711.7694      4.7685    135.5752
  1809.5000      0.0000    728.5873      4.8846    132.5776
  1809.7500      0.0000    744.9924      4.9537    126.3687
  1810.0000      0.0000    759.9680      4.9936    120.4326
  1810.2500      0.0000    770.3406      4.9992    116.7624
  1810.5000      0.0000    773.7020      4.9263    115.5649
  1810.7500      0.0000    770.7546      4.7300    116.1104
  1811.0000      0.0000    764.8076      4.4119    117.3799
  1811.2500      0.0000    759.3317      4.0316    118.5701
  1811.5000      0.0000    755.9264      3.6914    119.6774
  1811.7500      0.0000    754.2573      3.5102    121.3559
  1812.0000      0.0000    753.7773      3.5803    123.8943
  1812.2500      0.0000    755.3539      3.9135    126.7465
  1812.5000      0.0000    760.5707      4.4240    129.3532
  1812.7500      0.0000    769.3066      4.9717    131.8561
  1813.0000      0.0000    779.0086      5.4351    134.4492
  1813.2500      0.0000    786.7835      5.7544    136.3970
  1813.5000      0.0000    791.5165      5.9139    136.4567
  1813.7500      0.0000    793.8396      5.8973    134.3550
  1814.0000      0.0000    794.8464      5.6818    131.2669
  1814.2500      0.0000    795.1952      5.2923    128.7136
  1814.5000      0.0000    794.8611      4.8477    127.3955
  1814.7500      0.0000    793.0587      4.5198    127.0930
  1815.0000      0.0000    788.2976      4.4283    127.3052
  1815.2500      0.0000    779.1204      4.5749    127.8878
  1815.5000      0.0000    765.5725      4.8637    129.2522
  1815.7500      0.0000    750.0613      5.1682    131.8692
  1816.0000      0.0000    736.1849      5.3889    135.4875
  1816.2500      0.0000    726.3707      5.4792    138.9129
  1816.5000      0.0000    720.7195      5.4445    140.7460
  1816.7500      0.0000    717.8801      5.3296    140.5941
  1817.0000      0.0000    716.5351      5.1889    139.4042
  1817.2500      0.0000    716.1309      5.0378    138.0097
  1817.5000      0.0000    716.7290      4.8373    135.4816
  1817.7500      0.0000    718.3834      4.5483    129.7082
  1818.0000      0.0000    720.0615      4.2006    119.5560
  1818.2500      0.0000    718.5748      3.8879    105.9139
  1818.5000      0.0000    708.9659      3.6928     91.0476
  1818.7500      0.0000    687.5637      3.6250     77.5628
  1819.0000      0.0000    656.3296      3.6366     67.4159
  1819.2500      0.0000    624.3845      3.6851     60.9496
  1819.5000      0.0000    603.2910      3.7554     56.8204
  1819.7500      0.0000    598.2227      3.8224     53.3435
  1820.0000      0.0000    603.4180      3.8335     50.0249
  1820.2500      2.0000    608.1322      3.7518     47.5135
  1820.5000      2.0000    607.5059      3.5980     46.3289
  1820.7500      0.0000    606.3059      3.4417     46.3664
  1821.0000      0.0000    612.0583      3.3600     47.4960
  1821.2500      0.0000    626.3658      3.3970     49.6814
  1821.5000      0.0000    643.8287      3.5418     52.2805
  1821.7500      0.0000    657.8979      3.7404     53.9804
  1822.0000      0.0000    665.9182      3.9398     53.8520
  1822.2500      0.0000    669.1620      4.1273     52.1733
  1822.5000      0.0000    670.1221      4.3135     49.9682
  1822.7500      0.0000    670.6594      4.4752     47.8821
  1823.0000      0.0000    671.8646      4.5524     45.6620
  1823.2500      0.0000    674.5214      4.5290     42.7509
  1823.5000      0.0000    679.0789      4.4841     39.2802
  1823.7500      0.0000    684.9122      4.5237     36.2417
  1824.0000      0.0000    689.7982      4.6823     34.6404
  1824.2500      0.0000    690.6489      4.9172     34.7027
  1824.5000      0.0000    685.4786      5.1688     35.9148
  1824.7500      0.0000    675.3377      5.3871     37.5040
  1825.0000      0.0000    664.3071      5.5153     38.8274
  1825.2500      0.0000    656.2589      5.4908     39.6224
  1825.5000      0.0000    650.6255      5.2877     40.1132
  1825.7500      0.0000    643.0664      4.9611     40.8965
  1826.0000      0.0000    632.3239      4.6266     42.8339
  1826.2500      0.0000    624.7551      4.3757     47.1279
  1826.5000      0.0000    629.0418      4.2170     55.3091
  1826.7500      0.0000    646.8326      4.1114     68.5947
  1827.0000      0.0000    670.8771      4.0414     86.7216
  1827.2500      0.0000    691.9186      4.0414    107.2682
  1827.5000      0.0000    705.3922      4.1698    126.2994
  1827.7500      0.0000    711.9926      4.4403    140.1600
  1828.0000      0.0000    714.5298      4.7746    147.4102
  1828.2500      0.0000    715.3595      5.0511    149.5021
  1828.5000      0.0000    715.6765      5.2006    149.3813
  1828.7500      0.0000    715.7951      5.2274    149.1241
  1829.0000      0.0000    715.6494      5.1543    148.8753
  1829.2500      0.0000    715.1815      4.9937    147.7685
  1829.5000      0.0000    714.4945      4.7698    145.3631
  1829.7500      0.0000    713.7910      4.5320    142.3525
  1830.0000      0.0000    713.2280      4.3322    140.3310
  1830.2500      0.0000    712.8498      4.1939    140.6833
  1830.5000      0.0000    712.6235      4.1144    143.2868
  1830.7500      0.0000    712.4858      4.1011    146.4045
  1831.0000      0.0000    712.3528      4.1896    148.1405
  1831.2500      0.0000    712.1457      4.4011    148.0934
  1831.5000      0.0000    711.8478      4.6906    147.6048
  1831.7500      0.0000    711.5129      4.9577    148.3456
  1832.0000      0.0000    711.1646      5.1063    150.5609
  1832.2500      0.0000    710.6407      5.0874    152.8743
  1832.5000      0.0000    709.4531      4.8992    153.8206
  1832.7500      0.0000    706.7705      4.5754    153.2153
  1833.0000      0.0000    701.7607      4.1834    152.0604
  1833.2500      0.0000    694.3334      3.8211    151.6124
  1833.5000      0.0000    685.6545      3.5917    152.4431
  1833.7500      0.0000    677.6448      3.5568    153.8068
  1834.0000      0.0000    671.7532      3.6952    154.0753
  1834.2500      0.0000    668.2275      3.9151    152.4324
  1834.5000      0.0000    666.4407      4.1242    149.8949
  1834.7500      0.0000    665.6375      4.2898    148.1936
