~Version Information
 VERS.                                  2.0 : CWLS LAS VERSION
 WRAP.                                   NO : WRAPING MODE
 SWARE .                 MController 2.5.0E : SOFTWARE VERSION
~Well Information
 WELL.                            Eric 42-9 : WELL
 COMP.         Pioneer Natural Resources Inc: COMPANY
 FLD.                      Purgatorie River : FIELD
 LOC.                 SE/NE Sec 9 T32S R65W : LOCATION
 DATE.                            10/310/04 : DATE(S) LOGGED
 SRVC.       Blanco Geological Services LLC : SERVICE COMPANY
 STAT.                                   CO : STATE
 CNTY.                           Las Animas : COUNTY
 CTRY.                                  USA : COUNTRY
 API.                       05-071-07999-00 : API NUMBER
 STRT.FT                             346.00 : START DEPTH
 STOP.FT                            1616.00 : STOP DEPTH
 STEP.FT                               1.00 : DEPTH INCREMENT
 NULL.                                -9999 : NULL VALUE
~Curve information
 DEPTH.FT                                   :
 ROP.MIN/FT                                 :
 GAS.UNITS                                  :
~ASCII Log data
# ...
      546.00        0.167          2.5 
      547.00        0.183          2.0 
      548.00        0.167          2.0 
      549.00        0.167          1.8 
      550.00        0.133          1.0 
      551.00        0.100          0.8 
      552.00        0.133          1.2 
      553.00        0.167          0.8 
      554.00        0.133          1.4 
      555.00        0.167          0.9 
      556.00        0.133          0.8 
      557.00        0.167          0.7 
      558.00        0.167          1.4 
      559.00        0.167          0.9 
      560.00        0.167          1.1 
      561.00        0.233          1.4 
      562.00        0.200          1.5 
      563.00        0.200          1.4 
      564.00        0.200          0.9 
      565.00        0.100          1.3 
      566.00        3.317          2.4 
      567.00        0.233          9.3 
      568.00        0.283         18.8 
      569.00        0.233         25.8 
      570.00        0.233         27.6 
      571.00        0.200         26.5 
      572.00        0.200         23.7 
      573.00        0.200         19.1 
      574.00        0.167         15.8 
      575.00        0.200         12.6 
      576.00        0.200          8.8 
      577.00        0.133          6.7 
      578.00        0.133          5.6 
      579.00        0.100          4.7 
      580.00        0.167          4.5 
      581.00        0.100          2.8 
      582.00        0.133          2.4 
      583.00        0.133          1.8 
      584.00        0.133          2.1 
      585.00        0.167          1.8 
      586.00        0.133          1.8 
      587.00        0.167          1.1 
      588.00        0.183          0.9 
      589.00        0.167          1.3 
      590.00        0.133          1.6 
      591.00        0.133          1.7 
      592.00        0.133          1.5 
      593.00        0.133          1.1 
      594.00        0.100          1.3 
      595.00        0.267          1.7 
      596.00        2.350          1.8 
      597.00        0.300          2.0 
      598.00        0.267          3.0 
      599.00        0.200         15.2 
      600.00        0.233         44.5 
      601.00        0.200         71.0 
      602.00        0.200         84.0 
      603.00        0.200         83.9 
      604.00        0.167         72.4 
      605.00        0.200         55.9 
      606.00        0.200         38.8 
      607.00        0.167         26.0 
      608.00        0.233         18.5 
      609.00        0.200         11.2 
      610.00        0.167          7.3 
      611.00        0.217          4.6 
      612.00        0.200          3.1 
      613.00        0.167          2.2 
      614.00        0.200          1.6 
      615.00        0.167          1.2 
      616.00        0.167          1.6 
      617.00        0.133          1.0 
      618.00        0.133          0.7 
      619.00        0.133          1.3 
      620.00        0.133          1.2 
      621.00        0.167          1.3 
      622.00        0.167          0.6 
      623.00        0.167          0.8 
      624.00        0.167          1.0 
      625.00        0.200          1.1 
      626.00        3.183          2.9 
      627.00        0.367         11.1 
      628.00        0.133         27.0 
      629.00        0.200         54.0 
      630.00        0.233         80.2 
      631.00        0.183         89.6 
      632.00        0.133         97.8 
      633.00        0.167        103.6 
      634.00        0.200        101.2 
      635.00        0.167         89.9 
      636.00        0.167         72.5 
      637.00        0.233         57.3 
      638.00        0.167         40.2 
      639.00        0.200         29.3 
      640.00        0.133         17.7 
      641.00        0.167         12.9 
      642.00        0.200          8.9 
      643.00        0.167          6.1 
      644.00        0.167          4.2 
      645.00        0.167          3.0 
      646.00        0.167          3.0 
      647.00        0.167          2.7 
      648.00        0.167          1.8 
      649.00        0.200          1.7 
      650.00        0.183          1.4 
      651.00        0.200          1.5 
      652.00        0.167          1.3 
      653.00        0.200          1.3 
      654.00        0.200          1.1 
      655.00        0.167          0.7 
      656.00        2.617          1.3 
      657.00        0.300          1.6 
      658.00        0.233          3.4 
      659.00        0.167         11.2 
      660.00        0.133         32.3 
      661.00        0.167         61.0 
      662.00        0.133         77.8 
      663.00        0.167         95.0 
      664.00        0.200         97.8 
      665.00        0.133         94.2 
      666.00        0.233         88.5 
      667.00        0.233         66.0 
      668.00        0.167         42.5 
      669.00        0.167         28.5 
      670.00        0.167         20.8 
      671.00        0.133         14.0 
      672.00        0.167         11.1 
      673.00        0.183          7.4 
      674.00        0.133          5.3 
      675.00        0.200          5.1 
      676.00        0.200          3.5 
      677.00        0.200          2.5 
      678.00        0.133          2.0 
      679.00        0.167          1.5 
      680.00        0.167          1.6 
      681.00        0.133          0.7 
      682.00        0.200          1.1 
      683.00        0.200          0.6 
      684.00        0.167          0.6 
      685.00        0.167          0.6 
      686.00        3.183          2.0 
      687.00        0.333          9.7 
      688.00        0.333         62.0 
      689.00        0.200         87.2 
      690.00        0.200        100.8 
      691.00        0.167        104.4 
      692.00        0.217        103.2 
      693.00        0.200         91.4 
      694.00        0.167         69.6 
      695.00        0.167         48.5 
      696.00        0.167         34.0 
      697.00        0.133         22.6 
      698.00        0.200         17.0 
      699.00        0.167         11.3 
      700.00        0.167          7.5 
      701.00        0.167          5.6 
      702.00        0.167          4.6 
      703.00        0.133          4.3 
      704.00        0.167          3.7 
      705.00        0.167          3.0 
      706.00        0.167          2.3 
      707.00        0.200          2.2 
      708.00        0.167          2.2 
      709.00        0.133          1.5 
      710.00        0.133          2.0 
      711.00        0.133          1.2 
      712.00        0.133          1.9 
      713.00        0.183          1.6 
      714.00        0.133          1.2 
      715.00        0.100          1.5 
      716.00        4.617         31.5 
      717.00        0.433         73.4 
      718.00        0.200         91.0 
      719.00        0.200         94.6 
      720.00        0.200         93.0 
      721.00        0.167         83.6 
      722.00        0.200         71.5 
      723.00        0.167         60.1 
      724.00        0.250         52.1 
      725.00        0.200         35.9 
      726.00        0.167         24.9 
      727.00        0.167         18.9 
      728.00        0.200         12.5 
      729.00        0.167          8.7 
      730.00        0.167          5.8 
      731.00        0.200          4.9 
      732.00        0.200          3.2 
      733.00        0.167          2.3 
      734.00        0.133          1.8 
      735.00        0.167          2.1 
      736.00        0.200          1.6 
      737.00        0.200          1.8 
      738.00        0.167          1.7 
      739.00        0.167          1.4 
      740.00        0.133          1.8 
      741.00        0.200          1.2 
      742.00        0.217          1.8 
      743.00        0.167          1.6 
      744.00        0.167          1.3 
      745.00        0.100          2.0 
