~Version Information
VERS.                      2.0: CWLS Log ASCII Standard - VERSION 2.0
WRAP.                       NO: One line per depth step
~Well Information Block
STRT.FT               651.5000: 
STOP.FT              2190.5000: 
STEP.FT                 0.2500: 
NULL.                -999.2500: 
COMP.          Pioneer Natural Resources: COMPANY
WELL.               King 22-13: WELL
FLD.           Purgatoire River: FIELD
LOC.           2419' FNL & 1806' FWL----: LOCATION
PROV.                 Colorado: PROVINCE
CNTY.               Las Animas: COUNTRY
SRVC.                Patterson: SERVICE COMPANY
DATE.          Thu Mar 31 14:33:28 2005: LOG DATE
UWI.           05 071 08318 00: UNIQUE WELL ID
~Curve Information Block
DEPT.FT            0 000 00 00: Depth
SN.Ohm-m                      : IEL Short Normal
SP.mV                         : IEL Spontaneous Potential
DIR.Ohm-m                     : IEL Induction Resistivity
GR.GAPI                       : Gamma Ray
~Parameter Information Block
~A  Depth        SN          SP         DIR          GR     
# ...
   752.0000   2000.0000   2080.0000     16.4817    105.5224
   752.2500   2000.0000   2080.0000     16.0749    110.1788
   752.5000   2000.0000   2080.0000     15.6821    116.6725
   752.7500   2000.0000   2080.0000     15.3285    119.7534
   753.0000   2000.0000   2080.0000     15.0450    121.5696
   753.2500   2000.0000   2080.0000     14.8607    121.2271
   753.5000   2000.0000   2080.0000     14.7965    119.9826
   753.7500   2000.0000   2080.0000     14.8643    119.3067
   754.0000   2000.0000   2080.0000     15.0676    118.1195
   754.2500   2000.0000   2080.0000     15.4027    116.4811
   754.5000   2000.0000   2080.0000     15.8591    112.1645
   754.7500   2000.0000   2080.0000     16.4202    108.6312
   755.0000   2000.0000   2080.0000     17.0666    104.6712
   755.2500   2000.0000   2080.0000     17.7820    104.2608
   755.5000   2000.0000   2080.0000     18.5599    107.5843
   755.7500   2000.0000   2080.0000     19.4062    111.3636
   756.0000   2000.0000   2080.0000     20.3361    115.8975
   756.2500   2000.0000   2080.0000     21.3704    116.1927
   756.5000   2000.0000   2080.0000     22.5322    111.1862
   756.7500   2000.0000   2080.0000     23.8477    104.9892
   757.0000   2000.0000   2080.0000     25.3458     94.3053
   757.2500   2000.0000   2080.0000     27.0516     87.7980
   757.5000   2000.0000   2080.0000     28.9732     80.3838
   757.7500   2000.0000   2080.0000     31.0854     77.3636
   758.0000   2000.0000   2080.0000     33.3189     75.7279
   758.2500   2000.0000   2080.0000     35.5638     76.0032
   758.5000   2000.0000   2080.0000     37.6906     76.9620
   758.7500   2000.0000   2080.0000     39.5934     77.4745
   759.0000   2000.0000   2080.0000     41.2348     77.9586
   759.2500   2000.0000   2080.0000     42.6647     77.8040
   759.5000   2000.0000   2080.0000     43.9923     75.7644
   759.7500   2000.0000   2080.0000     45.3200     72.9969
   760.0000   2000.0000   2080.0000     46.6792     68.1377
   760.2500   2000.0000   2080.0000     48.0032     65.7741
   760.5000   2000.0000   2080.0000     49.1574     64.9530
   760.7500   2000.0000   2080.0000     50.0096     65.9593
   761.0000   2000.0000   2080.0000     50.4946     67.9155
   761.2500   2000.0000   2080.0000     50.6288     68.3076
   761.5000   2000.0000   2080.0000     50.4784     66.4632
   761.7500   2000.0000   2080.0000     50.1232     63.8426
   762.0000   2000.0000   2080.0000     49.6417     59.3236
   762.2500   2000.0000   2080.0000     49.1070     56.9447
   762.5000   2000.0000   2080.0000     48.5709     55.4201
   762.7500   2000.0000   2080.0000     48.0340     55.7404
   763.0000   2000.0000   2080.0000     47.4298     57.2497
   763.2500   2000.0000   2080.0000     46.6466     58.2826
   763.5000   2000.0000   2080.0000     45.5789     59.3971
   763.7500   2000.0000   2080.0000     44.1708     60.0022
   764.0000   2000.0000   2080.0000     42.4226     61.2151
   764.2500   2000.0000   2080.0000     40.3708     62.4709
   764.5000   2000.0000   2080.0000     38.0748     65.2893
   764.7500   2000.0000   2080.0000     35.6192     67.7831
   765.0000   2000.0000   2080.0000     33.1164     71.7996
   765.2500   2000.0000   2080.0000     30.6929     73.9378
   765.5000   2000.0000   2080.0000     28.4615     75.4077
   765.7500   2000.0000   2080.0000     26.4965     75.3129
   766.0000   2000.0000   2080.0000     24.8246     74.4697
   766.2500   2000.0000   2080.0000     23.4310     74.0482
   766.5000   2000.0000   2080.0000     22.2760     74.5372
   766.7500   2000.0000   2080.0000     21.3126     75.9151
   767.0000   2000.0000   2080.0000     20.4990     79.4112
   767.2500   2000.0000   2080.0000     19.8020     82.5169
   767.5000   2000.0000   2080.0000     19.1958     88.6811
   767.7500   2000.0000   2080.0000     18.6590     94.0735
   768.0000   2000.0000   2080.0000     18.1744    103.2903
   768.2500   2000.0000   2080.0000     17.7291    108.8353
   768.5000   2000.0000   2080.0000     17.3152    113.8562
   768.7500   2000.0000   2080.0000     16.9311    114.3924
   769.0000   2000.0000   2080.0000     16.5814    111.6113
   769.2500   2000.0000   2080.0000     16.2754    108.3786
   769.5000   2000.0000   2080.0000     16.0219    103.4606
   769.7500   2000.0000   2080.0000     15.8234    101.0832
   770.0000   2000.0000   2080.0000     15.6730     99.8318
   770.2500   2000.0000   2080.0000     15.5559    100.7144
   770.5000   2000.0000   2080.0000     15.4538    104.0828
   770.7500   2000.0000   2080.0000     15.3508    106.8350
   771.0000   2000.0000   2080.0000     15.2367    110.1121
   771.2500   2000.0000   2080.0000     15.1082    111.3891
   771.5000   2000.0000   2080.0000     14.9669    112.6624
   771.7500   2000.0000   2080.0000     14.8187    113.7156
   772.0000   2000.0000   2080.0000     14.6731    115.8254
   772.2500   2000.0000   2080.0000     14.5437    117.1143
   772.5000   2000.0000   2080.0000     14.4465    117.9694
   772.7500   2000.0000   2080.0000     14.3971    117.7988
   773.0000   2000.0000   2080.0000     14.4062    117.3009
   773.2500   2000.0000   2080.0000     14.4760    117.3842
   773.5000   2000.0000   2080.0000     14.6008    118.4712
   773.7500   2000.0000   2080.0000     14.7712    119.5093
   774.0000   2000.0000   2080.0000     14.9786    120.2862
   774.2500   2000.0000   2080.0000     15.2180    119.5770
   774.5000   2000.0000   2080.0000     15.4875    116.6764
   774.7500   2000.0000   2080.0000     15.7882    114.5156
   775.0000   2000.0000   2080.0000     16.1244    113.1401
   775.2500   2000.0000   2080.0000     16.5015    113.9054
   775.5000   2000.0000   2080.0000     16.9182    115.8751
   775.7500   2000.0000   2080.0000     17.3551    115.9543
   776.0000   2000.0000   2080.0000     17.7694    112.4295
   776.2500   2000.0000   2080.0000     18.1020    108.3901
   776.5000   2000.0000   2080.0000     18.2967    103.1403
   776.7500   2000.0000   2080.0000     18.3203    101.5285
   777.0000   2000.0000   2080.0000     18.1691    101.2136
   777.2500   2000.0000   2080.0000     17.8595    101.0029
   777.5000   2000.0000   2080.0000     17.4165     99.2356
   777.7500   2000.0000   2080.0000     16.8696     97.2366
   778.0000   2000.0000   2080.0000     16.2577     94.1431
   778.2500   2000.0000   2080.0000     15.6296     92.7543
   778.5000   2000.0000   2080.0000     15.0348     92.5250
   778.7500   2000.0000   2080.0000     14.5091     93.4582
   779.0000   2000.0000   2080.0000     14.0662     94.8486
   779.2500   2000.0000   2080.0000     13.6985     94.5082
   779.5000   2000.0000   2080.0000     13.3865     91.1389
   779.7500   2000.0000   2080.0000     13.1090     87.6758
   780.0000   2000.0000   2080.0000     12.8503     83.3986
   780.2500   2000.0000   2080.0000     12.6020     82.7009
   780.5000   2000.0000   2080.0000     12.3598     85.8051
   780.7500   2000.0000   2080.0000     12.1220     89.9981
   781.0000   2000.0000   2080.0000     11.8892     97.3371
   781.2500   2000.0000   2080.0000     11.6665    101.7638
   781.5000   2000.0000   2080.0000     11.4634    106.3872
   781.7500   2000.0000   2080.0000     11.2901    107.7933
   782.0000   2000.0000   2080.0000     11.1526    107.8140
   782.2500   2000.0000   2080.0000     11.0489    107.2444
   782.5000   2000.0000   2080.0000     10.9688    106.8784
   782.7500   2000.0000   2080.0000     10.8970    107.1082
   783.0000   2000.0000   2080.0000     10.8180    107.3553
   783.2500   2000.0000   2080.0000     10.7211    106.9297
   783.5000   2000.0000   2080.0000     10.6025    105.2055
   783.7500   2000.0000   2080.0000     10.4646    103.7071
   784.0000   2000.0000   2080.0000     10.3128    102.2297
   784.2500   2000.0000   2080.0000     10.1518    102.5663
   784.5000   2000.0000   2080.0000      9.9844    105.4483
   784.7500   2000.0000   2080.0000      9.8127    108.2750
   785.0000   2000.0000   2080.0000      9.6391    112.0246
   785.2500   2000.0000   2080.0000      9.4672    113.6027
