~Version Information
VERS.                      2.0: CWLS Log ASCII Standard - VERSION 2.0
WRAP.                       NO: One line per depth step
~Well Information Block
STRT.FT               955.2500: 
STOP.FT              2226.0000: 
STEP.FT                 0.2500: 
NULL.                -999.2500: 
COMP.          Petrogulf Corporation: COMPANY
WELL.             Burson 8-13R: WELL
FLD.           Purgatorie River: FIELD
LOC.           1045' FNL & 2189' FEL: LOCATION
CNTY.               Las Animas: COUNTY
SRVC.                         : SERVICE COMPANY
DATE.          Fri Apr 30 04:52:15 2004: LOG DATE
UWI.           05 071 08039 00: UNIQUE WELL ID
STAT.                 Colorado: STATE
~Curve Information Block
DEPT.FT            0 000 00 00: Depth
SP.mV                         : DIL Spontaneous Potential
RILD.Ohm-m                    : DIL Deep Resistivity
RILM.Ohm-m                    : DIL Medium Resistivity
RLL3.Ohm-m                    : DIL Shallow Resistivity
~Parameter Information Block
~A  Depth        SP         RILD        RILM        RLL3    
# ...
  1558.2500    117.4303      6.5088      7.0944      7.6624
  1558.5000    117.3640      6.5214      7.1535      7.7065
  1558.7500    117.3146      6.5246      7.2238      7.8151
  1559.0000    117.2960      6.5275      7.3055      8.0159
  1559.2500    117.3061      6.5385      7.3967      8.3268
  1559.5000    117.3318      6.5615      7.4913      8.7089
  1559.7500    117.3605      6.5967      7.5790      9.0765
  1560.0000    117.3854      6.6426      7.6495      9.3610
  1560.2500    117.4015      6.6973      7.6979      9.5520
  1560.5000    117.3979      6.7589      7.7278      9.6767
  1560.7500    117.3586      6.8238      7.7498      9.7631
  1561.0000    117.2693      6.8875      7.7769      9.8255
  1561.2500    117.1243      6.9454      7.8182      9.8695
  1561.5000    116.9294      6.9957      7.8743      9.8926
  1561.7500    116.7057      7.0396      7.9370      9.8837
  1562.0000    116.4905      7.0803      7.9938      9.8348
  1562.2500    116.3257      7.1204      8.0359      9.7575
  1562.5000    116.2360      7.1608      8.0624      9.6845
  1562.7500    116.2169      7.2012      8.0798      9.6484
  1563.0000    116.2458      7.2418      8.0978      9.6674
  1563.2500    116.3031      7.2848      8.1248      9.7455
  1563.5000    116.3844      7.3349      8.1648      9.8624
  1563.7500    116.4920      7.3972      8.2180      9.9555
  1564.0000    116.6249      7.4747      8.2830      9.9477
  1564.2500    116.7807      7.5656      8.3610      9.8175
  1564.5000    116.9615      7.6617      8.4582      9.6428
  1564.7500    117.1703      7.7499      8.5848      9.5954
  1565.0000    117.3973      7.8166      8.7499      9.9272
  1565.2500    117.6133      7.8527      8.9536     10.9370
  1565.5000    117.7769      7.8564      9.1794     12.8348
  1565.7500    117.8521      7.8326      9.3917     15.4969
  1566.0000    117.8298      7.7906      9.5429     18.3082
  1566.2500    117.7408      7.7410      9.5910     20.3404
  1566.5000    117.6477      7.6950      9.5179     20.8431
  1566.7500    117.6124      7.6623      9.3372     19.6801
  1567.0000    117.6611      7.6498      9.0858     17.3655
  1567.2500    117.7698      7.6585      8.8075     14.7169
  1567.5000    117.8847      7.6822      8.5398     12.4303
  1567.7500    117.9574      7.7096      8.3082     10.8463
  1568.0000    117.9637      7.7294      8.1265      9.9681
  1568.2500    117.8975      7.7349      7.9976      9.6239
  1568.5000    117.7688      7.7252      7.9161      9.6333
  1568.7500    117.6070      7.7042      7.8745      9.9049
  1569.0000    117.4520      7.6783      7.8693     10.4700
  1569.2500    117.3325      7.6555      7.9042     11.4613
  1569.5000    117.2608      7.6448      7.9857     12.9969
  1569.7500    117.2445      7.6563      8.1149     14.9726
  1570.0000    117.2932      7.6998      8.2824     16.9252
  1570.2500    117.4063      7.7853      8.4696     18.1855
  1570.5000    117.5579      7.9218      8.6585     18.2914
  1570.7500    117.6997      8.1166      8.8441     17.3042
  1571.0000    117.7850      8.3746      9.0427     15.7446
  1571.2500    117.7945      8.6968      9.2898     14.2833
  1571.5000    117.7453      9.0774      9.6301     13.5145
  1571.7500    117.6758      9.5027     10.1052     13.9173
  1572.0000    117.6178      9.9526     10.7463     15.8492
  1572.2500    117.5804     10.4060     11.5689     19.4504
  1572.5000    117.5598     10.8501     12.5714     24.6049
  1572.7500    117.5559     11.2859     13.7378     31.2428
  1573.0000    117.5770     11.7270     15.0470     39.9702
  1573.2500    117.6298     12.1906     16.4843     52.3572
  1573.5000    117.7094     12.6855     18.0478     70.0703
  1573.7500    117.8002     13.2039     19.7381     93.1039
  1574.0000    117.8872     13.7178     21.5319    118.6537
  1574.2500    117.9672     14.1814     23.3441    141.8706
  1574.5000    118.0455     14.5353     24.9924    157.9551
  1574.7500    118.1236     14.7186     26.1966    163.8889
  1575.0000    118.1938     14.6862     26.6562    158.8200
  1575.2500    118.2452     14.4278     26.1923    143.6998
  1575.5000    118.2691     13.9758     24.8528    121.2064
  1575.7500    118.2629     13.3941     22.8832     95.6652
  1576.0000    118.2313     12.7553     20.6021     71.8083
  1576.2500    118.1878     12.1199     18.2905     52.7033
  1576.5000    118.1504     11.5281     16.1444     38.7989
  1576.7500    118.1305     11.0016     14.2747     28.8915
  1577.0000    118.1229     10.5484     12.7260     21.6511
  1577.2500    118.1086     10.1657     11.4990     16.2984
  1577.5000    118.0691      9.8413     10.5699     12.4706
  1577.7500    118.0023      9.5569      9.9050      9.9417
  1578.0000    117.9237      9.2943      9.4697      8.4982
  1578.2500    117.8562      9.0413      9.2309      7.9444
  1578.5000    117.8169      8.7961      9.1546      8.1707
  1578.7500    117.8135      8.5661      9.2012      9.1823
  1579.0000    117.8464      8.3643      9.3218     10.9943
  1579.2500    117.9103      8.2043      9.4627     13.4233
  1579.5000    117.9981      8.0952      9.5789     15.9537
  1579.7500    118.1063      8.0395      9.6483     17.8660
  1580.0000    118.2370      8.0324      9.6748     18.6011
  1580.2500    118.3901      8.0621      9.6780     18.0890
  1580.5000    118.5534      8.1122      9.6786     16.7653
  1580.7500    118.6999      8.1642      9.6883     15.2795
  1581.0000    118.8012      8.1993      9.7059     14.1396
  1581.2500    118.8440      8.2016      9.7169     13.5324
  1581.5000    118.8348      8.1601      9.6958     13.3532
  1581.7500    118.7852      8.0718      9.6152     13.3291
  1582.0000    118.6991      7.9436      9.4572     13.1496
  1582.2500    118.5776      7.7908      9.2247     12.6020
  1582.5000    118.4367      7.6320      8.9396     11.6773
  1582.7500    118.3165      7.4822      8.6330     10.5496
  1583.0000    118.2669      7.3472      8.3317      9.4401
  1583.2500    118.3190      7.2225      8.0527      8.5010
  1583.5000    118.4608      7.0967      7.8028      7.8086
  1583.7500    118.6406      6.9596      7.5827      7.3998
  1584.0000    118.7998      6.8102      7.3889      7.2699
  1584.2500    118.9062      6.6578      7.2157      7.3521
  1584.5000    118.9569      6.5162      7.0578      7.5350
  1584.7500    118.9580      6.3966      6.9113      7.7097
  1585.0000    118.9143      6.3045      6.7759      7.7989
  1585.2500    118.8361      6.2418      6.6552      7.7592
  1585.5000    118.7406      6.2093      6.5560      7.5918
  1585.7500    118.6365      6.2058      6.4863      7.3553
  1586.0000    118.5159      6.2266      6.4525      7.1365
  1586.2500    118.3663      6.2627      6.4568      6.9943
  1586.5000    118.1910      6.3050      6.4958      6.9432
  1586.7500    118.0121      6.3486      6.5628      6.9890
  1587.0000    117.8571      6.3953      6.6503      7.1595
  1587.2500    117.7416      6.4516      6.7532      7.4898
  1587.5000    117.6625      6.5243      6.8692      7.9713
  1587.7500    117.6038      6.6183      6.9981      8.5211
  1588.0000    117.5504      6.7355      7.1412      9.0162
  1588.2500    117.5004      6.8744      7.3007      9.3796
  1588.5000    117.4726      7.0310      7.4795      9.6528
  1588.7500    117.5041      7.1994      7.6806     10.0048
  1589.0000    117.6351      7.3735      7.9060     10.6642
  1589.2500    117.8849      7.5489      8.1553     11.8208
  1589.5000    118.2384      7.7237      8.4229     13.5769
  1589.7500    118.6530      7.8977      8.6967     15.9525
  1590.0000    119.0779      8.0734      8.9582     18.7827
  1590.2500    119.4708      8.2556      9.1864     21.4723
  1590.5000    119.8098      8.4511      9.3646     23.0128
  1590.7500    120.0969      8.6681      9.4909     22.6413
  1591.0000    120.3485      8.9130      9.5836     20.6360
  1591.2500    120.5780      9.1891      9.6799     18.2503
  1591.5000    120.7839      9.4941      9.8254     16.7294
