~Version Information
VERS.                      2.0: CWLS Log ASCII Standard - VERSION 2.0
WRAP.                       NO: One line per depth step
~Well Information Block
STRT.FT               -14.2500: 
STOP.FT              2177.5000: 
STEP.FT                 0.2500: 
NULL.                -999.2500: 
COMP.          Evergreen Operating Corp.: COMPANY
WELL.            Triumph 13-10: WELL
FLD.           Purgatorie River: FIELD
LOC.           1551' FSL & 522' FWL--: LOCATION
PROV.                       CO: PROVINCE
CNTY.               Las Animas: COUNTRY
SRVC.                         : SERVICE COMPANY
DATE.          Sat Aug 21 09:27:32 2004: LOG DATE
UWI.           005 071 08108 : UNIQUE WELL ID
~Curve Information Block
DEPT.FT            0 000 00 00: Depth
CCL.                          : Casing Collar Locator
TT3.usec                      : CBL 3' Travel Time
AMP3.mV                       : CBL 3' Amplitude
GR.GAPI                       : Gamma Ray
~Parameter Information Block
~A  Depth       CCL         TT3         AMP3         GR     
# ...
   287.2500      0.0000    730.7277      5.2862    107.3883
   287.5000      0.0000    722.8066      5.3222    111.1750
   287.7500      0.0000    716.2308      5.4613    113.4629
   288.0000      0.0000    712.4255      5.6622    112.8214
   288.2500      0.0000    712.9641      5.8415    109.4900
   288.5000      0.0000    717.6499      5.9146    104.4385
   288.7500      0.0000    724.0011      5.8542     98.7434
   289.0000      0.0000    728.6354      5.7150     93.9960
   289.2500      0.0000    729.3564      5.5966     91.9618
   289.5000      0.0000    726.3846      5.5729     93.1422
   289.7500      0.0000    721.8312      5.6435     96.0046
   290.0000      0.0000    717.9424      5.7394     97.8708
   290.2500      0.0000    715.8058      5.7742     96.6508
   290.5000      0.0000    715.5286      5.7025     92.1177
   290.7500      0.0000    716.9517      5.5428     86.0587
   291.0000      0.0000    719.6649      5.3521     81.3461
   291.2500      0.0000    722.6652      5.1834     80.4344
   291.5000      0.0000    724.5337      5.0598     84.0930
   291.7500      0.0000    724.1410      4.9822     90.9348
   292.0000      0.0000    721.2528      4.9500     97.8501
   292.2500      0.0000    716.5586      4.9590    101.4374
   292.5000      0.0000    711.2509      4.9770     99.9878
   292.7500      0.0000    706.5177      4.9434     94.5054
   293.0000      0.0000    703.0955      4.8137     87.7005
   293.2500      0.0000    701.0681      4.6052     81.8804
   293.5000      0.0000    700.0748      4.3953     77.7306
   293.7500      0.0000    699.6866      4.2667     74.7214
   294.0000      0.0000    699.6028      4.2550     72.3308
   294.2500      0.0000    699.6397      4.3474     70.8410
   294.5000      0.0000    699.6807      4.5117     70.9470
   294.7500      0.0000    699.6598      4.7098     72.6284
   295.0000      0.0000    699.5653      4.8945     74.8077
   295.2500      0.0000    699.4453      5.0116     76.3319
   295.5000      0.0000    699.3743      5.0146     76.8211
   295.7500      0.0000    699.4125      4.8944     76.2848
   296.0000      0.0000    699.5872      4.7062     74.5471
   296.2500      0.0000    699.8764      4.5432     71.6706
   296.5000      0.0000    700.1962      4.4635     68.6917
   296.7500      0.0000    700.4332      4.4443     67.2406
   297.0000      0.0000    700.5140      4.4193     68.1600
   297.2500      0.0000    700.4374      4.3521     70.6227
   297.5000      0.0000    700.2404      4.2661     72.7617
   297.7500      0.0000    699.9560      4.2035     73.1118
   298.0000      0.0000    699.6153      4.1690     71.4720
   298.2500      0.0000    699.2694      4.1233     68.7862
   298.5000      0.0000    698.9775      4.0307     66.6064
   298.7500      0.0000    698.7614      3.9062     66.3230
   299.0000      0.0000    698.5956      3.8102     68.2154
   299.2500      0.0000    698.4550      3.7951     71.1602
   299.5000      0.0000    698.3790      3.8575     73.5977
   299.7500      0.0000    698.5042      3.9444     74.8528
   300.0000      0.0000    699.0719      4.0088     75.3729
   300.2500      0.0000    700.3245      4.0575     75.8623
   300.5000      0.0000    702.1740      4.1340     76.5934
   300.7500      0.0000    703.8922      4.2534     77.5764
   301.0000      0.0000    704.4678      4.3759     78.9325
   301.2500      0.0000    703.6204      4.4540     80.6086
   301.5000      0.0000    702.2916      4.4891     81.9492
   301.7500      0.0000    701.7606      4.5282     82.0976
   302.0000      0.0000    702.2012      4.6098     80.8506
   302.2500      0.0000    702.3270      4.7237     78.8633
   302.5000      0.0000    700.9037      4.8210     77.1098
   302.7500      0.0000    698.8702      4.8447     76.2451
   303.0000      0.0000    699.3589      4.7610     76.1472
   303.2500      0.0000    704.8207      4.5889     75.9523
   303.5000      0.0000    714.4368      4.4087     74.8805
   303.7500      0.0000    724.8830      4.3185     72.9998
   304.0000      0.0000    733.3090      4.3680     70.8157
   304.2500      2.0000    739.2626      4.5315     68.3424
   304.5000      2.0000    744.2134      4.7306     65.1368
   304.7500      0.0000    749.5562      4.8764     61.1147
   305.0000      0.0000    755.0261      4.9175     56.8220
   305.2500      0.0000    759.2246      4.8763     52.9619
   305.5000      0.0000    761.7086      4.8339     49.9687
   305.7500      0.0000    763.9907      4.8593     47.8899
   306.0000      0.0000    768.0654      4.9533     46.4270
   306.2500      0.0000    774.3271      5.0684     45.1926
   306.5000      0.0000    781.2930      5.1645     44.2245
   306.7500      0.0000    786.8467      5.2256     44.3711
   307.0000      0.0000    789.2083      5.2433     46.8315
   307.2500      0.0000    787.2504      5.2121     51.8217
   307.5000      0.0000    781.0181      5.1465     57.7596
   307.7500      0.0000    772.3960      5.0819     62.3616
   308.0000      0.0000    764.7007      5.0439     64.6449
   308.2500      0.0000    760.7308      5.0232     65.3272
   308.5000      0.0000    761.0097      4.9844     65.3719
   308.7500      0.0000    764.0674      4.9033     64.8895
   309.0000      0.0000    768.0246      4.7936     63.4564
   309.2500      0.0000    771.4705      4.7021     61.0606
   309.5000      0.0000    773.4467      4.6728     58.7159
   309.7500      0.0000    773.4919      4.7215     57.9952
   310.0000      0.0000    771.7460      4.8431     59.3835
   310.2500      0.0000    768.8244      5.0227     61.2999
   310.5000      0.0000    765.6027      5.2248     61.4825
   310.7500      0.0000    762.8466      5.3893     59.2406
   311.0000      0.0000    760.6697      5.4717     55.9105
   311.2500      0.0000    758.5089      5.4980     53.4483
   311.5000      0.0000    755.9816      5.5634     52.8833
   311.7500      0.0000    753.7511      5.7551     53.7046
   312.0000      0.0000    753.3436      6.0728     54.5073
   312.2500      0.0000    755.8684      6.4286     54.4140
   312.5000      0.0000    760.7887      6.7193     53.8851
   312.7500      0.0000    766.1695      6.8922     54.1226
   313.0000      0.0000    770.2044      6.9556     55.9159
   313.2500      0.0000    772.2350      6.9481     59.1658
   313.5000      0.0000    772.5092      6.9090     63.1305
   313.7500      0.0000    771.6566      6.8725     66.6984
   314.0000      0.0000    770.5971      6.8748     68.6076
   314.2500      0.0000    770.3542      6.9468     68.1144
   314.5000      0.0000    771.3849      7.0818     65.7863
   314.7500      0.0000    773.1635      7.2155     63.3877
   315.0000      0.0000    774.6843      7.2581     62.6185
   315.2500      0.0000    775.3430      7.1629     63.9052
   315.5000      0.0000    775.2545      6.9650     66.4077
   315.7500      0.0000    774.9184      6.7511     68.9739
   316.0000      0.0000    774.7762      6.5885     71.0074
   316.2500      0.0000    775.0567      6.4854     72.6501
   316.5000      0.0000    775.8135      6.4136     74.3049
   316.7500      0.0000    776.9428      6.3521     75.9706
   317.0000      0.0000    778.2830      6.2991     77.0473
   317.2500      0.0000    779.8357      6.2532     76.6509
   317.5000      0.0000    781.6247      6.2067     74.0741
   317.7500      0.0000    782.9228      6.1667     69.3695
   318.0000      0.0000    782.0570      6.1671     63.7725
   318.2500      0.0000    777.9550      6.2442     59.0891
   318.5000      0.0000    772.0038      6.4090     56.2740
   318.7500      0.0000    767.4924      6.6485     54.8118
   319.0000      0.0000    766.7419      6.9395     53.6110
   319.2500      0.0000    769.2607      7.2456     52.1839
   319.5000      0.0000    772.9073      7.5045     50.7293
   319.7500      0.0000    776.1027      7.6396     49.4411
   320.0000      0.0000    778.4724      7.6087     48.2797
   320.2500      0.0000    780.0361      7.4476     47.3866
   320.5000      0.0000    780.6445      7.2561     47.1667
