~Version Information
VERS.                      2.0: CWLS Log ASCII Standard - VERSION 2.0
WRAP.                       NO: One line per depth step
~Well Information Block
STRT.FT               491.0000: 
STOP.FT              1055.5000: 
STEP.FT                 0.1000: 
NULL.                -999.2500: 
COMP.          Evergreen Operating Corporation: COMPANY
WELL.              Sunset 24-3: WELL
FLD.           Purgatorie River: FIELD
LOC.           467' FSL & 2262' FWL: LOCATION
PROV.                 Colorado: PROVINCE
CNTY.               Las Animas: COUNTRY
SRVC.                         : SERVICE COMPANY
DATE.          Wed Sep 22 14:05:09 2004: LOG DATE
UWI.           05 071 08158 00: UNIQUE WELL ID
~Curve Information Block
DEPT.FT            0 000 00 00: Depth
DCAL.in                       : CDL Caliper
RHOB.g/cc                     : CDL Bulk Density
RHOC.g/cc                     : CDL Density Correction
DPOR.pu                       : CDL Density Porosity
GR.GAPI                       : Gamma Ray
NPOR.pu                       : Neutron Porosity
~Parameter Information Block
~A  Depth       DCAL        RHOB        RHOC        DPOR         GR         NPOR    
# ...
   596.6000      8.0030      2.5344      0.0498      7.0034    121.5499     25.2617
   596.7000      8.0030      2.5385      0.0222      6.7583    126.9549     25.1221
   596.8000      8.0017      2.5617      0.0253      5.3490    129.2203     24.8260
   596.9000      8.0017      2.5939      0.1037      3.4025    131.1037     24.2216
   597.0000      8.0007      2.6137      0.0825      2.2009    132.0575     23.4237
   597.1000      8.0007      2.6221      0.0717      1.6911    128.0161     22.7262
   597.2000      8.0007      2.6276      0.1055      1.3558    120.1228     22.3386
   597.3000      7.9990      2.6268      0.1155      1.4073    111.0268     22.1760
   597.4000      7.9990      2.6163      0.0946      2.0400    103.6446     22.0719
   597.5000      7.9977      2.6055      0.0391      2.6978     99.0798     22.0100
   597.6000      7.9977      2.6038      0.0689      2.7970     96.4094     21.9892
   597.7000      7.9977      2.6092      0.0399      2.4740     97.3571     21.6333
   597.8000      7.9975      2.6116      0.0540      2.3296     99.1678     20.6014
   597.9000      7.9975      2.6069      0.0016      2.6109     95.6690     19.5239
   598.0000      7.9992      2.6033      0.0290      2.8298     91.5955     19.2202
   598.1000      7.9992      2.6044      0.0124      2.7629     93.7361     19.3913
   598.2000      7.9992      2.6071      0.0097      2.6004     98.5702     19.6312
   598.3000      7.9994      2.6100      0.0008      2.4222    102.0585     19.7122
   598.4000      7.9994      2.6119     -0.0014      2.3105    101.4990     19.8327
   598.5000      7.9949      2.6100      0.0459      2.4242     96.1835     20.6939
   598.6000      7.9949      2.6013      0.0479      2.9497     91.7987     21.9840
   598.7000      7.9949      2.5802      0.0462      4.2318     90.4752     22.8460
   598.8000      7.9862      2.5492      0.0084      6.1063     90.9433     23.0717
   598.9000      7.9862      2.5309     -0.0209      7.2198     94.7413     22.7808
   599.0000      8.0044      2.5343      0.0371      7.0140     99.6954     22.3638
   599.1000      8.0044      2.5373      0.0120      6.8303    101.1884     22.2874
   599.2000      8.0044      2.5235     -0.0024      7.6658     99.3640     23.0261
   599.3000      8.0156      2.4981     -0.0059      9.2067     95.6836     24.3638
   599.4000      8.0156      2.4699     -0.0187     10.9151     91.0637     24.9769
   599.5000      8.0110      2.4370     -0.0003     12.9083     90.6011     24.6733
   599.6000      8.0110      2.3848      0.0068     16.0701     97.6230     24.5347
   599.7000      8.0110      2.3091     -0.0307     20.6589    106.2979     24.9171
   599.8000      8.0271      2.2232     -0.0372     25.8654    111.0816     25.6461
   599.9000      8.0271      2.1353     -0.0649     31.1967    113.0966     26.6073
   600.0000      8.0489      2.0514     -0.1168     36.2796    114.6447     27.6415
   600.1000      8.0489      1.9805     -0.0728     40.5768    118.3822     28.7423
   600.2000      8.0489      1.9180     -0.0320     44.3624    125.7248     29.8879
   600.3000      8.0947      1.8556      0.0069     48.1457    131.1038     30.9285
   600.4000      8.0947      1.7998      0.0160     51.5281    128.1428     31.9116
   600.5000      8.1016      1.7648      0.0581     53.6484    120.3491     32.6790
   600.6000      8.1016      1.7579      0.0545     54.0648    112.5676     32.8726
   600.7000      8.1016      1.7775      0.0884     52.8785    106.1085     32.8640
   600.8000      8.0868      1.8141      0.1249     50.6628    101.0705     33.1492
   600.9000      8.0868      1.8575      0.1365     48.0312     94.3581     33.4444
   601.0000      8.0970      1.9029      0.1834     45.2795     86.3889     33.1885
   601.1000      8.0970      1.9519      0.1444     42.3086     82.7324     32.5062
   601.2000      8.0970      2.0117      0.1538     38.6844     84.3151     32.3782
   601.3000      8.1722      2.0802      0.1864     34.5360     89.5364     33.1270
   601.4000      8.1722      2.1464      0.1670     30.5238    100.1904     34.0013
   601.5000      8.2202      2.2009      0.1895     27.2161    112.7715     34.2403
   601.6000      8.2202      2.2375      0.1058     24.9988    120.4230     33.9965
   601.7000      8.2202      2.2597      0.0602     23.6532    125.3969     33.5804
   601.8000      8.1100      2.2724      0.0684     22.8834    132.5916     32.9629
   601.9000      8.1100      2.2704      0.0937     23.0089    139.6098     32.4373
   602.0000      8.0830      2.2472      0.0607     24.4104    143.4363     32.2519
   602.1000      8.0830      2.2006      0.0842     27.2393    141.5159     32.3688
   602.2000      8.0830      2.1293      0.0164     31.5579    132.6221     32.6084
   602.3000      8.0802      2.0475     -0.0169     36.5148    123.5347     32.8352
   602.4000      8.0802      1.9817     -0.0074     40.5022    119.8382     33.0830
   602.5000      8.1034      1.9499     -0.0468     42.4307    119.6916     33.1087
   602.6000      8.1034      1.9455      0.0654     42.6992    122.8153     32.6410
   602.7000      8.1034      1.9435      0.0829     42.8154    127.8782     32.0581
   602.8000      8.2781      1.9373      0.0579     43.1963    126.6057     32.0560
   602.9000      8.2781      1.9450      0.0704     42.7279    117.6822     32.6582
   603.0000      8.3627      1.9788      0.1089     40.6774    109.8635     33.4563
   603.1000      8.3627      2.0324      0.1175     37.4312    109.7733     34.1149
   603.2000      8.3627      2.0930      0.1320     33.7586    117.6163     34.2272
   603.3000      8.2683      2.1536      0.1076     30.0875    126.0545     33.6058
   603.4000      8.2683      2.2167      0.0928     26.2635    126.8268     32.6610
   603.5000      8.1863      2.2821      0.1409     22.2959    119.0306     31.9356
   603.6000      8.1863      2.3416      0.1443     18.6919    109.2433     31.2482
   603.7000      8.1863      2.3869      0.1426     15.9479    108.0068     30.3719
   603.8000      8.0810      2.4173      0.0952     14.1001    117.1532     29.8609
   603.9000      8.0810      2.4412      0.0768     12.6560    125.5231     30.0164
   604.0000      8.0303      2.4640      0.0765     11.2722    128.3805     30.3618
   604.1000      8.0303      2.4805      0.0836     10.2733    133.6883     30.5875
   604.2000      8.0303      2.4779      0.0645     10.4278    142.6783     30.5861
   604.3000      8.0050      2.4576      0.0284     11.6621    145.3189     30.3244
   604.4000      8.0050      2.4430      0.0115     12.5473    140.6153     30.0554
   604.5000      8.0029      2.4511      0.0051     12.0537    136.0971     30.0731
   604.6000      8.0029      2.4703      0.0620     10.8913    133.8389     30.4519
   604.7000      8.0029      2.4746      0.1025     10.6277    134.9895     30.9561
   604.8000      8.0230      2.4589      0.0558     11.5810    139.9071     31.1318
   604.9000      8.0230      2.4418      0.0602     12.6160    145.0632     30.7124
   605.0000      8.0278      2.4371      0.0485     12.9038    151.6688     29.8181
   605.1000      8.0278      2.4482      0.0522     12.2331    163.4558     28.9813
   605.2000      8.0278      2.4695      0.0878     10.9387    171.6468     28.7792
   605.3000      8.0278      2.4905      0.0791      9.6685    163.0835     29.1244
   605.4000      8.0278      2.5099      0.1148      8.4912    146.9546     29.5675
   605.5000      8.0300      2.5275      0.1065      7.4251    139.8230     29.9915
   605.6000      8.0300      2.5324      0.1199      7.1247    138.2037     30.4596
   605.7000      8.0300      2.5196      0.0578      7.9033    131.4219     30.7089
   605.8000      8.0439      2.4984      0.0615      9.1889    124.5297     30.5580
   605.9000      8.0439      2.4740      0.0568     10.6671    128.5929     30.4612
   606.0000      8.0446      2.4513      0.0166     12.0445    138.1594     30.5905
   606.1000      8.0446      2.4407     -0.0019     12.6820    141.9550     30.6927
