~Version Information
VERS.                      2.0: CWLS Log ASCII Standard - VERSION 2.0
WRAP.                       NO: One line per depth step
~Well Information Block
STRT.FT               765.6000: 
STOP.FT              2431.0000: 
STEP.FT                 0.1000: 
NULL.                -999.2500: 
COMP.          Petrogulf Corporation: COMPANY
WELL.             Norton 9-14V: WELL
FLD.           Purgatorie River: FIELD
LOC.           230' FSL & 225' FWL: LOCATION
CNTY.               Las Animas: COUNTY
SRVC.                         : SERVICE COMPANY
DATE.          Thu Oct 28 06:20:25 2004: LOG DATE
UWI.           05 071 07891 00: UNIQUE WELL ID
STAT.                 Colorado: STATE
~Curve Information Block
DEPT.FT            0 000 00 00: Depth
DCAL.in                       : CDL Caliper
RHOB.g/cc                     : CDL Bulk Density
RHOC.g/cc                     : CDL Density Correction
DPOR.pu                       : CDL Density Porosity
GR.GAPI                       : Gamma Ray
NPOR.pu                       : Neutron Porosity
~Parameter Information Block
~A  Depth       DCAL        RHOB        RHOC        DPOR         GR         NPOR    
# ...
  2416.8000      7.8015      2.5991      0.0708      3.0844   -999.2500     49.9214
  2416.9000      7.8015      2.6011      0.0846      2.9636   -999.2500   -999.2500
  2417.0000      7.8039      2.5854      0.0891      3.9144   -999.2500   -999.2500
  2417.1000      7.8039      2.5570      0.0839      5.6375   -999.2500   -999.2500
  2417.2000      7.8039      2.5316      0.0396      7.1768   -999.2500   -999.2500
  2417.3000      7.8152      2.5165      0.0431      8.0934   -999.2500   -999.2500
  2417.4000      7.8152      2.5131      0.0212      8.2994   -999.2500   -999.2500
  2417.5000      7.8153      2.5274      0.0282      7.4306   -999.2500   -999.2500
  2417.6000      7.8153      2.5516      0.0885      5.9608   -999.2500   -999.2500
  2417.7000      7.8153      2.5583      0.1012      5.5570   -999.2500   -999.2500
  2417.8000      7.8165      2.5373      0.0513      6.8310   -999.2500   -999.2500
  2417.9000      7.8165      2.5070      0.0487      8.6660   -999.2500   -999.2500
  2418.0000      7.8028      2.4865      0.0304      9.9116   -999.2500   -999.2500
  2418.1000      7.8028      2.4850      0.0025      9.9984   -999.2500   -999.2500
  2418.2000      7.8028      2.5010      0.0346      9.0276   -999.2500   -999.2500
  2418.3000      7.8052      2.5216      0.0917      7.7821   -999.2500   -999.2500
  2418.4000      7.8052      2.5421      0.0521      6.5415   -999.2500   -999.2500
  2418.5000      7.8197      2.5660      0.0941      5.0934   -999.2500   -999.2500
  2418.6000      7.8197      2.5779      0.1314      4.3686   -999.2500   -999.2500
  2418.7000      7.8197      2.5621      0.0887      5.3266   -999.2500   -999.2500
  2418.8000      7.8221      2.5370      0.0699      6.8459   -999.2500   -999.2500
  2418.9000      7.8221      2.5244      0.0706      7.6124   -999.2500   -999.2500
  2419.0000      7.8132      2.5156      0.0498      8.1430   -999.2500   -999.2500
  2419.1000      7.8132      2.5008      0.0387      9.0421   -999.2500   -999.2500
  2419.2000      7.8132      2.4860      0.0326      9.9418   -999.2500   -999.2500
  2419.3000      7.8177      2.4772      0.0289     10.4730   -999.2500   -999.2500
  2419.4000      7.8177      2.4762      0.0265     10.5327   -999.2500   -999.2500
  2419.5000      7.8126      2.4796      0.0638     10.3259   -999.2500   -999.2500
  2419.6000      7.8126      2.4811      0.0644     10.2375   -999.2500   -999.2500
  2419.7000      7.8126      2.4862      0.0347      9.9292   -999.2500   -999.2500
  2419.8000      7.8170      2.5011      0.0219      9.0222   -999.2500   -999.2500
  2419.9000      7.8170      2.5123      0.0991      8.3451   -999.2500   -999.2500
  2420.0000      7.8185      2.5008      0.0671      9.0437   -999.2500   -999.2500
  2420.1000      7.8185      2.4746      0.0119     10.6327   -999.2500   -999.2500
  2420.2000      7.8185      2.4592      0.0337     11.5643   -999.2500   -999.2500
  2420.3000      7.8202      2.4636      0.0393     11.2950   -999.2500   -999.2500
  2420.4000      7.8202      2.4763      0.0715     10.5271   -999.2500   -999.2500
  2420.5000      7.8191      2.4830      0.0392     10.1230   -999.2500   -999.2500
  2420.6000      7.8191      2.4828      0.0113     10.1314   -999.2500   -999.2500
  2420.7000      7.8191      2.4813      0.0555     10.2215   -999.2500   -999.2500
  2420.8000      7.8185      2.4799      0.0639     10.3118   -999.2500   -999.2500
  2420.9000      7.8185      2.4873      0.0301      9.8579   -999.2500   -999.2500
  2421.0000      7.8161      2.5130      0.0630      8.3020   -999.2500   -999.2500
  2421.1000      7.8161      2.5399      0.1158      6.6744   -999.2500   -999.2500
  2421.2000      7.8161      2.5444      0.0931      6.4000   -999.2500   -999.2500
  2421.3000      7.8197      2.5281      0.0590      7.3897   -999.2500   -999.2500
  2421.4000      7.8197      2.5075      0.0587      8.6386   -999.2500   -999.2500
  2421.5000      7.8256      2.4932      0.0792      9.5057   -999.2500   -999.2500
  2421.6000      7.8256      2.4814      0.0694     10.2185   -999.2500   -999.2500
  2421.7000      7.8256      2.4751     -0.0030     10.6019   -999.2500   -999.2500
  2421.8000      7.8286      2.4859      0.1068      9.9442   -999.2500   -999.2500
  2421.9000      7.8286      2.5080      0.0775      8.6087   -999.2500   -999.2500
  2422.0000      7.8073      2.5288      0.0888      7.3449   -999.2500   -999.2500
  2422.1000      7.8073      2.5399      0.1017      6.6725   -999.2500   -999.2500
  2422.2000      7.8073      2.5397      0.0667      6.6839   -999.2500   -999.2500
  2422.3000      7.8015      2.5371      0.0838      6.8407   -999.2500   -999.2500
  2422.4000      7.8015      2.5301      0.1059      7.2694   -999.2500   -999.2500
  2422.5000      7.8048      2.5144      0.0757      8.2162   -999.2500   -999.2500
  2422.6000      7.8048      2.5016      0.0635      8.9911   -999.2500   -999.2500
  2422.7000      7.8048      2.5053      0.0527      8.7726   -999.2500   -999.2500
  2422.8000      7.8040      2.5264      0.0828      7.4910   -999.2500   -999.2500
  2422.9000      7.8040      2.5475      0.0940      6.2095   -999.2500   -999.2500
  2423.0000      7.7994      2.5533      0.0633      5.8614   -999.2500   -999.2500
  2423.1000      7.7994      2.5458      0.1070      6.3127   -999.2500   -999.2500
  2423.2000      7.7994      2.5370      0.0165      6.8474   -999.2500   -999.2500
  2423.3000      7.7884      2.5381      0.0640      6.7823   -999.2500   -999.2500
  2423.4000      7.7884      2.5450      0.0722      6.3655   -999.2500   -999.2500
  2423.5000      7.7963      2.5436      0.0850      6.4472   -999.2500   -999.2500
  2423.6000      7.7963      2.5222      0.0667      7.7480   -999.2500   -999.2500
  2423.7000      7.7963      2.4930      0.0398      9.5156   -999.2500   -999.2500
  2423.8000      7.8159      2.4880      0.0110      9.8161   -999.2500   -999.2500
  2423.9000      7.8159      2.5117      0.0981      8.3845   -999.2500   -999.2500
  2424.0000      7.8089      2.5357      0.1340      6.9282   -999.2500   -999.2500
  2424.1000      7.8089      2.5480      0.0939      6.1826   -999.2500   -999.2500
  2424.2000      7.8089      2.5597      0.1130      5.4733   -999.2500   -999.2500
  2424.3000      7.8190      2.5660      0.1288      5.0939   -999.2500   -999.2500
  2424.4000      7.8190      2.5544      0.1178      5.7931   -999.2500   -999.2500
  2424.5000      7.8348      2.5362      0.0645      6.8957   -999.2500   -999.2500
  2424.6000      7.8348      2.5398      0.0271      6.6759   -999.2500   -999.2500
  2424.7000      7.8348      2.5725      0.1032      4.6985   -999.2500   -999.2500
  2424.8000      7.8354      2.6030      0.1612      2.8505   -999.2500   -999.2500
  2424.9000      7.8354      2.6053      0.1345      2.7074   -999.2500   -999.2500
  2425.0000      7.8420      2.5909      0.0739      3.5828   -999.2500   -999.2500
  2425.1000      7.8420      2.5843      0.0782      3.9792   -999.2500   -999.2500
  2425.2000      7.8420      2.5870      0.1126      3.8176   -999.2500   -999.2500
  2425.3000      7.8428      2.5784      0.1041      4.3393   -999.2500   -999.2500
  2425.4000      7.8428      2.5504      0.0543      6.0382   -999.2500   -999.2500
  2425.5000      7.8246      2.5149      0.0535      8.1882   -999.2500   -999.2500
  2425.6000      7.8246      2.4888      0.0271      9.7727   -999.2500   -999.2500
  2425.7000      7.8246      2.4852      0.0249      9.9894   -999.2500   -999.2500
  2425.8000      7.7958      2.5014      0.0554      9.0076   -999.2500   -999.2500
  2425.9000      7.7958      2.5215      0.0678      7.7879   -999.2500   -999.2500
  2426.0000      7.7890      2.5319      0.1162      7.1555   -999.2500   -999.2500
  2426.1000      7.7890      2.5291      0.0486      7.3280   -999.2500   -999.2500
  2426.2000      7.7890      2.5230      0.0646      7.6957   -999.2500   -999.2500
  2426.3000      7.7899      2.5312      0.0388      7.1986   -999.2500   -999.2500
