~Version Information
VERS.                      2.0: CWLS Log ASCII Standard - VERSION 2.0
WRAP.                       NO: One line per depth step
~Well Information Block
STRT.FT               423.0000: 
STOP.FT              2308.2500: 
STEP.FT                 0.2500: 
NULL.                -999.2500: 
COMP.          Pioneer Natural Resources: COMPANY
WELL.             Culver 14-12: WELL
FLD.           Purgatoire River: FIELD
LOC.           913' FSL & 1140' FWL: LOCATION
PROV.                 Colorado: PROVINCE
CNTY.               Las Animas: COUNTRY
SRVC.                Patterson: SERVICE COMPANY
DATE.          Tue Jun 07 00:21:41 2005: LOG DATE
UWI.           05 071 08386 00: UNIQUE WELL ID
~Curve Information Block
DEPT.FT            0 000 00 00: Depth
SN.Ohm-m                      : IEL Short Normal
SP.mV                         : IEL Spontaneous Potential
DIR.Ohm-m                     : IEL Induction Resistivity
GR.GAPI                       : Gamma Ray
~Parameter Information Block
~A  Depth        SN          SP         DIR          GR     
# ...
  2265.5000     28.1106     26.9388     28.9197     68.2672
  2265.7500     27.8323     26.9260     28.7060     68.9954
  2266.0000     27.6133     26.9209     28.5323     69.6888
  2266.2500     27.4706     26.9434     28.3730     69.6514
  2266.5000     27.3966     27.0041     28.2230     68.9217
  2266.7500     27.3612     27.0990     28.0834     68.2361
  2267.0000     27.3384     27.2160     27.9456     67.3671
  2267.2500     27.3105     27.3486     27.7949     67.0970
  2267.5000     27.2540     27.5067     27.6295     67.2652
  2267.7500     27.1483     27.7155     27.4727     67.6101
  2268.0000     26.9920     27.9999     27.3566     68.0025
  2268.2500     26.8092     28.3682     27.2917     68.0303
  2268.5000     26.6348     28.8060     27.2544     67.9983
  2268.7500     26.4764     29.2828     27.2120     68.3009
  2269.0000     26.3000     29.7631     27.1596     69.6773
  2269.2500     26.0723     30.2193     27.1261     71.0792
  2269.5000     25.7930     30.6365     27.1403     73.0436
  2269.7500     25.4831     31.0049     27.1919     73.7809
  2270.0000     25.1769     31.3091     27.2288     74.0823
  2270.2500     24.9147     31.5278     27.1909     74.2560
  2270.5000     24.7136     31.6481     27.0482     75.1337
  2270.7500     24.5648     31.6777     26.8082     75.9715
  2271.0000     24.4642     31.6423     26.4971     76.7920
  2271.2500     24.4230     31.5712     26.1429     76.7109
  2271.5000     24.4373     31.4853     25.7751     75.6216
  2271.7500     24.4669     31.3907     25.4306     74.4889
  2272.0000     24.4700     31.2793     25.1473     72.8613
  2272.2500     24.4392     31.1363     24.9479     72.2268
  2272.5000     24.3866     30.9505     24.8299     72.2373
  2272.7500     24.3303     30.7216     24.7750     72.7529
  2273.0000     24.2958     30.4620     24.7693     73.7977
  2273.2500     24.3015     30.1933     24.8135     74.3715
  2273.5000     24.3340     29.9362     24.9101     74.7079
  2273.7500     24.3505     29.6987     25.0397     74.6592
  2274.0000     24.3258     29.4713     25.1536     74.8631
  2274.2500     24.2769     29.2347     25.1979     75.5977
  2274.5000     24.2230     28.9707     25.1530     77.4250
  2274.7500     24.1626     28.6662     25.0498     78.3856
  2275.0000     24.0966     28.3126     24.9436     78.0196
  2275.2500     24.0400     27.9042     24.8680     76.4019
  2275.5000     24.0078     27.4404     24.8133     73.1029
  2275.7500     23.9891     26.9279     24.7414     71.3146
  2276.0000     23.9420     26.3812     24.6209     70.2394
  2276.2500     23.8327     25.8187     24.4496     70.5752
  2276.5000     23.6651     25.2557     24.2517     71.9977
  2276.7500     23.4739     24.6985     24.0596     73.0945
  2277.0000     23.3009     24.1437     23.8952     74.4961
  2277.2500     23.1704     23.5854     23.7643     75.2915
  2277.5000     23.0861     23.0231     23.6651     76.5571
  2277.7500     23.0415     22.4622     23.6008     77.5018
  2278.0000     23.0284     21.9073     23.5833     78.6960
  2278.2500     23.0339     21.3567     23.6202     78.9022
  2278.5000     23.0377     20.8037     23.6985     77.8016
  2278.7500     23.0275     20.2435     23.7822     76.3898
  2279.0000     23.0053     19.6807     23.8308     74.6658
  2279.2500     22.9776     19.1362     23.8265     74.5179
  2279.5000     22.9563     18.6454     23.7873     75.7467
  2279.7500     22.9562     18.2401     23.7529     76.7859
  2280.0000     22.9889     17.9230     23.7530     77.3236
  2280.2500     23.0560     17.6621     23.7827     76.7246
  2280.5000     23.1295     17.4131     23.8052     74.9036
  2280.7500     23.1575     17.1481     23.7779     73.6329
  2281.0000     23.1344     16.8649     23.6812     72.4311
  2281.2500     23.1342     16.5778     23.5286     72.3108
  2281.5000     23.2029     16.3031     23.3543     73.0450
  2281.7500     23.2729     16.0492     23.1911     73.8895
  2282.0000     23.2602     15.8126     23.0569     75.3288
  2282.2500     23.1755     15.5818     22.9579     76.3834
  2282.5000     23.0899     15.3420     22.9016     78.0994
  2282.7500     23.0498     15.0788     22.9034     79.1014
  2283.0000     23.0467     14.7789     22.9757     79.7919
  2283.2500     23.0350     14.4276     23.1065     79.5968
  2283.5000     22.9838     14.0091     23.2488     78.6519
  2283.7500     22.9427     13.5173     23.3402     77.7527
  2284.0000     23.0297     12.9705     23.3436     75.8308
  2284.2500     23.3105     12.4111     23.2751     74.0624
  2284.5000     23.7234     11.8814     23.1945     71.1423
  2284.7500     24.1576     11.4006     23.1703     69.5809
  2285.0000     24.5528     10.9621     23.2520     68.5145
  2285.2500     24.9111     10.5479     23.4587     68.6730
  2285.5000     25.2591     10.1428     23.7749     69.8365
  2285.7500     25.6176      9.7431     24.1441     70.9381
  2286.0000     25.9832      9.3582     24.4716     72.5079
  2286.2500     26.3058      9.0047     24.6541     73.2152
  2286.5000     26.4854      8.6941     24.6266     73.7878
  2286.7500     26.4521      8.4253     24.3949     74.2198
  2287.0000     26.2437      8.1877     24.0215     75.7566
  2287.2500     25.9401      7.9728     23.5802     77.6097
  2287.5000     25.5628      7.7803     23.1173     81.3078
  2287.7500     25.0924      7.6138     22.6502     83.8653
  2288.0000     24.5347      7.4759     22.1939     87.0116
  2288.2500     23.9198      7.3691     21.7856     88.5348
  2288.5000     23.2802      7.2956     21.4830     90.0839
  2288.7500     22.6772      7.2510     21.3403     90.1902
  2289.0000     22.2238      7.2191     21.3845     86.4420
  2289.2500     22.0509      7.1736     21.6101     79.4551
  2289.5000     22.2469      7.0844     21.9898     61.2962
  2289.7500     22.8002      6.9260     22.4927     46.0061
  2290.0000     23.6111      6.6900     23.0923     24.3647
  2290.2500     24.6347      6.3953     23.7591     13.7014
  2290.5000     25.9971      6.0842     24.4464      4.5133
  2290.7500     27.8645      5.8026     25.0920      1.8102
  2291.0000     30.1893      5.5814     25.6402      0.3501
  2291.2500     32.6536      5.4348     26.0695      0.0960
  2291.5000     34.8823      5.3701     26.3899      0.0091
  2291.7500     36.7354      5.3925     26.6089      0.0000
  2292.0000     38.3472      5.4999     26.7022   -999.2500
  2292.2500     39.7990      5.6797     26.6307   -999.2500
  2292.5000     40.8464      5.9164     26.3967   -999.2500
  2292.7500     41.0608      6.2038     26.0713   -999.2500
  2293.0000     40.1785      6.5501     25.7488   -999.2500
  2293.2500     38.3025      6.9753     25.4604   -999.2500
  2293.5000     35.8265      7.5135     25.1255   -999.2500
  2293.7500     33.1768      8.2225     24.5877   -999.2500
  2294.0000     30.5962      9.1806     23.7220   -999.2500
  2294.2500     28.1186     10.4571     22.5339   -999.2500
  2294.5000     25.7244     12.0716     21.1634   -999.2500
  2294.7500     23.5080     13.9812     19.8000   -999.2500
  2295.0000     21.6363     16.1037     18.5957   -999.2500
  2295.2500     20.1780     18.3514     17.6787   -999.2500
  2295.5000     19.0772     20.6457     16.9816   -999.2500
  2295.7500     18.2523     22.9106     16.5462   -999.2500
  2296.0000     17.6455     25.0596     16.3434   -999.2500
  2296.2500     17.2462     26.9956     16.3274   -999.2500
  2296.5000     17.0732     28.6353     16.4401   -999.2500
  2296.7500     17.1007     29.9451     16.6215   -999.2500
  2297.0000     17.2930     30.9576     16.8257   -999.2500
  2297.2500     17.7111     31.7472     17.0360   -999.2500
  2297.5000     18.4876     32.3837     17.2784   -999.2500
  2297.7500     19.6884     32.9043     17.6342   -999.2500
  2298.0000     21.2036     33.3169     18.2629   -999.2500
  2298.2500     22.7724     33.6232     19.4390   -999.2500
  2298.5000     24.1559     33.8386     21.6218   -999.2500
  2298.7500     25.2656     33.9947     25.5036   -999.2500
