~Version Information
VERS.                      2.0: CWLS Log ASCII Standard - VERSION 2.0
WRAP.                       NO: One line per depth step
~Well Information Block
STRT.FT               430.0000: 
STOP.FT              1910.2000: 
STEP.FT                 0.1000: 
NULL.                -999.2500: 
COMP.          Pioneer Natural Resources: COMPANY
WELL.          Formula 23-11 Tr: WELL
FLD.           Purgatoire River: FIELD
LOC.           1976' FSL & 1935' FWL--: LOCATION
PROV.                 Colorado: PROVINCE
CNTY.               Las Animas: COUNTRY
SRVC.                Patterson: SERVICE COMPANY
DATE.          Mon Jun 13 07:32:15 2005: LOG DATE
UWI.           05 071 08399 00: UNIQUE WELL ID
~Curve Information Block
DEPT.FT            0 000 00 00: Depth
DCAL.in                       : CDL Caliper
RHOB.g/cc                     : CDL Bulk Density
RHOC.g/cc                     : CDL Density Correction
DPOR.pu                       : CDL Density Porosity
NPOR.pu                       : Neutron Porosity
GR.GAPI                       : Gamma Ray
~Parameter Information Block
~A  Depth       DCAL        RHOB        RHOC        DPOR        NPOR         GR     
# ...
  1303.6000      7.9843      2.5908      0.0623      3.5900     25.5219    124.7050
  1303.7000      7.9843      2.6055      0.1121      2.6965     26.0089    128.6327
  1303.8000      7.9836      2.6088      0.0890      2.4983     25.8965    128.1704
  1303.9000      7.9836      2.5919      0.0693      3.5186     24.9011    123.6959
  1304.0000      7.9812      2.5726      0.0378      4.6914     24.0138    121.9962
  1304.1000      7.9812      2.5758      0.0378      4.4964     24.0229    125.3699
  1304.2000      7.9812      2.5984      0.0870      3.1282     24.5361    128.5140
  1304.3000      7.9778      2.6187      0.0697      1.8949     24.9544    127.3998
  1304.4000      7.9778      2.6346      0.0719      0.9319     25.2274    123.7289
  1304.5000      7.9763      2.6519      0.0783     -0.1156     25.3442    122.1573
  1304.6000      7.9763      2.6608      0.0764     -0.6515     24.8574    121.7980
  1304.7000      7.9763      2.6518      0.0526     -0.1072     23.7039    117.2510
  1304.8000      7.9742      2.6316      0.0613      1.1154     22.7729    108.5817
  1304.9000      7.9742      2.6099      0.0314      2.4322     22.6018    102.8921
  1305.0000      7.9652      2.5919      0.0361      3.5215     22.6346    105.5499
  1305.1000      7.9652      2.5780      0.0457      4.3636     22.3937    111.1592
  1305.2000      7.9652      2.5693      0.0071      4.8924     22.1834    113.1939
  1305.3000      7.9474      2.5740     -0.0012      4.6051     22.0404    112.3374
  1305.4000      7.9474      2.5865      0.0466      3.8460     21.6019    110.4736
  1305.5000      7.9278      2.5844      0.0343      3.9736     20.9281    106.4505
  1305.6000      7.9278      2.5600      0.0414      5.4535     20.5249     99.3269
  1305.7000      7.9278      2.5308      0.0158      7.2269     20.7178     94.8870
  1305.8000      7.9182      2.5248     -0.0339      7.5852     21.1710     96.8467
  1305.9000      7.9182      2.5443      0.0701      6.4038     21.4280    100.5579
  1306.0000      7.9187      2.5590      0.0678      5.5169     21.3389     99.9047
  1306.1000      7.9187      2.5599      0.0498      5.4583     21.2415     93.8173
  1306.2000      7.9187      2.5633      0.0704      5.2570     21.2368     85.4522
  1306.3000      7.9220      2.5736      0.0531      4.6276     20.8488     79.8454
  1306.4000      7.9220      2.5791      0.1099      4.2968     20.3154     80.8177
  1306.5000      7.9234      2.5703      0.0658      4.8300     20.1449     84.7823
  1306.6000      7.9234      2.5543      0.0608      5.8026     20.0971     83.7156
  1306.7000      7.9234      2.5324      0.0766      7.1247     20.1108     76.1252
  1306.8000      7.9225      2.5039      0.0143      8.8561     20.2434     68.0743
  1306.9000      7.9225      2.4856      0.0212      9.9640     20.0265     63.2201
  1307.0000      7.9201      2.4922     -0.0050      9.5633     19.4133     60.7019
  1307.1000      7.9201      2.5129      0.1092      8.3083     19.1269     60.1020
  1307.2000      7.9201      2.5242      0.0690      7.6240     19.2239     62.0667
  1307.3000      7.9181      2.5221      0.0825      7.7500     19.1177     65.9366
  1307.4000      7.9181      2.5174      0.0408      8.0390     18.9009     69.3409
  1307.5000      7.9169      2.5166      0.0667      8.0821     19.0785     70.6891
  1307.6000      7.9169      2.5215      0.0731      7.7891     19.5099     68.7081
  1307.7000      7.9169      2.5363      0.0616      6.8917     19.7409     63.6498
  1307.8000      7.9152      2.5583      0.0845      5.5599     19.9737     58.5857
  1307.9000      7.9152      2.5649      0.1146      5.1559     20.6932     54.8547
  1308.0000      7.9127      2.5430      0.0684      6.4871     21.5896     52.3528
  1308.1000      7.9127      2.5134      0.0322      8.2797     21.8792     50.4311
  1308.2000      7.9127      2.5056      0.0261      8.7540     21.4482     49.2383
  1308.3000      7.9115      2.5230      0.0596      7.6957     20.8864     51.0244
  1308.4000      7.9115      2.5461      0.0561      6.2999     20.6901     55.6819
  1308.5000      7.9113      2.5573      0.0663      5.6211     20.7870     59.9815
  1308.6000      7.9113      2.5540      0.0706      5.8200     20.8010     60.8760
  1308.7000      7.9113      2.5456      0.0666      6.3295     20.6185     56.5378
  1308.8000      7.9115      2.5428      0.0743      6.4941     20.2437     49.7598
  1308.9000      7.9115      2.5441      0.0748      6.4159     19.7280     46.6268
  1309.0000      7.9120      2.5409      0.0734      6.6135     19.5814     48.8837
  1309.1000      7.9120      2.5394      0.0523      6.7028     19.9586     53.7158
  1309.2000      7.9120      2.5446      0.1020      6.3898     20.4070     56.3461
  1309.3000      7.9123      2.5405      0.1040      6.6352     20.7424     54.2874
  1309.4000      7.9123      2.5255      0.0445      7.5474     20.8127     51.0237
  1309.5000      7.9137      2.5103      0.0803      8.4697     20.4228     50.4289
  1309.6000      7.9137      2.4946      0.0663      9.4169     19.8686     51.5405
  1309.7000      7.9137      2.4897      0.0105      9.7164     19.6038     51.0880
  1309.8000      7.9165      2.5035      0.0601      8.8779     19.6055     48.8629
  1309.9000      7.9165      2.5173      0.0748      8.0433     19.5839     48.4257
  1310.0000      7.9199      2.5184      0.0704      7.9756     19.6348     51.0631
  1310.1000      7.9199      2.5154      0.0268      8.1563     20.0958     52.8052
  1310.2000      7.9199      2.5190      0.0501      7.9396     20.6197     52.0097
  1310.3000      7.9211      2.5346      0.0579      6.9913     20.7555     51.6131
  1310.4000      7.9211      2.5644      0.1103      5.1854     20.9099     52.8765
  1310.5000      7.9206      2.5940      0.1549      3.3964     21.3056     54.0883
  1310.6000      7.9206      2.5985      0.1464      3.1188     21.6992     54.5015
  1310.7000      7.9206      2.5806      0.0552      4.2033     21.9872     55.1984
  1310.8000      7.9219      2.5647      0.0780      5.1697     22.1972     56.1819
  1310.9000      7.9219      2.5543      0.0739      5.8016     22.0951     58.5054
  1311.0000      7.9241      2.5393      0.0676      6.7100     21.5000     63.4810
  1311.1000      7.9241      2.5219      0.0419      7.7656     20.9703     68.8088
  1311.2000      7.9241      2.5120      0.0269      8.3648     20.8276     70.6451
  1311.3000      7.9238      2.5098      0.0151      8.4976     20.7694     68.0716
  1311.4000      7.9238      2.5068      0.0501      8.6776     20.5821     64.2570
  1311.5000      7.9201      2.5020      0.0196      8.9680     20.3664     63.4005
  1311.6000      7.9201      2.5053      0.0361      8.7712     20.4981     64.4863
  1311.7000      7.9201      2.5235      0.0415      7.6654     21.1480     64.9111
  1311.8000      7.9163      2.5483      0.0964      6.1625     21.7879     66.8467
  1311.9000      7.9163      2.5583      0.1174      5.5561     21.6470     69.8182
  1312.0000      7.9152      2.5467      0.0622      6.2602     21.0230     69.6822
  1312.1000      7.9152      2.5277      0.0644      7.4102     20.9438     67.9937
  1312.2000      7.9152      2.5132      0.0193      8.2902     21.4861     68.8173
  1312.3000      7.9162      2.5076      0.0307      8.6310     21.9439     70.3981
  1312.4000      7.9162      2.5145      0.0540      8.2107     22.1094     70.8276
  1312.5000      7.9182      2.5324      0.0719      7.1264     22.2216     72.2490
  1312.6000      7.9182      2.5467      0.0700      6.2596     22.3947     74.9507
  1312.7000      7.9182      2.5437      0.0785      6.4428     22.4590     75.3524
  1312.8000      7.9202      2.5251      0.0433      7.5696     22.3944     73.0619
  1312.9000      7.9202      2.5071      0.0259      8.6585     22.5194     74.8512
  1313.0000      7.9225      2.5072      0.0409      8.6555     22.7521     83.6972
  1313.1000      7.9225      2.5216      0.0784      7.7806     22.8538     92.4491
