~Version Information
VERS.                      2.0: CWLS Log ASCII Standard - VERSION 2.0
WRAP.                       NO: One line per depth step
~Well Information Block
STRT.FT               580.0000: 
STOP.FT              1756.7500: 
STEP.FT                 0.2500: 
NULL.                -999.2500: 
COMP.          Pioneer Natural Resources: COMPANY
WELL.          Lookout Point 31-23 Tr: WELL
FLD.           Purgatoire River: FIELD
LOC.           541' FNL & 1786' FEL: LOCATION
PROV.                 Colorado: PROVINCE
CNTY.               Las Animas: COUNTRY
SRVC.                Patterson: SERVICE COMPANY
DATE.          Sun Jan 23 04:14:25 2005: LOG DATE
UWI.           05 071 08260 00: UNIQUE WELL ID
~Curve Information Block
DEPT.FT            0 000 00 00: Depth
DIR.Ohm-m                     : IEL Induction Resistivity
GR.GAPI                       : Gamma Ray
SN.Ohm-m                      : IEL Short Normal
SP.mV                         : IEL Spontaneous Potential
~Parameter Information Block
~A  Depth       DIR          GR          SN          SP     
# ...
  1350.5000     18.2899     65.6779     18.5940    135.0956
  1350.7500     18.4049     66.4738     18.6154    135.5838
  1351.0000     18.5067     68.8569     18.6515    136.0917
  1351.2500     18.5912     71.2757     18.7210    136.5756
  1351.5000     18.6572     74.7352     18.8141    137.0142
  1351.7500     18.7061     75.6711     18.9105    137.4132
  1352.0000     18.7433     73.7596     19.0014    137.7964
  1352.2500     18.7761     70.7119     19.0914    138.1918
  1352.5000     18.8089     65.8482     19.1859    138.6216
  1352.7500     18.8384     63.7659     19.2831    139.1012
  1353.0000     18.8535     63.0646     19.3747    139.6398
  1353.2500     18.8432     63.6390     19.4524    140.2392
  1353.5000     18.8079     64.5860     19.5145    140.8871
  1353.7500     18.7680     64.6855     19.5683    141.5539
  1354.0000     18.7589     63.8814     19.6279    142.1978
  1354.2500     18.8125     63.1125     19.7086    142.7767
  1354.5000     18.9365     62.6727     19.8197    143.2626
  1354.7500     19.1080     63.1904     19.9600    143.6469
  1355.0000     19.2868     64.9276     20.1179    143.9370
  1355.2500     19.4390     66.5917     20.2757    144.1443
  1355.5000     19.5510     70.6096     20.4200    144.2729
  1355.7500     19.6262     75.0133     20.5471    144.3143
  1356.0000     19.6757     84.1184     20.6604    144.2523
  1356.2500     19.7120     90.5066     20.7611    144.0779
  1356.5000     19.7465     97.2015     20.8473    143.8036
  1356.7500     19.7878     98.4813     20.9247    143.4680
  1357.0000     19.8424     96.1521     21.0140    143.1264
  1357.2500     19.9186     93.3489     21.1390    142.8307
  1357.5000     20.0285     90.6131     21.3101    142.6144
  1357.7500     20.1820     91.3126     21.5227    142.4893
  1358.0000     20.3792     97.0413     21.7678    142.4571
  1358.2500     20.6090    103.1880     22.0394    142.5248
  1358.5000     20.8545    112.5526     22.3310    142.7106
  1358.7500     21.1006    116.4362     22.6303    143.0352
  1359.0000     21.3390    115.6074     22.9212    143.5035
  1359.2500     21.5698    110.3886     23.1918    144.0881
  1359.5000     21.7998     98.0565     23.4419    144.7293
  1359.7500     22.0342     89.0858     23.6815    145.3514
  1360.0000     22.2674     77.6281     23.9199    145.8909
  1360.2500     22.4807     72.0707     24.1472    146.3194
  1360.5000     22.6503     66.4430     24.3268    146.6507
  1360.7500     22.7612     63.9226     24.4150    146.9269
  1361.0000     22.8135     61.7219     24.3955    147.1917
  1361.2500     22.8164     61.6248     24.2905    147.4670
  1361.5000     22.7758     63.8328     24.1357    147.7458
  1361.7500     22.6866     66.5244     23.9537    148.0041
  1362.0000     22.5361     71.3682     23.7482    148.2240
  1362.2500     22.3128     74.6765     23.5132    148.4117
  1362.5000     22.0165     79.3094     23.2415    148.6005
  1362.7500     21.6616     82.0284     22.9297    148.8350
  1363.0000     21.2740     85.6090     22.5825    149.1499
  1363.2500     20.8800     87.9364     22.2154    149.5533
  1363.5000     20.4955     91.9515     21.8509    150.0250
  1363.7500     20.1228     95.1533     21.5088    150.5275
  1364.0000     19.7575    100.5238     21.1957    151.0222
  1364.2500     19.3993    104.1553     20.9042    151.4796
  1364.5000     19.0563    109.0297     20.6204    151.8829
  1364.7500     18.7421    111.4956     20.3368    152.2272
  1365.0000     18.4719    113.3936     20.0597    152.5186
  1365.2500     18.2618    113.3553     19.8095    152.7716
  1365.5000     18.1282    111.9427     19.6115    153.0061
  1365.7500     18.0827    110.7468     19.4843    153.2410
  1366.0000     18.1201    109.4881     19.4295    153.4915
  1366.2500     18.2104    109.1945     19.4263    153.7707
  1366.5000     18.3024    109.4088     19.4362    154.0932
  1366.7500     18.3403    109.7607     19.4146    154.4761
  1367.0000     18.2813    110.1483     19.3299    154.9340
  1367.2500     18.1092    110.1534     19.1781    155.4703
  1367.5000     17.8398    110.0668     18.9870    156.0717
  1367.7500     17.5221    110.4546     18.8046    156.7105
  1368.0000     17.2238    112.5329     18.6754    157.3522
  1368.2500     17.0036    114.9797     18.6158    157.9650
  1368.5000     16.8830    119.5252     18.6010    158.5249
  1368.7500     16.8370    122.4968     18.5744    159.0178
  1369.0000     16.8107    125.9394     18.4748    159.4390
  1369.2500     16.7498    127.2656     18.2685    159.7924
  1369.5000     16.6276    127.6905     17.9688    160.0901
  1369.7500     16.4526    127.0355     17.6303    160.3501
  1370.0000     16.2567    125.1481     17.3234    160.5931
  1370.2500     16.0766    123.7675     17.1042    160.8369
  1370.5000     15.9391    122.3954     16.9965    161.0914
  1370.7500     15.8553    122.2463     16.9907    161.3561
  1371.0000     15.8226    123.0222     17.0504    161.6195
  1371.2500     15.8280    123.8402     17.1245    161.8612
  1371.5000     15.8511    125.0438     17.1643    162.0569
  1371.7500     15.8669    125.8880     17.1418    162.1845
  1372.0000     15.8503    127.5062     17.0535    162.2328
  1372.2500     15.7830    128.6439     16.9107    162.2078
  1372.5000     15.6604    129.5330     16.7301    162.1341
  1372.7500     15.4942    129.2330     16.5330    162.0491
  1373.0000     15.3086    127.8454     16.3471    161.9920
  1373.2500     15.1314    126.9091     16.2005    161.9931
  1373.5000     14.9855    126.3899     16.1114    162.0688
  1373.7500     14.8867    126.8502     16.0814    162.2212
  1374.0000     14.8460    128.5863     16.0999    162.4399
  1374.2500     14.8715    130.1079     16.1580    162.7039
  1374.5000     14.9639    132.1712     16.2578    162.9829
  1374.7500     15.1094    133.0240     16.4109    163.2420
  1375.0000     15.2797    133.3289     16.6290    163.4496
  1375.2500     15.4430    133.0536     16.9186    163.5857
  1375.5000     15.5827    132.3503     17.2826    163.6467
  1375.7500     15.7084    131.7563     17.7207    163.6403
  1376.0000     15.8491    130.2099     18.2219    163.5755
  1376.2500     16.0365    128.2704     18.7618    163.4508
  1376.5000     16.2897    123.5958     19.3164    163.2508
  1376.7500     16.6111    119.6015     19.8797    162.9533
  1377.0000     16.9923    113.3845     20.4638    162.5452
  1377.2500     17.4233    109.6674     21.0767    162.0390
  1377.5000     17.8955    105.2986     21.6976    161.4833
  1377.7500     18.3943    103.2903     22.2704    160.9595
  1378.0000     18.8847    101.4447     22.7159    160.5656
  1378.2500     19.3018    100.6970     22.9520    160.3893
  1378.5000     19.5582     99.7043     22.9156    160.4852
  1378.7500     19.5746     99.0433     22.5876    160.8630
  1379.0000     19.3176     98.8858     22.0061    161.4946
  1379.2500     18.8166    100.2463     21.2528    162.3330
  1379.5000     18.1428    105.5950     20.4134    163.3316
  1379.7500     17.3708    111.1612     19.5359    164.4551
  1380.0000     16.5532    120.6459     18.6159    165.6781
  1380.2500     15.7161    126.3789     17.6219    166.9775
  1380.5000     14.8706    132.8836     16.5415    168.3251
  1380.7500     14.0261    136.0704     15.4064    169.6856
  1381.0000     13.1997    140.3767     14.2860    171.0180
  1381.2500     12.4165    143.5940     13.2637    172.2816
  1381.5000     11.7033    149.6196     12.4075    173.4406
  1381.7500     11.0813    154.5309     11.7374    174.4701
  1382.0000     10.5596    162.8518     11.2210    175.3599
  1382.2500     10.1335    168.5999     10.8075    176.1142
  1382.5000      9.7863    176.6622     10.4682    176.7477
  1382.7500      9.4954    181.1074     10.2043    177.2784
  1383.0000      9.2416    185.5360     10.0253    177.7217
  1383.2500      9.0150    186.7569      9.9246    178.0877
  1383.5000      8.8150    185.9136      9.8730    178.3826
  1383.7500      8.6450    183.5609      9.8331    178.6121
