~Version Information
VERS.                      2.0: CWLS Log ASCII Standard - VERSION 2.0
WRAP.                       NO: One line per depth step
~Well Information Block
STRT.FT               546.0000: 
STOP.FT              1771.5000: 
STEP.FT                 0.1000: 
NULL.                -999.2500: 
COMP.          Petrogulf Corporation: COMPANY
WELL.             McLeod 9-42R: WELL
FLD.           Purgatorie River: FIELD
LOC.           1748' FNL & 372' FEL: LOCATION
PROV.                 Colorado: PROVINCE
CNTY.               Las Animas: COUNTRY
SRVC.                Patterson: SERVICE COMPANY
DATE.          Tue Aug 16 11:11:38 2005: LOG DATE
UWI.                071 08092 : UNIQUE WELL ID
~Curve Information Block
DEPT.FT            0 000 00 00: Depth
DCAL.in                       : CDL Caliper
RHOB.g/cc                     : CDL Bulk Density
RHOC.g/cc                     : CDL Density Correction
DPOR.pu                       : CDL Density Porosity
GR.GAPI                       : Gamma Ray
NPOR.pu                       : Neutron Porosity
~Parameter Information Block
~A  Depth       DCAL        RHOB        RHOC        DPOR         GR         NPOR    
# ...
   622.8000      7.8496      2.6406      0.0668      0.5696     93.1657     21.1130
   622.9000      7.8496      2.6440      0.0890      0.3622     95.1498     20.1927
   623.0000      7.8497      2.6450      0.1101      0.3024     98.6822     19.4014
   623.1000      7.8497      2.6366      0.1179      0.8114    100.0978     19.5576
   623.2000      7.8497      2.6109      0.1038      2.3688     99.0412     20.4528
   623.3000      7.8386      2.5777      0.0544      4.3825     97.8981     21.1805
   623.4000      7.8386      2.5551      0.0347      5.7486     97.9311     21.0100
   623.5000      7.8445      2.5491     -0.0027      6.1162     97.1577     19.7579
   623.6000      7.8445      2.5517      0.0389      5.9565     93.8023     18.1801
   623.7000      7.8445      2.5537      0.0575      5.8385     89.9850     17.2001
   623.8000      7.8170      2.5569      0.0156      5.6436     87.7156     17.0226
   623.9000      7.8170      2.5666      0.0256      5.0566     87.0312     17.4094
   624.0000      7.8219      2.5791      0.0484      4.2980     88.7593     17.9057
   624.1000      7.8219      2.5911      0.0512      3.5676     92.2942     18.4298
   624.2000      7.8219      2.6001      0.0799      3.0232     93.8628     19.1248
   624.3000      7.8308      2.6011      0.0589      2.9661     90.3112     19.5559
   624.4000      7.8308      2.5972      0.0726      3.1985     83.1861     19.4909
   624.5000      7.8258      2.5973      0.0990      3.1941     78.0156     19.2218
   624.6000      7.8258      2.6047      0.0878      2.7431     77.3230     18.7841
   624.7000      7.8258      2.6173      0.0926      1.9837     78.1849     18.3633
   624.8000      7.7796      2.6302      0.0688      1.2004     78.4974     18.5977
   624.9000      7.7796      2.6390      0.1073      0.6682     78.4802     19.2804
   625.0000      7.7630      2.6398      0.0665      0.6180     77.0554     19.4967
   625.1000      7.7630      2.6359      0.0615      0.8557     73.3317     18.8822
   625.2000      7.7630      2.6353      0.0559      0.8904     69.1388     17.9121
   625.3000      7.7681      2.6402      0.0576      0.5948     66.9209     17.3297
   625.4000      7.7681      2.6410      0.0852      0.5465     66.2400     17.3671
   625.5000      7.7497      2.6331      0.0489      1.0240     65.7980     17.4977
   625.6000      7.7497      2.6267      0.0498      1.4108     66.2911     16.9402
   625.7000      7.7497      2.6239      0.1117      1.5832     67.9127     15.7657
   625.8000      7.7318      2.6190      0.0839      1.8774     69.9600     14.8402
   625.9000      7.7318      2.6175      0.0919      1.9688     73.4245     14.5759
   626.0000      7.6781      2.6210      0.1002      1.7557     77.5535     14.5526
   626.1000      7.6781      2.6207      0.0969      1.7781     78.4285     14.4607
   626.2000      7.6781      2.6114      0.1224      2.3388     75.5198     14.6575
   626.3000      7.6215      2.5939      0.0649      3.4006     74.0545     15.1139
   626.4000      7.6215      2.5667      0.0821      5.0455     76.3194     15.3324
   626.5000      7.6061      2.5321      0.0123      7.1455     79.6915     15.5184
   626.6000      7.6061      2.5022      0.0089      8.9605     83.0144     16.1655
   626.7000      7.6061      2.4791      0.0566     10.3588     87.9190     16.9892
   626.8000      7.6506      2.4497      0.0770     12.1365     95.4626     17.5684
   626.9000      7.6506      2.4081      0.0350     14.6635    104.2799     18.2833
   627.0000      7.6949      2.3534      0.0836     17.9752    110.2168     19.8749
   627.1000      7.6949      2.2860      0.0587     22.0603    109.5702     22.2420
   627.2000      7.6949      2.2252     -0.0064     25.7482    105.4862     24.4637
   627.3000      7.7416      2.1929      0.0346     27.7059    103.7057     26.2116
   627.4000      7.7416      2.1869      0.0466     28.0649    104.5569     27.5806
   627.5000      7.7353      2.1961      0.0628     27.5117    106.2014     28.3192
   627.6000      7.7353      2.2176      0.0632     26.2035    107.3290     28.7499
   627.7000      7.7353      2.2490      0.1137     24.3049    107.8687     29.6931
   627.8000      7.7024      2.2798      0.1070     22.4355    109.5808     30.9582
   627.9000      7.7024      2.3024      0.1475     21.0684    111.8518     31.9171
   628.0000      7.6948      2.3118      0.0796     20.4985    110.7163     32.3466
   628.1000      7.6948      2.3112      0.0241     20.5307    106.2816     32.0844
   628.2000      7.6948      2.3091      0.0038     20.6626    103.6982     31.3303
   628.3000      7.6960      2.3090      0.0285     20.6642    104.9947     30.5753
   628.4000      7.6960      2.3133      0.0185     20.4079    106.9522     29.8946
   628.5000      7.7433      2.3210      0.0689     19.9395    106.8786     29.2878
   628.6000      7.7433      2.3257      0.0933     19.6565    105.9906     29.0823
   628.7000      7.7433      2.3242      0.0922     19.7433    105.4769     29.3224
   628.8000      7.7318      2.3207      0.0821     19.9558    105.0933     29.3528
   628.9000      7.7318      2.3191      0.1125     20.0532    104.7743     28.9072
   629.0000      7.6932      2.3224      0.0696     19.8558    105.4003     28.5944
   629.1000      7.6932      2.3311      0.0902     19.3299    108.1549     28.6710
   629.2000      7.6932      2.3414      0.0720     18.7038    111.4295     28.9007
   629.3000      7.6942      2.3552      0.0826     17.8680    112.9947     29.0026
   629.4000      7.6942      2.3735      0.1019     16.7559    112.7571     28.7364
   629.5000      7.6710      2.3844      0.1279     16.0976    111.3121     28.2337
   629.6000      7.6710      2.3781      0.0924     16.4803    110.8493     28.3122
   629.7000      7.6710      2.3632      0.0457     17.3835    111.9384     29.2225
   629.8000      7.6528      2.3513      0.0634     18.1002    112.1714     29.8809
   629.9000      7.6528      2.3415      0.0528     18.6941    111.0665     29.7698
   630.0000      7.6589      2.3310      0.0349     19.3337    110.1574     29.8053
   630.1000      7.6589      2.3172      0.0701     20.1692    111.6347     30.4310
   630.2000      7.6589      2.2925      0.0576     21.6656    115.4599     30.7601
   630.3000      7.6946      2.2624      0.0074     23.4885    118.4777     30.3932
   630.4000      7.6946      2.2475      0.0139     24.3960    120.7134     30.0933
   630.5000      7.7312      2.2551      0.0209     23.9329    124.6774     30.1199
   630.6000      7.7312      2.2685      0.0685     23.1239    126.6951     30.0836
   630.7000      7.7312      2.2665      0.0660     23.2416    121.4136     30.0456
   630.8000      7.7673      2.2501      0.0576     24.2356    112.5899     30.1937
   630.9000      7.7673      2.2405      0.0124     24.8170    107.1132     30.3505
   631.0000      7.7507      2.2556      0.0291     23.9003    106.8362     30.3606
   631.1000      7.7507      2.2933      0.0458     21.6157    111.5608     30.5142
   631.2000      7.7507      2.3359      0.0972     19.0351    119.9196     31.0756
   631.3000      7.7493      2.3654      0.0814     17.2498    127.5433     31.8357
   631.4000      7.7493      2.3776      0.0916     16.5101    130.3442     32.3169
   631.5000      7.7124      2.3797      0.0828     16.3828    129.1697     32.1516
   631.6000      7.7124      2.3750      0.0620     16.6668    127.9630     31.6938
   631.7000      7.7124      2.3615      0.0303     17.4878    128.1611     31.5274
   631.8000      7.6994      2.3363      0.0708     19.0114    128.1262     31.3129
   631.9000      7.6994      2.3008      0.0172     21.1651    125.7194     30.6466
   632.0000      7.6990      2.2649     -0.0096     23.3414    121.9455     30.0147
   632.1000      7.6990      2.2337      0.0155     25.2288    119.5409     29.9598
   632.2000      7.6990      2.2035      0.0105     27.0630    118.3525     30.2846
   632.3000      7.7179      2.1740      0.0567     28.8471    116.8852     30.3333
