~Version Information
VERS.                      2.0: CWLS Log ASCII Standard - VERSION 2.0
WRAP.                       NO: One line per depth step
~Well Information Block
STRT.FT               241.5000: 
STOP.FT              2340.7500: 
STEP.FT                 0.2500: 
NULL.                -999.2500: 
COMP.          Petrogulf Corporation: COMPANY
WELL.            Montoya 1-24V: WELL
FLD.           Purgatorie River: FIELD
LOC.           605' FSL & 2557' FWL: LOCATION
CNTY.               Las Animas: COUNTY
SRVC.                         : SERVICE COMPANY
DATE.          Tue Nov 30 10:28:39 2004: LOG DATE
UWI.           05 071 08194 00: UNIQUE WELL ID
STAT.                 Colorado: STATE
~Curve Information Block
DEPT.FT            0 000 00 00: Depth
GR.GAPI                       : Gamma Ray
CCL.                          : Casing Collar Locator
TT3.usec                      : CBL 3' Travel Time
AMP3.mV                       : CBL 3' Amplitude
~Parameter Information Block
~A  Depth        GR         CCL         TT3         AMP3    
# ...
  1749.0000    133.6033      0.0000    663.5040      4.4362
  1749.2500    134.9910      0.0000    664.5253      4.2836
  1749.5000    140.0363      0.0000    663.0952      4.1035
  1749.7500    149.9132      0.0000    658.1417      3.9179
  1750.0000    162.8816      0.0000    651.7899      3.7225
  1750.2500    174.4138      0.0000    647.2944      3.4955
  1750.5000    180.1246      0.0000    646.0777      3.2245
  1750.7500    179.1406      0.0000    646.3585      2.9238
  1751.0000    174.4509      0.0000    644.8180      2.6289
  1751.2500    170.0488      0.0000    639.8911      2.3780
  1751.5000    168.0562      0.0000    633.1152      2.1929
  1751.7500    168.0861      0.0000    627.2801      2.0714
  1752.0000    168.4552      0.0000    624.0920      1.9958
  1752.2500    167.9628      0.0000    623.8323      1.9493
  1752.5000    167.0173      0.0000    626.2109      1.9277
  1752.7500    166.7859      0.0000    630.4895      1.9387
  1753.0000    166.9190      0.0000    634.9504      1.9910
  1753.2500    165.0271      0.0000    637.4561      2.0821
  1753.5000    159.4761      0.0000    637.3843      2.1948
  1753.7500    152.1548      0.0000    636.4996      2.3023
  1754.0000    147.0620      0.0000    637.1617      2.3802
  1754.2500    146.0420      0.0000    639.9756      2.4230
  1754.5000    147.0815      0.0000    643.6705      2.4572
  1754.7500    147.0085      0.0000    646.7809      2.5335
  1755.0000    144.7472      0.0000    648.8583      2.6906
  1755.2500    141.4031      0.0000    650.3522      2.9210
  1755.5000    138.1653      0.0000    652.0024      3.1759
  1755.7500    135.1543      0.0000    654.4964      3.4045
  1756.0000    132.0792      0.0000    658.3067      3.5868
  1756.2500    129.0197      0.0000    663.2333      3.7289
  1756.5000    126.2507      0.0000    667.9326      3.8368
  1756.7500    123.6691      0.0000    670.1034      3.8984
  1757.0000    120.6167      0.0000    668.0787      3.8922
  1757.2500    116.3406      0.0000    663.4156      3.8098
  1757.5000    110.7728      0.0000    661.5579      3.6730
  1757.7500    104.6525      0.0000    667.1335      3.5267
  1758.0000     98.6860      0.0000    677.2473      3.4121
  1758.2500     92.9748      0.0000    682.3338      3.3420
  1758.5000     87.4781      0.0000    675.6472      3.3016
  1758.7500     82.4652      0.0000    659.7048      3.2695
  1759.0000     78.1241      0.0000    642.4793      3.2352
  1759.2500     74.1348      0.0000    629.9891      3.2000
  1759.5000     70.0341      0.0000    623.7124      3.1704
  1759.7500     65.7955      0.0000    622.8813      3.1534
  1760.0000     61.8599      0.0000    627.1238      3.1539
  1760.2500     58.8268      0.0000    636.7766      3.1728
  1760.5000     57.1658      0.0000    651.5015      3.2060
  1760.7500     56.8149      0.0000    669.3791      3.2428
  1761.0000     56.9472      0.0000    687.9989      3.2688
  1761.2500     56.5178      0.0000    705.9487      3.2738
  1761.5000     55.1469      0.0000    722.3105      3.2613
  1761.7500     53.2703      0.0000    734.8495      3.2531
  1762.0000     51.7350      0.0000    740.1656      3.2834
  1762.2500     51.6170      0.0000    736.6419      3.3864
  1762.5000     53.9599      0.0000    727.1284      3.5836
  1762.7500     58.9027      0.0000    718.1284      3.8770
  1763.0000     65.1421      0.0000    715.5449      4.2476
  1763.2500     70.7900      0.0000    720.2637      4.6585
  1763.5000     74.8585      0.0000    727.5299      5.0657
  1763.7500     77.8700      0.0000    731.3022      5.4310
  1764.0000     81.3376      0.0000    729.7690      5.7310
  1764.2500     86.8302      0.0000    726.3575      5.9579
  1764.5000     95.2916      0.0000    725.2911      6.1189
  1764.7500    106.6558      0.0000    727.0605      6.2334
  1765.0000    119.5890      0.0000    728.8763      6.3234
  1765.2500    131.5628      0.0000    728.7642      6.4045
  1765.5000    139.6691      0.0000    727.8036      6.4889
  1765.7500    141.9319      0.0000    727.9709      6.5960
  1766.0000    138.1840      0.0000    728.6989      6.7517
  1766.2500    129.8854      0.0000    726.5553      6.9716
  1766.5000    119.1753      0.0000    718.4468      7.2395
  1766.7500    107.7441      0.0000    704.7582      7.5057
  1767.0000     96.2389      0.0000    689.2713      7.7169
  1767.2500     84.7487      0.0000    676.2960      7.8525
  1767.5000     73.8490      0.0000    667.9789      7.9333
  1767.7500     64.8826      0.0000    663.9149      7.9949
  1768.0000     59.1251      0.0000    662.5165      8.0562
  1768.2500     56.9329      0.0000    662.3617      8.1146
  1768.5000     57.8417      0.0000    662.6368      8.1633
  1768.7500     61.1981      0.0000    662.9782      8.2052
  1769.0000     66.3603      0.0000    663.2389      8.2479
  1769.2500     72.3616      0.0000    663.3504      8.2874
  1769.5000     77.8037      0.0000    663.2688      8.2981
  1769.7500     81.4950      0.0000    662.9820      8.2504
  1770.0000     83.2318      0.0000    662.5417      8.1450
  1770.2500     83.6515      0.0000    662.0660      8.0241
  1770.5000     83.2292      0.0000    661.6945      7.9409
  1770.7500     81.7676      0.0000    661.5992      7.9204
  1771.0000     79.0165      0.0000    662.1710      7.9510
  1771.2500     75.3212      0.0000    664.3801      8.0077
  1771.5000     71.4746      0.0000    669.9130      8.0749
  1771.7500     68.3425      0.0000    680.4074      8.1470
  1772.0000     66.6290      0.0000    695.8194      8.2090
  1772.2500     66.4725      0.0000    713.4996      8.2290
  1772.5000     67.3504      0.0000    729.5281      8.1785
  1772.7500     68.8217      0.0000    741.3341      8.0617
  1773.0000     71.1085      0.0000    748.8829      7.9181
  1773.2500     74.4933      0.0000    753.5004      7.7971
  1773.5000     78.3833      0.0000    755.9605      7.7347
  1773.7500     81.4205      0.0000    755.7637      7.7456
  1774.0000     82.3111      0.0000    751.7863      7.8169
  1774.2500     80.3040      0.0000    743.4542      7.9081
  1774.5000     75.2791      0.0000    732.0234      7.9715
  1774.7500     67.9209      0.0000    721.4056      7.9847
  1775.0000     59.8308      0.0000    716.6354      7.9582
  1775.2500     53.2089      0.0000    719.7899      7.9116
  1775.5000     50.1822      0.0000    727.5696      7.8527
  1775.7500     52.1288      0.0000    733.8756      7.7807
  1776.0000     59.3732      0.0000    734.4199      7.7009
  1776.2500     71.4231      0.0000    728.6281      7.6262
  1776.5000     87.4172      0.0000    718.2595      7.5692
  1776.7500    106.0253      0.0000    705.0918      7.5398
  1777.0000    124.8708      0.0000    689.4154      7.5540
  1777.2500    140.6223      0.0000    670.0145      7.6349
  1777.5000    150.4145      0.0000    645.7596      7.7923
  1777.7500    153.4734      0.0000    618.3608      7.9924
  1778.0000    151.3456      0.0000    593.9283      8.1610
  1778.2500    146.5962      0.0000    580.0978      8.2366
  1778.5000    141.2086      0.0000    579.4584      8.2290
  1778.7500    135.9330      0.0000    586.1131      8.2177
  1779.0000    130.7332      0.0000    590.5677      8.2770
  1779.2500    125.5280      0.0000    588.5170      8.3859
  1779.5000    120.5852      0.0000    584.2815      8.4148
  1779.7500    116.5431      0.0000    586.1893      8.2289
  1780.0000    113.9673      0.0000    599.4412      7.8238
  1780.2500    112.5188      0.0000    622.5560      7.3428
  1780.5000    110.6502      0.0000    649.1824      6.9449
  1780.7500    106.6459      0.0000    672.6870      6.6823
  1781.0000    100.1463      0.0000    689.1044      6.5250
  1781.2500     92.4765      0.0000    697.0118      6.4512
  1781.5000     85.4605      0.0000    696.8263      6.4575
  1781.7500     79.9951     -3.0000    691.4324      6.5091
  1782.0000     75.8306     -3.0000    686.2524      6.5358
  1782.2500     72.6905     -3.0000    686.2908      6.4812
