~Version Information
VERS.                      2.0: CWLS Log ASCII Standard - VERSION 2.0
WRAP.                       NO: One line per depth step
~Well Information Block
STRT.FT               510.0000: 
STOP.FT              1861.5000: 
STEP.FT                 0.1000: 
NULL.                -999.2500: 
COMP.          Pioneer Natural Resources: COMPANY
WELL.           Guajardo 24-16: WELL
FLD.           Purgatoire River: FIELD
LOC.           883' FSL & 2147' FWL: LOCATION
PROV.                 Colorado: PROVINCE
CNTY.               Las Animas: COUNTRY
SRVC.                Patterson: SERVICE COMPANY
DATE.          Mon Aug 08 09:13:01 2005: LOG DATE
UWI.           05 071 08377 00: UNIQUE WELL ID
~Curve Information Block
DEPT.FT            0 000 00 00: Depth
DCAL.in                       : CDL Caliper
RHOB.g/cc                     : CDL Bulk Density
RHOC.g/cc                     : CDL Density Correction
DPOR.pu                       : CDL Density Porosity
GR.GAPI                       : Gamma Ray
NPOR.pu                       : Neutron Porosity
~Parameter Information Block
~A  Depth       DCAL        RHOB        RHOC        DPOR         GR         NPOR    
# ...
   596.4000      8.2139      2.3730     -0.0094     16.7892    132.7197     20.9632
   596.5000      8.2232      2.3550     -0.0600     17.8762    128.1686     21.4972
   596.6000      8.2232      2.3559     -0.0498     17.8265    128.2631     22.3766
   596.7000      8.2232      2.3715      0.0027     16.8772    135.0304     23.4463
   596.8000      8.2323      2.4005      0.0065     15.1187    143.2288     23.9177
   596.9000      8.2323      2.4355      0.0802     13.0009    147.3314     23.5785
   597.0000      8.2219      2.4596      0.0508     11.5424    145.1468     23.1249
   597.1000      8.2219      2.4647      0.0491     11.2331    141.0542     23.2530
   597.2000      8.2219      2.4619     -0.0048     11.4008    140.4041     23.7777
   597.3000      8.2220      2.4714      0.0281     10.8258    140.2933     24.0245
   597.4000      8.2220      2.5006      0.0022      9.0551    137.0524     24.0407
   597.5000      8.2137      2.5313      0.1073      7.1958    131.7723     24.0941
   597.6000      8.2137      2.5335      0.0780      7.0619    126.9812     23.9035
   597.7000      8.2137      2.5076      0.0094      8.6325    124.4497     23.5850
   597.8000      8.2078      2.4775     -0.0002     10.4550    123.6855     23.4896
   597.9000      8.2078      2.4495     -0.0064     12.1511    123.3619     23.1051
   598.0000      8.2097      2.4190     -0.0058     13.9988    123.3219     21.7896
   598.1000      8.2097      2.3881     -0.0170     15.8719    124.9289     20.1201
   598.2000      8.2097      2.3586     -0.0391     17.6609    126.6366     18.9267
   598.3000      8.2086      2.3218     -0.0070     19.8911    125.3067     18.2313
   598.4000      8.2086      2.2750     -0.0880     22.7266    122.4595     18.0052
   598.5000      8.2120      2.2312     -0.0189     25.3802    121.6744     18.0913
   598.6000      8.2120      2.1892      0.0182     27.9250    122.5789     17.9579
   598.7000      8.2120      2.1469     -0.0414     30.4880    120.6657     17.7640
   598.8000      8.2186      2.1228     -0.0322     31.9487    115.9142     17.9573
   598.9000      8.2186      2.1200      0.0156     32.1218    113.8769     18.2248
   599.0000      8.2460      2.1238     -0.0011     31.8898    113.8786     18.2594
   599.1000      8.2460      2.1294      0.0224     31.5528    114.5113     18.5567
   599.2000      8.2460      2.1418      0.0278     30.8001    120.5826     19.2211
   599.3000      8.2744      2.1689      0.0808     29.1602    132.4808     19.5301
   599.4000      8.2744      2.2069      0.1316     26.8557    142.1269     19.7426
   599.5000      8.2865      2.2416      0.1310     24.7526    144.4373     20.7729
   599.6000      8.2865      2.2687      0.0351     23.1072    145.3255     22.4054
   599.7000      8.2865      2.2946      0.0208     21.5380    148.8193     23.6933
   599.8000      8.2621      2.3233      0.0513     19.7990    149.4322     24.3145
   599.9000      8.2621      2.3554      0.0393     17.8534    148.9557     24.6741
   600.0000      8.2450      2.3814      0.1283     16.2796    152.9600     24.9944
   600.1000      8.2450      2.3998      0.0401     15.1656    157.8138     25.2199
   600.2000      8.2450      2.4367      0.0683     12.9295    159.3393     25.3586
   600.3000      8.2321      2.4958      0.1269      9.3476    157.2696     25.5681
   600.4000      8.2321      2.5340      0.1784      7.0277    154.2209     26.0981
   600.5000      8.2315      2.5282      0.0689      7.3809    153.5135     26.5143
   600.6000      8.2315      2.5117      0.0304      8.3800    155.0591     26.4805
   600.7000      8.2315      2.5140      0.0191      8.2394    156.9612     26.4797
   600.8000      8.2362      2.5257      0.0255      7.5357    156.0511     26.5145
   600.9000      8.2362      2.5355      0.0396      6.9421    149.6002     26.1160
   601.0000      8.2183      2.5562      0.0228      5.6820    140.8966     25.5339
   601.1000      8.2183      2.5913      0.1058      3.5564    134.2284     25.0649
   601.2000      8.2183      2.6143      0.0982      2.1635    128.8503     24.4030
   601.3000      8.1764      2.6090      0.0676      2.4870    121.1945     23.5693
   601.4000      8.1764      2.5771      0.0574      4.4162    115.3725     23.0657
   601.5000      8.1582      2.5300     -0.0560      7.2739    116.3393     23.1887
   601.6000      8.1582      2.5025     -0.0739      8.9391    119.2245     23.8596
   601.7000      8.1582      2.5109      0.0238      8.4276    121.5112     24.2754
   601.8000      8.1402      2.5282      0.0160      7.3788    125.0741     23.8294
   601.9000      8.1402      2.5376      0.0316      6.8111    126.4976     23.0484
   602.0000      8.1178      2.5481     -0.0077      6.1748    122.4810     22.5006
   602.1000      8.1178      2.5632      0.0713      5.2629    119.7854     22.2951
   602.2000      8.1178      2.5674      0.0842      5.0031    123.6624     22.2617
   602.3000      8.1447      2.5482      0.0522      6.1671    129.7770     21.9344
   602.4000      8.1447      2.5110     -0.0036      8.4255    133.7667     21.1057
   602.5000      8.1658      2.4738      0.0024     10.6784    134.5058     20.2596
   602.6000      8.1658      2.4573     -0.0095     11.6816    133.5624     20.1567
   602.7000      8.1658      2.4683     -0.0148     11.0151    132.6317     20.9163
   602.8000      8.1576      2.4876      0.0460      9.8435    132.1315     21.8682
   602.9000      8.1576      2.4926      0.0308      9.5412    132.2348     22.4771
   603.0000      8.1577      2.4899     -0.0081      9.7036    133.9123     22.8600
   603.1000      8.1577      2.5015      0.0048      8.9991    137.4814     23.2647
   603.2000      8.1577      2.5261      0.0830      7.5061    141.0110     23.5415
   603.3000      8.1946      2.5415      0.1098      6.5787    143.2818     23.4912
   603.4000      8.1946      2.5434      0.0813      6.4630    146.9826     23.4784
   603.5000      8.2183      2.5437      0.0834      6.4437    154.6416     23.7762
   603.6000      8.2183      2.5392      0.0600      6.7131    163.0034     23.9478
   603.7000      8.2183      2.5189      0.0597      7.9452    164.7634     23.7480
   603.8000      8.2405      2.4815      0.0302     10.2147    160.2365     23.4026
   603.9000      8.2405      2.4408     -0.0705     12.6814    155.5161     23.0124
   604.0000      8.2598      2.4125     -0.0069     14.3927    151.1032     22.5226
   604.1000      8.2598      2.4058     -0.0567     14.8011    144.4224     21.9626
   604.2000      8.2598      2.4171      0.0269     14.1135    138.1586     21.3889
   604.3000      8.2680      2.4247      0.0160     13.6560    137.9136     20.7423
   604.4000      8.2680      2.4171     -0.0264     14.1161    141.5038     20.1535
   604.5000      8.2889      2.3980      0.0393     15.2716    142.0842     19.7806
   604.6000      8.2889      2.3708     -0.0205     16.9214    140.2298     19.4296
   604.7000      8.2889      2.3452      0.0051     18.4698    140.5219     19.1390
   604.8000      8.2994      2.3362     -0.0456     19.0170    141.2936     19.0515
   604.9000      8.2994      2.3464      0.0209     18.3991    140.4584     19.0545
   605.0000      8.3222      2.3581      0.0321     17.6886    143.1289     19.0999
   605.1000      8.3222      2.3583      0.0041     17.6758    151.9271     19.1044
   605.2000      8.3222      2.3477      0.0127     18.3193    159.1165     19.0648
   605.3000      8.3383      2.3260      0.0491     19.6346    157.3941     19.2985
   605.4000      8.3383      2.3047     -0.0240     20.9259    150.4160     19.7845
   605.5000      8.3372      2.3094     -0.0033     20.6443    146.3975     20.1490
   605.6000      8.3372      2.3401      0.0511     18.7846    146.2938     20.4104
   605.7000      8.3372      2.3592      0.1235     17.6226    144.9787     20.6967
   605.8000      8.3526      2.3354      0.0585     19.0673    142.8555     20.6664
   605.9000      8.3526      2.2763     -0.0096     22.6477    144.6783     20.0474
