~Version Information
VERS.                      2.0: CWLS Log ASCII Standard - VERSION 2.0
WRAP.                       NO: One line per depth step
~Well Information Block
STRT.FT               780.0000: 
STOP.FT              3152.2500: 
STEP.FT                 0.2500: 
NULL.                -999.2500: 
COMP.          Pioneer Natural Resources: COMPANY
WELL.            Paradise 13-8: WELL
FLD.           Purgatoire River: FIELD
LOC.           1896' FSL & 1120' FWL: LOCATION
PROV.                 Colorado: PROVINCE
CNTY.               Las Animas: COUNTRY
SRVC.                Patterson: SERVICE COMPANY
DATE.          Sat Jan 22 20:39:47 2005: LOG DATE
UWI.           05 071 07946 00: UNIQUE WELL ID
~Curve Information Block
DEPT.FT            0 000 00 00: Depth
SN.Ohm-m                      : IEL Short Normal
SP.mV                         : IEL Spontaneous Potential
DIR.Ohm-m                     : IEL Induction Resistivity
GR.GAPI                       : Gamma Ray
~Parameter Information Block
~A  Depth        SN          SP         DIR          GR     
   780.0000   2000.0000   2000.0000 100000.0000     66.6532
   780.2500   2000.0000   2000.0000 100000.0000     66.3021
   780.5000   2000.0000   2000.0000 100000.0000     65.5185
   780.7500   2000.0000   2000.0000 100000.0000     65.3275
   781.0000   2000.0000   2000.0000 100000.0000     66.0505
   781.2500   2000.0000   2000.0000 100000.0000     67.0401
   781.5000   2000.0000   2000.0000 100000.0000     68.4523
   781.7500   2000.0000   2000.0000 100000.0000     68.9016
   782.0000   2000.0000   2000.0000 100000.0000     68.6693
   782.2500   2000.0000   2000.0000 100000.0000     68.1519
   782.5000   2000.0000   2000.0000 100000.0000     67.3896
   782.7500   2000.0000   2000.0000 100000.0000     67.0869
   783.0000   2000.0000   2000.0000 100000.0000     67.1108
   783.2500   2000.0000   2000.0000 100000.0000     67.5358
   783.5000   2000.0000   2000.0000 100000.0000     68.7766
   783.7500   2000.0000   2000.0000 100000.0000     69.8110
   784.0000   2000.0000   2000.0000 100000.0000     71.2216
   784.2500   2000.0000   2000.0000 100000.0000     71.8430
   784.5000   2000.0000   2000.0000    684.0018     71.9038
   784.7500   2000.0000   2000.0000    275.4891     71.1660
   785.0000   2000.0000   2000.0000    161.7096     69.0033
   785.2500   2000.0000   2000.0000    108.1476     67.2695
   785.5000   2000.0000   2000.0000     76.7587     65.1430
   785.7500   2000.0000   2000.0000     56.2821     64.3647
   786.0000   2000.0000   2000.0000     42.4182     64.0000
   786.2500   2000.0000   2000.0000     33.0429     63.9228
   786.5000   2000.0000   2000.0000     26.7907     63.6803
   786.7500   2000.0000   2000.0000     22.6690     63.5789
   787.0000   2000.0000   2000.0000     19.9387     63.9291
   787.2500   2000.0000   2000.0000     18.0493     64.6077
   787.5000   2000.0000   2000.0000     16.6097     66.7924
   787.7500   2000.0000   2000.0000     15.4071     69.7901
   788.0000   2000.0000   2000.0000     14.4153     77.6864
   788.2500   2000.0000   2000.0000     13.7323     84.6300
   788.5000   2000.0000   2000.0000     13.4724     93.9855
   788.7500   2000.0000   2000.0000     13.6758     97.1574
   789.0000   2000.0000   2000.0000     14.2442     95.8801
   789.2500   2000.0000   2000.0000     14.9013     92.1317
   789.5000   2000.0000   2000.0000     15.2681     85.5950
   789.7500   2000.0000   2000.0000     15.0994     82.3123
   790.0000   2000.0000   2000.0000     14.4368     80.6413
   790.2500   2000.0000   2000.0000     13.4829     54.6859
   790.5000   2000.0000   2000.0000     12.4137     58.2913
   790.7500   2000.0000   2000.0000     11.3256     61.6995
   791.0000   2000.0000   2000.0000     10.2567     67.4433
   791.2500   2000.0000   2000.0000      9.2221     71.3005
   791.5000   2000.0000   2000.0000      8.2607     76.4565
   791.7500   2000.0000   2000.0000      7.4728     79.0005
   792.0000   2000.0000   2000.0000      7.0293     80.9042
   792.2500   2000.0000   2000.0000      7.2022     80.9667
   792.5000   2000.0000   2000.0000      8.6233     79.9114
   792.7500   2000.0000   2000.0000     13.9348     78.8348
   793.0000   2000.0000   2000.0000     69.1179     77.2225
   793.2500   2000.0000   2000.0000 100000.0000     76.6324
   793.5000   2000.0000   2000.0000 100000.0000     77.5696
   793.7500   2000.0000   2000.0000 100000.0000     79.8142
   794.0000   2000.0000   2000.0000 100000.0000     85.2687
   794.2500   2000.0000   2000.0000 100000.0000     89.5948
   794.5000   2000.0000   2000.0000 100000.0000     95.7990
   794.7500   2000.0000   2000.0000 100000.0000     99.2437
   795.0000   2000.0000   2000.0000     25.0115    103.2220
   795.2500   2000.0000   2000.0000      5.9547    105.4089
   795.5000   2000.0000   2000.0000      3.1531    108.9854
   795.7500   2000.0000   2000.0000      2.2848    111.9375
   796.0000   2000.0000   2000.0000      2.0906    116.6045
   796.2500   2000.0000   2000.0000      2.3691    118.9522
   796.5000   2000.0000   2000.0000      3.3657    120.3661
   796.7500   2000.0000   2000.0000      6.5259    120.2890
   797.0000   2000.0000   2000.0000     30.6325    120.2551
   797.2500   2000.0000   2000.0000 100000.0000    120.9888
   797.5000   2000.0000   2000.0000 100000.0000    123.2956
   797.7500   2000.0000   2000.0000 100000.0000    125.1378
   798.0000   2000.0000   2000.0000 100000.0000    127.2614
   798.2500   2000.0000   2000.0000 100000.0000    127.9706
   798.5000   2000.0000   2000.0000     43.7190    128.6687
   798.7500   2000.0000   2000.0000     18.3958    129.6908
   799.0000   2000.0000   2000.0000     13.4695    132.7459
   799.2500   2000.0000   2000.0000     12.0139    135.3244
   799.5000   2000.0000   2000.0000     11.8118    138.2328
   799.7500   2000.0000   2000.0000     12.1846    138.6795
   800.0000   2000.0000   2000.0000     12.8005    136.8127
   800.2500   2000.0000   2000.0000     13.4280    134.2500
   800.5000   2000.0000   2000.0000     13.8927    129.2505
   800.7500   2000.0000   2000.0000     14.1351    125.5172
   801.0000   2000.0000   2000.0000     14.2829    119.8951
   801.2500   2000.0000   2000.0000     14.6143    116.5122
   801.5000   2000.0000   2000.0000     15.4440    112.3807
   801.7500   2000.0000   2000.0000     17.0140    110.0982
   802.0000   2000.0000   2000.0000     19.3279    106.6902
   802.2500   2000.0000   2000.0000     21.8249    104.2002
   802.5000   2000.0000   2000.0000     23.2866    100.4774
   802.7500   2000.0000   2000.0000     22.8512     98.4565
   803.0000   2000.0000   2000.0000     21.0650     96.7070
   803.2500   2000.0000   2000.0000     19.0765     96.4170
   803.5000   2000.0000   2000.0000     17.5707     96.8788
   803.7500   2000.0000   2000.0000     16.7337     97.5286
   804.0000   2000.0000   2000.0000     16.5398     98.8444
   804.2500   2000.0000   2000.0000     16.8995     99.8541
   804.5000   2000.0000   2000.0000     17.6844    101.0270
   804.7500   2000.0000   2000.0000     18.7214    101.1126
   805.0000   2000.0000   2000.0000     19.8178     99.6635
   805.2500   2000.0000   2000.0000     20.8262     97.6918
   805.5000   2000.0000   2000.0000     21.7000     93.9514
   805.7500   2000.0000   2000.0000     22.4859     91.6501
   806.0000   2000.0000   2000.0000     23.2669     89.7262
   806.2500   2000.0000   2000.0000     24.1048     89.7634
   806.5000   2000.0000   2000.0000     25.0174     91.1600
   806.7500   2000.0000   2000.0000     25.9857     92.2177
   807.0000   2000.0000   2000.0000     26.9725     92.9255
   807.2500   2000.0000   2000.0000     27.9415     92.5251
   807.5000   2000.0000   2000.0000     28.8697     90.3815
   807.7500   2000.0000   2000.0000     29.7555     87.8209
   808.0000   2000.0000   2000.0000     30.6157     82.4868
   808.2500   2000.0000   2000.0000     31.4718     78.4917
   808.5000   2000.0000   2000.0000     32.3344     73.3781
   808.7500   2000.0000   2000.0000     33.1929     71.3563
   809.0000   2000.0000   2000.0000     34.0158     70.7842
   809.2500   2000.0000   2000.0000     34.7619     71.5841
   809.5000   2000.0000   2000.0000     35.4024     73.1947
   809.7500   2000.0000   2000.0000     35.9591     73.8914
   810.0000   2000.0000   2000.0000     36.5413     73.9968
   810.2500   2000.0000   2000.0000     37.3350     73.5762
   810.5000   2000.0000   2000.0000     38.5067     72.4825
   810.7500   2000.0000   2000.0000     40.0512     71.3945
   811.0000   2000.0000   2000.0000     41.6847     68.9144
   811.2500   2000.0000   2000.0000     42.9402     66.6635
   811.5000   2000.0000   2000.0000     43.5074     62.8837
   811.7500   2000.0000   2000.0000     43.5028     60.5925
   812.0000   2000.0000   2000.0000     43.3288     58.2699
   812.2500   2000.0000   2000.0000     43.3176     57.6750
   812.5000   2000.0000   2000.0000     43.5554     58.0080
   812.7500   2000.0000   2000.0000     43.9561     58.6553
   813.0000   2000.0000   2000.0000     44.4284     59.5718
   813.2500   2000.0000   2000.0000     44.9686     59.9955
