~Version Information
VERS.                      2.0: CWLS Log ASCII Standard - VERSION 2.0
WRAP.                       NO: One line per depth step
~Well Information Block
STRT.FT               -19.0000: 
STOP.FT              1343.5000: 
STEP.FT                 0.5000: 
NULL.                -999.2500: 
COMP.          Evergreen Operating Corporation: COMPANY
WELL.            Trigger 13-35: WELL
FLD.           Purgatorie River: FIELD
LOC.           2245' FSL & 594' FWL: LOCATION
PROV.                 Colorado: PROVINCE
CNTY.               Las Animas: COUNTRY
SRVC.                         : SERVICE COMPANY
DATE.          Mon Jun 23 12:06:52 2003: LOG DATE
UWI.           05-071-07838-00: UNIQUE WELL ID
~Curve Information Block
DEPT.FT            0 000 00 00: Depth
TT3.usec                      : CBL 3' Travel Time
AMP3.mV                       : CBL 3' Amplitude
GR.GAPI                       : Gamma Ray
CCL.                          : Casing Collar Locator
~Parameter Information Block
~A  Depth       TT3         AMP3         GR         CCL     
# ...
   517.0000    676.0298      2.4150    140.7540      0.0000
   517.5000    688.7512      2.3785    144.1649      0.0000
   518.0000    737.1529      2.3639    134.9186      0.0000
   518.5000    768.5243      2.3318    110.4123      0.0000
   519.0000    774.5835      2.1108     89.7491      0.0000
   519.5000    786.8892      1.6564     93.1845      0.0000
   520.0000    815.9678      1.5382    109.4830      0.0000
   520.5000    838.5135      1.5702    118.9130      0.0000
   521.0000    817.6661      1.6516    124.7019      5.0000
   521.5000    779.2953      1.7801    129.6319      0.0000
   522.0000    765.7228      1.9591    129.8979      0.0000
   522.5000    769.6236      2.5872    122.8288      0.0000
   523.0000    770.4164      3.0935    113.5510      0.0000
   523.5000    770.6547      3.0187    105.1939      0.0000
   524.0000    770.4144      2.7459    100.9418      0.0000
   524.5000    767.6332      2.5396    102.3445      0.0000
   525.0000    764.6752      2.4446    108.5665      0.0000
   525.5000    775.9067      2.3624    116.9606      0.0000
   526.0000    778.7245      2.3204    123.1021      0.0000
   526.5000    767.6883      2.3148    126.5357      0.0000
   527.0000    772.3473      2.3338    125.7277      0.0000
   527.5000    778.7428      2.3705    123.6571      0.0000
   528.0000    788.5710      2.4838    126.3419      0.0000
   528.5000    783.0247      2.5144    128.5763      0.0000
   529.0000    774.2552      2.4195    124.6598      0.0000
   529.5000    772.1854      2.4777    120.5839      0.0000
   530.0000    770.4632      2.6162    126.4738      0.0000
   530.5000    769.8919      2.5609    131.4617      0.0000
   531.0000    773.3640      2.4375    126.8243      0.0000
   531.5000    794.0016      2.4805    121.0960      0.0000
   532.0000    807.9574      2.5699    125.4980      0.0000
   532.5000    798.9221      2.5085    136.4782      0.0000
   533.0000    808.9476      2.4209    150.3788      0.0000
   533.5000    801.2651      2.4060    157.9240      0.0000
   534.0000    799.2979      2.4614    152.8030      0.0000
   534.5000    819.8577      2.4852    145.3276      0.0000
   535.0000    816.2316      2.4674    138.6153      0.0000
   535.5000    792.7417      2.5736    126.3498      0.0000
   536.0000    802.7270      2.6867    114.0857      0.0000
   536.5000    816.4708      2.7059    115.3443      0.0000
   537.0000    806.3886      2.6480    124.4425      0.0000
   537.5000    792.0958      2.6549    132.4197      0.0000
   538.0000    784.6083      2.6646    139.2849      0.0000
   538.5000    745.7918      2.7053    140.8477      0.0000
   539.0000    722.4393      2.7525    135.5212      0.0000
   539.5000    752.4124      2.6510    129.5354      0.0000
   540.0000    756.6190      2.6111    123.1897      0.0000
   540.5000    723.9842      2.5958    122.8586      0.0000
   541.0000    697.6729      2.6742    134.1187      0.0000
   541.5000    657.1548      2.7496    143.5256      0.0000
   542.0000    623.6818      2.8255    138.7982      0.0000
   542.5000    654.2447      2.8697    135.3303      0.0000
   543.0000    699.3678      2.8749    145.6033      0.0000
   543.5000    696.5454      2.9121    150.7501      0.0000
   544.0000    756.9774      2.8433    140.7276      0.0000
   544.5000    808.6121      2.9506    128.4585      0.0000
   545.0000    794.5073      3.1863    121.6114      0.0000
   545.5000    774.6838      3.1885    114.1384      0.0000
   546.0000    770.2529      3.0914    109.4590      0.0000
   546.5000    763.9304      2.9407    119.2385      0.0000
   547.0000    755.2386      2.8419    133.2034      0.0000
   547.5000    738.0837      2.7764    137.8268      0.0000
   548.0000    721.8274      2.7151    135.4666      0.0000
   548.5000    732.1893      2.6897    131.7485      0.0000
   549.0000    739.1565      2.7187    125.6701      0.0000
   549.5000    747.4797      2.7357    123.1055      0.0000
   550.0000    757.1750      2.6817    127.9966      0.0000
   550.5000    759.4546      2.6957    130.6103      0.0000
   551.0000    757.6682      2.7887    127.4207      0.0000
   551.5000    767.1324      2.8550    123.5110      0.0000
   552.0000    770.7010      2.8952    121.6006      0.0000
   552.5000    769.6321      2.8906    111.8966      0.0000
   553.0000    768.8424      2.8893     89.4032      0.0000
   553.5000    768.1898      2.8460     68.5933      0.0000
   554.0000    767.9551      2.9360     60.2602      0.0000
   554.5000    770.0513      3.0829     62.9371      0.0000
   555.0000    775.4507      2.9581     67.3785      0.0000
   555.5000    769.2157      2.7228     70.1765      0.0000
   556.0000    756.2065      2.6386     75.5758      0.0000
   556.5000    771.7501      2.6670     85.8108      0.0000
   557.0000    787.9057      2.7885     99.3311      0.0000
   557.5000    783.6729      2.8375    110.6326      0.0000
   558.0000    785.0909      2.8435    114.1973      0.0000
   558.5000    764.9633      2.8367    108.8459      0.0000
   559.0000    727.8070      2.7282    100.0300      0.0000
   559.5000    727.5416      2.5682     96.2232      0.0000
   560.0000    736.9860      2.4754     97.5202      0.0000
   560.5000    762.1783      2.4692    100.5321      0.0000
   561.0000    774.6319      2.4822    105.7651      0.0000
   561.5000    774.5428      2.5219    106.5943      0.0000
   562.0000    770.8657      2.4244    100.6356      0.0000
   562.5000    756.7699      2.0199     95.6499      0.0000
   563.0000    753.5498      1.6711     97.2883      0.0000
   563.5000    748.6006      1.5852     95.9616      0.0000
   564.0000    760.4040      1.5939     91.0783     -5.0000
   564.5000    777.5404      1.6198     93.1726      5.0000
   565.0000    789.9037      1.6749    100.5988      0.0000
   565.5000    802.1302      2.0285    107.3866      0.0000
   566.0000    790.9932      2.4348    120.6758      0.0000
   566.5000    790.0912      2.4741    134.4182      0.0000
   567.0000    782.7868      2.4031    141.7459      0.0000
   567.5000    799.0880      2.4203    157.0710      0.0000
   568.0000    828.1746      2.3635    163.9187      0.0000
   568.5000    824.6707      2.3212    151.5983      0.0000
   569.0000    816.0406      2.3980    143.1524      0.0000
   569.5000    801.2687      2.4539    144.4708      0.0000
   570.0000    781.7300      2.3649    147.5187      0.0000
   570.5000    755.4005      2.2936    151.0251      0.0000
   571.0000    757.2116      2.3683    154.1638      0.0000
   571.5000    768.1863      2.4821    152.5880      0.0000
   572.0000    763.3640      2.4027    146.7222      0.0000
   572.5000    761.8815      2.2832    142.8555      0.0000
   573.0000    766.5461      2.2914    143.2170      0.0000
   573.5000    781.6358      2.3229    140.3727      0.0000
   574.0000    768.1409      2.3329    133.3596      0.0000
   574.5000    759.5986      2.3694    123.0190      0.0000
   575.0000    734.2890      2.3465    113.9985      0.0000
   575.5000    734.2446      2.2956    105.8225      0.0000
   576.0000    762.7260      2.2222    101.0633      0.0000
   576.5000    769.6450      2.2452    100.2132      0.0000
   577.0000    770.3520      2.3393     97.4321      0.0000
   577.5000    769.1158      2.3618     96.6632      0.0000
   578.0000    767.9840      2.3155     96.4497      0.0000
   578.5000    768.1072      2.2362     92.2747      0.0000
   579.0000    768.1495      2.2298     90.8937      0.0000
   579.5000    768.2898      2.2430     95.2612      0.0000
   580.0000    769.3174      2.1796    111.0431      0.0000
   580.5000    769.4423      2.1482    132.2057      0.0000
   581.0000    768.9678      2.1707    141.4003      0.0000
   581.5000    771.0880      2.1795    136.1891      0.0000
   582.0000    778.6680      2.2129    129.4626      0.0000
   582.5000    779.2769      2.1905    122.4068      0.0000
   583.0000    773.1357      2.1861    113.2208      0.0000
   583.5000    771.8502      2.1737    105.9715      0.0000
