~Version Information
VERS.                      2.0: CWLS Log ASCII Standard - VERSION 2.0
WRAP.                       NO: One line per depth step
~Well Information Block
STRT.FT                17.7500: 
STOP.FT              1139.0000: 
STEP.FT                 0.2500: 
NULL.                -999.2500: 
COMP.          El Paso E&P Company L.P.: COMPANY
WELL.              VPR "ST" 38: WELL
FLD.           Purgatorie River: FIELD
LOC.           687' FNL & 2121' FEL: LOCATION
CNTY.               Las Animas: COUNTY
SRVC.          Superior Well Services: SERVICE COMPANY
DATE.          Sat Oct 13 22-40-21 2007: LOG DATE
UWI.           05-071-08357-00: UNIQUE WELL ID
STAT.                       CO: STATE
~Curve Information Block
DEPT.FT            0 000 00 00: Depth
CCL.                          : Casing Collar Locator
TT3.usec                      : CBL 3' Travel Time
AMP3.mV                       : CBL 3' Amplitude
GR.GAPI                       : Gamma Ray
~Parameter Information Block
~A  Depth       CCL         TT3         AMP3         GR     
# ...
   654.2500      0.0000    690.4433      4.6369     97.4998
   654.5000      0.0000    694.1247      4.7066    100.5007
   654.7500      0.0000    694.6812      4.7351    101.1772
   655.0000      0.0000    692.8240      4.7197     99.7351
   655.2500      0.0000    691.8369      4.6722     97.9047
   655.5000      0.0000    694.0280      4.6064     98.5799
   655.7500      0.0000    698.6746      4.5311    102.6905
   656.0000      0.0000    703.3254      4.4528    106.1226
   656.2500      0.0000    706.3074      4.3793    109.3531
   656.5000      0.0000    707.5753      4.3190    109.3193
   656.7500      0.0000    707.8758      4.2736    106.4424
   657.0000      0.0000    707.7384      4.2327    103.5330
   657.2500      0.0000    707.0106      4.1803     99.0935
   657.5000      0.0000    704.7224      4.1082     96.7552
   657.7500      0.0000    699.2300      4.0212     95.2969
   658.0000      0.0000    689.0523      3.9303     96.1383
   658.2500      0.0000    674.3508      3.8451    100.1169
   658.5000      0.0000    657.7842      3.7718    104.2389
   658.7500      0.0000    643.3024      3.7129    111.9408
   659.0000      0.0000    633.7584      3.6697    117.7832
   659.2500      0.0000    629.8191      3.6462    127.3023
   659.5000      0.0000    631.0088      3.6499    133.8596
   659.7500      0.0000    636.9213      3.6846    142.5894
   660.0000      0.0000    646.6818      3.7440    146.3200
   660.2500      0.0000    657.7518      3.8122    146.8931
   660.5000      0.0000    666.9926      3.8723    143.8345
   660.7500      0.0000    673.8417      3.9151    135.6332
   661.0000      0.0000    681.1523      3.9429    128.9080
   661.2500      0.0000    691.9406      3.9650    118.0112
   661.5000      0.0000    706.2890      3.9920    110.3742
   661.7500      0.0000    721.6041      4.0295     99.4193
   662.0000      0.0000    734.2524      4.0777     94.0149
   662.2500      0.0000    740.8587      4.1336     91.4660
   662.5000      0.0000    740.2482      4.1903     93.7102
   662.7500      0.0000    735.3999      4.2354    101.0178
   663.0000      0.0000    732.4934      4.2542    107.2102
   663.2500      0.0000    736.2655      4.2400    117.0017
   663.5000      0.0000    745.3947      4.2040    122.7669
   663.7500      0.0000    752.7465      4.1698    127.4750
   664.0000      0.0000    750.7869      4.1561    126.8826
   664.2500      0.0000    737.2832      4.1723    121.2156
   664.5000      0.0000    716.8482      4.2373    115.8345
   664.7500      0.0000    697.6244      4.3806    107.6677
   665.0000      0.0000    685.4895      4.5975    102.7341
   665.2500      0.0000    680.5082      4.8132     96.4289
   665.5000      0.0000    679.0272      4.9335     93.0461
   665.7500      0.0000    678.9281      4.9339     88.7619
   666.0000      0.0000    681.9028      4.8739     85.7575
   666.2500     -2.0000    690.5432      4.8287     80.4811
   666.5000     -2.0000    704.6013      4.8313     77.2876
   666.7500      2.0000    720.9421      4.8705     75.6544
   667.0000      0.0000    736.0811      4.9193     77.5853
   667.2500      0.0000    747.5447      4.9543     84.1877
   667.5000      0.0000    753.4500      4.9514     89.7728
   667.7500      0.0000    752.4468      4.8736     97.9949
   668.0000      0.0000    744.8157      4.6860    102.7630
   668.2500      0.0000    733.0432      4.4064    108.4151
   668.5000      0.0000    720.4099      4.1160    111.0834
   668.7500      0.0000    708.9300      3.8982    113.8321
   669.0000      0.0000    699.5592      3.7782    115.6569
   669.2500      0.0000    694.6639      3.7295    120.0943
   669.5000      0.0000    698.6675      3.7145    124.4899
   669.7500      0.0000    714.1346      3.7076    132.1748
   670.0000      0.0000    737.3874      3.6958    137.1521
   670.2500      0.0000    759.9792      3.6748    143.6199
   670.5000      0.0000    774.9617      3.6453    147.1480
   670.7500      0.0000    780.5410      3.6087    150.6691
   671.0000      0.0000    778.3376      3.5670    151.0467
   671.2500      0.0000    770.9224      3.5232    147.7545
   671.5000      0.0000    761.9337      3.4809    143.6420
   671.7500      0.0000    755.9561      3.4446    137.5570
   672.0000      0.0000    755.5153      3.4180    135.0616
   672.2500      0.0000    758.4393      3.4027    134.1440
   672.5000      0.0000    759.9966      3.3973    134.9157
   672.7500      0.0000    757.8995      3.3990    137.4979
   673.0000      0.0000    754.0911      3.4087    139.9940
   673.2500      0.0000    751.7030      3.4322    144.5669
   673.5000      0.0000    751.7122      3.4731    148.1402
   673.7500      0.0000    752.8895      3.5261    154.2215
   674.0000      0.0000    753.7105      3.5790    157.7990
   674.2500      0.0000    753.6201      3.6221    158.9141
   674.5000      0.0000    753.0917      3.6548    155.1673
   674.7500      0.0000    752.9765      3.6819    143.5514
   675.0000      0.0000    753.1666      3.7051    134.0784
   675.2500      0.0000    751.2908      3.7197    121.4509
   675.5000      0.0000    742.7453      3.7199    115.7260
   675.7500      0.0000    722.3019      3.7052    112.9515
   676.0000      0.0000    686.6787      3.6807    115.4755
   676.2500      0.0000    637.7051      3.6523    124.3056
   676.5000      0.0000    583.9388      3.6239    130.8901
   676.7500      0.0000    537.2720      3.5992    136.5732
   677.0000      0.0000    505.9452      3.5838    136.0961
   677.2500      0.0000    490.5679      3.5825    130.1863
   677.5000      0.0000    486.1326      3.5969    124.4522
   677.7500      0.0000    486.3650      3.6251    115.1429
   678.0000      0.0000    486.5918      3.6611    108.8259
   678.2500      0.0000    484.7741      3.6937     99.3950
   678.5000      0.0000    481.2376      3.7082     93.4088
   678.7500      0.0000    477.4391      3.6938     85.4484
   679.0000      0.0000    474.8069      3.6500     80.9601
   679.2500      0.0000    474.7899      3.5862     75.3882
   679.5000      0.0000    479.8072      3.5143     72.5907
   679.7500      0.0000    493.6854      3.4403     70.8773
   680.0000      0.0000    520.2117      3.3630     72.2409
   680.2500      0.0000    560.0366      3.2806     78.3256
   680.5000      0.0000    608.5852      3.1961     84.0294
   680.7500      0.0000    657.7178      3.1122     92.0868
   681.0000      0.0000    700.1844      3.0254     95.8198
   681.2500      0.0000    732.6871      2.9315     98.4221
   681.5000      0.0000    755.3951      2.8391     98.3784
   681.7500      0.0000    770.3133      2.7692     95.9947
   682.0000      0.0000    780.9941      2.7371     93.3659
   682.2500      0.0000    791.9138      2.7413     90.4789
   682.5000      0.0000    804.9597      2.7754     91.4681
   682.7500      0.0000    816.1657      2.8471     99.2150
   683.0000      0.0000    818.4916      2.9765    107.1344
   683.2500      0.0000    808.8617      3.1739    117.7196
   683.5000      0.0000    790.8882      3.4184    121.4663
   683.7500      0.0000    770.6837      3.6577    122.3491
   684.0000      0.0000    752.3561      3.8345    121.9220
   684.2500      0.0000    737.9499      3.9206    123.1426
   684.5000      0.0000    729.0575      3.9335    125.5466
   684.7500      0.0000    726.7058      3.9204    129.9709
   685.0000      0.0000    730.3656      3.9234    132.6830
   685.2500      0.0000    737.8926      3.9552    136.6678
   685.5000      0.0000    746.2816      4.0038    139.8754
   685.7500      0.0000    752.7454      4.0551    145.6987
   686.0000      0.0000    756.0156      4.1076    149.5591
   686.2500      0.0000    757.0118      4.1659    153.1931
   686.5000      0.0000    757.6797      4.2305    152.9046
   686.7500      0.0000    759.2940      4.2993    147.1832
   687.0000      0.0000    762.6041      4.3719    139.9934
   687.2500      0.0000    768.9106      4.4449    125.6774
   687.5000      0.0000    778.9607      4.5072    114.9878
