~Version Information
VERS.                      2.0: CWLS Log ASCII Standard - VERSION 2.0
WRAP.                       NO: One line per depth step
~Well Information Block
STRT.FT               948.2500: 
STOP.FT              2134.5000: 
STEP.FT                 0.2500: 
NULL.                -999.2500: 
COMP.          Petrogulf Corporation: COMPANY
WELL.             Valejo 8-12R: WELL
FLD.           Purgatorie River: FIELD
LOC.           1351'' FNL & 1562' FWL: LOCATION
CNTY.               Las Animas: COUNTY
SRVC.                         : SERVICE COMPANY
DATE.          Wed Apr 28 02:30:32 2004: LOG DATE
UWI.           05 071 08038 00: UNIQUE WELL ID
STAT.                 Colorado: STATE
~Curve Information Block
DEPT.FT            0 000 00 00: Depth
SP.mV                         : DIL Spontaneous Potential
RILD.Ohm-m                    : DIL Deep Resistivity
RILM.Ohm-m                    : DIL Medium Resistivity
RLL3.Ohm-m                    : DIL Shallow Resistivity
GR.GAPI                       : Gamma Ray
~Parameter Information Block
~A  Depth        SP         RILD        RILM        RLL3         GR     
# ...
  1956.2500    168.6894      9.6168     11.7747     23.3750    103.3901
  1956.5000    168.8143      9.4407     11.1381     20.9400    106.8653
  1956.7500    168.9919      9.2891     10.5742     17.8289    110.6462
  1957.0000    169.1547      9.1500     10.1262     14.7307    117.9427
  1957.2500    169.2336      9.0084      9.8130     12.3281    122.8009
  1957.5000    169.1989      8.8520      9.6281     11.0256    127.7672
  1957.7500    169.0824      8.6752      9.5417     10.9073    128.6566
  1958.0000    168.9701      8.4802      9.5075     11.7805    127.0188
  1958.2500    168.9761      8.2751      9.4758     13.1519    125.6717
  1958.5000    169.1980      8.0721      9.4103     14.2813    126.5232
  1958.7500    169.6613      7.8852      9.2991     14.5340    129.5647
  1959.0000    170.2908      7.7287      9.1546     13.8299    135.8040
  1959.2500    170.9508      7.6129      9.0015     12.6787    139.2132
  1959.5000    171.5298      7.5395      8.8618     11.6968    141.1492
  1959.7500    171.9898      7.5002      8.7449     11.1298    140.1406
  1960.0000    172.3410      7.4794      8.6453     10.8347    136.0158
  1960.2500    172.5948      7.4602      8.5491     10.5833    132.3744
  1960.5000    172.7493      7.4313      8.4452     10.2823    127.3149
  1960.7500    172.8047      7.3893      8.3332      9.9641    125.0652
  1961.0000    172.7775      7.3379      8.2228      9.6796    123.8503
  1961.2500    172.7046      7.2835      8.1262      9.4397    124.1193
  1961.5000    172.6355      7.2317      8.0507      9.2343    125.1400
  1961.7500    172.6112      7.1859      7.9965      9.0779    125.8907
  1962.0000    172.6370      7.1474      7.9586      9.0252    127.2558
  1962.2500    172.6763      7.1173      7.9296      9.1388    128.6187
  1962.5000    172.6726      7.0967      7.9022      9.4278    131.5333
  1962.7500    172.5834      7.0864      7.8709      9.7967    133.7326
  1963.0000    172.3978      7.0869      7.8346     10.0650    136.2225
  1963.2500    172.1359      7.0978      7.7975     10.0820    136.7292
  1963.5000    171.8368      7.1179      7.7689      9.8520    135.8521
  1963.7500    171.5438      7.1455      7.7601      9.5340    134.9324
  1964.0000    171.2831      7.1791      7.7807      9.3087    134.2930
  1964.2500    171.0458      7.2184      7.8347      9.2551    134.4241
  1964.5000    170.7875      7.2636      7.9188      9.3428    134.6348
  1964.7500    170.4567      7.3163      8.0229      9.5018    134.2521
  1965.0000    170.0345      7.3782      8.1330      9.6782    132.5422
  1965.2500    169.5667      7.4497      8.2368      9.8445    130.9896
  1965.5000    169.1666      7.5283      8.3273      9.9886    129.4834
  1965.7500    168.9680      7.6078      8.4044     10.1126    129.8011
  1966.0000    169.0313      7.6809      8.4726     10.2427    132.2411
  1966.2500    169.2784      7.7419      8.5368     10.4259    134.2743
  1966.5000    169.5342      7.7886      8.5987     10.6854    135.9145
  1966.7500    169.6423      7.8206      8.6559     10.9692    135.3893
  1967.0000    169.5423      7.8386      8.7023     11.1616    132.6247
  1967.2500    169.2640      7.8451      8.7330     11.1701    130.4307
  1967.5000    168.8761      7.8452      8.7484     11.0044    128.3932
  1967.7500    168.4403      7.8445      8.7559     10.7701    128.5131
  1968.0000    167.9899      7.8469      8.7656     10.5913    130.8416
  1968.2500    167.5351      7.8529      8.7846     10.5440    133.0225
  1968.5000    167.0761      7.8606      8.8128     10.6460    135.2473
  1968.7500    166.6025      7.8677      8.8439     10.8729    135.2784
  1969.0000    166.0841      7.8722      8.8693     11.1621    133.3211
  1969.2500    165.4741      7.8738      8.8823     11.4206    131.3691
  1969.5000    164.7298      7.8739      8.8800     11.5634    128.8411
  1969.7500    163.8351      7.8751      8.8640     11.5634    128.1753
  1970.0000    162.8123      7.8794      8.8414     11.4653    129.6615
  1970.2500    161.7162      7.8887      8.8226     11.3482    132.3446
  1970.5000    160.6164      7.9038      8.8183     11.2870    137.7540
  1970.7500    159.5754      7.9253      8.8350     11.3491    141.2269
  1971.0000    158.6349      7.9541      8.8724     11.5936    144.7086
  1971.2500    157.8229      7.9908      8.9240     12.0263    145.4357
  1971.5000    157.1713      8.0362      8.9806     12.5520    144.2839
  1971.7500    156.7050      8.0912      9.0354     13.0049    142.6540
  1972.0000    156.3987      8.1569      9.0893     13.2549    140.5269
  1972.2500    156.1668      8.2343      9.1512     13.2905    140.0658
  1972.5000    155.9207      8.3250      9.2333     13.2153    140.8962
  1972.7500    155.6285      8.4325      9.3455     13.1924    141.7407
  1973.0000    155.3181      8.5636      9.4914     13.3736    141.6902
  1973.2500    155.0390      8.7288      9.6709     13.8123    140.1742
  1973.5000    154.8239      8.9406      9.8850     14.4047    136.1276
  1973.7500    154.6635      9.2091     10.1418     14.9638    133.1156
  1974.0000    154.5068      9.5385     10.4585     15.4173    129.4025
  1974.2500    154.2922      9.9261     10.8607     15.9438    127.5763
  1974.5000    153.9870     10.3636     11.3794     16.9188    124.8959
  1974.7500    153.5946     10.8400     12.0469     18.8063    122.3896
  1975.0000    153.1284     11.3440     12.8925     22.1985    116.6960
  1975.2500    152.5834     11.8651     13.9375     27.8960    111.5547
  1975.5000    151.9337     12.3993     15.1909     36.6539    102.3395
  1975.7500    151.1713     12.9577     16.6474     48.5066     95.6700
  1976.0000    150.3609     13.5732     18.2895     62.2053     85.7408
  1976.2500    149.6358     14.2947     20.0962     75.4462     79.6328
  1976.5000    149.0992     15.1686     22.0590     85.9340     71.7368
  1976.7500    148.7308     16.2105     24.1943     92.6041     67.2853
  1977.0000    148.4262     17.3821     26.5416     96.1529     61.2761
  1977.2500    148.1247     18.5850     29.1363     98.4850     57.3780
  1977.5000    147.8614     19.6882     31.9622    101.5472     51.5689
  1977.7500    147.6984     20.5835     34.9084    106.5343     47.9601
  1978.0000    147.6551     21.2283     37.7571    113.8114     43.5456
  1978.2500    147.7192     21.6340     40.2237    122.8808     41.3924
  1978.5000    147.8923     21.8175     42.0444    131.9900     38.8169
  1978.7500    148.2067     21.7712     43.0680    138.2509     37.0826
  1979.0000    148.7110     21.4776     43.2862    139.1438     34.4481
  1979.2500    149.4428     20.9413     42.7570    134.4301     33.2569
  1979.5000    150.4025     20.2003     41.4863    126.3912     33.5359
  1979.7500    151.5495     19.3124     39.3974    117.8557     35.4707
  1980.0000    152.8347     18.3363     36.4546    109.8436     41.0465
  1980.2500    154.2384     17.3227     32.8301    100.9747     46.5488
  1980.5000    155.7638     16.3122     28.9137     89.0590     57.7924
  1980.7500    157.3840     15.3351     25.1400     73.3943     67.4723
  1981.0000    158.9960     14.4127     21.8121     55.7780     84.9350
  1981.2500    160.4494     13.5573     19.0501     39.4477     97.7279
  1981.5000    161.6474     12.7742     16.8406     27.0279    116.2693
  1981.7500    162.6202     12.0623     15.1038     19.2526    126.4812
  1982.0000    163.4734     11.4169     13.7433     15.2057    135.9683
  1982.2500    164.2548     10.8337     12.6697     13.4009    137.7804
  1982.5000    164.9024     10.3112     11.8105     12.6447    135.1238
  1982.7500    165.3340      9.8509     11.1115     12.2682    131.7841
  1983.0000    165.5518      9.4543     10.5350     11.9731    128.0859
  1983.2500    165.6366      9.1209     10.0568     11.6439    127.6703
  1983.5000    165.6692      8.8474      9.6635     11.2611    129.8608
  1983.7500    165.6796      8.6285      9.3482     10.8725    132.2286
  1984.0000    165.6537      8.4582      9.1079     10.5689    135.3048
