~Version Information
VERS.                      2.0: CWLS Log ASCII Standard - VERSION 2.0
WRAP.                       NO: One line per depth step
~Well Information Block
STRT.FT               221.2000: 
STOP.FT              2260.4000: 
STEP.FT                 0.1000: 
NULL.                -999.2500: 
COMP.          Petrogulf Corporation: COMPANY
WELL.          Anderson 18-43V: WELL
FLD.           Purgatorie River: FIELD
LOC.           1782' FSL & 887' FEL--: LOCATION
CNTY.               Las Animas: COUNTY
SRVC.                         : SERVICE COMPANY
DATE.          Mon Sep 13 14:11:09 2004: LOG DATE
UWI.                          : UNIQUE WELL ID
STAT.                       CO: STATE
~Curve Information Block
DEPT.FT            0 000 00 00: Depth
TT3.usec                      : CBL 3' Travel Time
AMP3.mV                       : CBL 3' Amplitude
GR.GAPI                       : Gamma Ray
CCL.                          : Casing Collar Locator
~Parameter Information Block
~A  Depth       TT3         AMP3         GR         CCL     
# ...
  1038.6000    665.3436      4.6625     67.8247      0.0000
  1038.7000    665.3436      4.6625     67.8247      0.0000
  1038.8000    666.1819      4.5279     66.5037      0.0000
  1038.9000    666.1819      4.5279     66.5037      0.0000
  1039.0000    664.5577      4.4065     65.7811      0.0000
  1039.1000    664.5577      4.4065     65.7811      0.0000
  1039.2000    664.5577      4.4065     65.7811      0.0000
  1039.3000    661.1976      4.3134     66.5440      0.0000
  1039.4000    661.1976      4.3134     66.5440      0.0000
  1039.5000    657.6214      4.2749     69.6131      0.0000
  1039.6000    657.6214      4.2749     69.6131      0.0000
  1039.7000    657.6214      4.2749     69.6131      0.0000
  1039.8000    654.6573      4.3134     75.0225      0.0000
  1039.9000    654.6573      4.3134     75.0225      0.0000
  1040.0000    652.2701      4.4179     81.7425      0.0000
  1040.1000    652.2701      4.4179     81.7425      0.0000
  1040.2000    652.2701      4.4179     81.7425      0.0000
  1040.3000    650.4665      4.5409     88.0234      0.0000
  1040.4000    650.4665      4.5409     88.0234      0.0000
  1040.5000    649.7539      4.6347     92.2399      0.0000
  1040.6000    649.7539      4.6347     92.2399      0.0000
  1040.7000    649.7539      4.6347     92.2399      0.0000
  1040.8000    650.5129      4.6896     93.6588      0.0000
  1040.9000    650.5129      4.6896     93.6588      0.0000
  1041.0000    652.3243      4.7332     92.6103      0.0000
  1041.1000    652.3243      4.7332     92.6103      0.0000
  1041.2000    652.3243      4.7332     92.6103      0.0000
  1041.3000    654.2531      4.7906     89.9728      0.0000
  1041.4000    654.2531      4.7906     89.9728      0.0000
  1041.5000    655.6331      4.8543     86.3260      0.0000
  1041.6000    655.6331      4.8543     86.3260      0.0000
  1041.7000    655.6331      4.8543     86.3260      0.0000
  1041.8000    656.3852      4.8958     81.8067      0.0000
  1041.9000    656.3852      4.8958     81.8067      0.0000
  1042.0000    656.7359      4.8984     77.0136      0.0000
  1042.1000    656.7359      4.8984     77.0136      0.0000
  1042.2000    656.7359      4.8984     77.0136      0.0000
  1042.3000    656.8713      4.8683     73.3930      0.0000
  1042.4000    656.8713      4.8683     73.3930      0.0000
  1042.5000    656.8431      4.8190     71.8043      0.0000
  1042.6000    656.8431      4.8190     71.8043      0.0000
  1042.7000    656.8431      4.8190     71.8043      0.0000
  1042.8000    656.6494      4.7567     71.0113      0.0000
  1042.9000    656.6494      4.7567     71.0113      0.0000
  1043.0000    656.3134      4.6810     68.6235      0.0000
  1043.1000    656.3134      4.6810     68.6235      0.0000
  1043.2000    656.3134      4.6810     68.6235      0.0000
  1043.3000    655.8958      4.5931     63.6475      0.0000
  1043.4000    655.8958      4.5931     63.6475      0.0000
  1043.5000    655.4650      4.5001     57.4984      0.0000
  1043.6000    655.4650      4.5001     57.4984      0.0000
  1043.7000    655.4650      4.5001     57.4984      0.0000
  1043.8000    655.0740      4.4084     52.3977      0.0000
  1043.9000    655.0740      4.4084     52.3977      0.0000
  1044.0000    654.7443      4.3147     49.2278      0.0000
  1044.1000    654.7443      4.3147     49.2278      0.0000
  1044.2000    654.7443      4.3147     49.2278      0.0000
  1044.3000    654.4581      4.2085     47.1217      0.0000
  1044.4000    654.4581      4.2085     47.1217      0.0000
  1044.5000    654.1729      4.0866     44.8082      0.0000
  1044.6000    654.1729      4.0866     44.8082      0.0000
  1044.7000    654.1729      4.0866     44.8082      0.0000
  1044.8000    653.8520      3.9602     41.9499      0.0000
  1044.9000    653.8520      3.9602     41.9499      0.0000
  1045.0000    653.4924      3.8427     39.2056      0.0000
  1045.1000    653.4924      3.8427     39.2056      0.0000
  1045.2000    653.4924      3.8427     39.2056      0.0000
  1045.3000    653.1301      3.7370     37.4911      0.0000
  1045.4000    653.1301      3.7370     37.4911      0.0000
  1045.5000    652.8208      3.6412     37.4114      0.0000
  1045.6000    652.8208      3.6412     37.4114      0.0000
  1045.7000    652.8208      3.6412     37.4114      0.0000
  1045.8000    652.6221      3.5611     39.0378      0.0000
  1045.9000    652.6221      3.5611     39.0378      0.0000
  1046.0000    652.6007      3.5119     41.8032      0.0000
  1046.1000    652.6007      3.5119     41.8032      0.0000
  1046.2000    652.6007      3.5119     41.8032      0.0000
  1046.3000    652.9116      3.5088     44.5953      0.0000
  1046.4000    652.9116      3.5088     44.5953      0.0000
  1046.5000    653.9030      3.5613     46.2044      0.0000
  1046.6000    653.9030      3.5613     46.2044      0.0000
  1046.7000    653.9030      3.5613     46.2044      0.0000
  1046.8000    656.1408      3.6734     46.1339      0.0000
  1046.9000    656.1408      3.6734     46.1339      0.0000
  1047.0000    660.1089      3.8379     45.2721      0.0000
  1047.1000    660.1089      3.8379     45.2721      0.0000
  1047.2000    660.1089      3.8379     45.2721      0.0000
  1047.3000    665.4702      4.0225     45.6071      0.0000
  1047.4000    665.4702      4.0225     45.6071      0.0000
  1047.5000    670.4921      4.1697     49.0768      0.0000
  1047.6000    670.4921      4.1697     49.0768      0.0000
  1047.7000    670.4921      4.1697     49.0768      0.0000
  1047.8000    672.7735      4.2275     56.6585      0.0000
  1047.9000    672.7735      4.2275     56.6585      0.0000
  1048.0000    671.1830      4.1854     68.2625      0.0000
  1048.1000    671.1830      4.1854     68.2625      0.0000
  1048.2000    671.1830      4.1854     68.2625      0.0000
  1048.3000    666.9298      4.0783     82.8276      0.0000
  1048.4000    666.9298      4.0783     82.8276      0.0000
  1048.5000    662.4100      3.9558     98.3208      0.0000
  1048.6000    662.4100      3.9558     98.3208      0.0000
  1048.7000    662.4100      3.9558     98.3208      0.0000
  1048.8000    659.3021      3.8472    112.2182      0.0000
  1048.9000    659.3021      3.8472    112.2182      0.0000
  1049.0000    657.9222      3.7535    122.5534      0.0000
  1049.1000    657.9222      3.7535    122.5534      0.0000
  1049.2000    657.9222      3.7535    122.5534      0.0000
  1049.3000    657.7869      3.6697    128.6276      0.0000
  1049.4000    657.7869      3.6697    128.6276      0.0000
  1049.5000    658.2495      3.6090    131.0140      0.0000
  1049.6000    658.2495      3.6090    131.0140      0.0000
  1049.7000    658.2495      3.6090    131.0140      0.0000
  1049.8000    658.7881      3.5968    131.4925      0.0000
  1049.9000    658.7881      3.5968    131.4925      0.0000
  1050.0000    659.1216      3.6370    132.7442      0.0000
  1050.1000    659.1216      3.6370    132.7442      0.0000
  1050.2000    659.1216      3.6370    132.7442      0.0000
  1050.3000    659.2250      3.6927    136.8438      0.0000
  1050.4000    659.2250      3.6927    136.8438      0.0000
  1050.5000    659.2042      3.7140    143.3891      0.0000
  1050.6000    659.2042      3.7140    143.3891      0.0000
  1050.7000    659.2042      3.7140    143.3891      0.0000
  1050.8000    659.1589      3.6857    149.6504      0.0000
  1050.9000    659.1589      3.6857    149.6504      0.0000
  1051.0000    659.1392      3.6392    152.9197      0.0000
  1051.1000    659.1392      3.6392    152.9197      0.0000
  1051.2000    659.1392      3.6392    152.9197      0.0000
  1051.3000    659.1777      3.6075    152.4215      0.0000
  1051.4000    659.1777      3.6075    152.4215      0.0000
  1051.5000    659.3365      3.5803    149.1668      0.0000
  1051.6000    659.3365      3.5803    149.1668      0.0000
  1051.7000    659.3365      3.5803    149.1668      0.0000
  1051.8000    659.8167      3.5143    144.8801      0.0000
  1051.9000    659.8167      3.5143    144.8801      0.0000
