~Version Information
VERS.                      2.0: CWLS Log ASCII Standard - VERSION 2.0
WRAP.                       NO: One line per depth step
~Well Information Block
STRT.FT                -7.7500: 
STOP.FT              1383.2500: 
STEP.FT                 0.2500: 
NULL.                -999.2500: 
COMP.          Petrogulf Corporation: COMPANY
WELL.          Great Plains 22-22R: WELL
FLD.           Purgatoire River: FIELD
LOC.           2042' FNL & 1657' FWL SENW 22 33S 67W ----: LOCATION
PROV.                 Colorado: PROVINCE
CNTY.               Las Animas: COUNTRY
SRVC.                         : SERVICE COMPANY
DATE.          Thu Sep 22 14:55:58 2005: LOG DATE
UWI.             07108028     : UNIQUE WELL ID
~Curve Information Block
DEPT.FT            0 000 00 00: Depth
CCL.                          : Casing Collar Locator
TT3.usec                      : CBL 3' Travel Time
AMP3.mV                       : CBL 3' Amplitude
GR.GAPI                       : Gamma Ray
~Parameter Information Block
~A  Depth       CCL         TT3         AMP3         GR     
# ...
  1198.2500      0.0000    671.5275      9.9274    171.4196
  1198.5000      0.0000    670.2891     10.1038    175.3054
  1198.7500      0.0000    667.2734     10.3823    178.2050
  1199.0000      0.0000    661.3204     10.7200    179.1782
  1199.2500      0.0000    652.3098     11.0704    177.7182
  1199.5000      0.0000    642.1927     11.3832    173.8818
  1199.7500      0.0000    634.0055     11.6201    168.0644
  1200.0000      0.0000    629.6822     11.7831    160.9099
  1200.2500      0.0000    629.8714     11.9239    153.2741
  1200.5000      0.0000    635.2057     12.1179    146.0038
  1200.7500      0.0000    645.0402     12.4267    139.8567
  1201.0000      0.0000    655.1029     12.8814    135.6570
  1201.2500      0.0000    659.7037     13.4908    133.9760
  1201.5000      0.0000    657.4124     14.2560    134.3342
  1201.7500      0.0000    652.6445     15.1724    135.2578
  1202.0000      0.0000    649.9407     16.2080    135.7300
  1202.2500      0.0000    646.6865     17.2774    136.3809
  1202.5000      0.0000    633.1237     18.2566    138.6443
  1202.7500      0.0000    602.0757     19.0491    142.7325
  1203.0000      0.0000    559.9617     19.6415    147.0059
  1203.2500      0.0000    526.5645     20.0806    149.4985
  1203.5000      0.0000    520.8483     20.4019    149.5593
  1203.7500      0.0000    545.7592     20.6007    147.9864
  1204.0000      0.0000    587.1592     20.6682    146.1941
  1204.2500      0.0000    626.3848     20.6327    145.5138
  1204.5000      0.0000    652.5737     20.5561    146.7122
  1204.7500      0.0000    664.4167     20.4978    149.7267
  1205.0000      0.0000    664.1420     20.4848    153.9494
  1205.2500      0.0000    653.7700     20.5064    158.8019
  1205.5000      0.0000    636.8505     20.5215    163.7701
  1205.7500      0.0000    618.9599     20.4703    167.8479
  1206.0000      0.0000    603.4092     20.3049    169.4198
  1206.2500      0.0000    589.6981     20.0323    167.2659
  1206.5000      0.0000    578.7038     19.7201    161.8055
  1206.7500      0.0000    576.0709     19.4400    155.0891
  1207.0000      0.0000    587.3532     19.2011    149.4337
  1207.2500      0.0000    611.1272     18.9429    146.1635
  1207.5000      0.0000    638.8622     18.5959    145.4825
  1207.7500      0.0000    661.4399     18.1486    146.9587
  1208.0000      0.0000    674.9639     17.6631    149.7538
  1208.2500      0.0000    680.8128     17.2284    152.6869
  1208.5000      0.0000    682.0655     16.8998    154.6924
  1208.7500      0.0000    680.8100     16.6778    155.5712
  1209.0000      0.0000    678.1231     16.5307    156.0431
  1209.2500      0.0000    675.1254     16.4295    156.7064
  1209.5000      0.0000    673.1263     16.3667    157.0806
  1209.7500      0.0000    673.0006     16.3537    156.0618
  1210.0000      0.0000    674.6304     16.4035    153.2478
  1210.2500      0.0000    676.9838     16.5126    149.4743
  1210.5000      0.0000    678.6550     16.6581    146.0205
  1210.7500      0.0000    678.5175     16.8156    143.4560
  1211.0000      0.0000    675.5333     16.9741    141.3980
  1211.2500      0.0000    668.2722     17.1232    139.3785
  1211.5000      0.0000    656.6387     17.2279    137.5847
  1211.7500      0.0000    645.2351     17.2275    136.5078
  1212.0000      0.0000    642.2254     17.0671    136.3479
  1212.2500      0.0000    651.4988     16.7323    137.1929
  1212.5000      0.0000    666.8231     16.2511    139.5363
  1212.7500      0.0000    675.9462     15.6696    144.0962
  1213.0000      0.0000    669.8890     15.0260    150.8085
  1213.2500      0.0000    648.1127     14.3476    157.9901
  1213.5000      0.0000    617.1625     13.6634    163.0344
  1213.7500      0.0000    585.7211     13.0117    164.6200
  1214.0000      0.0000    559.8903     12.4234    164.2036
  1214.2500      0.0000    541.6566     11.8961    164.8620
  1214.5000      0.0000    530.4141     11.3984    168.6459
  1214.7500      0.0000    524.9813     10.9074    175.1129
  1215.0000      0.0000    524.5234     10.4357    181.8328
  1215.2500      0.0000    528.7081     10.0157    185.8833
  1215.5000      0.0000    537.5119      9.6688    185.4737
  1215.7500      0.0000    550.7560      9.3947    181.1795
  1216.0000      0.0000    567.3828      9.1752    175.9459
  1216.2500      0.0000    584.6434      8.9738    173.2435
  1216.5000      0.0000    598.0518      8.7451    174.2585
  1216.7500      0.0000    603.3098      8.4681    176.6485
  1217.0000      0.0000    599.3298      8.1768    176.6519
  1217.2500      0.0000    589.5219      7.9453    172.7131
  1217.5000      0.0000    579.6490      7.8271    166.8472
  1217.7500      0.0000    574.0494      7.8056    162.6742
  1218.0000      0.0000    573.8614      7.8060    162.5300
  1218.2500      0.0000    578.6663      7.7535    166.0545
  1218.5000      0.0000    588.8543      7.6224    170.9008
  1218.7500      0.0000    605.1201      7.4440    174.6644
  1219.0000      0.0000    625.7638      7.2788    176.2137
  1219.2500      0.0000    646.1541      7.1730    175.5079
  1219.5000      0.0000    661.6599      7.1369    172.7362
  1219.7500      0.0000    670.5734      7.1683    167.9171
  1220.0000      0.0000    674.3549      7.2905    161.1289
  1220.2500      0.0000    675.7124      7.5520    152.9183
  1220.5000      0.0000    676.1656      7.9960    144.4039
  1220.7500      0.0000    674.6607      8.6394    136.9606
  1221.0000      0.0000    667.5524      9.4779    131.5575
  1221.2500      0.0000    649.3478     10.4984    128.1075
  1221.5000      0.0000    615.1208     11.6690    125.4792
  1221.7500      0.0000    566.0928     12.8962    122.3422
  1222.0000      0.0000    514.7487     13.9912    118.0616
  1222.2500      0.0000    481.7908     14.7215    112.9103
  1222.5000      0.0000    483.9410     14.9491    107.7998
  1222.7500      0.0000    522.1089     14.7250    103.7695
  1223.0000      0.0000    580.3027     14.2366    101.2622
  1223.2500      0.0000    636.3448     13.6721     99.7585
  1223.5000      0.0000    674.9595     13.1419     98.2404
  1223.7500      0.0000    692.3580     12.6917     96.0215
  1224.0000      0.0000    691.3205     12.3281     93.2357
  1224.2500      0.0000    675.5118     12.0082     90.7616
  1224.5000      0.0000    649.5357     11.6255     89.6080
  1224.7500      0.0000    621.8205     11.0525     90.1174
  1225.0000      0.0000    603.0497     10.2346     91.7021
  1225.2500      0.0000    599.1146      9.2603     93.4032
  1225.5000      0.0000    605.5436      8.3288     94.7495
  1225.7500      0.0000    609.5890      7.6492     96.0727
  1226.0000      0.0000    598.4453      7.3742     98.1001
  1226.2500      0.0000    566.9781      7.5925    101.5806
  1226.5000      0.0000    519.6091      8.3189    107.5291
  1226.7500      2.0000    466.0441      9.4761    117.2083
  1227.0000     -2.0000    415.4373     10.9326    130.9115
  1227.2500      0.0000    373.4542     12.6025    146.6941
  1227.5000      0.0000    342.1877     14.5689    161.1253
  1227.7500      0.0000    320.7996     17.1549    171.5278
  1228.0000      0.0000    306.4611     20.8371    176.9760
  1228.2500      0.0000    295.9728     25.9405    177.5522
  1228.5000      0.0000    287.1872     32.2998    174.0528
  1228.7500      0.0000    279.3146     39.2159    168.5289
  1229.0000      0.0000    272.4464     45.7911    163.6802
  1229.2500      0.0000    267.0242     51.3924    161.0155
  1229.5000      0.0000    263.3425     55.9169    160.0709
  1229.7500      0.0000    261.2370     59.6764    159.5121
  1230.0000      0.0000    260.1860     63.0160    158.5455
  1230.2500      0.0000    259.6697     66.0179    157.1265
  1230.5000      0.0000    259.3845     68.5041    155.1505
  1230.7500      0.0000    259.2132     70.2429    151.9603
  1231.0000      0.0000    259.1114     71.1722    147.1186
  1231.2500      0.0000    259.0447     71.5013    141.5447
  1231.5000      0.0000    258.9799     71.6338    137.3028
