~Version Information
VERS.                      2.0: CWLS Log ASCII Standard - VERSION 2.0
WRAP.                       NO: One line per depth step
~Well Information Block
STRT.FT               453.5000: 
STOP.FT              1386.0000: 
STEP.FT                 0.1000: 
NULL.                -999.2500: 
COMP.          Petrogulf Corporation: COMPANY
WELL.          Great Plains 22-22R: WELL
FLD.           Purgatoire River: FIELD
LOC.           2042' FNL & 1657' FWL--: LOCATION
PROV.                 Colorado: PROVINCE
CNTY.               Las Animas: COUNTRY
SRVC.                Patterson: SERVICE COMPANY
DATE.          Fri Sep 09 14:42:42 2005: LOG DATE
UWI.           05 071 08028 00: UNIQUE WELL ID
~Curve Information Block
DEPT.FT            0 000 00 00: Depth
DCAL.in                       : CDL Caliper
RHOB.g/cc                     : CDL Bulk Density
RHOC.g/cc                     : CDL Density Correction
DPOR.pu                       : CDL Density Porosity
NPOR.pu                       : Neutron Porosity
GR.GAPI                       : Gamma Ray
~Parameter Information Block
~A  Depth       DCAL        RHOB        RHOC        DPOR        NPOR         GR     
# ...
   587.9000      8.0579      2.5694      0.0035      4.8862     48.3807     97.8161
   588.0000      8.0502      2.5992      0.0274      3.0798     49.7611    100.8895
   588.1000      8.0502      2.6022      0.0405      2.8942      1.5791    100.7322
   588.2000      8.0502      2.5782     -0.0515      4.3531      0.7567     99.6573
   588.3000      8.0484      2.5423     -0.0176      6.5299      1.5391    101.5874
   588.4000      8.0484      2.5174     -0.0376      8.0348      3.3430    105.3488
   588.5000      8.0484      2.5256     -0.0501      7.5376      3.3744    107.5594
   588.6000      8.0484      2.5582      0.0227      5.5638      0.9578    107.2205
   588.7000      8.0484      2.5751      0.0149      4.5405     -2.1727    104.2191
   588.8000      8.0473      2.5663     -0.0131      5.0743     -2.6541     97.0253
   588.9000      8.0473      2.5585      0.0055      5.5462     -0.3675     87.5277
   589.0000      8.0491      2.5610      0.0252      5.3962      1.6877     81.5501
   589.1000      8.0491      2.5633      0.0046      5.2554      2.0427     82.5263
   589.2000      8.0491      2.5813     -0.0518      4.1633      1.6595     87.3762
   589.3000      8.0569      2.6401      0.0157      0.5985      2.6472     90.4606
   589.4000      8.0569      2.7195      0.0861     -4.2120      3.3258     91.1140
   589.5000      8.0678      2.7823      0.0820     -8.0184      1.3960     90.5824
   589.6000      8.0678      2.8134      0.1208     -9.9035     -0.8333     88.7319
   589.7000      8.0678      2.8072      0.1075     -9.5281      1.0000     86.0714
   589.8000      8.0725      2.7760      0.0104     -7.6342      4.6266     83.8138
   589.9000      8.0725      2.7454     -0.0024     -5.7798      7.2164     82.2715
   590.0000      8.0672      2.7236     -0.0357     -4.4580      6.2990     80.9675
   590.1000      8.0672      2.7071     -0.0602     -3.4580      4.8407     79.4184
   590.2000      8.0672      2.6961     -0.1019     -2.7946      3.9240     77.5205
   590.3000      8.0579      2.6826     -0.0815     -1.9763      2.6104     76.5656
   590.4000      8.0579      2.6534     -0.0614     -0.2032      2.2160     79.6799
   590.5000      8.0581      2.6224     -0.0374      1.6698      4.3990     88.5852
   590.6000      8.0581      2.6155      0.0304      2.0920      7.3844    101.1824
   590.7000      8.0581      2.6294      0.0724      1.2478      6.3034    111.4310
   590.8000      8.0677      2.6374      0.1060      0.7629      4.0598    113.9516
   590.9000      8.0677      2.6219      0.0373      1.7030      2.9749    109.2449
   591.0000      8.0753      2.5929      0.0254      3.4580      1.8052    103.1476
   591.1000      8.0753      2.5687      0.0210      4.9275      1.3248     99.5525
   591.2000      8.0753      2.5611     -0.0269      5.3880      2.8423     99.9865
   591.3000      8.0792      2.5655      0.0393      5.1182      4.4136    104.9119
   591.4000      8.0792      2.5622      0.0097      5.3217      4.2059    109.7623
   591.5000      8.0853      2.5463     -0.0328      6.2849      2.9385    111.7481
   591.6000      8.0853      2.5346     -0.0225      6.9954      1.4434    113.4037
   591.7000      8.0853      2.5383     -0.0140      6.7692      1.1575    113.9340
   591.8000      8.1004      2.5477      0.0469      6.2006      2.6422    110.6399
   591.9000      8.1004      2.5523     -0.0177      5.9234      3.8247    104.6592
   592.0000      8.1268      2.5547      0.0335      5.7771      3.2992     98.7460
   592.1000      8.1268      2.5531     -0.0108      5.8730      3.3668     96.3092
   592.2000      8.1268      2.5455     -0.0131      6.3343      5.3859     98.3335
   592.3000      8.1546      2.5373     -0.0292      6.8275      6.7397    100.3499
   592.4000      8.1546      2.5347     -0.0123      6.9884      4.9185    100.8709
   592.5000      8.1733      2.5399     -0.0074      6.6750      3.3588    104.5024
   592.6000      8.1733      2.5524      0.0045      5.9151      3.1672    110.1356
   592.7000      8.1733      2.5654      0.0439      5.1243      2.7224    108.8151
   592.8000      8.1806      2.5741      0.0049      4.5975      1.6006    101.0441
   592.9000      8.1806      2.5839      0.0266      4.0055      1.5356     97.8356
   593.0000      8.1820      2.5944      0.0503      3.3703      2.9968    102.5201
   593.1000      8.1820      2.6003      0.0517      3.0144      3.6952    108.7441
   593.2000      8.1820      2.6031      0.0192      2.8435      2.7978    109.9207
   593.3000      8.1825      2.6009      0.0545      2.9736      1.9754    106.5468
   593.4000      8.1825      2.5921      0.0123      3.5115      1.1348    104.5887
   593.5000      8.1868      2.5863      0.0169      3.8600      0.8591    106.6794
   593.6000      8.1868      2.5856      0.0146      3.9031      2.5562    108.4682
   593.7000      8.1868      2.5842     -0.0282      3.9875      4.2996    108.5435
   593.8000      8.1970      2.5851     -0.0113      3.9329      3.2506    110.0384
   593.9000      8.1970      2.5884      0.0100      3.7325      1.4360    110.8011
   594.0000      8.2031      2.5889     -0.0105      3.7002      1.5344    107.5809
   594.1000      8.2031      2.5851      0.0195      3.9308      2.8611    103.2639
   594.2000      8.2031      2.5758      0.0187      4.4942      3.3637    103.3463
   594.3000      8.1958      2.5657      0.0151      5.1062      3.4721    107.4399
   594.4000      8.1958      2.5645      0.0236      5.1834      3.7750    110.4324
   594.5000      8.1700      2.5800     -0.0162      4.2408      2.8194    111.1801
   594.6000      8.1700      2.6179     -0.0029      1.9459      0.8667    110.0765
   594.7000      8.1700      2.6701      0.0401     -1.2204      0.3488    107.0531
   594.8000      8.1269      2.7174      0.0499     -4.0853      1.9653    103.8767
   594.9000      8.1269      2.7375      0.1222     -5.3029      2.3182    102.6449
   595.0000      8.0689      2.7160      0.0835     -3.9985      0.5490    103.4288
   595.1000      8.0689      2.6736      0.0479     -1.4297     -0.0667    101.4006
   595.2000      8.0689      2.6470     -0.0089      0.1797      1.7207     94.4902
   595.3000      8.0087      2.6416     -0.0086      0.5112      3.4930     89.6865
   595.4000      8.0087      2.6403     -0.0416      0.5875      4.2965     90.1126
   595.5000      7.9838      2.6431     -0.0637      0.4166      3.6626     91.4657
   595.6000      7.9838      2.6558     -0.0741     -0.3544      2.2459     90.5371
   595.7000      7.9838      2.6692     -0.0542     -1.1639      1.4458     88.3909
   595.8000      7.9931      2.6684      0.0144     -1.1175      2.0423     90.2116
   595.9000      7.9931      2.6482      0.0502      0.1064      3.0594     96.8730
   596.0000      7.9961      2.6305     -0.0123      1.1812      3.2153    100.7821
   596.1000      7.9961      2.6400      0.0367      0.6074      2.9121    100.5127
   596.2000      7.9961      2.6634      0.0628     -0.8116      3.1474    102.2072
   596.3000      7.9772      2.6788      0.0438     -1.7478      3.7055    106.6820
   596.4000      7.9772      2.6848      0.0610     -2.1076      4.1772    108.2053
   596.5000      7.9606      2.6845      0.0791     -2.0888      4.4224    103.1702
   596.6000      7.9606      2.6812      0.0220     -1.8912      4.4984     95.2849
   596.7000      7.9606      2.6778      0.0477     -1.6824      4.4193     90.9607
   596.8000      7.9644      2.6695      0.0415     -1.1827      4.3344     90.6538
   596.9000      7.9644      2.6547      0.0191     -0.2835      4.8019     91.5082
   597.0000      7.9872      2.6326      0.0393      1.0558      5.5507     92.7162
   597.1000      7.9872      2.6035     -0.0352      2.8175      5.2207     95.2427
   597.2000      7.9872      2.5827     -0.0782      4.0779      4.3011     99.9473
   597.3000      8.0145      2.5754     -0.0532      4.5231      4.2944    106.3653
   597.4000      8.0145      2.5730     -0.1061      4.6666      5.2693    113.7772
