~Version Information
 VERS.                                  2.0 : CWLS LAS VERSION
 WRAP.                                   NO : WRAPING MODE
 SWARE .                 MController 2.5.0J : SOFTWARE VERSION
~Well Information
 WELL.                        Montoya 1-24V : WELL
 COMP.                       Petrogulf Corp : COMPANY
 FLD.                      Purgatoire River : FIELD
 LOC.                 SE/SW Sec 1 T33S R68W : LOCATION
 DATE.                          10/19-20/04 : DATE(S) LOGGED
 SRVC.       Blanco Geological Services LLC : SERVICE COMPANY
 STAT.                                   CO : STATE
 CNTY.                           Las Animas : COUNTY
 CTRY.                                  USA : COUNTRY
 API.                       05-071-08194-00 : API NUMBER
 STRT.FT                             116.00 : START DEPTH
 STOP.FT                            2700.00 : STOP DEPTH
 STEP.FT                               1.00 : DEPTH INCREMENT
 NULL.                                -9999 : NULL VALUE
~Curve information
 DEPTH.FT                                   :
 ROP.MIN/FT                                 :
 GAS.UNITS                                  :
~ASCII Log data
# ...
      1716.0         0.23          6.9 
      1717.0         0.17          6.6 
      1718.0         0.23          6.3 
      1719.0         0.17          6.6 
      1720.0         0.17          6.9 
      1721.0         0.20          7.2 
      1722.0         0.17          7.6 
      1723.0         0.17          8.3 
      1724.0         0.17          3.9 
      1725.0         0.15          4.3 
      1726.0         0.13          4.3 
      1727.0         0.17          4.2 
      1728.0         0.13          4.2 
      1729.0         0.17          4.4 
      1730.0         0.17          4.3 
      1731.0         0.13          4.2 
      1732.0         0.17          6.3 
      1733.0         0.30         19.4 
      1734.0         0.27         32.1 
      1735.0         0.47         50.7 
      1736.0         0.33         45.2 
      1737.0         0.33         34.3 
      1738.0         0.33         20.1 
      1739.0         0.30         14.5 
      1740.0         0.23         11.3 
      1741.0         0.20          8.3 
      1742.0         0.28          6.9 
      1743.0         0.33          7.2 
      1744.0         0.17          7.1 
      1745.0         0.13          7.0 
      1746.0         0.20          7.1 
      1747.0         0.23          8.2 
      1748.0         0.23          9.0 
      1749.0         0.23          8.7 
      1750.0         0.17         12.2 
      1751.0         0.17         12.2 
      1752.0         0.17         34.0 
      1753.0         0.20         69.4 
      1754.0         0.30        296.9 
      1755.0         0.20         37.5 
      1756.0         0.13         64.5 
      1757.0         0.17         84.7 
      1758.0         0.25        142.2 
      1759.0         0.23        184.4 
      1760.0         0.20        200.0 
      1761.0         0.17        200.0 
      1762.0         0.23        195.7 
      1763.0         0.17        184.0 
      1764.0         0.23        165.7 
      1765.0         0.10        136.2 
      1766.0         0.23        130.2 
      1767.0         0.33        143.1 
      1768.0         0.37        147.6 
      1769.0         0.30        133.8 
      1770.0         0.25        134.4 
      1771.0         0.20        133.5 
      1772.0         0.20        125.5 
      1773.0         0.23        122.3 
      1774.0         0.27        118.4 
      1775.0         0.23        110.1 
      1776.0         0.20        106.4 
      1777.0         0.23        112.4 
      1778.0         0.20        112.4 
      1779.0         0.20        117.6 
      1780.0         0.17        123.2 
      1781.0         0.17        169.6 
      1782.0         0.20        199.0 
      1783.0         0.17        199.0 
      1784.0         0.20        165.9 
      1785.0         0.17        121.7 
      1786.0         0.17         37.8 
      1787.0         0.18         48.8 
      1788.0         0.17         53.4 
      1789.0         0.17         53.4 
      1790.0         0.27         62.1 
      1791.0         0.27         68.9 
      1792.0         0.10         68.9 
      1793.0         0.27         76.2 
      1794.0         0.27         82.7 
      1795.0         0.30         81.8 
      1796.0         0.33         71.9 
      1797.0         0.40         58.7 
      1798.0         0.43         61.4 
      1799.0         0.60         59.8 
      1800.0         0.23         52.3 
      1801.0         0.20         47.6 
      1802.0         0.25         48.1 
      1803.0         0.23         47.8 
      1804.0         0.27         48.6 
      1805.0         0.23         50.7 
      1806.0         0.20         52.2 
      1807.0         0.27         56.2 
      1808.0         0.17         54.8 
      1809.0         0.20         53.3 
      1810.0         0.17         51.3 
      1811.0         0.17         50.8 
      1812.0         0.17         50.8 
      1813.0         0.23         76.7 
      1814.0         0.23         28.6 
      1815.0         0.17         52.2 
      1816.0         0.17         52.2 
      1817.0         0.17         73.7 
      1818.0         0.17         73.7 
      1819.0         0.18         91.7 
      1820.0         0.23         91.0 
      1821.0         0.17         89.8 
      1822.0         0.17         81.0 
      1823.0         0.17         76.8 
      1824.0         0.13         60.4 
      1825.0         0.43         46.8 
      1826.0         0.20         40.4 
      1827.0         0.27         41.3 
      1828.0         0.27         40.0 
      1829.0         0.27         35.6 
      1830.0         0.30         34.4 
      1831.0         0.25         31.4 
      1832.0         0.23         32.5 
      1833.0         0.30         32.2 
      1834.0         0.30         33.4 
      1835.0         0.20         35.5 
      1836.0         0.17         35.4 
      1837.0         0.17         36.1 
      1838.0         0.17         34.9 
      1839.0         0.20         31.6 
      1840.0         0.20         30.7 
      1841.0         0.20         26.0 
      1842.0         0.17         24.3 
      1843.0         0.23         27.1 
      1844.0         0.20         50.2 
      1845.0         0.17          7.3 
      1846.0         0.17          8.0 
      1847.0         0.18          8.0 
      1848.0         0.17         19.7 
      1849.0         0.20         24.2 
      1850.0         0.20         38.9 
      1851.0         0.17         56.2 
      1852.0         0.17         78.0 
      1853.0         0.17         78.0 
      1854.0         0.27         94.0 
      1855.0         0.27         97.0 
      1856.0         0.33         85.5 
      1857.0         0.37         66.8 
      1858.0         0.30         43.0 
      1859.0         0.23         34.3 
      1860.0         0.23         31.8 
      1861.0         0.27         30.9 
      1862.0         0.25         30.9 
      1863.0         0.20         27.3 
      1864.0         0.23         26.0 
      1865.0         0.23         24.6 
      1866.0         0.23         22.7 
      1867.0         0.23         22.6 
      1868.0         0.23         23.2 
      1869.0         0.20         22.7 
      1870.0         0.17         23.4 
      1871.0         0.23         24.5 
      1872.0         0.20         26.1 
      1873.0         0.20         46.3 
      1874.0         0.20          8.2 
      1875.0         0.20          8.0 
      1876.0         0.17          6.6 
      1877.0         0.20          6.8 
      1878.0         0.17          6.3 
      1879.0         0.22          6.6 
      1880.0         0.17          7.8 
      1881.0         0.20         12.9 
      1882.0         0.17         29.2 
      1883.0         0.17         37.1 
      1884.0         0.13         49.8 
      1885.0         0.63         94.1 
      1886.0         0.33         94.6 
      1887.0         0.30         68.2 
      1888.0         0.23         63.2 
      1889.0         0.27         45.8 
      1890.0         0.27         30.4 
      1891.0         0.27         27.4 
      1892.0         0.23         24.7 
      1893.0         0.20         24.4 
      1894.0         0.20         24.6 
      1895.0         0.20         25.1 
      1896.0         0.22         25.0 
      1897.0         0.20         25.0 
      1898.0         0.20         24.2 
      1899.0         0.20         23.1 
      1900.0         0.20         21.6 
      1901.0         0.17         19.8 
      1902.0         0.20         18.4 
      1903.0         0.17         18.5 
      1904.0         0.20         18.1 
      1905.0         0.20         34.5 
      1906.0         0.23          5.9 
      1907.0         0.20          5.7 
      1908.0         0.23          5.3 
      1909.0         0.20          6.7 
      1910.0         0.23          9.5 
      1911.0         0.17         14.2 
      1912.0         0.23         28.3 
      1913.0         0.25         43.3 
      1914.0         0.23         58.8 
      1915.0         0.27         73.2 
