~Version Information
VERS.                      2.0: CWLS Log ASCII Standard - VERSION 2.0
WRAP.                       NO: One line per depth step
~Well Information Block
STRT.FT               -19.0000: 
STOP.FT              1343.5000: 
STEP.FT                 0.5000: 
NULL.                -999.2500: 
COMP.          Evergreen Operating Corporation: COMPANY
WELL.            Trigger 13-35: WELL
FLD.           Purgatorie River: FIELD
LOC.           2245' FSL & 594' FWL: LOCATION
PROV.                 Colorado: PROVINCE
CNTY.               Las Animas: COUNTRY
SRVC.                         : SERVICE COMPANY
DATE.          Mon Jun 23 12:06:52 2003: LOG DATE
UWI.           05-071-07838-00: UNIQUE WELL ID
~Curve Information Block
DEPT.FT            0 000 00 00: Depth
TT3.usec                      : CBL 3' Travel Time
AMP3.mV                       : CBL 3' Amplitude
GR.GAPI                       : Gamma Ray
CCL.                          : Casing Collar Locator
~Parameter Information Block
~A  Depth       TT3         AMP3         GR         CCL     
# ...
    48.0000    407.4813      3.0964     58.0108      0.0000
    48.5000    407.3584      3.1183     62.9585      0.0000
    49.0000    407.2663      3.0965     59.8102      0.0000
    49.5000    407.4100      3.1393     58.7587      0.0000
    50.0000    408.3252      3.2825     63.6519      0.0000
    50.5000    414.8799      3.2399     65.6935      0.0000
    51.0000    429.8571      3.1956     66.2859      0.0000
    51.5000    427.9915      3.2086     69.8036      0.0000
    52.0000    422.5903      3.2622     72.0992      0.0000
    52.5000    415.7606      3.2847     70.1073      0.0000
    53.0000    424.8958      3.2267     74.9246      0.0000
    53.5000    445.0652      3.0962     86.9252      0.0000
    54.0000    451.6978      2.9618     87.9044      0.0000
    54.5000    452.6667      2.9758     74.9990      0.0000
    55.0000    454.3019      3.0226     62.8610      0.0000
    55.5000    460.0434      3.0252     64.1873      0.0000
    56.0000    473.6657      3.0282     77.4640      0.0000
    56.5000    487.8716      2.9067     86.2160      0.0000
    57.0000    498.4478      2.8420     87.7337      0.0000
    57.5000    503.3149      2.8283     90.1193      0.0000
    58.0000    512.0032      2.7464     91.7846      0.0000
    58.5000    513.9604      2.7832     89.8552      0.0000
    59.0000    525.7991      2.7544     88.4392      0.0000
    59.5000    584.2534      2.5476     90.4950      0.0000
    60.0000    654.6204      2.4580     91.3642      0.0000
    60.5000    734.2263      2.3881     90.0885      0.0000
    61.0000    806.3816      2.3206     90.0203      0.0000
    61.5000    873.6711      2.2748     93.8096      0.0000
    62.0000    864.0131      2.2256     96.2729      0.0000
    62.5000    856.6220      2.1838     97.5851      0.0000
    63.0000    877.3535      2.2317    100.9420      0.0000
    63.5000    884.2465      2.3787    109.6943      0.0000
    64.0000    859.1478      2.5965    110.1716      0.0000
    64.5000    873.4059      2.6367     90.3692      0.0000
    65.0000    915.9714      2.5826     73.3040      0.0000
    65.5000    902.2493      2.5148     77.1953      0.0000
    66.0000    808.7958      2.4747     85.8227      0.0000
    66.5000    742.7542      2.4318     85.8700      0.0000
    67.0000    762.0369      2.2700     84.5561      0.0000
    67.5000    756.1857      2.0834     84.5381      0.0000
    68.0000    727.8680      2.0067     85.5240      0.0000
    68.5000    717.9278      1.9717     85.7284      0.0000
    69.0000    714.7416      1.9991     86.3328      0.0000
    69.5000    705.9189      1.9691     83.9099      0.0000
    70.0000    701.7472      1.9069     76.4215      0.0000
    70.5000    701.9816      1.9306     70.0024      0.0000
    71.0000    702.0059      1.9179     70.8021      0.0000
    71.5000    701.6606      1.8548     77.4127      0.0000
    72.0000    701.7069      1.8715     84.0877      0.0000
    72.5000    701.9435      1.9713     87.2192      0.0000
    73.0000    702.0414      2.0248     88.1846      0.0000
    73.5000    706.9670      2.0431     88.1031      0.0000
    74.0000    725.7975      2.0829     85.7906      0.0000
    74.5000    738.3832      2.1005     85.0949      0.0000
    75.0000    739.4932      2.0987     91.4029      0.0000
    75.5000    739.6862      2.1223     96.5500      0.0000
    76.0000    743.2582      2.2848     93.3148      0.0000
    76.5000    748.1420      2.3924     83.7470      0.0000
    77.0000    741.3039      2.4221     74.9973      0.0000
    77.5000    739.0959      2.3851     74.5372      0.0000
    78.0000    751.8768      2.3290     74.7392      0.0000
    78.5000    767.1012      2.2821     74.4663      0.0000
    79.0000    766.6854      2.3382     85.8074      0.0000
    79.5000    772.6440      2.3279    101.6673      0.0000
    80.0000    776.5712      2.3146    104.2240      0.0000
    80.5000    777.5356      2.2199     97.3451      0.0000
    81.0000    778.2135      2.1197     96.9706      0.0000
    81.5000    779.0543      1.9978    101.1749      0.0000
    82.0000    782.3200      1.8801     97.6890      0.0000
    82.5000    803.6617      1.8937     87.8857      0.0000
    83.0000    844.0673      1.9742     83.6067      0.0000
    83.5000    855.2037      1.9745     84.5327      0.0000
    84.0000    826.6675      2.0131     79.9797      0.0000
    84.5000    821.5547      2.0774     72.4465      0.0000
    85.0000    860.3405      2.0717     74.4726      0.0000
    85.5000    876.9517      2.0896     84.5291      0.0000
    86.0000    812.0678      2.0364     90.8953      0.0000
    86.5000    714.7343      1.8610     87.6750      0.0000
    87.0000    745.6371      1.6337     80.0753      0.0000
    87.5000    819.7642      1.5583     78.2207      5.0000
    88.0000    862.7001      1.6015     89.5337     -5.0000
    88.5000    842.1078      1.6240    101.8925      0.0000
    89.0000    800.5007      1.7026    102.3508      0.0000
    89.5000    796.1444      1.9530     94.2374      0.0000
    90.0000    763.0176      2.0780     83.9178      0.0000
    90.5000    762.8130      2.1291     78.7302      0.0000
    91.0000    737.2383      2.1257     75.6688      0.0000
    91.5000    732.9555      2.1160     66.4139      0.0000
    92.0000    733.7664      2.0997     51.4158      0.0000
    92.5000    662.4388      2.0282     42.0334      0.0000
    93.0000    579.6653      1.9380     41.6566      0.0000
    93.5000    561.6221      1.9670     45.7280      0.0000
    94.0000    585.1255      2.1067     48.1289      0.0000
    94.5000    639.0250      2.3075     46.6870      0.0000
    95.0000    727.2935      2.4738     43.2694      0.0000
    95.5000    771.4074      2.6007     38.4411      0.0000
    96.0000    776.4374      2.7029     35.2498      0.0000
    96.5000    777.0615      2.7976     40.4450      0.0000
    97.0000    778.8544      2.7866     48.9626      0.0000
    97.5000    748.0231      2.6753     51.6055      0.0000
    98.0000    741.5901      2.4863     48.9764      0.0000
    98.5000    767.1982      2.4157     47.4056      0.0000
    99.0000    725.1738      2.3635     49.6471      0.0000
    99.5000    666.4010      2.2701     49.2940      0.0000
   100.0000    687.0510      2.2216     50.0001      0.0000
   100.5000    712.7253      2.2343     55.7755      0.0000
   101.0000    727.8954      2.2502     63.2808      0.0000
   101.5000    766.7883      2.3352     67.4352      0.0000
   102.0000    785.5276      2.3829     75.2917      0.0000
   102.5000    797.6727      2.4305     87.7429      0.0000
   103.0000    807.3815      2.5209     83.5343      0.0000
   103.5000    808.8279      2.5450     65.6878      0.0000
   104.0000    812.2248      2.5924     54.7566      0.0000
   104.5000    824.5939      2.6822     52.6257      0.0000
   105.0000    837.5416      2.7307     56.7688      0.0000
   105.5000    862.6370      2.5821     69.8122      0.0000
   106.0000    863.5154      2.4118     86.2923      0.0000
   106.5000    834.3809      2.3298     95.8584      0.0000
   107.0000    828.3680      2.3741     99.1737      0.0000
   107.5000    818.7996      2.3952     98.0018      0.0000
   108.0000    803.9460      2.3471     85.1799      0.0000
   108.5000    782.7893      2.3095     66.7327      0.0000
   109.0000    803.5662      2.3547     60.6857      0.0000
   109.5000    849.6235      2.3904     68.0038      0.0000
   110.0000    834.0215      2.4001     78.3486      0.0000
   110.5000    819.2653      2.4271     84.3235      0.0000
   111.0000    850.9415      2.4357     81.1962      0.0000
   111.5000    889.9487      2.4243     72.8166      0.0000
   112.0000    899.8953      2.4544     65.9041      0.0000
   112.5000    883.5310      2.4715     57.8576      0.0000
   113.0000    872.2504      2.4937     50.1594      0.0000
   113.5000    823.3079      2.4690     48.5596      0.0000
   114.0000    798.3271      2.4597     49.9409      0.0000
   114.5000    829.4456      2.4347     47.3987      0.0000
