~Version Information
VERS.                      2.0: CWLS Log ASCII Standard - VERSION 2.0
WRAP.                       NO: One line per depth step
~Well Information Block
STRT.FT                -8.2500: 
STOP.FT              2209.7500: 
STEP.FT                 0.2500: 
NULL.                -999.2500: 
COMP.          Petrogulf Corporation: COMPANY
WELL.          Alexander 9-43V: WELL
FLD.           Purgatorie River: FIELD
LOC.                          : LOCATION
CNTY.               Las Animas: COUNTY
SRVC.                         : SERVICE COMPANY
DATE.          Wed May 28 09:25:28 2003: LOG DATE
UWI.           05 071 07727 00: UNIQUE WELL ID
STAT.                 Colorado: STATE
~Curve Information Block
DEPT.FT            0 000 00 00: Depth
CCL.                          : Casing Collar Locator
TT3.usec                      : CBL 3' Travel Time
AMP3.mV                       : CBL 3' Amplitude
GR.GAPI                       : Gamma Ray
~Parameter Information Block
~A  Depth       CCL         TT3         AMP3         GR     
# ...
   996.7500      0.0000    500.1378      5.1599    144.3591
   997.0000      0.0000    501.1887      5.1019    148.6241
   997.2500      0.0000    506.6087      4.9550    151.1000
   997.5000      0.0000    513.5537      4.8849    150.8415
   997.7500      0.0000    519.5830      5.0009    148.0169
   998.0000      0.0000    523.4739      5.2866    143.5829
   998.2500      0.0000    525.7217      5.6330    138.8830
   998.5000      0.0000    528.1029      5.9286    135.4496
   998.7500      0.0000    532.4663      6.1134    134.2772
   999.0000      0.0000    539.6048      6.1697    134.8512
   999.2500      0.0000    549.5499      6.1016    135.3685
   999.5000      0.0000    563.0245      5.9339    134.1675
   999.7500      0.0000    581.2992      5.7098    130.6963
  1000.0000      0.0000    603.7559      5.4747    125.3328
  1000.2500      0.0000    627.0142      5.2644    119.0798
  1000.5000      0.0000    647.3907      5.1060    113.5678
  1000.7500      0.0000    662.9680      5.0182    110.5790
  1001.0000      0.0000    672.8586      5.0019    111.0195
  1001.2500      0.0000    676.2322      5.0384    114.3573
  1001.5000      0.0000    673.1801      5.1058    119.0942
  1001.7500      0.0000    665.7921      5.1970    123.8365
  1002.0000      0.0000    657.5685      5.3098    128.0616
  1002.2500      0.0000    651.8491      5.4127    131.8095
  1002.5000      0.0000    650.6791      5.4316    134.6512
  1002.7500      0.0000    654.4720      5.2926    135.3215
  1003.0000      0.0000    662.0539      4.9941    132.5090
  1003.2500      0.0000    671.0343      4.6291    125.8710
  1003.5000      0.0000    678.8032      4.3336    116.6139
  1003.7500      0.0000    683.7511      4.2159    107.3642
  1004.0000      0.0000    685.6378      4.3177    100.8884
  1004.2500      0.0000    684.9769      4.5940     98.2058
  1004.5000      0.0000    682.4396      4.9140     98.0912
  1004.7500      0.0000    678.8270      5.1315     98.6326
  1005.0000      0.0000    674.9792      5.1924     98.8516
  1005.2500      0.0000    671.4753      5.1583     98.6544
  1005.5000      0.0000    668.9417      5.1144     97.9443
  1005.7500      0.0000    668.6629      5.0894     96.3372
  1006.0000      0.0000    671.8707      5.0736     93.6383
  1006.2500      0.0000    678.0129      5.0542     90.2969
  1006.5000      0.0000    684.5485      4.9907     87.1340
  1006.7500      0.0000    688.9484      4.8085     84.4935
  1007.0000      0.0000    690.5918      4.4785     81.8909
  1007.2500      0.0000    690.6214      4.0903     78.7537
  1007.5000      0.0000    690.3115      3.7988     75.3659
  1007.7500      0.0000    689.8261      3.6823     72.8056
  1008.0000      0.0000    688.3770      3.6733     71.8622
  1008.2500      0.0000    685.2639      3.6343     72.0696
  1008.5000      0.0000    680.7830      3.4889     72.0027
  1008.7500      0.0000    676.2255      3.2786     70.5505
  1009.0000      0.0000    672.7069      3.1149     67.7261
  1009.2500      0.0000    670.0643      3.0816     64.3372
  1009.5000      0.0000    667.4853      3.1718     61.3314
  1009.7500      0.0000    665.1810      3.3014     59.4886
  1010.0000      0.0000    664.7092      3.3786     59.1202
  1010.2500      0.0000    667.5085      3.3610     59.6152
  1010.5000      0.0000    673.3967      3.2608     59.7890
  1010.7500      0.0000    680.2540      3.1184     59.3065
  1011.0000      0.0000    685.2310      2.9806     59.6042
  1011.2500      0.0000    686.9576      2.9021     63.0954
  1011.5000      0.0000    686.6177      2.9526     71.4644
  1011.7500      0.0000    686.2808      3.1947     84.5057
  1012.0000      0.0000    686.6722      3.6355    100.0195
  1012.2500      0.0000    687.3126      4.2018    114.6850
  1012.5000      0.0000    687.6985      4.7764    125.5788
  1012.7500      0.0000    686.3227      5.2642    131.5607
  1013.0000      0.0000    679.1213      5.6323    133.6751
  1013.2500      0.0000    661.6910      5.8993    134.2793
  1013.5000      0.0000    634.1237      6.0977    135.6494
  1013.7500      0.0000    602.1659      6.2432    139.1658
  1014.0000      0.0000    573.2720      6.3351    145.0504
  1014.2500      0.0000    552.6756      6.3795    151.9798
  1014.5000      0.0000    541.9363      6.4003    157.2552
  1014.7500      0.0000    538.2377      6.4172    158.5159
  1015.0000      0.0000    535.5593      6.4148    155.5792
  1015.2500      0.0000    529.4728      6.3498    150.2723
  1015.5000      0.0000    520.8976      6.1935    144.6373
  1015.7500      0.0000    513.6243      5.9533    139.6711
  1016.0000      0.0000    509.3836      5.6518    135.5421
  1016.2500      3.5437    507.7076      5.2958    132.3697
  1016.5000      0.0000    509.4554      4.8776    130.3989
  1016.7500      5.0000    517.1377      4.4105    129.3842
  1017.0000      0.0000    530.5337      3.9673    127.8817
  1017.2500      0.0000    544.1595      3.6764    123.5080
  1017.5000      0.0000    551.4093      3.6572    114.6315
  1017.7500      0.0000    551.0590      3.9396    102.1839
  1018.0000      0.0000    548.2463      4.4362     89.5192
  1018.2500      0.0000    549.2195      4.9953     80.2699
  1018.5000      0.0000    556.0824      5.4847     76.4658
  1018.7500      0.0000    566.0042      5.8401     78.3727
  1019.0000      0.0000    574.3275      6.0547     85.1123
  1019.2500      0.0000    578.6554      6.1445     94.9444
  1019.5000      0.0000    580.4819      6.1286    105.4180
  1019.7500      0.0000    583.1564      6.0233    114.0519
  1020.0000      0.0000    588.9998      5.8359    119.2395
  1020.2500      0.0000    597.8754      5.5653    120.4702
  1020.5000      0.0000    606.3447      5.2214    117.9221
  1020.7500      0.0000    608.2373      4.8498    112.3707
  1021.0000      0.0000    598.4896      4.5318    105.6399
  1021.2500      0.0000    578.2155      4.3536    100.5500
  1021.5000      0.0000    555.7270      4.3598     99.6793
  1021.7500      0.0000    542.0533      4.5213    103.8398
  1022.0000      0.0000    544.2333      4.7452    111.6450
  1022.2500      0.0000    561.2967      4.9256    120.3269
  1022.5000      0.0000    585.7626      4.9955    126.8879
  1022.7500      0.0000    609.1928      4.9495    129.0835
  1023.0000      0.0000    627.1021      4.8365    126.4195
  1023.2500      0.0000    640.0587      4.7253    120.6806
  1023.5000      0.0000    651.1707      4.6605    115.0686
  1023.7500      0.0000    662.3151      4.6400    112.2916
  1024.0000      0.0000    672.2769      4.6301    113.2485
  1024.2500      0.0000    677.9703      4.5905    117.3279
  1024.5000      0.0000    676.6028      4.4889    123.4991
  1024.7500      0.0000    666.5204      4.3126    130.7318
  1025.0000      0.0000    647.2949      4.0917    137.9527
  1025.2500      0.0000    620.5755      3.9126    144.5629
  1025.5000      0.0000    590.8301      3.8913    150.8478
  1025.7500      0.0000    564.0556      4.1113    156.8336
  1026.0000      0.0000    544.6719      4.5673    160.8775
  1026.2500      0.0000    533.2675      5.1485    160.7309
  1026.5000      0.0000    527.0983      5.6773    156.2834
  1026.7500      0.0000    522.4214      5.9907    150.0813
  1027.0000      0.0000    516.3344      6.0146    144.8790
  1027.2500      0.0000    507.2692      5.7859    141.6786
  1027.5000      0.0000    494.9043      5.4346    140.2994
  1027.7500      0.0000    480.0055      5.1456    140.6451
  1028.0000      0.0000    464.0006      5.0844    142.7354
  1028.2500      0.0000    448.4965      5.3007    145.8969
  1028.5000      0.0000    435.1045      5.6920    148.5579
  1028.7500      0.0000    425.2528      6.0752    149.1860
  1029.0000      0.0000    419.7020      6.2998    147.4393
  1029.2500      0.0000    418.3742      6.2999    144.2040
  1029.5000      0.0000    420.8165      6.0798    140.6808
  1029.7500      0.0000    426.5597      5.6959    137.7208
  1030.0000      0.0000    434.7695      5.2600    135.9738
