~Version Information
VERS.                      2.0: CWLS Log ASCII Standard - VERSION 2.0
WRAP.                       NO: One line per depth step
~Well Information Block
STRT.FT               700.0000: 
STOP.FT              1869.5000: 
STEP.FT                 0.1000: 
NULL.                -999.2500: 
COMP.          Petrogulf Corporation: COMPANY
WELL.             State 16-24R: WELL
FLD.           Purgatorie River: FIELD
LOC.           541' FSL & 2371' FWL: LOCATION
PROV.                 Colorado: PROVINCE
CNTY.               Las Animas: COUNTRY
SRVC.                Patterson: SERVICE COMPANY
DATE.          Fri Aug 12 09:07:22 2005: LOG DATE
UWI.                071-08312 : UNIQUE WELL ID
~Curve Information Block
DEPT.FT            0 000 00 00: Depth
DCAL.in                       : CDL Caliper
RHOB.g/cc                     : CDL Bulk Density
RHOC.g/cc                     : CDL Density Correction
DPOR.pu                       : CDL Density Porosity
GR.GAPI                       : Gamma Ray
NPOR.pu                       : Neutron Porosity
~Parameter Information Block
~A  Depth       DCAL        RHOB        RHOC        DPOR         GR         NPOR    
# ...
  1679.2000      7.8998      2.5876      0.0424      3.7804    123.8758     25.3197
  1679.3000      7.9162      2.5678      0.0253      4.9791    123.4929     24.9159
  1679.4000      7.9162      2.5530      0.0404      5.8772    120.1394     24.3589
  1679.5000      7.9152      2.5465      0.0067      6.2751    117.6321     24.2059
  1679.6000      7.9152      2.5520      0.0209      5.9400    120.0015     24.4900
  1679.7000      7.9152      2.5635      0.0745      5.2399    125.1957     24.7554
  1679.8000      7.8793      2.5641      0.0820      5.2037    128.4293     24.7442
  1679.9000      7.8793      2.5565      0.0215      5.6673    126.3060     24.4289
  1680.0000      7.8748      2.5607      0.0709      5.4098    120.3693     23.9722
  1680.1000      7.8748      2.5775      0.1078      4.3919    115.7702     23.6256
  1680.2000      7.8748      2.5858      0.1217      3.8886    112.9148     23.6371
  1680.3000      7.9106      2.5781      0.0394      4.3583    110.4626     24.0693
  1680.4000      7.9106      2.5674      0.0708      5.0084    111.1888     24.8000
  1680.5000      7.8796      2.5591      0.0862      5.5092    118.2683     25.4343
  1680.6000      7.8796      2.5494      0.0797      6.0949    129.6392     25.5720
  1680.7000      7.8796      2.5382      0.0909      6.7741    138.4953     25.4927
  1680.8000      7.8286      2.5275      0.0647      7.4214    141.0819     25.6121
  1680.9000      7.8286      2.5218      0.0677      7.7690    140.6328     25.7652
  1681.0000      7.8309      2.5211      0.0557      7.8123    140.2342     25.8064
  1681.1000      7.8309      2.5184      0.1008      7.9765    140.6267     25.8985
  1681.2000      7.8309      2.5144      0.0408      8.2186    143.0137     26.2620
  1681.3000      7.8805      2.5177      0.0902      8.0197    146.3560     26.8691
  1681.4000      7.8805      2.5249      0.0507      7.5839    145.9509     27.5687
  1681.5000      7.9195      2.5278      0.0814      7.4086    140.1998     28.0350
  1681.6000      7.9195      2.5290      0.0480      7.3305    135.5693     27.9349
  1681.7000      7.9195      2.5319      0.0784      7.1559    136.7727     27.6130
  1681.8000      7.9165      2.5293      0.0719      7.3136    140.2419     27.4236
  1681.9000      7.9165      2.5224      0.0643      7.7360    140.3461     27.2951
  1682.0000      7.9148      2.5117      0.0811      8.3805    135.2063     27.3359
  1682.1000      7.9148      2.4889      0.0488      9.7623    130.5503     27.5072
  1682.2000      7.9148      2.4657     -0.0219     11.1699    133.0028     27.6131
  1682.3000      7.9019      2.4631      0.0594     11.3297    140.6811     27.8026
  1682.4000      7.9019      2.4752      0.0949     10.5956    146.7114     28.0963
  1682.5000      7.9000      2.4874      0.1012      9.8519    146.4742     28.0976
  1682.6000      7.9000      2.5019      0.1153      8.9736    141.9576     27.7213
  1682.7000      7.9000      2.5211      0.1559      7.8147    138.5790     27.4365
  1682.8000      7.8214      2.5276      0.2406      7.4194    138.7494     27.6651
  1682.9000      7.8214      2.5003      0.2443      9.0739    140.8198     28.2531
  1683.0000      7.7921      2.4517      0.1648     12.0185    141.4551     28.5820
  1683.1000      7.7921      2.4208      0.1078     13.8889    138.9617     28.4809
  1683.2000      7.7921      2.4222      0.1724     13.8031    135.1889     28.3393
  1683.3000      7.8045      2.4450      0.1121     12.4272    132.2763     28.4167
  1683.4000      7.8045      2.4844      0.1110     10.0387    129.3960     28.9045
  1683.5000      7.8731      2.5292      0.2509      7.3185    126.2038     29.6410
  1683.6000      7.8731      2.5574      0.2589      5.6140    125.1628     30.1457
  1683.7000      7.8731      2.5567      0.2616      5.6567    127.3130     30.3641
  1683.8000      7.9185      2.5180      0.2854      8.0027    129.8457     30.4227
  1683.9000      7.9185      2.4420      0.2198     12.6088    131.9775     30.3970
  1684.0000      7.9249      2.3651      0.1005     17.2690    136.5154     30.2760
  1684.1000      7.9249      2.3349      0.0768     19.0960    141.6226     30.0509
  1684.2000      7.9249      2.3596      0.1748     17.5973    143.1716     29.9627
  1684.3000      7.8720      2.4134      0.1968     14.3390    143.6404     30.4276
  1684.4000      7.8720      2.4757      0.2609     10.5634    146.6943     31.3108
  1684.5000      7.9488      2.5306      0.3487      7.2387    150.3709     31.6269
  1684.6000      7.9488      2.5600      0.3872      5.4534    151.6391     30.8523
  1684.7000      7.9488      2.5651      0.3262      5.1470    150.1680     29.8467
  1684.8000      7.9948      2.5628      0.2884      5.2847    147.9459     29.7900
  1684.9000      7.9948      2.5571      0.2991      5.6324    146.5515     30.4660
  1685.0000      8.0948      2.5413      0.2280      6.5898    146.8273     30.8790
  1685.1000      8.0948      2.5214      0.1424      7.7927    148.4227     30.7964
  1685.2000      8.0948      2.5129      0.0687      8.3072    149.3274     30.5525
  1685.3000      8.1235      2.5188      0.1073      7.9519    146.9106     30.4413
  1685.4000      8.1235      2.5287      0.0852      7.3544    142.1494     30.2082
  1685.5000      8.0231      2.5395      0.0722      6.6978    139.0862     29.4707
  1685.6000      8.0231      2.5484      0.0838      6.1548    136.5724     28.4115
  1685.7000      8.0231      2.5450      0.0595      6.3607    131.4486     27.6796
  1685.8000      7.9372      2.5287      0.0371      7.3511    125.3844     27.7264
  1685.9000      7.9372      2.5114      0.0337      8.4018    122.3830     28.0905
  1686.0000      7.9301      2.5060      0.0041      8.7256    125.3485     28.1099
  1686.1000      7.9301      2.5148      0.0419      8.1966    131.4966     28.0834
  1686.2000      7.9301      2.5259      0.0675      7.5233    135.5002     28.5977
  1686.3000      7.9303      2.5305      0.0702      7.2410    136.4082     29.3332
  1686.4000      7.9303      2.5293      0.0623      7.3173    135.6198     29.9512
  1686.5000      7.9132      2.5205      0.0949      7.8505    135.5342     30.3002
  1686.6000      7.9132      2.5043      0.0502      8.8276    138.0776     29.8673
  1686.7000      7.9132      2.4927      0.0699      9.5332    140.4241     28.6960
  1686.8000      7.8586      2.4978      0.0722      9.2265    140.3634     27.7530
  1686.9000      7.8586      2.5239      0.0742      7.6398    138.0083     27.7156
  1687.0000      7.8303      2.5728      0.0418      4.6785    131.2289     28.2136
  1687.1000      7.8303      2.6344      0.1358      0.9427    120.1595     28.5797
  1687.2000      7.8303      2.6809      0.2034     -1.8755    107.9985     28.5189
  1687.3000      7.8466      2.7003      0.1609     -3.0507     97.8644     27.9387
  1687.4000      7.8466      2.7078      0.1531     -3.5001     93.9042     27.1244
  1687.5000      7.8005      2.7151      0.1169     -3.9457     95.7715     26.7948
  1687.6000      7.8005      2.7181      0.1477     -4.1245     97.1543     26.8041
  1687.7000      7.8005      2.7076      0.0788     -3.4895     93.8077     26.1169
  1687.8000      7.7288      2.6920      0.0099     -2.5440     87.8212     24.6931
  1687.9000      7.7288      2.6812      0.0926     -1.8926     82.9753     23.2754
  1688.0000      7.8600      2.6651      0.0685     -0.9144     80.2316     22.0980
  1688.1000      7.8600      2.6415      0.0377      0.5174     78.9834     20.9539
  1688.2000      7.8600      2.6255      0.0285      1.4834     77.7105     19.7853
  1688.3000      7.9101      2.6292      0.0037      1.2633     76.2291     18.7087
  1688.4000      7.9101      2.6532      0.0366     -0.1948     75.6034     17.8514
  1688.5000      7.8600      2.6845      0.0669     -2.0889     74.8154     17.3140
  1688.6000      7.8600      2.7027      0.1002     -3.1926     73.7553     17.1683
  1688.7000      7.8600      2.6951      0.0827     -2.7307     73.3604     17.5304
