~Version Information
VERS.                      2.0: CWLS Log ASCII Standard - VERSION 2.0
WRAP.                       NO: One line per depth step
~Well Information Block
STRT.FT               -13.5000: 
STOP.FT              2474.2500: 
STEP.FT                 0.2500: 
NULL.                -999.2500: 
COMP.          Pioneer Natural Resources: COMPANY
WELL.              Tiaga 23-14: WELL
FLD.           Purgatorie River: FIELD
LOC.           2168' FSL & 2030' FWL--: LOCATION
PROV.                       CO: PROVINCE
CNTY.               Las Animas: COUNTRY
SRVC.                         : SERVICE COMPANY
DATE.          Thu May 12 17:01:37 2005: LOG DATE
UWI.                          : UNIQUE WELL ID
~Curve Information Block
DEPT.FT            0 000 00 00: Depth
TT3.usec                      : CBL 3' Travel Time
AMP3.mV                       : CBL 3' Amplitude
GR.GAPI                       : Gamma Ray
CCL.                          : Casing Collar Locator
~Parameter Information Block
~A  Depth       TT3         AMP3         GR         CCL     
# ...
  1929.5000    564.0402      8.7950    119.7868      0.0000
  1929.7500    555.7094      8.9612    122.9715      0.0000
  1930.0000    551.1474      9.1077    127.8576      0.0000
  1930.2500    548.7567      9.1903    131.9403      0.0000
  1930.5000    554.4510      9.1993    131.6559      0.0000
  1930.7500    573.5103      9.1781    125.5304      0.0000
  1931.0000    600.0449      9.1763    115.4574      0.0000
  1931.2500    625.4643      9.2036    105.2588      0.0000
  1931.5000    648.8587      9.2406     98.3836      0.0000
  1931.7500    668.6937      9.2661     96.3806      0.0000
  1932.0000    679.8085      9.2834     98.4653      0.0000
  1932.2500    679.7731      9.3174    102.0192      0.0000
  1932.5000    669.5089      9.3663    103.8367      0.0000
  1932.7500    654.1078      9.4079    101.6747      0.0000
  1933.0000    641.4402      9.4237     95.2889      0.0000
  1933.2500    630.4305      9.3428     86.2798      0.0000
  1933.5000    611.0952      9.1252     76.8866      0.0000
  1933.7500    587.7073      8.9059     68.6318      0.0000
  1934.0000    579.5208      8.8157     61.7513      0.0000
  1934.2500    593.6798      8.8108     55.6815      0.0000
  1934.5000    623.9238      8.7811     49.9323     -2.0000
  1934.7500    661.0292      8.6452     44.5085      2.0000
  1935.0000    688.5288      8.3558     39.7561      0.0000
  1935.2500    693.9948      7.9579     36.0645      0.0000
  1935.5000    682.2443      7.6169     33.6510      0.0000
  1935.7500    663.9333      7.4834     32.4522      0.0000
  1936.0000    645.0724      7.6165     32.1587      0.0000
  1936.2500    630.2948      8.0087     32.4040      0.0000
  1936.5000    626.7865      8.5082     32.9131      0.0000
  1936.7500    637.4204      8.8803     33.4873      0.0000
  1937.0000    653.2843      9.0408     33.9721      0.0000
  1937.2500    663.9209      9.0707     34.3276      0.0000
  1937.5000    667.9710      9.0597     34.7146      0.0000
  1937.7500    668.8508      9.0467     35.4237      0.0000
  1938.0000    668.8054      9.0378     36.6202      0.0000
  1938.2500    668.5521      9.0221     38.1081      0.0000
  1938.5000    668.3715      8.9921     39.3379      0.0000
  1938.7500    668.4181      8.9593     39.6417      0.0000
  1939.0000    668.6490      8.9365     38.5712      0.0000
  1939.2500    668.9714      8.9268     36.2830      0.0000
  1939.5000    669.5580      8.9336     33.7022      0.0000
  1939.7500    670.3177      8.9548     32.0845      0.0000
  1940.0000    669.2181      8.9696     32.2370      0.0000
  1940.2500    663.8892      8.9560     34.2450      0.0000
  1940.5000    658.3531      8.9211     37.7788      0.0000
  1940.7500    661.4494      8.8890     42.2181      0.0000
  1941.0000    673.4220      8.8680     46.4945      0.0000
  1941.2500    684.9365      8.8525     49.4307      0.0000
  1941.5000    691.0356      8.8523     50.6674      0.0000
  1941.7500    693.6793      8.8803     51.0517      0.0000
  1942.0000    693.4128      8.8955     51.7736      0.0000
  1942.2500    688.8751      8.8060     53.2007      0.0000
  1942.5000    681.7057      8.5715     54.7838      0.0000
  1942.7500    676.1652      8.2745     56.0405      0.0000
  1943.0000    674.2916      8.0740     57.3502      0.0000
  1943.2500    674.7828      8.0883     59.5694      0.0000
  1943.5000    677.8818      8.3024     62.8993      0.0000
  1943.7500    685.1707      8.5858     66.4574      0.0000
  1944.0000    693.4195      8.8129     69.1899      0.0000
  1944.2500    696.4543      8.9624     71.0049      0.0000
  1944.5000    690.5175      9.0928     72.5238      0.0000
  1944.7500    676.4041      9.2477     73.6578      0.0000
  1945.0000    662.1844      9.4124     73.0415      0.0000
  1945.2500    657.9346      9.5537     69.4037      0.0000
  1945.5000    663.3781      9.6721     63.2440      0.0000
  1945.7500    669.2328      9.7947     56.6579      0.0000
  1946.0000    667.8652      9.9442     51.5548      0.0000
  1946.2500    655.8206     10.1250     48.3120      0.0000
  1946.5000    636.5762     10.3106     46.0365      0.0000
  1946.7500    624.2146     10.4375     43.8961      0.0000
  1947.0000    629.3694     10.4545     42.2563      0.0000
  1947.2500    645.0094     10.3879     42.6944      0.0000
  1947.5000    660.1832     10.3126     46.8700      0.0000
  1947.7500    672.8026     10.2606     55.1286      0.0000
  1948.0000    683.6304     10.1829     65.9182      0.0000
  1948.2500    692.0782     10.0157     76.6361      0.0000
  1948.5000    696.5602      9.7775     85.3910      0.0000
  1948.7500    695.3393      9.5642     92.1130      0.0000
  1949.0000    689.2158      9.4492     97.8440      0.0000
  1949.2500    683.2106      9.3981    103.0290      0.0000
  1949.5000    682.9813      9.3105    106.8128      0.0000
  1949.7500    688.4966      9.1472    108.0899      0.0000
  1950.0000    694.5718      8.9573    106.9865      0.0000
  1950.2500    696.9164      8.8103    105.0488      0.0000
  1950.5000    692.7801      8.7420    103.9242      0.0000
  1950.7500    677.3300      8.7324    104.0742      0.0000
  1951.0000    647.0831      8.7314    104.8781      0.0000
  1951.2500    609.2311      8.7120    105.6758      0.0000
  1951.5000    578.7045      8.6805    106.4089      0.0000
  1951.7500    563.4666      8.6480    107.4490      0.0000
  1952.0000    561.2057      8.6222    109.1416      0.0000
  1952.2500    566.8598      8.6186    111.5644      0.0000
  1952.5000    575.3306      8.6346    114.4808      0.0000
  1952.7500    581.5385      8.6239    117.2795      0.0000
  1953.0000    582.5527      8.5577    119.1142      0.0000
  1953.2500    577.5940      8.4793    119.4940      0.0000
  1953.5000    566.9471      8.4471    118.7342      0.0000
  1953.7500    553.4417      8.4671    117.5644      0.0000
  1954.0000    542.1229      8.5130    116.3465      0.0000
  1954.2500    536.2643      8.5630    114.8588      0.0000
  1954.5000    536.1200      8.5947    112.6450      0.0000
  1954.7500    541.1727      8.5793    109.5532      0.0000
  1955.0000    549.8968      8.5091    106.2603      0.0000
  1955.2500    557.0171      8.4264    104.2036      0.0000
  1955.5000    556.1938      8.3805    104.5110      0.0000
  1955.7500    547.8170      8.3733    106.8419      0.0000
  1956.0000    539.0308      8.3855    109.4554      0.0000
  1956.2500    535.8218      8.4046    110.5874      0.0000
  1956.5000    540.4565      8.4242    109.7505      0.0000
  1956.7500    554.2354      8.4582    107.7187      0.0000
  1957.0000    577.4063      8.5273    105.5949      0.0000
  1957.2500    606.7152      8.6188    104.1884      0.0000
  1957.5000    633.8311      8.6838    103.8502      0.0000
  1957.7500    648.6140      8.6779    104.1348      0.0000
  1958.0000    648.6101      8.6008    103.5880      0.0000
  1958.2500    643.8260      8.4976    100.6411      0.0000
  1958.5000    647.6198      8.4201     95.3046      0.0000
  1958.7500    662.6997      8.3890     89.8375      0.0000
  1959.0000    679.6207      8.3984     87.2397      0.0000
  1959.2500    687.3872      8.4365     88.9697      0.0000
  1959.5000    679.8788      8.4734     94.2014      0.0000
  1959.7500    656.6852      8.4643    100.9161      0.0000
  1960.0000    626.0732      8.3923    107.2254      0.0000
  1960.2500    601.4431      8.2877    111.9012      0.0000
  1960.5000    589.2556      8.1963    114.3682      0.0000
  1960.7500    586.0668      8.1445    114.5847      0.0000
  1961.0000    586.1853      8.1394    112.7665      0.0000
  1961.2500    586.4866      8.1744    109.0236      0.0000
  1961.5000    586.0152      8.2279    103.3760      0.0000
  1961.7500    584.6989      8.2797     96.4288      0.0000
  1962.0000    582.6150      8.3251     90.0594      0.0000
  1962.2500    580.5627      8.3663     86.9594      0.0000
  1962.5000    582.1429      8.4030     88.8493      0.0000
  1962.7500    591.5414      8.4405     94.8058      0.0000
