~Version Information
 VERS.                      2.0: CWLS Log ASCII Standard - VERSION 2.0
 WRAP.                       NO: One line per depth step
 ~Well Information Block
 STRT.FT               886.1000: 
 STOP.FT              2599.0000: 
 STEP.FT                 0.1000: 
 NULL.                -999.2500: 
 COMP.          Petrogulf Corporation: COMPANY
 WELL.               YWAM 7-23V: WELL
 FLD.           Purgatorie River: FIELD
 LOC.           230' FSL & 225' FWL: LOCATION
 CNTY.               Las Animas: COUNTY
 SRVC.                         : SERVICE COMPANY
 DATE.          Sat Oct 30 10:42:52 2004: LOG DATE
 UWI.           05 071 08227 00: UNIQUE WELL ID
 STAT.                 Colorado: STATE
 PROV.                         :Province
 ~Curve Information Block
 DEPT.FT            0 000 00 00: Depth
 DCAL.in                       : CDL Caliper
 RHOB.g/cc                     : CDL Bulk Density
 RHOC.g/cc                     : CDL Density Correction
 DPOR.pu                       : CDL Density Porosity
 GR.GAPI                       : Gamma Ray
 NPOR.pu                       : Neutron Porosity
 ~Parameter Information Block
 ~A  Depth       DCAL        RHOB        RHOC        DPOR         GR         NPOR    
# ...
  1577.3000      8.0634      2.6657      0.1156     -0.9528    103.7826     17.8125
  1577.4000      8.0634      2.6498      0.0869      0.0125    110.9185     16.3623
  1577.5000      8.0660      2.6234      0.0521      1.6101    108.6462     16.4757
  1577.6000      8.0660      2.6017      0.0563      2.9244     97.3273     17.9494
  1577.7000      8.0660      2.5896      0.0952      3.6623     88.7664     19.9933
  1577.8000      8.0900      2.5826      0.0440      4.0869     90.2524     21.5610
  1577.9000      8.0900      2.5765      0.0428      4.4528     97.6215     21.9800
  1578.0000      8.1030      2.5699      0.0425      4.8564    104.5663     21.6937
  1578.1000      8.1030      2.5558      0.0692      5.7094    108.9112     21.1685
  1578.2000      8.1030      2.5375     -0.0050      6.8184    110.3486     20.9225
  1578.3000      8.0719      2.5333     -0.0090      7.0719    111.9081     21.5312
  1578.4000      8.0719      2.5376      0.0717      6.8108    115.8173     22.7570
  1578.5000      8.0842      2.5261      0.0647      7.5088    119.6938     23.9576
  1578.6000      8.0842      2.5091      0.0457      8.5386    123.0269     24.7460
  1578.7000      8.0842      2.5147      0.0781      8.1983    128.2427     25.0225
  1578.8000      8.0862      2.5375      0.0899      6.8163    136.7518     24.6595
  1578.9000      8.0862      2.5530      0.1232      5.8781    145.1219     23.8790
  1579.0000      8.0900      2.5526      0.0810      5.9019    148.5113     23.7779
  1579.1000      8.0900      2.5500      0.0434      6.0583    145.7159     24.5176
  1579.2000      8.0900      2.5586      0.0500      5.5410    139.7540     25.0638
  1579.3000      8.0891      2.5663      0.0919      5.0739    134.8795     25.3196
  1579.4000      8.0891      2.5561      0.0788      5.6887    136.2757     25.6182
  1579.5000      8.0997      2.5341      0.0603      7.0226    146.1150     25.8880
  1579.6000      8.0997      2.5136      0.0678      8.2676    157.1259     25.9421
  1579.7000      8.0997      2.5024      0.0151      8.9477    159.8408     25.7509
  1579.8000      8.1042      2.5057      0.0716      8.7438    153.5432     25.7421
  1579.9000      8.1042      2.5181      0.0578      7.9958    149.0274     26.2734
  1580.0000      8.1081      2.5310      0.0956      7.2120    153.4585     27.2207
  1580.1000      8.1081      2.5382      0.0553      6.7749    158.0408     28.0530
  1580.2000      8.1081      2.5392      0.0665      6.7143    158.4597     27.8240
  1580.3000      8.1201      2.5434      0.0202      6.4599    159.4464     26.3111
  1580.4000      8.1201      2.5523      0.0754      5.9187    159.8448     24.8766
  1580.5000      8.1273      2.5513      0.0837      5.9804    157.8659     24.9180
  1580.6000      8.1273      2.5414      0.0145      6.5811    154.6385     26.0245
  1580.7000      8.1273      2.5478      0.0262      6.1939    152.4247     26.9066
  1580.8000      8.1310      2.5724      0.0559      4.7054    154.1671     26.8935
  1580.9000      8.1310      2.5850      0.0983      3.9406    155.6890     26.1321
  1581.0000      8.1294      2.5688      0.0681      4.9231    152.9167     25.3366
  1581.1000      8.1294      2.5429      0.0163      6.4931    153.1290     24.8813
  1581.2000      8.1294      2.5289      0.0527      7.3391    161.6476     24.7555
  1581.3000      8.1335      2.5254      0.0303      7.5523    171.3056     25.3540
  1581.4000      8.1335      2.5252      0.0603      7.5648    173.9809     26.5818
  1581.5000      8.1458      2.5229      0.0593      7.7042    169.3996     27.3178
  1581.6000      8.1458      2.5181      0.0114      7.9913    160.5807     27.3223
  1581.7000      8.1458      2.5167      0.0278      8.0768    153.1134     27.6760
  1581.8000      8.1316      2.5206      0.0293      7.8422    152.9501     28.5697
  1581.9000      8.1316      2.5348      0.0154      6.9822    156.8728     29.1812
  1582.0000      8.1407      2.5643      0.0243      5.1949    154.8581     29.3583
  1582.1000      8.1407      2.5939      0.0784      3.4014    146.1348     28.9216
  1582.2000      8.1407      2.5955      0.0648      3.3017    142.8373     28.1421
  1582.3000      8.1648      2.5660      0.0041      5.0891    149.2675     28.2838
  1582.4000      8.1648      2.5328     -0.0491      7.1019    155.8064     29.2513
  1582.5000      8.1628      2.5103      0.0402      8.4681    158.0691     29.9723
  1582.6000      8.1628      2.4885      0.0392      9.7885    160.6353     30.6167
  1582.7000      8.1628      2.4777     -0.0247     10.4403    164.2314     31.1576
  1582.8000      8.1806      2.4952      0.0152      9.3792    163.1898     30.9101
  1582.9000      8.1806      2.5168      0.0859      8.0739    155.3352     30.1268
  1583.0000      8.1858      2.5151      0.0287      8.1787    151.0153     29.3593
  1583.1000      8.1858      2.5010      0.0397      9.0320    155.6057     28.9368
  1583.2000      8.1858      2.4968      0.0367      9.2866    157.1517     28.8904
  1583.3000      8.1713      2.5107      0.0304      8.4409    147.8594     28.7024
  1583.4000      8.1713      2.5308      0.0864      7.2253    141.7666     28.5836
  1583.5000      8.1704      2.5363      0.1121      6.8917    151.4166     29.1361
  1583.6000      8.1704      2.5270      0.0734      7.4542    168.7067     29.5163
  1583.7000      8.1704      2.5274      0.0709      7.4306    180.0837     28.9279
  1583.8000      8.1751      2.5490      0.1219      6.1208    181.1093     28.1527
  1583.9000      8.1751      2.5732      0.1212      4.6529    175.9298     27.7009
  1584.0000      8.1928      2.5815      0.0921      4.1532    170.5873     27.5402
  1584.1000      8.1928      2.5781      0.0826      4.3606    167.4543     28.0045
  1584.2000      8.1928      2.5748      0.1064      4.5594    165.7865     29.1297
  1584.3000      8.1790      2.5752      0.1037      4.5324    163.8570     29.9939
  1584.4000      8.1790      2.5833      0.0905      4.0398    161.0909     29.1577
  1584.5000      8.1796      2.5980      0.1516      3.1518    158.6731     27.1061
  1584.6000      8.1796      2.6040      0.1106      2.7880    156.2116     25.4919
  1584.7000      8.1796      2.5917      0.0652      3.5304    152.9381     24.7966
  1584.8000      8.1798      2.5679      0.0786      4.9764    150.1015     25.2039
  1584.9000      8.1798      2.5472      0.0258      6.2299    151.1670     26.6469
  1585.0000      8.1782      2.5410      0.0212      6.6085    155.1377     28.0338
  1585.1000      8.1782      2.5443     -0.0019      6.4043    157.1673     28.3503
  1585.2000      8.1782      2.5408      0.0241      6.6212    157.0867     27.8589
  1585.3000      8.1814      2.5245      0.0270      7.6032    153.4787     27.4154
  1585.4000      8.1814      2.5084     -0.0152      8.5808    143.5755     27.2491
  1585.5000      8.1886      2.5019      0.0319      8.9735    136.3528     27.0115
  1585.6000      8.1886      2.5042     -0.0152      8.8342    139.3330     26.8805
  1585.7000      8.1886      2.5163      0.0257      8.1033    142.9968     26.5963
  1585.8000      8.2042      2.5383      0.0187      6.7683    140.4665     25.8431
  1585.9000      8.2042      2.5673      0.0376      5.0128    137.7614     25.5848
  1586.0000      8.1804      2.5996      0.0707      3.0570    138.3310     26.1137
  1586.1000      8.1804      2.6312      0.0662      1.1365    141.2041     26.3302
  1586.2000      8.1804      2.6552      0.0878     -0.3126    146.5110     26.1417
  1586.3000      8.1606      2.6587      0.0756     -0.5248    149.3978     26.2586
  1586.4000      8.1606      2.6386      0.0787      0.6912    143.7859     26.7753
  1586.5000      8.1597      2.6091      0.0285      2.4764    133.0013     27.3068
  1586.6000      8.1597      2.5763      0.0337      4.4665    125.4642     27.3808
  1586.7000      8.1597      2.5389     -0.0077      6.7322    123.7620     27.0653
  1586.8000      8.1561      2.5131      0.0104      8.2982    125.7141     26.9141
