~Version Information
VERS.                      2.0: CWLS Log ASCII Standard - VERSION 2.0
WRAP.                       NO: One line per depth step
~Well Information Block
STRT.FT               292.0000: 
STOP.FT               801.0000: 
STEP.FT                 0.1000: 
NULL.                -999.2500: 
COMP.          Pioneer Natural Resources: COMPANY
WELL.          HG Duran 34-27 Tr: WELL
FLD.           Purgatoire River: FIELD
LOC.           1076' FSL & 1465' FEL: LOCATION
PROV.                 Colorado: PROVINCE
CNTY.               Las Animas: COUNTRY
SRVC.                Patterson: SERVICE COMPANY
DATE.          Wed Apr 13 08:36:06 2005: LOG DATE
UWI.           05 071 08218 00: UNIQUE WELL ID
~Curve Information Block
DEPT.FT            0 000 00 00: Depth
DCAL.in                       : CDL Caliper
RHOB.g/cc                     : CDL Bulk Density
RHOC.g/cc                     : CDL Density Correction
DPOR.pu                       : CDL Density Porosity
GR.GAPI                       : Gamma Ray
NPOR.pu                       : Neutron Porosity
~Parameter Information Block
~A  Depth       DCAL        RHOB        RHOC        DPOR         GR         NPOR    
# ...
   695.2000      7.7721      2.3715      0.0759     16.8814    139.5051     23.2732
   695.3000      7.7933      2.3815      0.0837     16.2750    142.7885     23.7554
   695.4000      7.7933      2.4299      0.1630     13.3373    140.0421     23.8906
   695.5000      7.8132      2.5084      0.1593      8.5832    136.1527     24.0507
   695.6000      7.8132      2.6015      0.2619      2.9389    136.1555     24.2855
   695.7000      7.8132      2.6803      0.3298     -1.8363    140.1898     24.4497
   695.8000      7.7822      2.7188      0.3310     -4.1675    146.0310     24.5298
   695.9000      7.7822      2.7137      0.3324     -3.8590    147.3298     24.6062
   696.0000      7.7476      2.6707      0.2549     -1.2535    140.3673     24.7654
   696.1000      7.7476      2.6034      0.2070      2.8248    131.3801     25.0011
   696.2000      7.7476      2.5375      0.0568      6.8175    126.3184     25.0041
   696.3000      7.7404      2.5015     -0.0206      8.9983    124.8659     24.6559
   696.4000      7.7404      2.5054      0.0064      8.7645    123.3023     24.4491
   696.5000      7.7628      2.5407      0.0092      6.6224    118.2561     24.4550
   696.6000      7.7628      2.5983      0.0174      3.1327    112.2414     24.2619
   696.7000      7.7628      2.6591      0.2130     -0.5489    109.6667     23.8216
   696.8000      7.7978      2.6902      0.2367     -2.4367    109.1363     23.4957
   696.9000      7.7978      2.6828      0.1905     -1.9906    107.0829     23.4684
   697.0000      7.8342      2.6592      0.1404     -0.5606    104.6825     23.5784
   697.1000      7.8342      2.6404      0.1380      0.5814    106.4856     23.6435
   697.2000      7.8342      2.6163      0.1578      2.0421    113.0669     23.4958
   697.3000      7.8056      2.5764      0.0719      4.4611    118.8839     22.9191
   697.4000      7.8056      2.5464      0.0629      6.2785    120.5999     22.1898
   697.5000      7.7920      2.5442      0.0681      6.4123    117.9348     21.9134
   697.6000      7.7920      2.5493      0.1033      6.1012    111.6889     22.1679
   697.7000      7.7920      2.5443      0.1271      6.4047    106.7860     22.6756
   697.8000      7.7795      2.5474      0.1097      6.2188    109.1225     23.0888
   697.9000      7.7795      2.5768      0.1342      4.4370    120.0686     23.1278
   698.0000      7.7952      2.6129      0.1837      2.2492    133.5892     23.0328
   698.1000      7.7952      2.6269      0.1477      1.3981    142.7865     23.1254
   698.2000      7.7952      2.6125      0.1539      2.2743    147.3397     23.2430
   698.3000      7.8050      2.5784      0.1324      4.3394    149.4979     23.1542
   698.4000      7.8050      2.5474      0.1012      6.2193    151.0796     23.0226
   698.5000      7.8153      2.5423      0.0626      6.5247    154.4004     23.0789
   698.6000      7.8153      2.5438      0.1037      6.4371    158.3324     23.2313
   698.7000      7.8153      2.5186      0.0219      7.9664    160.6901     23.3610
   698.8000      7.8210      2.4859     -0.0007      9.9480    162.8591     23.6434
   698.9000      7.8210      2.4842      0.0278     10.0488    164.4090     24.0054
   699.0000      7.8436      2.5047      0.0837      8.8035    162.1538     24.1139
   699.1000      7.8436      2.5110      0.0413      8.4226    157.7455     24.1167
   699.2000      7.8436      2.5000      0.0442      9.0919    157.1801     24.2579
   699.3000      7.8493      2.4904      0.0669      9.6723    159.9471     24.3392
   699.4000      7.8493      2.4937      0.0353      9.4705    160.5661     24.2150
   699.5000      7.8545      2.5108      0.0274      8.4370    160.1133     24.1873
   699.6000      7.8545      2.5243      0.0106      7.6195    164.3736     24.6959
   699.7000      7.8545      2.5138      0.0739      8.2524    170.5452     25.4651
   699.8000      7.8745      2.4931     -0.0482      9.5114    170.1985     25.7367
   699.9000      7.8745      2.4958      0.0553      9.3453    163.8151     25.6766
   700.0000      7.8941      2.5152      0.0597      8.1699    157.8811     25.8694
   700.1000      7.8941      2.5164      0.0830      8.0993    154.8078     26.0052
   700.2000      7.8941      2.4983      0.0324      9.1964    156.5050     25.7441
   700.3000      7.9053      2.4833      0.1104     10.1045    161.8585     25.5046
   700.4000      7.9053      2.4675      0.0684     11.0633    165.4523     25.2532
   700.5000      7.8862      2.4458     -0.0323     12.3759    165.7783     24.6608
   700.6000      7.8862      2.4363     -0.0074     12.9517    164.7050     24.1864
   700.7000      7.8862      2.4499      0.0036     12.1298    163.9554     24.3914
   700.8000      7.8710      2.4849      0.0482     10.0088    160.5049     25.1093
   700.9000      7.8710      2.5334      0.0592      7.0665    151.1370     25.5658
   701.0000      7.8696      2.5719      0.0920      4.7307    142.3732     25.4301
   701.1000      7.8696      2.5890      0.0495      3.6961    141.2273     25.2151
   701.2000      7.8696      2.5994      0.0823      3.0681    145.3928     25.2600
   701.3000      7.8621      2.6007      0.1327      2.9901    149.1055     25.3317
   701.4000      7.8621      2.5816      0.0685      4.1464    150.3370     25.0844
   701.5000      7.8459      2.5625      0.0201      5.3028    149.7960     24.4454
   701.6000      7.8459      2.5621      0.0747      5.3275    149.7357     23.5733
   701.7000      7.8459      2.5687      0.0335      4.9247    150.5744     22.7937
   701.8000      7.8475      2.5563      0.0743      5.6815    152.4571     22.4410
   701.9000      7.8475      2.5069      0.0117      8.6700    156.5741     22.4073
   702.0000      7.8425      2.4392     -0.0060     12.7772    159.9325     22.2929
   702.1000      7.8425      2.3895     -0.0168     15.7892    158.7579     22.0447
   702.2000      7.8425      2.3730     -0.0230     16.7902    154.4560     21.7977
   702.3000      7.8635      2.3738     -0.0098     16.7408    153.6897     21.6277
   702.4000      7.8635      2.3793     -0.0248     16.4051    159.7863     21.5290
   702.5000      7.8842      2.4122     -0.0168     14.4137    170.9794     21.4657
   702.6000      7.8842      2.4769      0.1388     10.4887    184.3213     21.6739
   702.7000      7.8842      2.5203      0.1928      7.8596    192.2687     22.2556
   702.8000      7.8845      2.5158      0.0839      8.1345    188.4826     22.7665
   702.9000      7.8845      2.4960      0.1407      9.3331    178.2243     23.0459
   703.0000      7.8909      2.4825      0.0955     10.1515    171.2384     23.4343
   703.1000      7.8909      2.4805      0.0449     10.2705    169.3327     23.9485
   703.2000      7.8909      2.4972      0.0799      9.2590    169.0864     24.2924
   703.3000      7.8764      2.5211      0.1269      7.8118    166.5358     24.3203
   703.4000      7.8764      2.5340      0.0995      7.0312    159.4911     24.3617
   703.5000      7.8619      2.5368      0.0553      6.8620    151.2201     24.7391
   703.6000      7.8619      2.5442      0.0705      6.4129    149.9660     25.1091
   703.7000      7.8619      2.5671      0.0309      5.0225    156.6958     25.0600
   703.8000      7.8515      2.5911      0.0709      3.5726    160.8541     24.7875
   703.9000      7.8515      2.5865      0.0721      3.8510    159.8940     24.5709
   704.0000      7.8615      2.5609      0.0678      5.3972    160.4894     24.2304
   704.1000      7.8615      2.5544      0.0335      5.7968    161.6947     23.7751
   704.2000      7.8615      2.5692      0.1422      4.8993    160.1916     23.6240
   704.3000      7.8663      2.5729      0.0825      4.6741    158.4738     23.7990
   704.4000      7.8663      2.5623      0.0383      5.3152    155.7145     24.0697
   704.5000      7.8591      2.5593      0.0184      5.4952    149.9744     24.1429
   704.6000      7.8591      2.5826     -0.0123      4.0831    146.6068     23.8422
   704.7000      7.8591      2.6246      0.0712      1.5406    150.2447     23.6267
