~Version Information
VERS.                      2.0: CWLS Log ASCII Standard - VERSION 2.0
WRAP.                       NO: One line per depth step
~Well Information Block
STRT.FT               260.0000: 
STOP.FT              2272.0000: 
STEP.FT                 0.2500: 
NULL.                -999.2500: 
COMP.          Pioneer Natural Resources: COMPANY
WELL.            Moo Moo 31-36: WELL
FLD.           Purgatoire River: FIELD
LOC.           612' FNL & 2326' FEL: LOCATION
PROV.                 Colorado: PROVINCE
CNTY.               Las Animas: COUNTRY
SRVC.                Patterson: SERVICE COMPANY
DATE.          Fri Jun 17 07:45:39 2005: LOG DATE
UWI.           05 071 08395 00: UNIQUE WELL ID
~Curve Information Block
DEPT.FT            0 000 00 00: Depth
DIR.Ohm-m                     : IEL Induction Resistivity
SN.Ohm-m                      : IEL Short Normal
SP.mV                         : IEL Spontaneous Potential
GR.GAPI                       : Gamma Ray
~Parameter Information Block
~A  Depth       DIR          SN          SP          GR     
# ...
  1700.5000      9.1325     11.1469    226.8544    136.3006
  1700.7500      9.1321     11.4491    227.0355    137.3579
  1701.0000      9.0783     11.7930    227.3356    134.9815
  1701.2500      8.9811     12.1951    227.6721    132.0041
  1701.5000      8.8649     12.6051    227.9427    127.8308
  1701.7500      8.7605     12.9022    228.0901    126.2048
  1702.0000      8.6940     12.9862    228.1251    126.0645
  1702.2500      8.6792     12.8605    228.1004    127.3259
  1702.5000      8.7150     12.6039    228.0776    130.3250
  1702.7500      8.7883     12.2820    228.1122    132.3299
  1703.0000      8.8799     11.9414    228.2396    134.3780
  1703.2500      8.9723     11.6363    228.4501    134.9532
  1703.5000      9.0548     11.3481    228.6739    134.8719
  1703.7500      9.1250     10.9841    228.8136    134.4354
  1704.0000      9.1860     10.5539    228.8110    133.8583
  1704.2500      9.2436     10.2142    228.6911    133.9985
  1704.5000      9.3038     10.1028    228.5373    135.3801
  1704.7500      9.3716     10.2447    228.4254    136.8866
  1705.0000      9.4504     10.6510    228.3728    139.4055
  1705.2500      9.5424     11.3203    228.3378    141.0732
  1705.5000      9.6488     12.0997    228.2628    143.7417
  1705.7500      9.7681     12.8106    228.1258    145.8798
  1706.0000      9.8950     13.4093    227.9586    149.6585
  1706.2500     10.0220     13.8209    227.8152    152.1059
  1706.5000     10.1434     13.8930    227.7230    154.4307
  1706.7500     10.2592     13.6756    227.6601    154.5740
  1707.0000     10.3753     13.4228    227.5767    152.7214
  1707.2500     10.4992     13.2447    227.4360    150.6041
  1707.5000     10.6344     13.0706    227.2480    147.3394
  1707.7500     10.7787     12.9084    227.0767    145.6939
  1708.0000     10.9255     12.8728    227.0118    144.1072
  1708.2500     11.0670     13.0141    227.1124    143.0965
  1708.5000     11.1968     13.2540    227.3582    140.7271
  1708.7500     11.3105     13.4554    227.6561    138.6252
  1709.0000     11.4042     13.5404    227.8996    135.6414
  1709.2500     11.4752     13.5467    228.0268    134.2628
  1709.5000     11.5249     13.5562    228.0344    133.2623
  1709.7500     11.5615     13.6109    227.9640    133.0984
  1710.0000     11.5989     13.6988    227.8860    133.1716
  1710.2500     11.6515     13.7857    227.8693    133.2652
  1710.5000     11.7268     13.8581    227.9351    133.4024
  1710.7500     11.8201     13.8784    228.0355    133.5084
  1711.0000     11.9159     13.8126    228.0843    133.5335
  1711.2500     11.9957     13.7495    228.0087    133.1873
  1711.5000     12.0493     13.7995    227.7826    131.6571
  1711.7500     12.0796     13.9344    227.4294    129.9989
  1712.0000     12.0997     14.0289    227.0056    127.3163
  1712.2500     12.1251     14.0081    226.5769    125.9894
  1712.5000     12.1685     13.9342    226.1956    125.1910
  1712.7500     12.2389     13.8998    225.8846    125.2220
  1713.0000     12.3425     13.8972    225.6380    125.2043
  1713.2500     12.4836     13.9097    225.4355    124.7497
  1713.5000     12.6612     13.9842    225.2511    123.1677
  1713.7500     12.8653     14.1087    225.0503    121.4385
  1714.0000     13.0747     14.1883    224.7987    117.8059
  1714.2500     13.2629     14.1812    224.4889    115.0338
  1714.5000     13.4095     14.1491    224.1621    111.6820
  1714.7500     13.5084     14.1907    223.8960    110.8029
  1715.0000     13.5660     14.3626    223.7579    112.0656
  1715.2500     13.5928     14.6139    223.7578    114.2262
  1715.5000     13.5935     14.8234    223.8379    117.9142
  1715.7500     13.5647     14.9246    223.9067    119.8369
  1716.0000     13.4987     14.9141    223.8919    121.4841
  1716.2500     13.3910     14.7834    223.7784    122.0776
  1716.5000     13.2448     14.5263    223.6161    122.9603
  1716.7500     13.0695     14.1802    223.4903    123.8105
  1717.0000     12.8748     13.8484    223.4657    125.7542
  1717.2500     12.6668     13.6327    223.5415    127.6285
  1717.5000     12.4496     13.5287    223.6566    131.1478
  1717.7500     12.2300     13.4519    223.7362    133.4949
  1718.0000     12.0206     13.3093    223.7275    136.0130
  1718.2500     11.8372     13.0422    223.6023    136.7526
  1718.5000     11.6929     12.6924    223.3540    136.7645
  1718.7500     11.5911     12.4131    223.0081    136.4181
  1719.0000     11.5215     12.3577    222.6231    135.8515
  1719.2500     11.4600     12.5113    222.2588    135.5654
  1719.5000     11.3783     12.6476    221.9400    135.2519
  1719.7500     11.2566     12.5768    221.6549    135.0219
  1720.0000     11.0943     12.3835    221.3873    134.4890
  1720.2500     10.9088     12.2747    221.1429    134.0239
  1720.5000     10.7245     12.3005    220.9442    133.4436
  1720.7500     10.5629     12.3533    220.8034    133.3440
  1721.0000     10.4380     12.3331    220.6993    133.5932
  1721.2500     10.3581     12.2649    220.5835    133.6158
  1721.5000     10.3260     12.2597    220.4126    132.6037
  1721.7500     10.3378     12.3448    220.1746    131.2145
  1722.0000     10.3812     12.4229    219.8904    129.1390
  1722.2500     10.4364     12.4128    219.6030    128.6101
  1722.5000     10.4810     12.3200    219.3711    129.8615
  1722.7500     10.4970     12.1738    219.2573    131.8551
  1723.0000     10.4765     11.9824    219.3094    135.4341
  1723.2500     10.4222     11.7638    219.5424    137.5419
  1723.5000     10.3441     11.5574    219.9299    139.8599
  1723.7500     10.2559     11.3765    220.4103    140.9523
  1724.0000     10.1727     11.2130    220.9111    142.0547
  1724.2500     10.1091     11.1107    221.3738    142.3742
  1724.5000     10.0773     11.1709    221.7572    142.2845
  1724.7500     10.0858     11.4705    222.0295    142.0517
  1725.0000     10.1391     11.9996    222.1659    141.7614
  1725.2500     10.2389     12.6469    222.1473    141.6743
  1725.5000     10.3854     13.2386    221.9572    141.6761
  1725.7500     10.5772     13.6628    221.5844    141.6489
  1726.0000     10.8084     13.9640    221.0399    141.1705
  1726.2500     11.0647     14.2421    220.3758    140.3336
  1726.5000     11.3212     14.4942    219.6923    138.1108
  1726.7500     11.5476     14.6771    219.1255    135.8969
  1727.0000     11.7193     14.8709    218.8136    131.1781
  1727.2500     11.8281     15.1787    218.8401    126.8631
  1727.5000     11.8843     15.5192    219.1821    118.4241
  1727.7500     11.9093     15.6992    219.7058    111.7661
  1728.0000     11.9242     15.6699    220.2362    102.0464
  1728.2500     11.9429     15.5776    220.6627     97.5819
  1728.5000     11.9707     15.5410    221.0128     97.0387
  1728.7500     12.0082     15.5165    221.4503    101.5083
  1729.0000     12.0554     15.4085    222.1938    113.9109
  1729.2500     12.1121     15.2370    223.3839    123.9222
  1729.5000     12.1741     15.1494    224.9670    137.7326
  1729.7500     12.2287     15.2301    226.6918    144.4370
  1730.0000     12.2558     15.3830    228.2407    149.5233
  1730.2500     12.2370     15.4758    229.4001    150.0432
  1730.5000     12.1686     15.4810    230.1428    148.7376
  1730.7500     12.0694     15.4203    230.5864    147.8723
  1731.0000     11.9754     15.2846    230.8831    147.5885
  1731.2500     11.9238     15.0914    231.1278    147.5102
  1731.5000     11.9357     14.9646    231.3303    145.5706
  1731.7500     12.0088     15.0510    231.4415    142.3726
  1732.0000     12.1241     15.3451    231.3976    135.5745
  1732.2500     12.2632     15.6803    231.1601    131.0160
  1732.5000     12.4222     15.8813    230.7414    125.8333
  1732.7500     12.6137     15.8726    230.2116    123.5568
  1733.0000     12.8513     15.7530    229.6819    121.0887
  1733.2500     13.1312     15.7501    229.2667    119.6689
  1733.5000     13.4239     15.9437    229.0378    117.6778
  1733.7500     13.6819     16.1610    228.9993    116.4878
