~Version Information
VERS.                      2.0: CWLS Log ASCII Standard - VERSION 2.0
WRAP.                       NO: One line per depth step
~Well Information Block
STRT.FT               784.0000: 
STOP.FT              1035.0000: 
STEP.FT                 0.2500: 
NULL.                -999.2500: 
COMP.          Pioneer Natural Resources: COMPANY
WELL.          Run-Away-Train 43-26: WELL
FLD.           Purgatoire River: FIELD
LOC.           1693' FSL & 1195' FEL: LOCATION
PROV.                 Colorado: PROVINCE
CNTY.               Las Animas: COUNTRY
SRVC.                Patterson: SERVICE COMPANY
DATE.          Tue Apr 05 19:22:37 2005: LOG DATE
UWI.           05 071 08188 00: UNIQUE WELL ID
~Curve Information Block
DEPT.FT            0 000 00 00: Depth
SN.Ohm-m                      : IEL Short Normal
SP.mV                         : IEL Spontaneous Potential
DIR.Ohm-m                     : IEL Induction Resistivity
GR.GAPI                       : Gamma Ray
~Parameter Information Block
~A  Depth        SN          SP         DIR          GR     
   784.0000     -0.2768    569.5060     71.2547     51.4978
   784.2500     -0.2051    587.1555     71.0522     51.9482
   784.5000     -0.4318    591.8721     70.6058     52.2615
   784.7500     -0.8304    586.3931     70.0172     52.4920
   785.0000     -1.1379    569.3600     69.3781     53.4310
   785.2500     -1.2146    536.7941     68.7547     54.5527
   785.5000     -1.1691    486.3427     68.2359     56.3251
   785.7500     -1.1771    422.4469     67.9748     56.8587
   786.0000     -1.2815    358.3284     68.1593     55.7840
   786.2500     -1.3907    311.2370     68.9158     53.8455
   786.5000     -1.4167    293.3813     70.2089     50.0677
   786.7500     -1.3734    305.9118     71.7960     47.6642
   787.0000     -1.3364    340.3447     73.2823     44.8002
   787.2500     -1.3384    384.7960     74.2901     43.2015
   787.5000     -1.3539    429.7436     74.6246     40.6307
   787.7500     -1.3583    470.2423     74.3018     38.7058
   788.0000     -1.3688    504.5134     73.3951     36.1140
   788.2500     -1.4583    530.6880     71.8792     35.1397
   788.5000     -1.6978    544.3281     69.6786     35.3894
   788.7500     -2.0328    538.9852     66.9176     36.6005
   789.0000     -2.2862    509.9384     64.1056     39.2030
   789.2500     -2.3530    458.3528     61.9950     40.9458
   789.5000     -2.2893    392.2659     61.2188     43.1201
   789.7500     -2.1792    323.3916     62.0112     44.2929
   790.0000     -2.0599    262.2338     64.1044     45.7689
   790.2500     -1.9818    214.8298     66.7956     46.5688
   790.5000     -2.0006    182.2790     69.2403     47.5478
   790.7500     -2.0890    162.1438     70.8935     48.1993
   791.0000     -2.1470    150.4924     71.7217     49.4091
   791.2500     -2.1012    143.6121     72.0035     50.3616
   791.5000     -1.9760    138.7243     72.0088     51.8254
   791.7500     -1.8824    133.7020     71.8629     52.7187
   792.0000     -1.9035    126.5891     71.5925     53.7954
   792.2500     -2.0106    115.7893     71.2130     54.2446
   792.5000     -2.1324    101.0839     70.7477     54.3521
   792.7500     -2.2283     84.6250     70.1966     53.9985
   793.0000     -2.2842     70.6656     69.5080     52.8409
   793.2500     -2.3065     63.6851     68.6417     51.6345
   793.5000     -2.3146     66.0817     67.6836     49.2413
   793.7500     -2.3161     76.9942     66.8757     47.5878
   794.0000     -2.3066     92.8002     66.4983     45.9850
   794.2500     -2.2930    108.8067     66.6708     45.8339
   794.5000     -2.2900    121.2784     67.2361     46.6871
   794.7500     -2.2942    128.8161     67.8233     47.5881
   795.0000     -2.2665    132.3252     68.0929     49.1473
   795.2500     -2.1456    133.7754     67.9877     50.4172
   795.5000     -1.9330    134.8376     67.7306     52.7972
   795.7500     -1.7516    136.2797     67.5537     54.5023
   796.0000     -1.7336    138.1138     67.4279     56.4668
   796.2500     -1.8705    140.0142     67.0578     57.0373
   796.5000     -2.0398    141.6711     66.1592     56.9199
   796.7500     -2.1515    142.9848     64.7533     56.5183
   797.0000     -2.2067    144.0932     63.1395     55.6898
   797.2500     -2.2279    145.2756     61.5653     54.9356
   797.5000     -2.1944    146.8056     59.9430     53.5732
   797.7500     -2.0481    148.8223     57.8496     52.7494
   798.0000     -1.7276    151.2924     54.8485     52.0997
   798.2500     -1.2504    154.0954     50.9618     52.2072
   798.5000     -0.7904    157.1389     46.9260     53.1447
   798.7500     -0.5555    160.3602     43.9727     54.0883
   799.0000     -0.6212    163.6380     43.5054     55.4216
   799.2500     -0.9195    166.7794     47.3534     55.9692
   799.5000     -1.2368    169.6470     59.3147     56.2156
   799.7500     -1.3746    172.2711     90.8230     56.2163
   800.0000     -1.4018    174.7717    192.4355     56.3693
   800.2500     -1.4877    177.1563   1004.2997     56.6501
   800.5000     -1.6088    179.2322 100000.0000     57.2626
   800.7500     -1.6703    180.7503 100000.0000     57.6603
   801.0000     -1.6992    181.6647   8076.1309     57.8553
   801.2500     -1.7704    182.3254    890.8793     57.5595
   801.5000     -1.8749    183.5204    630.4525     56.7875
   801.7500     -1.9049    186.3986    743.7178     56.6481
   802.0000     -1.7307    192.3629   2238.9509     58.2764
   802.2500     -1.3022    203.0174 100000.0000     61.0066
   802.5000     -0.6940    220.1216 100000.0000     67.0162
   802.7500     -0.1151    245.2052 100000.0000     71.2863
   803.0000      0.0745    278.2930    334.8451     76.0495
   803.2500     -0.3571    315.6540    103.1372     77.3532
   803.5000     -1.1049    347.8825     59.0997     76.7328
   803.7500     -1.5957    360.5648     49.7178     75.7332
   804.0000     -1.6210    338.6349     68.9069     76.0405
   804.2500     -1.4449    273.1649 100000.0000     78.5102
   804.5000     -1.3780    167.5962 100000.0000     85.4219
   804.7500     -1.3642     39.2542 100000.0000     85.0125
   805.0000     -0.8943    -87.1775 100000.0000     92.4875
   805.2500      1.6976   -191.4793 100000.0000     96.5948
   805.5000     12.0176   -265.9087 100000.0000    101.5401
   805.7500     41.1700   -313.6541 100000.0000     96.8532
   806.0000     95.5275   -341.8887 100000.0000    100.0552
   806.2500    159.6161   -356.8182     15.1628    101.5765
   806.5000    203.8571   -362.7354      5.0136    102.6587
   806.7500    215.8469   -362.5359      3.2476     90.8435
   807.0000    208.6530   -357.8000      2.7731     90.5662
   807.2500    197.0019   -348.7841      2.8095     90.5411
   807.5000    177.7221   -335.1783      3.1900     91.0107
   807.7500    140.5239   -317.5479      3.9199     91.5332
   808.0000     91.8718   -298.4971      5.1610     92.1232
   808.2500     51.4280   -282.5562      7.4275     92.1801
   808.5000     27.9280   -274.5047     12.2538     91.8055
   808.7500     16.4947   -276.9006     24.5804     91.3200
   809.0000     13.1878   -288.6052     55.8194     90.0543
   809.2500     19.6163   -305.7826     65.3893     88.7367
   809.5000     37.1756   -324.4824     34.1379     86.4316
   809.7500     62.2580   -342.1339     19.2144     85.1359
   810.0000     89.3177   -356.9616     13.4125     83.9116
   810.2500    112.0516   -367.1061     11.0056     83.3685
   810.5000    117.1739   -371.0372     10.0436     82.5233
   810.7500     94.8908   -368.5188      9.7710     81.9757
   811.0000     57.4832   -360.6126      9.8399     81.5849
   811.2500     26.8996   -348.6581     10.0742     81.7782
   811.5000     11.2270   -333.4754     10.3887     82.7634
   811.7500      5.6706   -315.6127     10.7638     83.7807
   812.0000      4.3102   -296.2144     11.2457     85.5193
   812.2500      4.1547   -277.5016     11.9338     86.5543
   812.5000      4.4519   -262.3598     12.9380     87.4640
   812.7500      5.7723   -253.3509     14.2880     87.4278
   813.0000      8.6917   -251.8660     15.8122     86.1533
   813.2500     12.3633   -257.8827     17.0915     84.4461
   813.5000     14.8452   -270.1263     17.6755     80.9042
   813.7500     15.2843   -286.1412     17.4541     78.3864
   814.0000     14.8094   -302.3309     16.6937     75.5580
   814.2500     14.5026   -314.6336     15.7316     74.8259
   814.5000     13.7207   -320.0325     14.7743     75.5527
   814.7500     11.5009   -317.9491     13.9096     76.9366
   815.0000      8.4483   -310.4041     13.1792     79.7416
   815.2500      6.2099   -300.9383     12.6180     81.9020
   815.5000      5.6127   -293.0774     12.2550     85.4834
   815.7500      6.0906   -288.9624     12.0973     87.9638
   816.0000      7.0217   -288.5786     12.1167     91.0845
   816.2500      8.4475   -290.0363     12.2532     92.1891
   816.5000      9.8830   -290.8266     12.4378     91.9870
   816.7500     10.2278   -289.1738     12.6263     90.9474
   817.0000      9.4362   -284.7105     12.8160     88.8699
   817.2500      8.5066   -278.5154     13.0289     87.2270
