~Version Information
VERS.                      2.0: CWLS Log ASCII Standard - VERSION 2.0
WRAP.                       NO: One line per depth step
~Well Information Block
STRT.FT               240.0000: 
STOP.FT              1452.5000: 
STEP.FT                 0.1000: 
NULL.                -999.2500: 
COMP.          Petrogulf Corporation: COMPANY
WELL.          Robinson 15-12R: WELL
FLD.           Purgatorie River: FIELD
LOC.           1752' FNL & 561' FWL: LOCATION
PROV.                 Colorado: PROVINCE
CNTY.               Las Animas: COUNTRY
SRVC.                Patterson: SERVICE COMPANY
DATE.          Tue Sep 13 15:07:52 2005: LOG DATE
UWI.                          : UNIQUE WELL ID
~Curve Information Block
DEPT.FT            0 000 00 00: Depth
DCAL.in                       : CDL Caliper
RHOB.g/cc                     : CDL Bulk Density
RHOC.g/cc                     : CDL Density Correction
DPOR.pu                       : CDL Density Porosity
GR.GAPI                       : Gamma Ray
NPOR.pu                       : Neutron Porosity
~Parameter Information Block
~A  Depth       DCAL        RHOB        RHOC        DPOR         GR         NPOR    
# ...
   960.0000      7.9593      2.5580      0.1003      5.5781    159.8821     27.7888
   960.1000      7.9593      2.5434      0.0474      6.4618    158.1030     27.7647
   960.2000      7.9593      2.5355      0.0427      6.9403    157.9098     27.8336
   960.3000      7.9380      2.5293      0.0310      7.3171    158.7488     27.8052
   960.4000      7.9380      2.5216      0.0536      7.7807    159.6250     27.7317
   960.5000      7.9214      2.5229      0.0029      7.7030    159.6268     27.8178
   960.6000      7.9214      2.5414      0.0610      6.5790    156.3256     27.7060
   960.7000      7.9214      2.5679      0.0370      4.9763    149.0957     27.0375
   960.8000      7.8764      2.5867      0.1215      3.8382    142.7948     26.2738
   960.9000      7.8764      2.5974      0.0433      3.1904    140.7848     25.8143
   961.0000      7.8612      2.6139      0.1090      2.1878    140.7231     25.3864
   961.1000      7.8612      2.6315      0.1016      1.1216    137.5386     24.9396
   961.2000      7.8612      2.6284      0.1316      1.3093    129.9869     24.6249
   961.3000      7.8645      2.6036      0.0444      2.8141    122.0536     24.4334
   961.4000      7.8645      2.5833      0.0375      4.0418    117.9008     24.4045
   961.5000      7.8617      2.5779      0.0827      4.3705    117.3111     24.4296
   961.6000      7.8617      2.5738      0.0282      4.6201    115.1238     24.2451
   961.7000      7.8617      2.5676      0.0442      4.9938    110.9047     23.8938
   961.8000      7.9126      2.5691      0.0295      4.9032    110.0146     23.7827
   961.9000      7.9126      2.5895      0.0281      3.6695    112.5149     23.9964
   962.0000      7.8734      2.6262      0.0785      1.4442    115.4389     24.2478
   962.1000      7.8734      2.6556      0.1511     -0.3377    119.2733     24.2909
   962.2000      7.8734      2.6609      0.1136     -0.6619    125.5943     24.0072
   962.3000      7.8171      2.6521      0.1261     -0.1243    133.2309     23.6863
   962.4000      7.8171      2.6401      0.0918      0.5990    140.1183     23.5818
   962.5000      7.8029      2.6224      0.0915      1.6751    145.9427     23.6890
   962.6000      7.8029      2.5953      0.0546      3.3133    151.4941     24.2720
   962.7000      7.8029      2.5610      0.0617      5.3925    158.0533     25.2081
   962.8000      7.8256      2.5224      0.0402      7.7331    163.6226     25.7865
   962.9000      7.8256      2.4855      0.0265      9.9670    164.1418     25.9631
   963.0000      7.9086      2.4566      0.0064     11.7235    161.3304     26.3618
   963.1000      7.9086      2.4406     -0.0546     12.6922    160.4651     26.9914
   963.2000      7.9086      2.4476     -0.0163     12.2654    162.3746     27.2144
   963.3000      7.9484      2.4765      0.0081     10.5131    162.8300     27.2219
   963.4000      7.9484      2.5055      0.0674      8.7576    158.7994     27.7157
   963.5000      7.9674      2.5173      0.0835      8.0428    153.7074     28.3282
   963.6000      7.9674      2.5255      0.0543      7.5450    151.9764     28.2940
   963.7000      7.9674      2.5542      0.1266      5.8070    152.2471     27.8974
   963.8000      7.9406      2.5964      0.2293      3.2474    151.9222     27.6100
   963.9000      7.9406      2.6316      0.1724      1.1166    150.1674     27.2283
   964.0000      7.8437      2.6580      0.2031     -0.4842    148.2195     26.7228
   964.1000      7.8437      2.6751      0.2133     -1.5240    148.3116     26.3755
   964.2000      7.8437      2.6802      0.1846     -1.8288    149.3534     26.1159
   964.3000      7.8254      2.6777      0.1830     -1.6817    147.1218     25.7507
   964.4000      7.8254      2.6702      0.1870     -1.2250    140.2767     25.5232
   964.5000      7.8716      2.6612      0.1494     -0.6782    135.5106     25.7299
   964.6000      7.8716      2.6557      0.1591     -0.3473    137.1479     26.0365
   964.7000      7.8716      2.6504      0.0936     -0.0263    141.5361     26.0293
   964.8000      7.9255      2.6439      0.0774      0.3682    145.4037     25.8731
   964.9000      7.9255      2.6316      0.0568      1.1173    147.5037     25.7449
   965.0000      7.9382      2.6079      0.0573      2.5515    146.6692     25.5630
   965.1000      7.9382      2.5837      0.0416      4.0154    142.9216     25.3210
   965.2000      7.9382      2.5724      0.0486      4.7044    140.8580     25.0770
   965.3000      7.9464      2.5691      0.0448      4.9016    143.7672     25.1036
   965.4000      7.9464      2.5660      0.0039      5.0905    146.4381     25.5813
   965.5000      7.9416      2.5709     -0.0069      4.7959    145.4899     26.0909
   965.6000      7.9416      2.5843      0.0541      3.9789    143.8162     26.3894
   965.7000      7.9416      2.5856      0.0640      3.9036    142.3063     26.4977
   965.8000      7.9439      2.5639      0.0786      5.2175    140.3381     26.4765
   965.9000      7.9439      2.5346      0.0333      6.9933    139.8884     26.7493
   966.0000      7.9512      2.5215      0.0036      7.7859    141.7497     27.3025
   966.1000      7.9512      2.5283      0.0365      7.3784    145.3169     27.4711
   966.2000      7.9512      2.5388      0.0632      6.7367    147.4050     27.0573
   966.3000      7.9329      2.5578      0.0630      5.5850    144.8384     26.3341
   966.4000      7.9329      2.6113      0.0662      2.3437    143.0517     25.7082
   966.5000      7.8562      2.6917      0.1120     -2.5260    147.2168     25.5256
   966.6000      7.8562      2.7542      0.1402     -6.3123    150.9628     25.4558
   966.7000      7.8562      2.7838      0.1272     -8.1066    148.2828     25.1861
   966.8000      7.8453      2.8026      0.1879     -9.2467    142.1279     24.9598
   966.9000      7.8453      2.8142      0.1906     -9.9534    137.9219     24.9094
   967.0000      7.8898      2.8038      0.1308     -9.3203    138.0659     25.0037
   967.1000      7.8898      2.7715      0.0964     -7.3618    140.9684     25.1943
   967.2000      7.8898      2.7339      0.0251     -5.0877    143.7191     25.1759
   967.3000      7.8847      2.7076      0.0107     -3.4909    145.7818     24.9618
   967.4000      7.8847      2.6936      0.0263     -2.6394    148.7514     24.9742
   967.5000      7.9125      2.6855      0.0368     -2.1509    151.9430     25.1487
   967.6000      7.9125      2.6802      0.0738     -1.8310    153.7447     25.2340
   967.7000      7.9125      2.6702      0.1231     -1.2266    156.6558     25.4661
   967.8000      7.9240      2.6474      0.0834      0.1566    163.4652     25.8637
   967.9000      7.9240      2.6176      0.0507      1.9620    171.7603     26.1180
   968.0000      7.9256      2.5919      0.0466      3.5218    175.1773     26.2399
   968.1000      7.9256      2.5719      0.0410      4.7307    169.7469     26.5651
   968.2000      7.9256      2.5602      0.0141      5.4399    162.3726     27.1307
   968.3000      7.9184      2.5592      0.0123      5.5043    162.0783     27.5364
   968.4000      7.9184      2.5608      0.0366      5.4071    166.6360     27.7902
   968.5000      7.9423      2.5565      0.0220      5.6646    172.4189     28.2231
   968.6000      7.9423      2.5464     -0.0072      6.2810    178.9800     28.6973
   968.7000      7.9423      2.5350      0.0105      6.9706    182.1174     28.7444
   968.8000      7.9778      2.5306      0.0578      7.2373    180.0754     28.1387
   968.9000      7.9778      2.5341      0.0660      7.0244    178.3234     27.4607
   969.0000      7.9738      2.5386      0.0339      6.7514    179.4155     27.4654
   969.1000      7.9738      2.5420      0.0336      6.5463    181.1784     27.9359
   969.2000      7.9738      2.5467      0.0617      6.2635    183.8583     28.2402
   969.3000      7.9812      2.5553      0.0739      5.7416    185.8605     28.3989
   969.4000      7.9812      2.5646      0.0917      5.1739    183.8062     28.5439
   969.5000      7.9564      2.5677      0.0651      4.9884    181.3662     28.6328
