~Version Information
VERS.                      2.0: CWLS Log ASCII Standard - VERSION 2.0
WRAP.                       NO: One line per depth step
~Well Information Block
STRT.FT               510.0000: 
STOP.FT              1845.5000: 
STEP.FT                 0.1000: 
NULL.                -999.2500: 
COMP.          Pioneer Natural Resources: COMPANY
WELL.           Stampede 42-18: WELL
FLD.           Purgatoire River: FIELD
LOC.           2479' FNL & 160' FEL--: LOCATION
CNTY.               Las Animas: COUNTY
SRVC.          Superior Well Services: SERVICE COMPANY
DATE.          Sat Jun 09 02:39:23 2007: LOG DATE
UWI.           05 071 08237 00: UNIQUE WELL ID
STAT.                 Colorado: STATE
~Curve Information Block
DEPT.FT            0 000 00 00: Depth
DCAL.in                       : CDL Caliper
RHOB.g/cc                     : CDL Bulk Density
RHOC.g/cc                     : CDL Density Correction
DPOR.pu                       : CDL Density Porosity
GR.GAPI                       : Gamma Ray
~Parameter Information Block
~A  Depth       DCAL        RHOB        RHOC        DPOR         GR     
# ...
  1652.4000      8.1821      1.3139     -0.0054     80.9747     66.2167
  1652.5000      8.1215      1.3218      0.0018     80.4959     67.7817
  1652.6000      8.1215      1.3420     -0.0122     79.2738     67.7015
  1652.7000      8.1215      1.3819      0.0141     76.8516     65.0927
  1652.8000      8.1966      1.4307      0.0579     73.8969     61.9244
  1652.9000      8.1966      1.4683      0.0619     71.6155     64.1809
  1653.0000      8.2997      1.4981      0.0356     69.8148     71.0161
  1653.1000      8.2997      1.5323      0.0660     67.7378     75.1316
  1653.2000      8.2997      1.5623      0.1145     65.9209     76.1812
  1653.3000      8.2667      1.5750      0.1101     65.1539     80.1119
  1653.4000      8.2667      1.5811      0.0813     64.7835     86.9659
  1653.5000      8.1422      1.6050      0.0491     63.3320     91.3956
  1653.6000      8.1422      1.6499      0.1031     60.6122     92.6134
  1653.7000      8.1422      1.6924      0.0575     58.0366     94.4895
  1653.8000      8.0186      1.7206      0.0449     56.3290     97.9593
  1653.9000      8.0186      1.7510      0.0574     54.4861     98.6883
  1654.0000      7.8929      1.8007      0.0946     51.4752     91.8093
  1654.1000      7.8929      1.8557      0.1881     48.1370     81.6929
  1654.2000      7.8929      1.8941      0.1294     45.8097     79.9704
  1654.3000      7.8024      1.9279      0.1004     43.7652     88.0191
  1654.4000      7.8024      1.9762      0.1427     40.8343     94.3731
  1654.5000      7.8024      2.0353      0.1105     37.2567     93.8968
  1654.6000      7.8024      2.1070      0.1012     32.9062     93.3756
  1654.7000      7.8024      2.1987      0.2297     27.3486     96.3071
  1654.8000      7.8430      2.2901      0.2664     21.8101     99.3782
  1654.9000      7.8430      2.3528      0.2664     18.0126     98.8554
  1655.0000      7.8718      2.3899      0.1731     15.7658     95.2547
  1655.1000      7.8718      2.4279      0.1813     13.4622     91.2030
  1655.2000      7.8718      2.4688      0.1742     10.9843     86.9875
  1655.3000      7.8970      2.4852      0.1601      9.9878     86.5261
  1655.4000      7.8970      2.4706      0.0642     10.8738     92.7438
  1655.5000      7.9254      2.4541      0.0436     11.8727    101.2873
  1655.6000      7.9254      2.4566      0.0320     11.7233    104.7732
  1655.7000      7.9254      2.4674      0.0951     11.0685    100.0639
  1655.8000      7.9447      2.4738      0.0568     10.6763     94.0712
  1655.9000      7.9447      2.4833      0.0249     10.1039     96.1308
  1656.0000      7.9529      2.5004      0.0342      9.0672    104.7544
  1656.1000      7.9529      2.5166      0.0653      8.0878    112.8626
  1656.2000      7.9529      2.5267      0.0536      7.4699    118.0918
  1656.3000      7.9547      2.5319      0.0583      7.1547    118.4569
  1656.4000      7.9547      2.5361      0.0121      6.9030    112.3614
  1656.5000      7.9515      2.5448      0.0447      6.3744    105.1119
  1656.6000      7.9515      2.5581      0.0412      5.5701    103.3276
  1656.7000      7.9515      2.5700      0.0523      4.8470    107.3212
  1656.8000      7.9409      2.5702      0.0853      4.8341    110.9952
  1656.9000      7.9409      2.5578      0.0287      5.5858    109.2584
  1657.0000      7.9232      2.5503      0.0077      6.0403    105.1516
  1657.1000      7.9232      2.5589     -0.0002      5.5188    105.5555
  1657.2000      7.9232      2.5749      0.0094      4.5514    112.1606
  1657.3000      7.9069      2.5782      0.0843      4.3544    117.4423
  1657.4000      7.9069      2.5643      0.0077      5.1962    115.1472
  1657.5000      7.8940      2.5567      0.0264      5.6530    108.9840
  1657.6000      7.8940      2.5662      0.0350      5.0763    102.8145
  1657.7000      7.8940      2.5764      0.0447      4.4584     97.1613
  1657.8000      7.8844      2.5743      0.0413      4.5895     91.7146
  1657.9000      7.8844      2.5664      0.0555      5.0642     87.7979
  1658.0000      7.8771      2.5645      0.0562      5.1838     87.1862
  1658.1000      7.8771      2.5692      0.0193      4.8947     89.6046
  1658.2000      7.8771      2.5741      0.0360      4.6008     95.0466
  1658.3000      7.8714      2.5738      0.0352      4.6183    102.1781
  1658.4000      7.8714      2.5702     -0.0062      4.8360    108.3869
  1658.5000      7.8724      2.5628      0.0968      5.2820    110.6333
  1658.6000      7.8724      2.5442      0.0495      6.4143    104.9607
  1658.7000      7.8724      2.5190     -0.0010      7.9415     93.4703
  1658.8000      7.8797      2.5014      0.0423      9.0070     86.1444
  1658.9000      7.8797      2.4984      0.0132      9.1904     88.9482
  1659.0000      7.8860      2.5127      0.0161      8.3193     97.5187
  1659.1000      7.8860      2.5423      0.0397      6.5264    103.6846
  1659.2000      7.8860      2.5728      0.0713      4.6792    105.0718
  1659.3000      7.8874      2.5963      0.0541      3.2530    103.4580
  1659.4000      7.8874      2.6241      0.0510      1.5700     98.8910
  1659.5000      7.8839      2.6553      0.0996     -0.3234     94.2621
  1659.6000      7.8839      2.6663      0.1218     -0.9881     94.2376
  1659.7000      7.8839      2.6463      0.1039      0.2228     96.9555
  1659.8000      7.8808      2.6172      0.0324      1.9904     98.3632
  1659.9000      7.8808      2.6018      0.0375      2.9241     97.6720
  1660.0000      7.8800      2.6036      0.0487      2.8145     96.6555
  1660.1000      7.8800      2.6196      0.0516      1.8410     95.1311
  1660.2000      7.8800      2.6391      0.1057      0.6617     90.6206
  1660.3000      7.8804      2.6496      0.0939      0.0212     86.0585
  1660.4000      7.8804      2.6502      0.1110     -0.0145     89.8985
  1660.5000      7.8829      2.6363      0.1209      0.8278    100.5525
  1660.6000      7.8829      2.6052      0.0572      2.7180    106.6640
  1660.7000      7.8829      2.5708      0.0497      4.7995    106.9002
  1660.8000      7.8897      2.5508      0.0394      6.0114    108.2501
  1660.9000      7.8897      2.5471      0.0441      6.2346    109.5998
  1661.0000      7.9004      2.5425      0.0274      6.5170    108.5648
  1661.1000      7.9004      2.5241      0.0177      7.6329    108.8771
  1661.2000      7.9004      2.5030     -0.0111      8.9063    111.6316
  1661.3000      7.9093      2.4962     -0.0120      9.3189    114.5269
  1661.4000      7.9093      2.5019      0.0145      8.9779    118.4032
  1661.5000      7.9080      2.5101      0.0038      8.4765    121.2616
  1661.6000      7.9080      2.5177      0.0367      8.0183    120.8647
  1661.7000      7.9080      2.5166      0.0551      8.0847    122.1830
  1661.8000      7.8956      2.5032      0.0341      8.8991    127.2172
  1661.9000      7.8956      2.4935      0.0121      9.4860    131.4815
  1662.0000      7.8858      2.5050      0.0303      8.7899    134.0932
  1662.1000      7.8858      2.5372      0.0636      6.8338    134.1739
  1662.2000      7.8858      2.5677      0.1184      4.9872    126.9271
  1662.3000      7.8836      2.5755      0.0729      4.5176    118.5920
  1662.4000      7.8836      2.5657      0.0891      5.1071    121.6874
  1662.5000      7.8856      2.5530      0.0794      5.8761    134.7790
  1662.6000      7.8856      2.5462      0.0813      6.2917    143.5517
  1662.7000      7.8856      2.5457      0.0774      6.3196    139.5160
  1662.8000      7.8902      2.5441      0.0831      6.4175    129.5011
  1662.9000      7.8902      2.5349      0.0559      6.9729    124.8734
  1663.0000      7.8942      2.5231      0.0635      7.6888    126.7027
  1663.1000      7.8942      2.5173      0.0298      8.0402    128.3630
  1663.2000      7.8942      2.5156      0.0639      8.1466    130.8589
  1663.3000      7.8960      2.5130      0.0126      8.3026    137.6395
  1663.4000      7.8960      2.5147      0.0109      8.2010    141.0081
  1663.5000      7.8968      2.5154      0.0772      8.1568    135.6172
