~Version Information
VERS.                      2.0: CWLS Log ASCII Standard - VERSION 2.0
WRAP.                       NO: One line per depth step
~Well Information Block
STRT.FT               450.0000: 
STOP.FT              1642.0000: 
STEP.FT                 0.1000: 
NULL.                -999.2500: 
COMP.          Pioneer Natural Resources: COMPANY
WELL.           Buckhorn 12-21: WELL
FLD.           Purgatoire River: FIELD
LOC.           2450' FNL & 608' FWL: LOCATION
PROV.                 Colorado: PROVINCE
CNTY.               Las Animas: COUNTRY
SRVC.                Patterson: SERVICE COMPANY
DATE.          Wed Dec 01 15:08:21 2004: LOG DATE
UWI.           05 071 08129 00: UNIQUE WELL ID
~Curve Information Block
DEPT.FT            0 000 00 00: Depth
NPOR.pu                       : Neutron Porosity
CCL.                          : Casing Collar Locator
GR.GAPI                       : Gamma Ray
~Parameter Information Block
~A  Depth       NPOR        CCL          GR     
# ...
  1067.9000     23.3450     -2.0000     99.4892
  1068.0000     23.2540      0.0000    101.1700
  1068.1000     23.2540      0.0000    101.1700
  1068.2000     23.2540      0.0000    101.1700
  1068.3000     23.6796      0.0000    108.2252
  1068.4000     23.6796      0.0000    108.2252
  1068.5000     24.3483      0.0000    118.0755
  1068.6000     24.3483      0.0000    118.0755
  1068.7000     24.3483      0.0000    118.0755
  1068.8000     25.0290      0.0000    128.3075
  1068.9000     25.0290      0.0000    128.3075
  1069.0000     25.6451      0.0000    137.1591
  1069.1000     25.6451      0.0000    137.1591
  1069.2000     25.6451      0.0000    137.1591
  1069.3000     26.1626      0.0000    143.4040
  1069.4000     26.1626      0.0000    143.4040
  1069.5000     26.4545      0.0000    146.5102
  1069.6000     26.4545      0.0000    146.5102
  1069.7000     26.4545      0.0000    146.5102
  1069.8000     26.3363      0.0000    146.7903
  1069.9000     26.3363      0.0000    146.7903
  1070.0000     25.7155      0.0000    144.7649
  1070.1000     25.7155      0.0000    144.7649
  1070.2000     25.7155      0.0000    144.7649
  1070.3000     24.6635      0.0000    140.2806
  1070.4000     24.6635      0.0000    140.2806
  1070.5000     23.3487      0.0000    132.7393
  1070.6000     23.3487      0.0000    132.7393
  1070.7000     23.3487      0.0000    132.7393
  1070.8000     21.9200      0.0000    122.2665
  1070.9000     21.9200      0.0000    122.2665
  1071.0000     20.4621      0.0000    110.2583
  1071.1000     20.4621      0.0000    110.2583
  1071.2000     20.4621      0.0000    110.2583
  1071.3000     19.0413      0.0000     98.5900
  1071.4000     19.0413      0.0000     98.5900
  1071.5000     17.7577      0.0000     88.5770
  1071.6000     17.7577      0.0000     88.5770
  1071.7000     17.7577      0.0000     88.5770
  1071.8000     16.7346      0.0000     80.7778
  1071.9000     16.7346      0.0000     80.7778
  1072.0000     16.0683      0.0000     75.3123
  1072.1000     16.0683      0.0000     75.3123
  1072.2000     16.0683      0.0000     75.3123
  1072.3000     15.7966      0.0000     71.8871
  1072.4000     15.7966      0.0000     71.8871
  1072.5000     15.8757      0.0000     69.5328
  1072.6000     15.8757      0.0000     69.5328
  1072.7000     15.8757      0.0000     69.5328
  1072.8000     16.1574      0.0000     66.7898
  1072.9000     16.1574      0.0000     66.7898
  1073.0000     16.4266      0.0000     62.6836
  1073.1000     16.4266      0.0000     62.6836
  1073.2000     16.4266      0.0000     62.6836
  1073.3000     16.5209      0.0000     57.5738
  1073.4000     16.5209      0.0000     57.5738
  1073.5000     16.4205      0.0000     52.7026
  1073.6000     16.4205      0.0000     52.7026
  1073.7000     16.4205      0.0000     52.7026
  1073.8000     16.2138      0.0000     48.9487
  1073.9000     16.2138      0.0000     48.9487
  1074.0000     16.0118      0.0000     46.2449
  1074.1000     16.0118      0.0000     46.2449
  1074.2000     16.0118      0.0000     46.2449
  1074.3000     15.8988      0.0000     44.0079
  1074.4000     15.8988      0.0000     44.0079
  1074.5000     15.9209      0.0000     41.8483
  1074.6000     15.9209      0.0000     41.8483
  1074.7000     15.9209      0.0000     41.8483
  1074.8000     16.0802      0.0000     40.0249
  1074.9000     16.0802      0.0000     40.0249
  1075.0000     16.3341      0.0000     39.3061
  1075.1000     16.3341      0.0000     39.3061
  1075.2000     16.3341      0.0000     39.3061
  1075.3000     16.6233      0.0000     40.1693
  1075.4000     16.6233      0.0000     40.1693
  1075.5000     16.9217      0.0000     42.2716
  1075.6000     16.9217      0.0000     42.2716
  1075.7000     16.9217      0.0000     42.2716
  1075.8000     17.2662      0.0000     45.0947
  1075.9000     17.2662      0.0000     45.0947
  1076.0000     17.7629      0.0000     49.0385
  1076.1000     17.7629      0.0000     49.0385
  1076.2000     17.7629      0.0000     49.0385
  1076.3000     18.5835      0.0000     55.4439
  1076.4000     18.5835      0.0000     55.4439
  1076.5000     19.9094      0.0000     65.4066
  1076.6000     19.9094      0.0000     65.4066
  1076.7000     19.9094      0.0000     65.4066
  1076.8000     21.8015      0.0000     78.7162
  1076.9000     21.8015      0.0000     78.7162
  1077.0000     24.1061      0.0000     93.8146
  1077.1000     24.1061      0.0000     93.8146
  1077.2000     24.1061      0.0000     93.8146
  1077.3000     26.5228      0.0000    108.2545
  1077.4000     26.5228      0.0000    108.2545
  1077.5000     28.7739      0.0000    119.1980
  1077.6000     28.7739      0.0000    119.1980
  1077.7000     28.7739      0.0000    119.1980
  1077.8000     30.7014      0.0000    124.5213
  1077.9000     30.7014      0.0000    124.5213
  1078.0000     32.2557      0.0000    124.1808
  1078.1000     32.2557      0.0000    124.1808
  1078.2000     32.2557      0.0000    124.1808
  1078.3000     33.4556      0.0000    120.1335
  1078.4000     33.4556      0.0000    120.1335
  1078.5000     34.3708      0.0000    114.6506
  1078.6000     34.3708      0.0000    114.6506
  1078.7000     34.3708      0.0000    114.6506
  1078.8000     35.1121      0.0000    109.0328
  1078.9000     35.1121      0.0000    109.0328
  1079.0000     35.7853      0.0000    103.5872
  1079.1000     35.7853      0.0000    103.5872
  1079.2000     35.7853      0.0000    103.5872
  1079.3000     36.4122      0.0000     98.1419
  1079.4000     36.4122      0.0000     98.1419
  1079.5000     36.9042      0.0000     92.7823
  1079.6000     36.9042      0.0000     92.7823
  1079.7000     36.9042      0.0000     92.7823
  1079.8000     37.1449      0.0000     88.5484
  1079.9000     37.1449      0.0000     88.5484
  1080.0000     37.1046      0.0000     87.2231
  1080.1000     37.1046      0.0000     87.2231
  1080.2000     37.1046      0.0000     87.2231
  1080.3000     36.8661      0.0000     90.1970
  1080.4000     36.8661      0.0000     90.1970
  1080.5000     36.5585      0.0000     97.4611
  1080.6000     36.5585      0.0000     97.4611
  1080.7000     36.5585      0.0000     97.4611
  1080.8000     36.2738      0.0000    107.3707
  1080.9000     36.2738      0.0000    107.3707
  1081.0000     36.0289      0.0000    117.0830
  1081.1000     36.0289      0.0000    117.0830
  1081.2000     36.0289      0.0000    117.0830
  1081.3000     35.7881      0.0000    123.6444
  1081.4000     35.7881      0.0000    123.6444
  1081.5000     35.5188      0.0000    125.5508
  1081.6000     35.5188      0.0000    125.5508
  1081.7000     35.5188      0.0000    125.5508
  1081.8000     35.2231      0.0000    123.7492
  1081.9000     35.2231      0.0000    123.7492
  1082.0000     34.9206      0.0000    121.0042
  1082.1000     34.9206      0.0000    121.0042
  1082.2000     34.9206      0.0000    121.0042
  1082.3000     34.5984      0.0000    120.0125
  1082.4000     34.5984      0.0000    120.0125
  1082.5000     34.1853      0.0000    122.0149
  1082.6000     34.1853      0.0000    122.0149
  1082.7000     34.1853      0.0000    122.0149
  1082.8000     33.6023      0.0000    126.8371
  1082.9000     33.6023      0.0000    126.8371
  1083.0000     32.8557      0.0000    133.3850
  1083.1000     32.8557      0.0000    133.3850
  1083.2000     32.8557      0.0000    133.3850
  1083.3000     32.0436      0.0000    139.9397
  1083.4000     32.0436      0.0000    139.9397
  1083.5000     31.2408      0.0000    144.8586
  1083.6000     31.2408      0.0000    144.8586
  1083.7000     31.2408      0.0000    144.8586
  1083.8000     30.4241      0.0000    147.4223
  1083.9000     30.4241      0.0000    147.4223
  1084.0000     29.5503      0.0000    147.6373
  1084.1000     29.5503      0.0000    147.6373
  1084.2000     29.5503      0.0000    147.6373
  1084.3000     28.6575      0.0000    145.4221
  1084.4000     28.6575      0.0000    145.4221
  1084.5000     27.8351      0.0000    140.7875
