~Version Information
 VERS.                                  2.0 : CWLS LAS VERSION
 WRAP.                                   NO : WRAPING MODE
 SWARE .                 MController 2.5.0J : SOFTWARE VERSION
~Well Information
 WELL.                         Leier 17-24V : WELL
 COMP.                Petrogulf Corporation : COMPANY
 FLD.                      Purgatoire River : FIELD
 LOC.                SE/NE Sec 17 T33S R67W : LOCATION
 DATE.                             09/21/05 : DATE(S) LOGGED
 SRVC.       BLANCO Geological Services LLC : SERVICE COMPANY
 STAT.                                   CO : STATE
 CNTY.                           Las Animas : COUNTY
 CTRY.                                  USA : COUNTRY
 API.                       05-071-08409-00 : API NUMBER
 STRT.FT                             1.00 : START DEPTH
 STOP.FT                            2455.00 : STOP DEPTH
 STEP.FT                               1.00 : DEPTH INCREMENT
 NULL.                                -9999 : NULL VALUE
~Curve information
 DEPTH.FT                                   :
 ROP.MIN/FT                                 :
 GAS.UNITS                                  :
~ASCII Log data
# ...
      1196.0         3.15         31.5 
      1197.0         0.23         14.9 
      1198.0         0.30         14.0 
      1199.0         0.37         13.0 
      1200.0         0.37         12.0 
      1201.0         0.33         11.9 
      1202.0         0.27         11.0 
      1203.0         0.30         11.0 
      1204.0         0.23         10.6 
      1205.0         0.13          9.8 
      1206.0         0.20          9.7 
      1207.0         0.17          9.8 
      1208.0         0.13          9.6 
      1209.0         0.18          9.8 
      1210.0         0.17         10.2 
      1211.0         0.13          9.6 
      1212.0         0.17         10.1 
      1213.0         0.17          9.6 
      1214.0         0.17          9.0 
      1215.0         0.17          9.6 
      1216.0         0.13          9.3 
      1217.0         0.17          9.4 
      1218.0         0.17          9.0 
      1219.0         0.17          9.2 
      1220.0         0.17          9.1 
      1221.0         0.17          9.2 
      1222.0         0.17          9.8 
      1223.0         0.17          9.3 
      1224.0         0.13         10.3 
      1225.0         0.13         10.7 
      1226.0         3.25         21.0 
      1227.0         0.27         12.9 
      1228.0         0.23         14.0 
      1229.0         0.22         14.0 
      1230.0         0.27         13.8 
      1231.0         0.27         12.6 
      1232.0         0.33         12.4 
      1233.0         0.37         11.9 
      1234.0         0.27         11.5 
      1235.0         0.23         11.7 
      1236.0         0.27         11.8 
      1237.0         0.17         11.6 
      1238.0         0.10         11.4 
      1239.0         0.13         11.8 
      1240.0         0.13         11.9 
      1241.0         0.13         12.4 
      1242.0         0.17         12.2 
      1243.0         0.13         13.3 
      1244.0         0.10         13.1 
      1245.0         0.12         14.3 
      1246.0         0.17         14.3 
      1247.0         0.20         14.1 
      1248.0         0.27         14.4 
      1249.0         0.27         13.7 
      1250.0         0.27         13.5 
      1251.0         0.23         13.0 
      1252.0         0.17         12.5 
      1253.0         0.17         12.4 
      1254.0         0.17         12.1 
      1255.0         0.17         12.7 
      1256.0         3.02         24.7 
      1257.0         0.33         15.8 
      1258.0         0.27         14.8 
      1259.0         0.23         14.2 
      1260.0         0.25         13.9 
      1261.0         0.23         13.4 
      1262.0         0.27         13.2 
      1263.0         0.27         13.5 
      1264.0         0.23         12.4 
      1265.0         0.23         12.9 
      1266.0         0.20         12.3 
      1267.0         0.13         12.0 
      1268.0         0.20         12.1 
      1269.0         0.13         12.1 
      1270.0         0.20         12.2 
      1271.0         0.30         12.1 
      1272.0         0.42         11.9 
      1273.0         0.27         11.5 
      1274.0         0.47         11.9 
      1275.0         0.43         12.2 
      1276.0         0.37         12.4 
      1277.0         0.27         12.3 
      1278.0         0.27         12.3 
      1279.0         0.30         12.4 
      1280.0         0.23         11.6 
      1281.0         0.23         12.1 
      1282.0         0.25         12.3 
      1283.0         0.17         12.3 
      1284.0         0.17         12.0 
      1285.0         0.30         12.2 
      1286.0         2.95         23.2 
      1287.0         0.17         20.6 
      1288.0         0.23         26.3 
      1289.0         0.17         28.1 
      1290.0         0.20         28.1 
      1291.0         0.20         26.4 
      1292.0         0.30         23.2 
      1293.0         0.20         20.8 
      1294.0         0.20         20.0 
      1295.0         0.20         19.8 
      1296.0         0.13         19.5 
      1297.0         0.17         18.3 
      1298.0         0.17         18.2 
      1299.0         0.22         17.3 
      1300.0         0.23         16.4 
      1301.0         0.17         16.0 
      1302.0         0.23         16.0 
      1303.0         0.23         15.4 
      1304.0         0.30         14.7 
      1305.0         0.23         14.7 
      1306.0         0.30         14.2 
      1307.0         0.30         14.0 
      1308.0         0.30         14.3 
      1309.0         0.33         13.7 
      1310.0         0.38         14.3 
      1311.0         0.30         13.9 
      1312.0         0.23         14.0 
      1313.0         0.13         13.6 
      1314.0         0.17         13.8 
      1315.0         0.20         13.9 
      1316.0         2.75         24.8 
      1317.0         0.27         18.9 
      1318.0         0.17         19.7 
      1319.0         0.13         20.9 
      1320.0         0.17         22.7 
      1321.0         0.27         22.8 
      1322.0         0.23         21.2 
      1323.0         0.23         20.1 
      1324.0         0.30         19.3 
      1325.0         0.30         18.5 
      1326.0         0.23         18.2 
      1327.0         0.27         17.8 
      1328.0         0.25         17.3 
      1329.0         0.27         16.5 
      1330.0         0.20         16.2 
      1331.0         0.23         16.1 
      1332.0         0.23         15.9 
      1333.0         0.23         15.4 
      1334.0         0.23         15.2 
      1335.0         0.27         15.2 
      1336.0         0.23         15.0 
      1337.0         0.23         15.0 
      1338.0         0.27         15.2 
      1339.0         0.23         15.0 
      1340.0         0.27         15.3 
      1341.0         0.22         15.1 
      1342.0         0.23         15.1 
      1343.0         0.17         15.1 
      1344.0         0.23         14.8 
      1345.0         0.33         18.1 
      1346.0         2.52         69.1 
      1347.0         0.50         82.7 
      1348.0         0.40         84.1 
      1349.0         0.50         80.3 
      1350.0         0.33         70.6 
      1351.0         0.33         62.7 
      1352.0         0.37         55.3 
      1353.0         0.27         46.9 
      1354.0         0.23         42.0 
      1355.0         0.45         37.8 
      1356.0         0.23         31.9 
      1357.0         0.20         29.5 
      1358.0         0.30         27.9 
      1359.0         0.33         27.1 
      1360.0         0.27         26.4 
      1361.0         0.20         25.6 
      1362.0         0.20         25.9 
      1363.0         0.17         26.0 
      1364.0         0.17         25.7 
      1365.0         0.17         26.0 
      1366.0         0.17         25.7 
      1367.0         0.17         25.7 
      1368.0         0.17         25.7 
      1369.0         0.15         25.9 
      1370.0         0.13         26.0 
      1371.0         0.20         27.1 
      1372.0         0.20         27.7 
      1373.0         0.20         28.1 
      1374.0         0.13         27.6 
      1375.0         0.30         25.8 
      1376.0         2.68         62.6 
      1377.0         0.30         45.3 
      1378.0         0.57         43.3 
      1379.0         0.67         39.9 
      1380.0         0.60         35.0 
      1381.0         0.40         32.6 
      1382.0         0.22         30.8 
      1383.0         0.17         29.6 
      1384.0         0.17         27.8 
      1385.0         0.20         27.7 
      1386.0         0.17         26.9 
      1387.0         0.17         26.4 
      1388.0         0.17         25.9 
      1389.0         0.17         25.8 
      1390.0         0.17         25.3 
      1391.0         0.20         25.3 
      1392.0         0.17         25.1 
      1393.0         0.13         24.8 
      1394.0         0.23         24.7 
      1395.0         0.17         24.7 
