~Version Information
VERS.                      2.0: CWLS Log ASCII Standard - VERSION 2.0
WRAP.                       NO: One line per depth step
~Well Information Block
STRT.FT               930.0000: 
STOP.FT              2783.2500: 
STEP.FT                 0.2500: 
NULL.                -999.2500: 
COMP.          Pioneer Natural Resources: COMPANY
WELL.           Desoto 13-7TR: WELL
FLD.           Purgatoire River: FIELD
LOC.           1404' FSL & 1115' FWL: LOCATION
PROV.                 Colorado: PROVINCE
CNTY.               Las Animas: COUNTRY
SRVC.                Patterson: SERVICE COMPANY
DATE.          Fri Jan 14 11:02:13 2005: LOG DATE
UWI.           05 071 08216 00: UNIQUE WELL ID
~Curve Information Block
DEPT.FT            0 000 00 00: Depth
SN.Ohm-m                      : IEL Short Normal
SP.mV                         : IEL Spontaneous Potential
DIR.Ohm-m                     : IEL Induction Resistivity
GR.GAPI                       : Gamma Ray
~Parameter Information Block
~A  Depth        SN          SP         DIR          GR     
# ...
  1399.0000   2000.0000   2000.0000     50.2048     52.0740
  1399.2500   2000.0000   2000.0000     51.8295     51.0434
  1399.5000   2000.0000   2000.0000     53.2281     50.1106
  1399.7500   2000.0000   2000.0000     54.3456     49.2257
  1400.0000   2000.0000   2000.0000     54.9725     46.9635
  1400.2500   2000.0000   2000.0000     54.7582     45.1803
  1400.5000   2000.0000   2000.0000     53.4121     43.3496
  1400.7500   2000.0000   2000.0000     50.9513     43.3458
  1401.0000   2000.0000   2000.0000     47.7346     45.8281
  1401.2500   2000.0000   2000.0000     44.2407     49.4251
  1401.5000   2000.0000   2000.0000     40.8341     58.4645
  1401.7500   2000.0000   2000.0000     37.6928     67.3967
  1402.0000   2000.0000   2000.0000     34.8605     85.1824
  1402.2500   2000.0000   2000.0000     32.3203     99.0149
  1402.5000   2000.0000   2000.0000     30.0415    119.3099
  1402.7500   2000.0000   2000.0000     27.9981    130.1241
  1403.0000   2000.0000   2000.0000     26.1754    139.7181
  1403.2500   2000.0000   2000.0000     24.5713    142.0827
  1403.5000   2000.0000   2000.0000     23.1944    142.5277
  1403.7500   2000.0000   2000.0000     22.0545    142.2121
  1404.0000   2000.0000   2000.0000     21.1516    141.2401
  1404.2500   2000.0000   2000.0000     20.4690    139.8610
  1404.5000   2000.0000   2000.0000     19.9771    136.5845
  1404.7500   2000.0000   2000.0000     19.6437    134.0738
  1405.0000   2000.0000   2000.0000     19.4456    130.9892
  1405.2500   2000.0000   2000.0000     19.3706    129.9662
  1405.5000   2000.0000   2000.0000     19.4106    130.4673
  1405.7500   2000.0000   2000.0000     19.5500    132.0243
  1406.0000   2000.0000   2000.0000     19.7616    135.1708
  1406.2500   2000.0000   2000.0000     20.0141    136.9804
  1406.5000   2000.0000   2000.0000     20.2854    138.2792
  1406.7500   2000.0000   2000.0000     20.5718    138.1812
  1407.0000   2000.0000   2000.0000     20.8874    137.1619
  1407.2500   2000.0000   2000.0000     21.2575    136.2193
  1407.5000   2000.0000   2000.0000     21.7150    134.7805
  1407.7500   2000.0000   2000.0000     22.2973    134.0166
  1408.0000   2000.0000   2000.0000     23.0436    133.3285
  1408.2500   2000.0000   2000.0000     23.9922    132.8696
  1408.5000   2000.0000   2000.0000     25.1838    130.7576
  1408.7500   2000.0000   2000.0000     26.6698    127.3321
  1409.0000   2000.0000   2000.0000     28.5181    118.0785
  1409.2500   2000.0000   2000.0000     30.8000    109.5664
  1409.5000   2000.0000   2000.0000     33.5524     95.7967
  1409.7500   2000.0000   2000.0000     36.7401     87.7956
  1410.0000   2000.0000   2000.0000     40.2642     79.7506
  1410.2500   2000.0000   2000.0000     44.0428     77.2893
  1410.5000   2000.0000   2000.0000     48.1062     77.0243
  1410.7500   2000.0000   2000.0000     52.5883     78.3843
  1411.0000   2000.0000   2000.0000     57.5954     81.9498
  1411.2500   2000.0000   2000.0000     63.0571     85.0388
  1411.5000   2000.0000   2000.0000     68.6745     89.6614
  1411.7500   2000.0000   2000.0000     73.9705     91.8293
  1412.0000   2000.0000   2000.0000     78.3423     92.7641
  1412.2500   2000.0000   2000.0000     81.1119     91.9784
  1412.5000   2000.0000   2000.0000     81.7680     89.4856
  1412.7500   2000.0000   2000.0000     80.3902     87.2268
  1413.0000   2000.0000   2000.0000     77.7824     82.9771
  1413.2500   2000.0000   2000.0000     75.0358     79.8156
  1413.5000   2000.0000   2000.0000     72.9883     76.0373
  1413.7500   2000.0000   2000.0000     72.0054     75.1363
  1414.0000   2000.0000   2000.0000     72.0361     76.5076
  1414.2500   2000.0000   2000.0000     72.7174     78.5018
  1414.5000   2000.0000   2000.0000     73.4659     81.6758
  1414.7500   2000.0000   2000.0000     73.6513     83.4585
  1415.0000   2000.0000   2000.0000     72.9280     85.0462
  1415.2500   2000.0000   2000.0000     71.5203     84.9212
  1415.5000   2000.0000   2000.0000     70.1223     82.5740
  1415.7500   2000.0000   2000.0000     69.4495     79.9171
  1416.0000   2000.0000   2000.0000     69.8534     75.4766
  1416.2500   2000.0000   2000.0000     71.2135     72.7958
  1416.5000   2000.0000   2000.0000     73.0871     69.7448
  1416.7500   2000.0000   2000.0000     75.0086     68.5743
  1417.0000   2000.0000   2000.0000     76.7498     68.4230
  1417.2500   2000.0000   2000.0000     78.3243     69.2965
  1417.5000   2000.0000   2000.0000     79.7289     71.1838
  1417.7500   2000.0000   2000.0000     80.6920     72.2730
  1418.0000   2000.0000   2000.0000     80.6990     73.6568
  1418.2500   2000.0000   2000.0000     79.3292     74.9328
  1418.5000   2000.0000   2000.0000     76.5789     78.1402
  1418.7500   2000.0000   2000.0000     72.8289     81.2817
  1419.0000   2000.0000   2000.0000     68.5899     87.7613
  1419.2500   2000.0000   2000.0000     64.3065     93.5508
  1419.5000   2000.0000   2000.0000     60.3057    104.3971
  1419.7500   2000.0000   2000.0000     56.7800    112.2858
  1420.0000   2000.0000   2000.0000     53.7834    122.7719
  1420.2500   2000.0000   2000.0000     51.2747    127.5732
  1420.5000   2000.0000   2000.0000     49.1832    130.4227
  1420.7500   2000.0000   2000.0000     47.4554    129.5652
  1421.0000   2000.0000   2000.0000     46.0624    125.0967
  1421.2500   2000.0000   2000.0000     45.0014    120.5529
  1421.5000   2000.0000   2000.0000     44.3097    112.4084
  1421.7500   2000.0000   2000.0000     44.0674    107.1531
  1422.0000   2000.0000   2000.0000     44.3580    101.9934
  1422.2500   2000.0000   2000.0000     45.1873    101.2401
  1422.5000   2000.0000   2000.0000     46.4105    103.4404
  1422.7500   2000.0000   2000.0000     47.7407    105.9935
  1423.0000   2000.0000   2000.0000     48.8680    109.9580
  1423.2500   2000.0000   2000.0000     49.6062    112.2231
  1423.5000   2000.0000   2000.0000     49.9169    114.2120
  1423.7500   2000.0000   2000.0000     49.8041    114.0112
  1424.0000   2000.0000   2000.0000     49.2260    111.0541
  1424.2500   2000.0000   2000.0000     48.1188    108.0241
  1424.5000   2000.0000   2000.0000     46.4869    104.7756
  1424.7500   2000.0000   2000.0000     44.4588    105.2743
  1425.0000   2000.0000   2000.0000     42.2578    111.1308
  1425.2500   2000.0000   2000.0000     40.1153    117.5585
  1425.5000   2000.0000   2000.0000     38.1827    128.2598
  1425.7500   2000.0000   2000.0000     36.4985    134.7805
  1426.0000   2000.0000   2000.0000     35.0216    142.4187
  1426.2500   2000.0000   2000.0000     33.7037    145.7541
  1426.5000   2000.0000   2000.0000     32.5477    147.9638
  1426.7500   2000.0000   2000.0000     31.6181    147.8141
  1427.0000   2000.0000   2000.0000     31.0123    146.0452
  1427.2500   2000.0000   2000.0000     30.8198    144.2542
  1427.5000   2000.0000   2000.0000     31.0936    140.5811
  1427.7500   2000.0000   2000.0000     31.8316    137.0820
  1428.0000   2000.0000   2000.0000     32.9656    129.6778
  1428.2500   2000.0000   2000.0000     34.3584    123.2909
  1428.5000   2000.0000   2000.0000     35.8172    112.3384
  1428.7500   2000.0000   2000.0000     37.1275    105.1683
  1429.0000   2000.0000   2000.0000     38.0948     96.9476
  1429.2500   2000.0000   2000.0000     38.5802     94.2976
  1429.5000   2000.0000   2000.0000     38.5233     95.4578
  1429.7500   2000.0000   2000.0000     37.9540     99.5975
  1430.0000   2000.0000   2000.0000     36.9883    109.9823
  1430.2500   2000.0000   2000.0000     35.7953    118.7112
  1430.5000   2000.0000   2000.0000     34.5480    131.9731
  1430.7500   2000.0000   2000.0000     33.3850    139.0985
  1431.0000   2000.0000   2000.0000     32.3973    144.4471
  1431.2500   2000.0000   2000.0000     31.6318    143.7235
  1431.5000   2000.0000   2000.0000     31.1024    137.0367
  1431.7500   2000.0000   2000.0000     30.8063    130.2865
  1432.0000   2000.0000   2000.0000     30.7435    119.7581
  1432.2500   2000.0000   2000.0000     30.9343    113.9891
