~Version Information
VERS.                      2.0: CWLS Log ASCII Standard - VERSION 2.0
WRAP.                       NO: One line per depth step
~Well Information Block
STRT.FT               930.0000: 
STOP.FT              2783.2000: 
STEP.FT                 0.1000: 
NULL.                -999.2500: 
COMP.          Pioneer Natural Resources: COMPANY
WELL.           Desoto 13-7TR: WELL
FLD.           Purgatoire River: FIELD
LOC.           1404' FSL & 1115' FWL: LOCATION
PROV.                 Colorado: PROVINCE
CNTY.               Las Animas: COUNTRY
SRVC.                Patterson: SERVICE COMPANY
DATE.          Fri Jan 14 14:42:18 2005: LOG DATE
UWI.           05 071 08216 00: UNIQUE WELL ID
~Curve Information Block
DEPT.FT            0 000 00 00: Depth
DCAL.in                       : CDL Caliper
RHOB.g/cc                     : CDL Bulk Density
RHOC.g/cc                     : CDL Density Correction
DPOR.pu                       : CDL Density Porosity
NPOR.pu                       : Neutron Porosity
GR.GAPI                       : Gamma Ray
~Parameter Information Block
~A  Depth       DCAL        RHOB        RHOC        DPOR        NPOR         GR     
   930.0000      8.2284      2.3272     -0.2372     19.5616     42.2175     45.2298
   930.1000      8.2284      2.3105     -0.2969     20.5773     42.0685     44.7946
   930.2000      8.2284      2.3063     -0.2414     20.8308     41.8929     44.4173
   930.3000      8.2279      2.3084     -0.2469     20.7060     41.6950     45.8224
   930.4000      8.2279      2.3034     -0.2365     21.0058     41.6325     49.7714
   930.5000      8.2290      2.2874     -0.2475     21.9750     41.6003     54.2249
   930.6000      8.2290      2.2833     -0.3541     22.2256     41.4152     55.4034
   930.7000      8.2290      2.3108     -0.2252     20.5559     41.3655     54.7851
   930.8000      8.2308      2.3486     -0.2461     18.2688     41.7082     57.3922
   930.9000      8.2308      2.3692     -0.2107     17.0174     42.0163     61.7224
   931.0000      8.2332      2.3733     -0.2670     16.7721     41.9646     61.8272
   931.1000      8.2332      2.3805     -0.2418     16.3328     41.7123     58.2863
   931.2000      8.2332      2.3990     -0.2475     15.2099     41.5123     56.9088
   931.3000      8.2360      2.4175     -0.2016     14.0889     41.4218     59.8359
   931.4000      8.2360      2.4260     -0.2404     13.5736     41.3358     62.3058
   931.5000      8.2377      2.4258     -0.2243     13.5858     41.3923     60.2384
   931.6000      8.2377      2.4196     -0.2259     13.9640     41.6872     56.9997
   931.7000      8.2377      2.4102     -0.2345     14.5349     41.9234     57.2396
   931.8000      8.2373      2.3991     -0.2570     15.2087     41.8623     60.7282
   931.9000      8.2373      2.3861     -0.2684     15.9922     41.5469     63.7776
   932.0000      8.2352      2.3768     -0.2298     16.5583     41.2263     61.2708
   932.1000      8.2352      2.3757     -0.2324     16.6215     41.1626     52.9888
   932.2000      8.2352      2.3776     -0.1941     16.5084     41.3049     46.2523
   932.3000      8.2340      2.3726     -0.2612     16.8104     41.6876     45.5527
   932.4000      8.2340      2.3592     -0.2154     17.6220     42.1543     48.7438
   932.5000      8.2343      2.3519     -0.2864     18.0670     42.3233     52.7140
   932.6000      8.2343      2.3731     -0.2582     16.7806     42.2827     56.5185
   932.7000      8.2343      2.4141     -0.1615     14.2971     42.5282     61.5381
   932.8000      8.2360      2.4393     -0.1974     12.7693     43.1135     66.5675
   932.9000      8.2360      2.4419     -0.1838     12.6118     43.5784     68.3719
   933.0000      8.2380      2.4348     -0.1583     13.0440     43.6977     68.0452
   933.1000      8.2380      2.4174     -0.1921     14.0968     43.4881     67.7657
   933.2000      8.2380      2.3993     -0.2074     15.1962     43.2082     65.6024
   933.3000      8.2408      2.4037     -0.2234     14.9297     43.1691     60.8671
   933.4000      8.2408      2.4304     -0.1816     13.3097     43.2203     58.4338
   933.5000      8.2420      2.4429     -0.1129     12.5519     43.2298     59.8909
   933.6000      8.2420      2.4183     -0.1909     14.0415     43.2554     60.1701
   933.7000      8.2420      2.3886     -0.3017     15.8434     43.2707     57.0692
   933.8000      8.2411      2.3837     -0.2245     16.1423     43.2971     53.4542
   933.9000      8.2411      2.3815     -0.1983     16.2699     43.2914     50.3608
   934.0000      8.2405      2.3630     -0.2572     17.3964     43.1270     46.4453
   934.1000      8.2405      2.3449     -0.2734     18.4914     42.5566     41.9765
   934.2000      8.2405      2.3379     -0.2679     18.9175     41.5569     39.0348
   934.3000      8.2407      2.3356     -0.2831     19.0522     40.7264     39.8729
   934.4000      8.2407      2.3385     -0.2876     18.8785     40.5475     43.8555
   934.5000      8.2414      2.3364     -0.2151     19.0068     40.6304     47.7331
   934.6000      8.2414      2.3196     -0.3029     20.0240     40.3762     49.4926
   934.7000      8.2414      2.3021     -0.2269     21.0842     39.9487     49.0491
   934.8000      8.2429      2.2969     -0.3096     21.4023     39.7713     46.7989
   934.9000      8.2429      2.3055     -0.2615     20.8815     39.6961     42.1785
   935.0000      8.2441      2.3151     -0.2592     20.2963     39.6668     36.6541
   935.1000      8.2441      2.3143     -0.2999     20.3448     40.0286     34.8149
   935.2000      8.2441      2.3053     -0.2599     20.8929     40.5914     36.9234
   935.3000      8.2445      2.3062     -0.3429     20.8375     40.8102     39.4768
   935.4000      8.2445      2.3385     -0.3022     18.8796     40.7906     41.0615
   935.5000      8.2453      2.3868     -0.1964     15.9511     41.0284     41.3471
   935.6000      8.2453      2.4185     -0.2166     14.0307     41.4384     40.2987
   935.7000      8.2453      2.4299     -0.2170     13.3404     41.5533     39.1575
   935.8000      8.2463      2.4357     -0.2575     12.9886     41.2878     39.6242
   935.9000      8.2463      2.4340     -0.1489     13.0890     40.7489     41.5168
   936.0000      8.2468      2.4114     -0.2590     14.4587     40.1953     42.9298
   936.1000      8.2468      2.3817     -0.2861     16.2618     40.0624     43.7092
   936.2000      8.2468      2.3716     -0.2740     16.8728     40.2342     43.7111
   936.3000      8.2463      2.3830     -0.2454     16.1790     40.2065     41.2512
   936.4000      8.2463      2.3883     -0.2394     15.8636     40.0528     36.4120
   936.5000      8.2445      2.3741     -0.3072     16.7225     40.1081     32.1794
   936.6000      8.2445      2.3617     -0.2952     17.4757     40.3434     30.5852
   936.7000      8.2445      2.3498     -0.2171     18.1943     40.6688     31.3297
   936.8000      8.2429      2.3196     -0.2970     20.0256     41.0471     33.7904
   936.9000      8.2429      2.2868     -0.3627     22.0091     41.2161     37.8926
   937.0000      8.2421      2.2787     -0.3712     22.5047     41.0248     41.9457
   937.1000      8.2421      2.2950     -0.3337     21.5147     40.5860     42.9972
   937.2000      8.2421      2.3156     -0.2506     20.2664     40.1477     40.2174
   937.3000      8.2421      2.3238     -0.2755     19.7696     39.9150     36.5064
   937.4000      8.2421      2.3174     -0.2611     20.1605     39.9217     35.8575
   937.5000      8.2445      2.3032     -0.2662     21.0174     40.0300     39.0753
   937.6000      8.2445      2.2925     -0.3536     21.6692     40.0747     43.6914
   937.7000      8.2445      2.2901     -0.2715     21.8113     40.0449     46.0588
   937.8000      8.2473      2.2900     -0.3137     21.8206     39.9981     45.8338
   937.9000      8.2473      2.2928     -0.3115     21.6493     39.7435     46.0114
   938.0000      8.2489      2.3038     -0.3421     20.9825     39.2141     48.4229
   938.1000      8.2489      2.3117     -0.2685     20.5013     38.9685     52.7841
   938.2000      8.2489      2.2930     -0.2938     21.6381     39.3466     58.4270
   938.3000      8.2442      2.2442     -0.2877     24.5931     40.0182     61.9328
   938.4000      8.2442      2.2049     -0.4087     26.9762     40.4365     59.3958
   938.5000      8.2380      2.2194     -0.3616     26.0995     40.3026     52.4951
   938.6000      8.2380      2.2786     -0.2833     22.5119     39.8026     46.2382
   938.7000      8.2380      2.3328     -0.1819     19.2253     39.3674     44.4243
   938.8000      8.2412      2.3507     -0.2680     18.1377     39.2908     46.2384
   938.9000      8.2412      2.3421     -0.2669     18.6626     39.4837     47.0311
   939.0000      8.2455      2.3210     -0.2449     19.9402     39.7535     45.4443
   939.1000      8.2455      2.2915     -0.2530     21.7244     40.0819     44.2342
   939.2000      8.2455      2.2737     -0.3687     22.8033     40.3340     45.3068
   939.3000      8.2467      2.2839     -0.2541     22.1869     40.5445     47.6523
   939.4000      8.2467      2.3046     -0.2849     20.9336     40.7406     47.9873
   939.5000      8.2466      2.3272     -0.2942     19.5626     40.6437     46.0412
