~Version Information
VERS.                      2.0: CWLS Log ASCII Standard - VERSION 2.0
WRAP.                       NO: One line per depth step
~Well Information Block
STRT.FT               710.0000: 
STOP.FT              2921.0000: 
STEP.FT                 0.1000: 
NULL.                -999.2500: 
COMP.          Petrogulf Corporation: COMPANY
WELL.            Montoya 1-41V: WELL
FLD.           Purgatorie River: FIELD
LOC.           610' FNL & 1205' FEL: LOCATION
PROV.                 Colorado: PROVINCE
CNTY.               Las Animas: COUNTRY
SRVC.                Patterson: SERVICE COMPANY
DATE.          Mon Aug 22 07:54:27 2005: LOG DATE
UWI.                          : UNIQUE WELL ID
~Curve Information Block
DEPT.FT            0 000 00 00: Depth
DCAL.in                       : CDL Caliper
RHOB.g/cc                     : CDL Bulk Density
RHOC.g/cc                     : CDL Density Correction
DPOR.pu                       : CDL Density Porosity
GR.GAPI                       : Gamma Ray
NPOR.pu                       : Neutron Porosity
~Parameter Information Block
~A  Depth       DCAL        RHOB        RHOC        DPOR         GR         NPOR    
# ...
  1439.6000      8.2901      2.5027      0.0263      8.9255    143.7696     26.4713
  1439.7000      8.2901      2.5134      0.0276      8.2786    143.6430     26.3657
  1439.8000      8.3217      2.5231      0.0291      7.6896    143.7714     26.1743
  1439.9000      8.3217      2.5293      0.0417      7.3163    145.6261     25.9658
  1440.0000      8.3071      2.5298      0.0494      7.2830    148.4305     25.8875
  1440.1000      8.3071      2.5232      0.0392      7.6876    148.8273     26.2938
  1440.2000      8.3071      2.5121      0.0120      8.3584    148.2935     27.0006
  1440.3000      8.3266      2.5077      0.0426      8.6218    149.2889     27.4157
  1440.4000      8.3266      2.5191      0.0444      7.9336    149.7768     27.3950
  1440.5000      8.2972      2.5389      0.0765      6.7352    149.3574     27.4436
  1440.6000      8.2972      2.5476      0.1014      6.2041    149.9266     27.6676
  1440.7000      8.2972      2.5335      0.0622      7.0617    150.2972     27.6195
  1440.8000      8.3128      2.5016      0.0677      8.9931    149.4560     27.2822
  1440.9000      8.3128      2.4638      0.0366     11.2837    146.7861     26.9168
  1441.0000      8.2763      2.4341      0.0110     13.0837    141.7716     26.6748
  1441.1000      8.2763      2.4248      0.0021     13.6479    138.8304     26.7344
  1441.2000      8.2763      2.4328      0.0365     13.1631    141.9390     27.2099
  1441.3000      8.2831      2.4453      0.0428     12.4043    146.5519     27.7884
  1441.4000      8.2831      2.4593      0.0487     11.5588    146.8337     28.0011
  1441.5000      8.2649      2.4822      0.0601     10.1670    144.9977     27.8659
  1441.6000      8.2649      2.5155      0.1083      8.1514    144.5280     27.6122
  1441.7000      8.2649      2.5454      0.1184      6.3394    144.8428     27.6044
  1441.8000      8.2206      2.5563      0.1694      5.6783    146.5690     28.1633
  1441.9000      8.2206      2.5445      0.1270      6.3952    150.1593     28.9741
  1442.0000      8.2127      2.5232      0.0565      7.6839    154.3832     29.3476
  1442.1000      8.2127      2.5044      0.1044      8.8269    155.8195     28.9777
  1442.2000      8.2127      2.4873      0.0747      9.8595    153.1191     28.2547
  1442.3000      8.2146      2.4766      0.0815     10.5115    151.7547     27.8419
  1442.4000      8.2146      2.4765      0.0582     10.5130    153.7984     28.0333
  1442.5000      8.2125      2.4850      0.0601      9.9997    155.6852     28.6047
  1442.6000      8.2125      2.5006      0.0476      9.0525    156.5361     28.9700
  1442.7000      8.2125      2.5244      0.0398      7.6092    155.6569     28.8911
  1442.8000      8.2113      2.5487      0.1267      6.1415    151.1519     28.7249
  1442.9000      8.2113      2.5555      0.1152      5.7248    145.7496     28.7737
  1443.0000      8.1952      2.5399      0.1070      6.6710    144.0762     28.9331
  1443.1000      8.1952      2.5135      0.1294      8.2713    145.7313     28.9539
  1443.2000      8.1952      2.4855      0.1052      9.9722    147.9759     28.6593
  1443.3000      8.1856      2.4604      0.0416     11.4913    150.2450     28.0049
  1443.4000      8.1856      2.4431      0.0410     12.5369    153.9186     27.3991
  1443.5000      8.1583      2.4308      0.0863     13.2878    156.7146     27.4877
  1443.6000      8.1583      2.4145      0.0377     14.2745    152.7827     28.3379
  1443.7000      8.1583      2.3995      0.0246     15.1819    146.2717     29.2764
  1443.8000      8.1535      2.4010      0.0390     15.0911    148.0261     29.6569
  1443.9000      8.1535      2.4182      0.1177     14.0495    157.1240     29.6381
  1444.0000      8.1753      2.4340      0.1526     13.0933    164.3155     29.7528
  1444.1000      8.1753      2.4359      0.1628     12.9785    166.4111     30.0320
  1444.2000      8.1753      2.4216      0.1886     13.8403    164.7306     30.3329
  1444.3000      8.1985      2.3981      0.1734     15.2662    160.0692     30.5146
  1444.4000      8.1985      2.3825      0.1017     16.2119    155.4341     30.5602
  1444.5000      8.2079      2.3919      0.0808     15.6454    154.6369     30.7700
  1444.6000      8.2079      2.4345      0.0558     13.0602    156.1297     31.2100
  1444.7000      8.2079      2.5055      0.1056      8.7560    156.2896     31.6149
  1444.8000      8.2092      2.5773      0.2306      4.4065    155.7983     31.7404
  1444.9000      8.2092      2.6213      0.2530      1.7384    156.2057     31.3891
  1445.0000      8.2011      2.6421      0.2075      0.4762    158.0138     30.6427
  1445.1000      8.2011      2.6576      0.2395     -0.4615    159.7530     29.9519
  1445.2000      8.2011      2.6624      0.2320     -0.7487    158.4060     29.5907
  1445.3000      8.1842      2.6438      0.1702      0.3742    153.1900     29.4581
  1445.4000      8.1842      2.6105      0.0998      2.3929    147.1555     29.2118
  1445.5000      8.1572      2.5793      0.0631      4.2863    145.1576     28.6167
  1445.6000      8.1572      2.5631      0.0392      5.2661    147.4598     27.9424
  1445.7000      8.1572      2.5687      0.0527      4.9268    149.9668     27.4800
  1445.8000      8.1293      2.5789      0.1124      4.3118    150.5750     27.1855
  1445.9000      8.1293      2.5626      0.0527      5.2963    150.8191     27.1188
  1446.0000      8.1758      2.5201     -0.0062      7.8739    150.5843     27.2204
  1446.1000      8.1758      2.4754      0.0311     10.5806    148.3916     27.1140
  1446.2000      8.1758      2.4436      0.0035     12.5097    145.4304     26.8925
  1446.3000      8.2079      2.4313     -0.0031     13.2538    141.9865     27.0097
  1446.4000      8.2079      2.4331      0.0016     13.1426    137.6618     27.2304
  1446.5000      8.2048      2.4322      0.0444     13.1971    135.8032     26.9733
  1446.6000      8.2048      2.4292     -0.0090     13.3830    137.5336     26.4907
  1446.7000      8.2048      2.4423      0.0492     12.5865    139.7431     26.5027
  1446.8000      8.1816      2.4704      0.1114     10.8861    140.3677     27.0514
  1446.9000      8.1816      2.4906      0.1478      9.6577    138.6447     27.6353
  1447.0000      8.1538      2.4860      0.1514      9.9399    134.1602     27.9596
  1447.1000      8.1538      2.4527      0.2032     11.9587    130.8423     28.0730
  1447.2000      8.1538      2.4100      0.0734     14.5440    132.9485     28.1961
  1447.3000      8.1309      2.3928      0.0789     15.5907    135.8158     28.3604
  1447.4000      8.1309      2.4058      0.0925     14.7996    134.2713     28.3699
  1447.5000      8.1334      2.4281      0.1266     13.4458    132.1080     28.3288
  1447.6000      8.1334      2.4483      0.0969     12.2235    134.7133     28.3604
  1447.7000      8.1334      2.4613      0.1574     11.4358    138.9812     28.2111
  1447.8000      8.1186      2.4641      0.0999     11.2680    137.8743     27.8661
  1447.9000      8.1186      2.4686      0.1097     10.9933    131.5287     27.6278
  1448.0000      8.1341      2.4854      0.1017      9.9767    125.0909     27.3892
  1448.1000      8.1341      2.5044      0.1512      8.8248    122.8416     26.7364
  1448.2000      8.1341      2.5160      0.0789      8.1188    125.3580     25.8368
  1448.3000      8.1308      2.5305      0.0703      7.2443    126.6795     25.3857
  1448.4000      8.1308      2.5524      0.0879      5.9169    123.0327     25.4238
  1448.5000      8.1112      2.5637      0.1054      5.2323    121.3884     25.2024
  1448.6000      8.1112      2.5533      0.0286      5.8599    126.8542     24.4459
  1448.7000      8.1112      2.5341      0.0604      7.0230    132.5637     23.6373
  1448.8000      8.1335      2.5152      0.0399      8.1692    132.9763     23.0889
  1448.9000      8.1335      2.4998      0.0270      9.1036    134.4954     22.7442
  1449.0000      8.0835      2.4993      0.0141      9.1330    141.4682     22.6037
  1449.1000      8.0835      2.5166      0.0827      8.0826    148.5135     22.8780
