~Version Information
VERS.                      2.0: CWLS Log ASCII Standard - VERSION 2.0
WRAP.                       NO: One line per depth step
~Well Information Block
STRT.FT               840.0000: 
STOP.FT              2268.0000: 
STEP.FT                 0.2500: 
NULL.                -999.2500: 
COMP.          Pioneer Natural Resources: COMPANY
WELL.              Tonto 42-23: WELL
FLD.           Purgatoire River: FIELD
LOC.           2217' FNL & 423' FEL: LOCATION
PROV.                 Colorado: PROVINCE
CNTY.               Las Animas: COUNTRY
SRVC.                Patterson: SERVICE COMPANY
DATE.          Sun Apr 17 01:24:47 2005: LOG DATE
UWI.           05 071 08335 00: UNIQUE WELL ID
~Curve Information Block
DEPT.FT            0 000 00 00: Depth
SN.Ohm-m                      : IEL Short Normal
SP.mV                         : IEL Spontaneous Potential
DIR.Ohm-m                     : IEL Induction Resistivity
GR.GAPI                       : Gamma Ray
~Parameter Information Block
~A  Depth        SN          SP         DIR          GR     
# ...
  1309.0000     14.2856   -131.7749     10.7464    125.0243
  1309.2500     13.7687   -131.6820     10.5042    124.3099
  1309.5000     13.3785   -131.5856     10.3803    123.4713
  1309.7500     13.0275   -131.5394     10.3699    122.6677
  1310.0000     12.7311   -131.5755     10.4625    120.4265
  1310.2500     12.5665   -131.6885     10.6417    117.9457
  1310.5000     12.5450   -131.8382     10.8884    112.6987
  1310.7500     12.6133   -131.9702     11.1856    108.4035
  1311.0000     12.7692   -132.0434     11.5244    100.9843
  1311.2500     13.1417   -132.0495     11.9069     95.1839
  1311.5000     13.9401   -132.0172     12.3443     84.7210
  1311.7500     15.3492   -131.9974     12.8506     76.7663
  1312.0000     17.4570   -132.0417     13.4401     64.9700
  1312.2500     20.1831   -132.1786     14.1308     58.5174
  1312.5000     23.2246   -132.3979     14.9477     52.7950
  1312.7500     26.1076   -132.6523     15.9165     52.1591
  1313.0000     28.3273   -132.8803     17.0407     56.0810
  1313.2500     29.5276   -133.0409     18.2716     61.5651
  1313.5000     29.6905   -133.1371     19.4942     72.5804
  1313.7500     29.1234   -133.2075     20.5564     80.5088
  1314.0000     28.1909   -133.2912     21.3362     91.3277
  1314.2500     27.1656   -133.3989     21.7978     97.3682
  1314.5000     26.2593   -133.5143     21.9908    105.1527
  1314.7500     25.5569   -133.6160     22.0094    109.9923
  1315.0000     24.9815   -133.6976     21.9512    116.9257
  1315.2500     24.4271   -133.7751     21.8907    120.9958
  1315.5000     23.8902   -133.8801     21.8676    125.6727
  1315.7500     23.4730   -134.0388     21.8892    127.8132
  1316.0000     23.2476   -134.2512     21.9510    129.8183
  1316.2500     23.1977   -134.4835     22.0615    130.3111
  1316.5000     23.3532   -134.6802     22.2517    129.1924
  1316.7500     23.8260   -134.7888     22.5599    126.8438
  1317.0000     24.6528   -134.7834     23.0057    120.9398
  1317.2500     25.7033   -134.6752     23.5746    115.9212
  1317.5000     26.7949   -134.5048     24.2228    108.0707
  1317.7500     27.8782   -134.3209     24.8987    103.3274
  1318.0000     29.0317   -134.1576     25.5651     97.7740
  1318.2500     30.2282   -134.0204     26.2115     95.3322
  1318.5000     31.2696   -133.8887     26.8520     93.4773
  1318.7500     32.0794   -133.7316     27.5119     93.1629
  1319.0000     32.8106   -133.5287     28.2101     93.4050
  1319.2500     33.5478   -133.2790     28.9488     93.7016
  1319.5000     34.2193   -132.9954     29.7133     93.9348
  1319.7500     34.7879   -132.6962     30.4797     93.7133
  1320.0000     35.2484   -132.4044     31.2177     92.4016
  1320.2500     35.5863   -132.1522     31.8903     90.7977
  1320.5000     35.8626   -131.9779     32.4630     87.7912
  1320.7500     36.1351   -131.9110     32.9276     85.9644
  1321.0000     36.3422   -131.9529     33.3208     84.3607
  1321.2500     36.4367   -132.0730     33.7067     84.1388
  1321.5000     36.4873   -132.2281     34.1250     84.3828
  1321.7500     36.5633   -132.3869     34.5485     84.3805
  1322.0000     36.6483   -132.5404     34.8898     83.8315
  1322.2500     36.7023   -132.6946     35.0572     83.4694
  1322.5000     36.7636   -132.8605     35.0208     83.8601
  1322.7500     36.9430   -133.0493     34.8346     84.8580
  1323.0000     37.2813   -133.2735     34.6035     86.4673
  1323.2500     37.6533   -133.5451     34.4285     86.7988
  1323.5000     37.8832   -133.8742     34.3719     85.7585
  1323.7500     37.9322   -134.2676     34.4527     84.5123
  1324.0000     37.9064   -134.7245     34.6556     82.7505
  1324.2500     37.9156   -135.2301     34.9344     81.7677
  1324.5000     37.9761   -135.7539     35.2024     80.3504
  1324.7500     38.0441   -136.2531     35.3307     79.4564
  1325.0000     38.0900   -136.6818     35.1761     78.6067
  1325.2500     38.0703   -137.0013     34.6361     78.5973
  1325.5000     37.8995   -137.1925     33.7000     79.3369
  1325.7500     37.5534   -137.2623     32.4449     79.9751
  1326.0000     37.0874   -137.2408     30.9784     80.5592
  1326.2500     36.5004   -137.1677     29.3755     80.7276
  1326.5000     35.7665   -137.0765     27.6619     81.3398
  1326.7500     34.9411   -136.9833     25.8491     82.4108
  1327.0000     34.0108   -136.8851     23.9740     85.2778
  1327.2500     32.7555   -136.7686     22.1051     87.9960
  1327.5000     30.9460   -136.6202     20.3125     93.3019
  1327.7500     28.5942   -136.4328     18.6409     97.7568
  1328.0000     25.9134   -136.2091     17.1063    105.8164
  1328.2500     23.1253   -135.9629     15.7141    111.9075
  1328.5000     20.4160   -135.7192     14.4752    121.5234
  1328.7500     17.9635   -135.5080     13.4066    127.7655
  1329.0000     15.8785   -135.3492     12.5191    135.8052
  1329.2500     14.1947   -135.2360     11.8042    139.7838
  1329.5000     12.9493   -135.1377     11.2326    143.6601
  1329.7500     12.1644   -135.0219     10.7633    145.1802
  1330.0000     11.7560   -134.8765     10.3581    146.0891
  1330.2500     11.5820   -134.7122      9.9925    145.5511
  1330.5000     11.5624   -134.5496      9.6595    142.7574
  1330.7500     11.6790   -134.4057      9.3667    139.8568
  1331.0000     11.8441   -134.2861      9.1278    135.0442
  1331.2500     11.9014   -134.1823      8.9539    132.2331
  1331.5000     11.8514   -134.0785      8.8480    129.5581
  1331.7500     11.8545   -133.9696      8.8052    129.0349
  1332.0000     11.9747   -133.8707      8.8162    129.7126
  1332.2500     12.1231   -133.8056      8.8722    130.4401
  1332.5000     12.1748   -133.7819      8.9661    130.5981
  1332.7500     12.0886   -133.7833      9.0916    129.6913
  1333.0000     12.0031   -133.7870      9.2409    127.3340
  1333.2500     12.1208   -133.7811      9.4046    125.8276
  1333.5000     12.4410   -133.7613      9.5749    124.4662
  1333.7500     12.7740   -133.7215      9.7498    124.0128
  1334.0000     13.0077   -133.6621      9.9341    123.2206
  1334.2500     13.1503   -133.5989     10.1352    122.3897
  1334.5000     13.2377   -133.5543     10.3569    121.1679
  1334.7500     13.3365   -133.5354     10.5964    120.9485
  1335.0000     13.4864   -133.5264     10.8475    122.1684
  1335.2500     13.6253   -133.4989     11.1062    123.8184
  1335.5000     13.6834   -133.4310     11.3710    126.3314
  1335.7500     13.7181   -133.3132     11.6405    127.3298
  1336.0000     13.8500   -133.1461     11.9124    127.5489
  1336.2500     14.0823   -132.9363     12.1888    127.2450
  1336.5000     14.3164   -132.7005     12.4828    127.0858
  1336.7500     14.5154   -132.4682     12.8170    127.5883
  1337.0000     14.7305   -132.2750     13.2139    129.4008
  1337.2500     15.0054   -132.1456     13.6873    130.9888
  1337.5000     15.3395   -132.0773     14.2421    132.8567
  1337.7500     15.7470   -132.0397     14.8808    133.1670
  1338.0000     16.2819   -131.9917     15.6103    131.8790
  1338.2500     16.9863   -131.9040     16.4443    129.9643
  1338.5000     17.8549   -131.7730     17.4005    125.4835
  1338.7500     18.8798   -131.6224     18.4950    121.0534
  1339.0000     20.1604   -131.4946     19.7355    111.5574
  1339.2500     21.8916   -131.4323     21.1164    103.3755
  1339.5000     24.1685   -131.4548     22.6173     89.4244
  1339.7500     26.9357   -131.5524     24.2080     79.9708
  1340.0000     30.1266   -131.7037     25.8631     67.1078
  1340.2500     33.7190   -131.8976     27.5842     60.0504
  1340.5000     37.6679   -132.1342     29.4139     52.3435
  1340.7500     41.7948   -132.4086     31.4127     49.2162
  1341.0000     45.7642   -132.7002     33.5875     47.2187
  1341.2500     49.2032   -132.9796     35.8061     47.2913
  1341.5000     51.8133   -133.2247     37.7789     48.7911
  1341.7500     53.4127   -133.4305     39.1785     50.3111
  1342.0000     53.9710   -133.6087     39.8427     52.5399
  1342.2500     53.5996   -133.7870     39.8705     53.5975
