~Version Information
VERS.                      2.0: CWLS Log ASCII Standard - VERSION 2.0
WRAP.                       NO: One line per depth step
~Well Information Block
STRT.FT               530.0000: 
STOP.FT              1825.0000: 
STEP.FT                 0.1000: 
NULL.                -999.2500: 
COMP.          Pioneer Natural Resources: COMPANY
WELL.          Vision 31-11 Tr: WELL
FLD.           Purgatoire River: FIELD
LOC.           742' FNL & 1593' FEL: LOCATION
STAT.                 Colorado: State
CNTY.               Las Animas: COUNTY
CTRY. USA : Country
SECT. 11 : Section
TOWN. 32S : Township
RANG. 66W : Range
SRVC.                Patterson: SERVICE COMPANY
DATE.          Mon Oct 10 07:17:32 2005: LOG DATE
API.           05 071 08305 00: UNIQUE WELL ID
~Curve Information Block
DEPT.FT            0 000 00 00: Depth
DCAL.in                       : CDL Caliper
RHOB.g/cc                     : CDL Bulk Density
RHOC.g/cc                     : CDL Density Correction
DPOR.pu                       : CDL Density Porosity
GR.GAPI                       : Gamma Ray
NPOR.pu                       : Neutron Porosity
~Parameter Information Block
~A  Depth       DCAL        RHOB        RHOC        DPOR         GR         NPOR    
# ...
  1211.6000      8.1358      2.5478      0.0280      6.1961     78.1737     18.1457
  1211.7000      8.1358      2.5728      0.0734      4.6788     80.9767     17.6044
  1211.8000      8.1261      2.6001      0.0957      3.0245     90.0466     16.8402
  1211.9000      8.1261      2.6085      0.0682      2.5139     98.1851     16.3792
  1212.0000      8.0634      2.6096      0.0969      2.4491    100.7616     16.6735
  1212.1000      8.0634      2.6142      0.0706      2.1693    101.0222     17.3329
  1212.2000      8.0634      2.6163      0.0767      2.0411    100.4076     17.0601
  1212.3000      8.0674      2.6162      0.0060      2.0483     97.0676     15.3508
  1212.4000      8.0674      2.6218      0.0882      1.7115     93.5472     13.7025
  1212.5000      8.1044      2.6225      0.0820      1.6694     96.0013     13.0533
  1212.6000      8.1044      2.6027      0.0694      2.8661    101.6597     13.1829
  1212.7000      8.1044      2.5729      0.0016      4.6712    101.9080     13.4435
  1212.8000      8.0836      2.5596     -0.0066      5.4774     98.3520     13.4769
  1212.9000      8.0836      2.5652      0.0433      5.1367     96.5808     13.9300
  1213.0000      8.0741      2.5705      0.0378      4.8187     93.9523     14.9592
  1213.1000      8.0741      2.5721     -0.0081      4.7213     87.8581     15.8242
  1213.2000      8.0741      2.5816      0.0225      4.1458     82.1020     16.1514
  1213.3000      8.0927      2.5986      0.0329      3.1179     79.3554     15.5263
  1213.4000      8.0927      2.6203      0.0178      1.7987     77.4919     13.8067
  1213.5000      8.0922      2.6545      0.0502     -0.2700     76.1174     12.1388
  1213.6000      8.0922      2.6924      0.0898     -2.5702     74.7405     11.8174
  1213.7000      8.0922      2.7097      0.0601     -3.6175     72.8818     13.2475
  1213.8000      8.0879      2.7047      0.0735     -3.3147     73.2407     15.7331
  1213.9000      8.0879      2.7024      0.0209     -3.1769     75.6981     17.3995
  1214.0000      8.1034      2.7187      0.0528     -4.1615     77.8777     17.4828
  1214.1000      8.1034      2.7431      0.0623     -5.6450     76.6399     17.1324
  1214.2000      8.1034      2.7583      0.0589     -6.5627     71.6052     17.1118
  1214.3000      8.0851      2.7520      0.0615     -6.1826     67.5171     16.6610
  1214.4000      8.0851      2.7224      0.0381     -4.3889     64.3729     14.9606
  1214.5000      8.0857      2.6857      0.0074     -2.1651     56.9750     13.0901
  1214.6000      8.0857      2.6630     -0.0432     -0.7867     46.3517     12.5617
  1214.7000      8.0857      2.6538      0.0400     -0.2295     39.9133     13.4415
  1214.8000      8.0752      2.6427      0.0532      0.4404     40.4105     14.8317
  1214.9000      8.0752      2.6280      0.0536      1.3336     43.4992     15.8126
  1215.0000      8.0784      2.6169      0.0684      2.0039     46.0496     15.7851
  1215.1000      8.0784      2.6136      0.0566      2.2032     49.4478     14.7164
  1215.2000      8.0784      2.6171      0.0655      1.9965     52.3589     13.6349
  1215.3000      8.0896      2.6164      0.0738      2.0377     51.5710     13.3384
  1215.4000      8.0896      2.6026      0.0722      2.8736     50.3005     13.9326
  1215.5000      8.0892      2.5794      0.0526      4.2789     51.1068     15.5386
  1215.6000      8.0892      2.5542      0.0372      5.8069     51.3746     17.4793
  1215.7000      8.0892      2.5379      0.0010      6.7966     52.2503     18.3545
  1215.8000      8.0992      2.5512      0.0202      5.9876     56.3681     18.3335
  1215.9000      8.0992      2.5858      0.1203      3.8919     61.3379     18.5036
  1216.0000      8.0782      2.6033      0.0881      2.8315     64.1864     19.2688
  1216.1000      8.0782      2.5918      0.1160      3.5286     66.6305     20.0225
  1216.2000      8.0782      2.5707      0.0408      4.8073     70.9183     20.2899
  1216.3000      8.0723      2.5618      0.0622      5.3474     76.1205     20.2748
  1216.4000      8.0723      2.5646      0.0842      5.1751     79.5813     19.8666
  1216.5000      8.0718      2.5657      0.0665      5.1098     79.9665     19.1759
  1216.6000      8.0718      2.5647      0.0801      5.1699     81.2921     18.7466
  1216.7000      8.0718      2.5672      0.0574      5.0191     85.3263     18.9575
  1216.8000      8.0716      2.5690      0.0596      4.9096     89.3690     19.6099
  1216.9000      8.0716      2.5613      0.0717      5.3776     93.5745     20.0638
  1217.0000      8.0769      2.5437      0.0486      6.4432     98.8577     19.9209
  1217.1000      8.0769      2.5255      0.0318      7.5477    103.0166     19.6072
  1217.2000      8.0769      2.5144     -0.0042      8.2192    103.6906     19.9436
  1217.3000      8.0751      2.5118      0.0144      8.3781    101.2846     20.7361
  1217.4000      8.0751      2.5196      0.0014      7.9050     98.5980     20.8219
  1217.5000      8.0721      2.5414      0.0497      6.5818     99.7569     20.0931
  1217.6000      8.0721      2.5699      0.0373      4.8572    105.6488     20.0402
  1217.7000      8.0721      2.5946      0.0803      3.3583    111.9832     21.0864
  1217.8000      8.0916      2.6211      0.0491      1.7521    116.3982     22.1419
  1217.9000      8.0916      2.6636      0.1021     -0.8222    120.9250     22.4201
  1218.0000      8.1122      2.7200      0.0955     -4.2451    125.9394     22.0438
  1218.1000      8.1122      2.7675      0.1907     -7.1204    129.4127     21.5568
  1218.2000      8.1122      2.7812      0.1878     -7.9487    127.5572     21.8390
  1218.3000      8.1198      2.7609      0.1117     -6.7231    119.8094     23.1027
  1218.4000      8.1198      2.7215      0.0661     -4.3342    112.7245     24.4439
  1218.5000      8.1346      2.6648      0.0792     -0.8981    110.9016     24.8595
  1218.6000      8.1346      2.5988      0.0501      3.1054    115.6112     24.1250
  1218.7000      8.1346      2.5521      0.0168      5.9325    123.8930     22.8999
  1218.8000      8.0857      2.5314      0.0375      7.1898    126.9015     22.0879
  1218.9000      8.0857      2.5142      0.0226      8.2317    122.9411     21.3598
  1219.0000      8.0562      2.4986      0.0016      9.1728    122.6637     20.1842
  1219.1000      8.0562      2.5000      0.0673      9.0913    130.1391     19.4090
  1219.2000      8.0562      2.5180      0.1165      7.9991    136.1084     19.3705
  1219.3000      8.0524      2.5417      0.1275      6.5627    135.8127     19.6326
  1219.4000      8.0524      2.5634      0.1283      5.2460    134.1542     20.7265
  1219.5000      8.0865      2.5815      0.1263      4.1527    134.8853     22.5572
  1219.6000      8.0865      2.5950      0.1188      3.3324    136.3181     23.2295
  1219.7000      8.0865      2.6004      0.1489      3.0071    136.1130     22.2416
  1219.8000      8.0632      2.5949      0.1539      3.3422    135.8839     21.4374
  1219.9000      8.0632      2.5826      0.0917      4.0869    137.0252     21.9393
  1220.0000      8.0693      2.5732      0.0940      4.6573    136.9227     23.1093
  1220.1000      8.0693      2.5795      0.0308      4.2729    132.1425     24.3860
  1220.2000      8.0693      2.6022      0.0763      2.8971    125.7676     25.3383
  1220.3000      8.0908      2.6168      0.0742      2.0100    125.8610     25.0414
  1220.4000      8.0908      2.6092      0.0337      2.4752    132.0453     24.1740
  1220.5000      8.1035      2.5920     -0.0082      3.5143    134.0077     24.0413
  1220.6000      8.1035      2.5766      0.0174      4.4503    127.7853     24.2820
  1220.7000      8.1035      2.5631      0.0312      5.2654    121.8582     23.8704
  1220.8000      8.0854      2.5582     -0.0267      5.5643    122.5274     22.9882
  1220.9000      8.0854      2.5688      0.0180      4.9232    125.3570     22.2092
  1221.0000      8.0719      2.5854      0.0272      3.9145    124.0929     21.8623
  1221.1000      8.0719      2.6006     -0.0169      2.9968    120.5391     22.5328
