~Version Information
VERS.                      2.0: CWLS Log ASCII Standard - VERSION 2.0
WRAP.                       NO: One line per depth step
~Well Information Block
STRT.FT               650.0000: 
STOP.FT              1080.5000: 
STEP.FT                 0.1000: 
NULL.                -999.2500: 
COMP.          Pioneer Natural Resources: COMPANY
WELL.            Galileo 21-11: WELL
FLD.           Purgatoire River: FIELD
LOC.           407' FNL & 2394' FWL: LOCATION
PROV.                 Colorado: PROVINCE
CNTY.               Las Animas: COUNTRY
SRVC.                Patterson: SERVICE COMPANY
DATE.          Mon Apr 11 16:20:08 2005: LOG DATE
UWI.           05 071 08353 00: UNIQUE WELL ID
~Curve Information Block
DEPT.FT            0 000 00 00: Depth
DCAL.in                       : CDL Caliper
RHOB.g/cc                     : CDL Bulk Density
RHOC.g/cc                     : CDL Density Correction
DPOR.pu                       : CDL Density Porosity
GR.GAPI                       : Gamma Ray
NPOR.pu                       : Neutron Porosity
~Parameter Information Block
~A  Depth       DCAL        RHOB        RHOC        DPOR         GR         NPOR    
# ...
   870.8000      7.9001      2.5185      0.0653      7.9718    113.0321     26.1055
   870.9000      7.9001      2.5058      0.0888      8.7403    115.5051     26.7515
   871.0000      7.9065      2.4990      0.0934      9.1506    117.5792     27.4101
   871.1000      7.9065      2.4854      0.0648      9.9747    117.7602     27.3056
   871.2000      7.9065      2.4641      0.0914     11.2650    113.6583     26.4419
   871.3000      7.8998      2.4455      0.0869     12.3956    107.3260     25.6569
   871.4000      7.8998      2.4448      0.0568     12.4345    103.3762     25.2821
   871.5000      7.8993      2.4731      0.0542     10.7239    102.3385     25.2688
   871.6000      7.8993      2.5212      0.1309      7.8074    103.0907     25.4797
   871.7000      7.8993      2.5644      0.1648      5.1863    106.0432     25.3783
   871.8000      7.8992      2.5844      0.2120      3.9737    109.9408     24.9196
   871.9000      7.8992      2.5865      0.1795      3.8488    109.7985     24.5752
   872.0000      7.8931      2.5873      0.1807      3.7985    103.9797     24.4558
   872.1000      7.8931      2.5859      0.1859      3.8874    100.0522     24.2862
   872.2000      7.8931      2.5705      0.1232      4.8185    102.2528     24.0905
   872.3000      7.8971      2.5420      0.1140      6.5475    104.6254     24.3320
   872.4000      7.8971      2.5085      0.0943      8.5758    104.7598     24.9755
   872.5000      7.8982      2.4774      0.0450     10.4598    107.6258     25.4619
   872.6000      7.8982      2.4519      0.0584     12.0047    115.5201     25.7580
   872.7000      7.8982      2.4354      0.0139     13.0079    123.3984     26.2849
   872.8000      7.9008      2.4376      0.0231     12.8702    126.6426     26.8937
   872.9000      7.9008      2.4628      0.0537     11.3458    128.0134     26.8624
   873.0000      7.9175      2.5016      0.1089      8.9965    128.0900     26.1927
   873.1000      7.9175      2.5396      0.1341      6.6896    125.2404     25.6824
   873.2000      7.9175      2.5616      0.1664      5.3548    121.8085     25.7333
   873.3000      7.9021      2.5589      0.1805      5.5225    119.8906     25.9482
   873.4000      7.9021      2.5407      0.1505      6.6269    120.1209     25.9027
   873.5000      7.8958      2.5241      0.1358      7.6273    120.5063     25.6345
   873.6000      7.8958      2.5171      0.0694      8.0550    118.6120     25.3527
   873.7000      7.8958      2.5148      0.0453      8.1964    114.6096     25.1305
   873.8000      7.8968      2.5130      0.0743      8.3033    113.5269     24.9141
   873.9000      7.8968      2.5176      0.1016      8.0233    118.2869     24.8320
   874.0000      7.8989      2.5277      0.1323      7.4128    120.9746     24.9273
   874.1000      7.8989      2.5257      0.1365      7.5329    116.4928     24.9682
   874.2000      7.8989      2.5101      0.1182      8.4785    110.2096     25.1458
   874.3000      7.8988      2.5059      0.1104      8.7310    107.7387     25.6149
   874.4000      7.8988      2.5232      0.1383      7.6869    109.9573     25.8274
   874.5000      7.8985      2.5417      0.1132      6.5662    114.3493     25.6160
   874.6000      7.8985      2.5473      0.0920      6.2243    116.2976     25.2346
   874.7000      7.8985      2.5521      0.0864      5.9313    114.1777     25.0814
   874.8000      7.8970      2.5692      0.1279      4.8992    112.9421     25.5338
   874.9000      7.8970      2.5878      0.1655      3.7683    114.9653     26.1420
   875.0000      7.8975      2.5892      0.1735      3.6834    118.1096     26.1861
   875.1000      7.8975      2.5703      0.1418      4.8302    121.3780     25.8676
   875.2000      7.8975      2.5431      0.1122      6.4795    124.6709     25.8778
   875.3000      7.8972      2.5192      0.1193      7.9270    128.2578     26.3682
   875.4000      7.8972      2.5057      0.0899      8.7466    130.0370     26.9572
   875.5000      7.8997      2.5075      0.0614      8.6367    128.2431     27.3408
   875.6000      7.8997      2.5288      0.0408      7.3431    123.9164     27.4959
   875.7000      7.8997      2.5699      0.0990      4.8551    118.4324     27.4261
   875.8000      7.8955      2.6111      0.1617      2.3575    114.2177     27.2547
   875.9000      7.8955      2.6239      0.1826      1.5802    111.9591     26.8883
   876.0000      7.8970      2.6081      0.1428      2.5369    112.2403     25.9935
   876.1000      7.8970      2.5884      0.1404      3.7317    114.5268     24.9714
   876.2000      7.8970      2.5750      0.1038      4.5426    114.2825     24.5913
   876.3000      7.8982      2.5601      0.1283      5.4509    111.5077     24.5994
   876.4000      7.8982      2.5461      0.0122      6.2969    110.5604     24.5423
   876.5000      7.8985      2.5461      0.0610      6.2973    112.2698     24.4677
   876.6000      7.8985      2.5596      0.0637      5.4811    116.2677     24.3123
   876.7000      7.8985      2.5794      0.0992      4.2771    121.3513     24.0307
   876.8000      7.8971      2.5936      0.1853      3.4201    121.8706     23.9245
   876.9000      7.8971      2.5897      0.1451      3.6560    117.4861     24.2525
   877.0000      7.8950      2.5711      0.1310      4.7829    115.6674     24.4505
   877.1000      7.8950      2.5411      0.1349      6.6012    116.5130     23.9071
   877.2000      7.8950      2.5054      0.1124      8.7637    114.6765     23.6123
   877.3000      7.8965      2.4823      0.1085     10.1623    113.7817     24.4829
   877.4000      7.8965      2.4829      0.0903     10.1247    118.7787     25.5397
   877.5000      7.9000      2.5003      0.1138      9.0722    123.6701     26.1522
   877.6000      7.9000      2.5182      0.0903      7.9884    122.6566     27.0460
   877.7000      7.9000      2.5333      0.0708      7.0750    118.2844     27.7956
   877.8000      7.8987      2.5524      0.1071      5.9155    116.1399     27.6380
   877.9000      7.8987      2.5672      0.1664      5.0210    117.9596     27.1457
   878.0000      7.9001      2.5641      0.1342      5.2044    119.0166     26.8764
   878.1000      7.9001      2.5520      0.1283      5.9378    115.9815     26.6650
   878.2000      7.9001      2.5495      0.1230      6.0920    111.4758     26.6103
   878.3000      7.9002      2.5589      0.1113      5.5236    110.1778     26.8580
   878.4000      7.9002      2.5668      0.1493      5.0418    111.2637     26.9837
   878.5000      7.8999      2.5670      0.1078      5.0299    109.5020     26.6548
   878.6000      7.8999      2.5736      0.0805      4.6306    105.4627     25.9351
   878.7000      7.8999      2.5953      0.0997      3.3147    104.2353     25.1686
   878.8000      7.9004      2.6147      0.1237      2.1380    104.7404     24.7141
   878.9000      7.9004      2.6152      0.0942      2.1109    104.0325     24.5343
   879.0000      7.8983      2.6083      0.0798      2.5281    103.6516     24.2223
   879.1000      7.8983      2.6095      0.1182      2.4532    103.6232     23.9224
   879.2000      7.8983      2.6106      0.0814      2.3870    101.8039     24.0480
   879.3000      7.8968      2.6021      0.0519      2.9055     96.1895     24.4051
   879.4000      7.8968      2.5863      0.0459      3.8592     87.6404     24.5487
   879.5000      7.8997      2.5564      0.1245      5.6698     82.5061     24.2427
   879.6000      7.8997      2.5137      0.0257      8.2597     83.8262     23.7784
   879.7000      7.8997      2.4887      0.0114      9.7778     86.8118     23.3163
   879.8000      7.8989      2.4931      0.0562      9.5062     86.0583     22.3872
   879.9000      7.8989      2.5104      0.0341      8.4607     84.0635     21.2978
   880.0000      7.8986      2.5338      0.0438      7.0419     84.3787     20.8310
   880.1000      7.8986      2.5624      0.0922      5.3118     84.4375     20.9744
   880.2000      7.8986      2.5912      0.1111      3.5646     81.7121     21.4074
   880.3000      7.8974      2.6139      0.1537      2.1860     78.6825     21.8936
