~Version Information
VERS.                      2.0: CWLS Log ASCII Standard - VERSION 2.0
WRAP.                       NO: One line per depth step
~Well Information Block
STRT.FT               -12.5000: 
STOP.FT              2487.7500: 
STEP.FT                 0.2500: 
NULL.                -999.2500: 
COMP.          Petrogulf Corporation: COMPANY
WELL.             Royal 8-33 V: WELL
FLD.           Purgatorie River: FIELD
LOC.           2365' FSL & 2336' FEL--: LOCATION
CNTY.               Las Animas: COUNTY
SRVC.                         : SERVICE COMPANY
DATE.          Sat Jan 17 11:43:49 2004: LOG DATE
UWI.           05 071 07934 00: UNIQUE WELL ID
STAT.                       CO: STATE
~Curve Information Block
DEPT.FT            0 000 00 00: Depth
CCL.                          : Casing Collar Locator
TT3.usec                      : CBL 3' Travel Time
AMP3.mV                       : CBL 3' Amplitude
GR.GAPI                       : Gamma Ray
~Parameter Information Block
~A  Depth       CCL         TT3         AMP3         GR     
# ...
   657.5000      0.0000    806.5872      9.6537     62.3669
   657.7500      0.0000    815.5983      9.1274     62.0008
   658.0000      0.0000    826.9683      8.8146     63.4147
   658.2500      0.0000    838.4388      8.6967     66.7456
   658.5000      0.0000    845.2886      8.7680     71.4353
   658.7500      0.0000    844.2664      9.0320     76.6532
   659.0000      0.0000    836.0825      9.4850     81.3119
   659.2500      0.0000    822.6306     10.0940     83.8648
   659.5000      0.0000    803.3677     10.7781     82.9643
   659.7500      0.0000    776.5363     11.4116     78.7784
   660.0000      0.0000    744.6993     11.8526     73.4023
   660.2500      0.0000    718.2311     11.9885     69.6932
   660.5000      0.0000    710.1965     11.7828     69.4678
   660.7500      0.0000    724.7412     11.2971     72.4944
   661.0000      0.0000    752.4817     10.6641     76.9471
   661.2500      0.0000    780.1257     10.0205     80.8120
   661.5000      0.0000    801.8759      9.4529     83.0560
   661.7500      0.0000    818.7634      8.9978     83.8360
   662.0000      0.0000    830.7652      8.6720     83.8963
   662.2500      0.0000    834.9160      8.4841     83.9342
   662.5000      0.0000    830.9169      8.4249     84.4540
   662.7500      0.0000    824.6219      8.4681     85.6922
   663.0000      0.0000    823.2933      8.5907     87.1313
   663.2500      0.0000    827.6000      8.7934     87.2667
   663.5000      0.0000    829.2381      9.1048     84.5483
   663.7500      0.0000    815.8584      9.5706     78.8894
   664.0000      0.0000    777.4846     10.2319     71.9418
   664.2500      0.0000    710.9639     11.0962     65.7374
   664.5000      0.0000    623.2149     12.1176     61.3418
   664.7500      0.0000    530.6368     13.2158     58.8109
   665.0000      0.0000    451.2405     14.3257     57.9327
   665.2500      0.0000    394.7594     15.4190     58.7352
   665.5000      0.0000    359.9882     16.4738     61.3505
   665.7500      0.0000    339.7665     17.4510     65.4259
   666.0000      0.0000    326.8548     18.3196     69.7589
   666.2500      0.0000    316.9005     19.1033     72.8557
   666.5000      0.0000    308.6997     19.9062     74.0588
   666.7500      0.0000    302.6726     20.8769     74.0070
   667.0000      0.0000    299.0461     22.0699     73.9596
   667.2500      0.0000    297.2927     23.2921     74.6972
   667.5000      0.0000    296.6672     24.1512     75.9791
   667.7500      0.0000    296.8026     24.3484     77.0275
   668.0000      0.0000    298.0190     23.9180     77.5298
   668.2500      0.0000    301.4984     23.1307     78.1293
   668.5000      0.0000    308.9480     22.1925     79.8494
   668.7500      0.0000    321.1003     21.1230     82.9548
   669.0000      0.0000    336.4043     19.9122     86.3802
   669.2500      0.0000    352.7183     18.6785     88.5027
   669.5000      0.0000    371.8569     17.5961     88.5981
   669.7500      0.0000    401.5406     16.7105     87.3918
   670.0000      0.0000    450.1645     15.8749     86.0608
   670.2500      0.0000    517.5496     14.8733     85.0064
   670.5000      0.0000    590.8665     13.6300     83.8767
   670.7500      0.0000    652.1353     12.3201     82.5146
   671.0000      0.0000    691.6785     11.2556     81.4318
   671.2500      0.0000    713.4671     10.6628     81.3439
   671.5000      0.0000    727.3434     10.5793     82.4191
   671.7500      0.0000    738.0658     10.8972     84.0042
   672.0000      0.0000    741.7130     11.4310     85.1486
   672.2500      0.0000    731.3657     11.9708     85.4284
   672.5000      0.0000    707.5354     12.3465     85.1940
   672.7500      0.0000    683.7756     12.4686     85.1464
   673.0000      0.0000    677.8484     12.3291     85.7739
   673.2500      0.0000    693.9555     12.0487     86.9132
   673.5000      0.0000    715.6566     11.9338     87.6216
   673.7500      0.0000    717.1798     12.3739     86.8736
   674.0000      0.0000    680.7872     13.5664     84.8186
   674.2500      0.0000    608.5702     15.3087     83.0517
   674.5000      0.0000    524.4746     17.0651     83.1887
   674.7500      0.0000    463.3560     18.2796     85.3539
   675.0000      0.0000    451.3627     18.7131     88.2840
   675.2500      0.0000    491.7700     18.5590     90.6397
   675.5000      0.0000    565.1303     18.2584     91.9680
   675.7500      0.0000    641.2227     18.1707     92.5779
   676.0000      0.0000    695.9382     18.3744     92.8464
   676.2500      0.0000    723.4339     18.7191     92.9525
   676.5000      0.0000    734.0842     19.0140     93.1691
   676.7500      0.0000    740.7195     19.1511     93.7789
   677.0000      0.0000    746.9208     19.0981     94.4198
   677.2500      0.0000    746.8052     18.8430     94.0150
   677.5000      0.0000    733.6307     18.3798     91.8096
   677.7500      0.0000    708.5430     17.7456     88.3459
   678.0000      0.0000    680.9344     17.0592     85.0485
   678.2500      0.0000    658.3909     16.4982     82.8036
   678.5000      0.0000    636.7772     16.2272     81.2701
   678.7500      0.0000    604.1829     16.3544     79.6084
   679.0000      0.0000    554.6111     16.9519     77.5126
   679.2500      0.0000    493.8044     18.0643     75.2966
   679.5000      0.0000    432.7415     19.6242     73.2082
   679.7500      0.0000    380.3250     21.3411     70.9971
   680.0000      0.0000    341.5064     22.7625     68.1711
   680.2500      0.0000    317.3072     23.5799     64.4764
   680.5000      0.0000    305.0252     23.9322     60.1806
   680.7500      0.0000    300.0243     24.3492     56.0486
   681.0000      0.0000    298.2567     25.3274     53.0037
   681.2500      0.0000    297.4578     26.9253     51.5972
   681.5000      0.0000    296.8339     28.7509     51.5419
   681.7500      0.0000    296.3029     30.3262     51.7195
   682.0000      0.0000    295.9451     31.4570     50.9232
   682.2500      0.0000    295.7889     32.2644     48.9285
   682.5000      0.0000    295.7871     32.9380     46.7809
   682.7500      0.0000    295.8353     33.5485     45.8223
   683.0000      0.0000    295.8169     34.0761     46.4776
   683.2500      0.0000    295.6644     34.5219     48.1114
   683.5000      0.0000    295.3914     34.9299     49.8684
   683.7500      0.0000    295.0666     35.3046     51.2859
   684.0000      0.0000    294.7636     35.5280     52.1082
   684.2500      0.0000    294.5400     35.4147     51.9910
   684.5000      0.0000    294.4619     34.9014     50.7604
   684.7500      0.0000    294.6734     34.1413     48.7438
   685.0000      0.0000    295.8267     33.3325     46.4996
   685.2500      0.0000    300.2271     32.4459     44.3405
   685.5000      0.0000    313.6454     31.1639     42.4197
   685.7500      0.0000    345.7729     29.1174     41.1218
   686.0000      0.0000    405.7476     26.2022     40.9482
   686.2500      0.0000    492.6375     22.6735     41.9958
   686.5000      0.0000    589.7061     18.9716     43.6860
   686.7500      0.0000    672.4365     15.5034     45.0377
   687.0000      0.0000    725.8262     12.5595     45.2955
   687.2500      0.0000    753.4633     10.3012     44.5433
   687.5000      0.0000    769.8765      8.7332     43.7650
   687.7500      0.0000    786.7366      7.7212     44.0721
   688.0000      0.0000    806.9408      7.0872     45.6379
   688.2500      0.0000    828.1254      6.6960     47.4058
   688.5000      0.0000    847.5134      6.4794     47.9291
   688.7500     -4.0000    862.9588      6.4363     46.5172
   689.0000      0.0000    872.1000      6.6089     43.6459
   689.2500      0.0000    872.9031      7.0230     40.5116
   689.5000      0.0000    865.1250      7.6370     38.3391
   689.7500      0.0000    849.9796      8.3472     37.8343
   690.0000      0.0000    828.2374      9.0283     38.9041
   690.2500      0.0000    800.1512      9.5802     40.7850
   690.5000      0.0000    768.2861      9.9795     42.5404
   690.7500      0.0000    739.2878     10.2860     43.6492
