~Version Information
VERS.                      2.0: CWLS Log ASCII Standard - VERSION 2.0
WRAP.                       NO: One line per depth step
~Well Information Block
STRT.FT               866.0000: 
STOP.FT              2029.0000: 
STEP.FT                 0.2500: 
NULL.                -999.2500: 
COMP.          Petrogulf Corporation: COMPANY
WELL.             State 16-21R: WELL
FLD.           Purgatorie River: FIELD
LOC.           203' FNL & 1560' FWL: LOCATION
PROV.                 Colorado: PROVINCE
CNTY.               Las Animas: COUNTRY
SRVC.                Patterson: SERVICE COMPANY
DATE.          Tue Aug 16 12:55:36 2005: LOG DATE
UWI.                071 08313 : UNIQUE WELL ID
~Curve Information Block
DEPT.FT            0 000 00 00: Depth
SP.mV                         : DIL Spontaneous Potential
RILD.Ohm-m                    : DIL Deep Resistivity
RILM.Ohm-m                    : DIL Medium Resistivity
RLL3.Ohm-m                    : DIL Shallow Resistivity
GR.GAPI                       : Gamma Ray
~Parameter Information Block
~A  Depth        SP         RILD        RILM        RLL3         GR     
# ...
  1874.0000   -100.7894      7.5310      8.9944     10.0287    126.1254
  1874.2500   -101.3457      7.5947      9.0925     10.3286    119.3523
  1874.5000   -102.6375      7.7488      9.2363     10.8529    115.4458
  1874.7500   -103.9545      7.8930      9.4032     10.7247    111.6305
  1875.0000   -105.2815      8.0680      9.5737     10.8254    117.0037
  1875.2500   -106.1336      8.1619      9.8027     10.8899    127.2987
  1875.5000   -106.9117      8.2960     10.0068     11.3527    120.4834
  1875.7500   -107.9429      8.4564     10.2747     12.3223    119.4517
  1876.0000   -108.9215      8.6378     10.5993     12.9476    118.6130
  1876.2500   -110.7794      8.7896     10.7810     13.6090    117.5462
  1876.5000   -112.8596      9.0303     11.0112     13.9993    115.5900
  1876.7500   -114.2414      9.2308     11.2385     14.1328    118.6169
  1877.0000   -114.5341      9.4039     11.3805     14.2171    116.1576
  1877.2500   -114.8036      9.6602     11.7453     14.4625    121.7391
  1877.5000   -115.4692      9.8668     12.0956     14.6938    119.2878
  1877.7500   -115.9411     10.2216     12.4163     14.9452    113.5596
  1878.0000   -116.3749     10.5451     12.6951     15.1314    117.1725
  1878.2500   -116.8158     10.6795     13.1662     15.7906    117.0359
  1878.5000   -117.0489     10.8754     13.4651     16.9225    108.9205
  1878.7500   -117.3423     10.8919     13.7998     17.9134    108.3406
  1879.0000   -117.8639     10.9618     14.3156     18.3801    112.3016
  1879.2500   -118.2687     10.9354     14.5526     18.8862    115.1058
  1879.5000   -118.5820     10.9573     14.8014     19.5355    111.0803
  1879.7500   -118.6936     10.9493     14.8625     19.7828    106.7598
  1880.0000   -119.1443     10.9408     14.7044     18.9881    110.3046
  1880.2500   -119.4841     11.0271     14.1946     17.3324    110.3283
  1880.5000   -119.6885     11.1719     13.6911     15.2433    111.9042
  1880.7500   -119.5114     11.2653     12.9287     13.2559    110.2003
  1881.0000   -118.4734     11.2199     12.4811     12.1401    112.7580
  1881.2500   -116.3734     11.1940     12.2782     11.9415    112.8491
  1881.5000   -114.8060     11.1748     12.2375     13.0989    110.5838
  1881.7500   -114.1312     11.0557     12.4414     14.7118     99.7643
  1882.0000   -113.6812     10.9425     12.7213     15.3060    103.7816
  1882.2500   -113.0594     10.7540     12.9110     15.5684    114.0186
  1882.5000   -112.3391     10.3943     13.0082     16.5222    124.4919
  1882.7500   -110.5579     10.1051     12.9211     16.7412    123.4616
  1883.0000   -108.7975      9.8362     12.9101     15.8309    129.6302
  1883.2500   -107.0442      9.6891     12.6228     17.9961    127.7198
  1883.5000   -105.3079      9.6092     11.9529     20.5242    117.4580
  1883.7500   -103.1165      9.5488     11.3942     15.9405    117.4752
  1884.0000   -101.6847      9.5373     11.0184     10.4088    131.3100
  1884.2500   -101.7296      9.5085     10.6240      8.6760    130.2129
  1884.5000   -102.3403      9.3426     10.5359      8.9303    120.5410
  1884.7500   -103.3894      9.3192     10.7702      9.8308    114.0140
  1885.0000   -104.2716      9.2843     11.0886     10.6699    109.2206
  1885.2500   -105.0189      9.1697     11.3508     11.7845    110.5286
  1885.5000   -105.6893      9.1000     11.3992     12.5536    109.1523
  1885.7500   -106.4308      8.7400     11.3858     12.9710    116.7447
  1886.0000   -106.9753      8.4618     11.1828     13.5797    114.1512
  1886.2500   -106.5893      8.1872     10.9021     13.7420    120.4259
  1886.5000   -105.0479      7.8714     10.3564     13.6599    112.8183
  1886.7500   -103.7439      7.6711      9.9126     12.7753    107.8325
  1887.0000   -103.0560      7.4605      9.4080     11.1332    120.2446
  1887.2500   -102.8291      7.3002      8.7981     10.0617    125.4099
  1887.5000   -102.0900      7.1125      8.1826     10.1014    126.3188
  1887.7500   -101.9378      7.0013      7.6202      9.5834    127.2155
  1888.0000   -102.6776      6.8944      7.2700      8.2647    130.3022
  1888.2500   -103.2263      6.8232      7.0059      7.3313    133.7264
  1888.5000   -104.5239      6.7089      6.8606      6.9347    130.6236
  1888.7500   -105.8460      6.6715      6.7825      6.8900    135.0928
  1889.0000   -108.0841      6.6651      6.7845      6.5677    143.6491
  1889.2500   -110.1987      6.6686      6.7707      6.6857    145.6942
  1889.5000   -112.2783      6.7472      6.8631      6.9564    136.5580
  1889.7500   -114.5955      6.8089      7.0341      6.9251    133.9047
  1890.0000   -116.1667      6.8872      7.3120      6.7877    124.0234
  1890.2500   -117.4321      7.0231      7.7099      7.1666    127.8295
  1890.5000   -119.4593      7.1343      8.3142      8.1593    118.6850
  1890.7500   -120.8577      7.3071      9.0622     10.2088    101.7788
  1891.0000   -121.8026      7.5495      9.7161     13.2224    106.9863
  1891.2500   -122.2056      7.7467     10.1733     15.0154    104.6369
  1891.5000   -122.1394      7.8974     10.4902     14.5035    103.1486
  1891.7500   -122.2121      8.1009     10.5869     12.9062    106.7682
  1892.0000   -122.1256      8.2927     10.6674     12.2458    103.8307
  1892.2500   -122.9146      8.4430     10.6059     11.9355    105.2344
  1892.5000   -124.2811      8.6874     10.6981     11.5707    109.1775
  1892.7500   -125.6354      8.8098     10.6093     10.9037    114.9889
  1893.0000   -126.3420      8.8120     10.5086     10.3265    117.4891
  1893.2500   -126.6988      8.8189     10.4584     10.3270    114.7622
  1893.5000   -126.4460      8.6400     10.2308      9.7954    119.7788
  1893.7500   -126.3701      8.5057     10.0193      8.8845    116.9338
  1894.0000   -126.6924      8.3156      9.7713      8.8538    113.7443
  1894.2500   -127.5995      8.1198      9.4974      8.8652    113.8101
  1894.5000   -128.1769      7.8472      9.2334      8.8476    112.2382
  1894.7500   -128.3586      7.5636      8.9396      8.6886    121.4233
  1895.0000   -128.3881      7.3763      8.6302      8.3965    126.3277
  1895.2500   -128.2291      7.1565      8.3813      7.9175    126.6680
  1895.5000   -128.3359      7.0599      8.1347      7.6824    118.5385
  1895.7500   -128.2100      6.9072      7.9870      7.2840    126.7057
  1896.0000   -127.2479      6.8087      7.9106      6.9722    126.3756
  1896.2500   -126.7925      6.7011      7.9248      6.9642    126.8098
  1896.5000   -126.2818      6.6259      7.9166      7.5761    115.9770
  1896.7500   -125.4713      6.5669      7.8833      8.3340    117.2010
  1897.0000   -124.5101      6.5199      7.8587      8.0703    122.2256
  1897.2500   -123.6335      6.4743      7.7715      7.8883    120.1859
  1897.5000   -123.0357      6.3964      7.6592      7.8392    111.4245
  1897.7500   -123.1600      6.3035      7.5326      7.9313    113.6572
  1898.0000   -123.8601      6.2404      7.3894      7.9883    121.6776
  1898.2500   -124.7590      6.2126      7.1940      7.6391    120.1013
  1898.5000   -125.5932      6.2457      7.1352      7.1602    120.0540
  1898.7500   -126.1802      6.2394      6.9516      7.0351    122.0432
  1899.0000   -125.8488      6.2013      6.8794      6.8561    128.2233
  1899.2500   -124.9562      6.2223      6.8173      6.7798    135.2288
  1899.5000   -124.2676      6.2293      6.7625      6.2738    118.8464
  1899.7500   -123.2804      6.2641      6.7744      5.3281    121.0270
  1900.0000   -121.7844      6.3443      6.8291      5.0944    121.5599
  1900.2500   -120.5415      6.3961      6.8731      5.8406    126.5150
  1900.5000   -118.7992      6.4118      7.0821      6.3186    114.6463
  1900.7500   -117.7707      6.4200      7.3639      7.0212    109.7602
  1901.0000   -117.4702      6.4651      7.7301      7.9608    107.6690
  1901.2500   -117.4309      6.5774      8.0964      9.1044    109.8561
  1901.5000   -117.2983      6.7438      8.2672      9.9012    113.0278
  1901.7500   -116.9853      6.9708      8.3941      9.7929    107.7648
