~Version Information
VERS.                      2.0: CWLS Log ASCII Standard - VERSION 2.0
WRAP.                       NO: One line per depth step
~Well Information Block
STRT.FT               440.0000: 
STOP.FT              1001.5000: 
STEP.FT                 0.1000: 
NULL.                -999.2500: 
COMP.          Pioneer Natural Resources: COMPANY
WELL.              Dylan 42-25: WELL
FLD.           Purgatoire River: FIELD
LOC.           2160' FNL & 855' FEL: LOCATION
PROV.                 Colorado: PROVINCE
CNTY.               Las Animas: COUNTRY
SRVC.                Patterson: SERVICE COMPANY
DATE.          Mon Apr 25 09:31:16 2005: LOG DATE
UWI.           05 071 08229 00: UNIQUE WELL ID
~Curve Information Block
DEPT.FT            0 000 00 00: Depth
DCAL.in                       : CDL Caliper
RHOB.g/cc                     : CDL Bulk Density
RHOC.g/cc                     : CDL Density Correction
DPOR.pu                       : CDL Density Porosity
GR.GAPI                       : Gamma Ray
NPOR.pu                       : Neutron Porosity
~Parameter Information Block
~A  Depth       DCAL        RHOB        RHOC        DPOR         GR         NPOR    
   440.0000      5.1077      2.1509     -0.5765     30.2507    144.8595     23.1767
   440.1000      5.1077      2.1743     -0.5256     28.8280    140.1840     24.2589
   440.2000      5.1077      2.2388     -0.3734     24.9242    134.9894     24.2111
   440.3000      5.1100      2.2988     -0.3970     21.2850    134.0857     22.8104
   440.4000      5.1100      2.3326     -0.3687     19.2384    137.8784     21.5872
   440.5000      5.1033      2.3416     -0.3333     18.6900    140.3957     21.8987
   440.6000      5.1033      2.3343     -0.3799     19.1307    135.5921     22.6710
   440.7000      5.1033      2.3254     -0.4141     19.6722    123.1232     22.5364
   440.8000      4.9921      2.3221     -0.3796     19.8700    110.2894     21.8328
   440.9000      4.9921      2.3305     -0.4445     19.3662    107.2505     20.9739
   441.0000      4.5740      2.3615     -0.3909     17.4872    112.4420     20.1338
   441.1000      4.5740      2.3955     -0.3638     15.4218    117.3018     19.8003
   441.2000      4.5740      2.4016     -0.3290     15.0535    120.4040     20.5034
   441.3000      7.7207      2.3842     -0.4138     16.1089    122.2961     21.5662
   441.4000      7.7207      2.3606     -0.4035     17.5367    121.1752     21.7379
   441.5000      8.1616      2.3419     -0.4584     18.6753    117.1298     21.5965
   441.6000      8.1616      2.3313     -0.4262     19.3144    114.5180     21.9534
   441.7000      8.1616      2.3127     -0.4341     20.4433    117.5561     22.3517
   441.8000      8.1637      2.2866     -0.5568     22.0226    121.9836     22.1252
   441.9000      8.1637      2.2663     -0.4508     23.2552    121.9040     21.0474
   442.0000      8.1675      2.2455     -0.4970     24.5146    120.3869     20.0145
   442.1000      8.1675      2.2305     -0.5119     25.4234    121.9349     19.4915
   442.2000      8.1675      2.2314     -0.5334     25.3672    125.1453     18.9952
   442.3000      8.1640      2.2323     -0.4807     25.3143    129.1296     18.4191
   442.4000      8.1640      2.2158     -0.5469     26.3179    133.0563     18.0272
   442.5000      8.1608      2.1891     -0.5205     27.9312    134.8086     18.3640
   442.6000      8.1608      2.1672     -0.5570     29.2611    136.7000     19.4223
   442.7000      8.1608      2.1580     -0.6182     29.8182    142.0820     20.2227
   442.8000      8.1582      2.1644     -0.5250     29.4288    149.8796     20.5980
   442.9000      8.1582      2.1906     -0.5836     27.8420    156.0668     21.0734
   443.0000      8.1582      2.2319     -0.4643     25.3407    158.8195     21.4972
   443.1000      8.1582      2.2556     -0.4469     23.9012    157.9974     21.9188
   443.2000      8.1582      2.2400     -0.4634     24.8497    154.9102     22.3470
   443.3000      8.1576      2.2072     -0.5506     26.8350    152.6378     22.0540
   443.4000      8.1576      2.1890     -0.5461     27.9368    150.0321     21.1171
   443.5000      8.1627      2.1845     -0.5174     28.2118    141.8329     20.2745
   443.6000      8.1627      2.1770     -0.5586     28.6651    127.2744     19.7014
   443.7000      8.1627      2.1725     -0.5360     28.9389    115.9400     19.2926
   443.8000      8.1614      2.1896     -0.5398     27.9022    115.8520     19.2188
   443.9000      8.1614      2.2182     -0.4378     26.1689    121.8958     19.6035
   444.0000      8.1629      2.2281     -0.4449     25.5706    123.1227     19.6621
   444.1000      8.1629      2.2218     -0.5046     25.9487    116.8246     18.7512
   444.2000      8.1629      2.2276     -0.5429     25.5987    111.4608     17.7369
   444.3000      8.1627      2.2430     -0.5118     24.6686    112.4620     17.6320
   444.4000      8.1627      2.2450     -0.4867     24.5472    116.8219     18.3343
   444.5000      8.1589      2.2346     -0.5012     25.1743    120.6339     19.1678
   444.6000      8.1589      2.2212     -0.5161     25.9873    122.2209     20.1185
   444.7000      8.1589      2.1969     -0.4963     27.4617    121.1050     21.2027
   444.8000      8.1553      2.1605     -0.5177     29.6666    119.5872     21.4811
   444.9000      8.1553      2.1394     -0.6230     30.9452    119.0048     20.9487
   445.0000      8.1590      2.1482     -0.5998     30.4099    117.3196     20.5533
   445.1000      8.1590      2.1615     -0.5122     29.6039    115.5761     20.0270
   445.2000      8.1590      2.1674     -0.5609     29.2514    115.0774     19.2624
   445.3000      8.1590      2.1873     -0.5461     28.0405    116.0089     19.2895
   445.4000      8.1590      2.2186     -0.4496     26.1448    119.9433     20.1020
   445.5000      8.1587      2.2262     -0.4462     25.6853    122.2103     20.3263
   445.6000      8.1587      2.1951     -0.5142     27.5672    120.8068     19.3356
   445.7000      8.1587      2.1493     -0.5358     30.3482    123.6390     18.0756
   445.8000      8.1638      2.1325     -0.6615     31.3640    130.9082     17.7025
   445.9000      8.1638      2.1633     -0.5333     29.4966    133.2255     18.2852
   446.0000      8.1853      2.2076     -0.4756     26.8125    130.3664     19.2015
   446.1000      8.1853      2.2271     -0.5020     25.6317    128.9102     20.0393
   446.2000      8.1853      2.2151     -0.4984     26.3592    128.6958     20.4201
   446.3000      8.1649      2.1873     -0.5165     28.0405    125.0660     20.1801
   446.4000      8.1649      2.1729     -0.5714     28.9130    117.2889     19.5001
   446.5000      8.1604      2.1953     -0.5431     27.5600    110.4726     18.6432
   446.6000      8.1604      2.2362     -0.4824     25.0784    109.7344     18.2338
   446.7000      8.1604      2.2501     -0.4624     24.2389    112.7596     18.8338
   446.8000      8.1638      2.2324     -0.5110     25.3103    117.3653     20.0194
   446.9000      8.1638      2.2190     -0.5131     26.1221    121.9924     20.9013
   447.0000      8.1595      2.2263     -0.4633     25.6806    122.0317     20.8975
   447.1000      8.1595      2.2486     -0.4939     24.3265    116.1489     20.0011
   447.2000      8.1595      2.2707     -0.4364     22.9860    106.9284     18.7061
   447.3000      8.1541      2.2720     -0.4935     22.9088    100.4345     17.7879
   447.4000      8.1541      2.2531     -0.4853     24.0523    100.0727     17.7011
   447.5000      8.1563      2.2366     -0.5715     25.0550    102.0597     18.1846
   447.6000      8.1563      2.2345     -0.5080     25.1797    103.4322     18.4202
   447.7000      8.1563      2.2405     -0.4948     24.8170    104.7961     18.1018
   447.8000      8.1613      2.2538     -0.5187     24.0151    106.4808     17.7871
   447.9000      8.1613      2.2683     -0.4079     23.1308    108.7137     17.6842
   448.0000      8.1614      2.2678     -0.4856     23.1664    110.5657     17.5732
   448.1000      8.1614      2.2560     -0.4897     23.8766    110.8127     17.3873
   448.2000      8.1614      2.2483     -0.4925     24.3471    109.8632     17.4985
   448.3000      8.1618      2.2395     -0.4989     24.8788    108.4977     18.1421
   448.4000      8.1618      2.2234     -0.5061     25.8525    107.1351     18.8932
   448.5000      8.1684      2.2103     -0.5411     26.6506    107.4107     19.0360
   448.6000      8.1684      2.2015     -0.5380     27.1828    111.1776     18.5868
   448.7000      8.1684      2.1860     -0.5274     28.1208    113.0087     18.4359
   448.8000      8.1658      2.1654     -0.5631     29.3677    107.1999     18.9282
   448.9000      8.1658      2.1555     -0.6228     29.9690     99.4126     19.4296
   449.0000      8.1604      2.1611     -0.5494     29.6293     97.4932     19.2856
   449.1000      8.1604      2.1736     -0.5195     28.8710     99.6677     18.5487
   449.2000      8.1604      2.1868     -0.5066     28.0703    101.6308     17.8800
   449.3000      8.1605      2.1966     -0.5111     27.4797    105.2919     17.7519
   449.4000      8.1605      2.1985     -0.5130     27.3644    109.6514     18.0764
   449.5000      8.1595      2.1885     -0.4702     27.9701    107.0412     18.2898
