~Version Information
VERS.                      2.0: CWLS Log ASCII Standard - VERSION 2.0
WRAP.                       NO: One line per depth step
~Well Information Block
STRT.FT               802.1000: 
STOP.FT              1915.0000: 
STEP.FT                 0.1000: 
NULL.                -999.2500: 
COMP.          Petrogulf Corporation: COMPANY
WELL.             State 16-32R: WELL
FLD.           Purgatorie River: FIELD
LOC.           1849' FNL & 1677' FEL: LOCATION
CNTY.               Las Animas: COUNTY
SRVC.                         : SERVICE COMPANY
DATE.          Thu May 13 18:17:16 2004: LOG DATE
UWI.           05 071 08033 00: UNIQUE WELL ID
STAT.                 Colorado: STATE
~Curve Information Block
DEPT.FT            0 000 00 00: Depth
DCAL.in                       : CDL Caliper
RHOB.g/cc                     : CDL Bulk Density
RHOC.g/cc                     : CDL Density Correction
DPOR.pu                       : CDL Density Porosity
GR.GAPI                       : Gamma Ray
NPOR.pu                       : Neutron Porosity
~Parameter Information Block
~A  Depth       DCAL        RHOB        RHOC        DPOR         GR         NPOR    
# ...
  1474.1000      7.9857      2.5422      0.1659      6.5355    154.2016     29.6016
  1474.2000      7.9857      2.5591      0.2107      5.5114    148.8121     29.6301
  1474.3000      8.0715      2.5851      0.1450      3.9363    134.8390     29.2753
  1474.4000      8.0715      2.6306      0.2240      1.1749    128.6920     28.9177
  1474.5000      8.0475      2.6676      0.2422     -1.0668    137.0821     28.9183
  1474.6000      8.0475      2.6666      0.2340     -1.0056    143.0693     29.1870
  1474.7000      8.0475      2.6338      0.2385      0.9803    136.7517     29.2218
  1474.8000      8.0428      2.6013      0.1962      2.9538    132.3243     28.8431
  1474.9000      8.0428      2.5945      0.1795      3.3659    132.4101     28.4687
  1475.0000      8.0429      2.5919      0.2419      3.5213    130.0893     28.4025
  1475.1000      8.0429      2.5467      0.1386      6.2610    131.3180     28.5409
  1475.2000      8.0429      2.4654      0.0596     11.1880    141.2114     28.5795
  1475.3000      8.0403      2.4072     -0.0235     14.7157    155.9285     28.3214
  1475.4000      8.0403      2.3989      0.0410     15.2198    169.9709     27.7746
  1475.5000      8.0699      2.4087      0.0628     14.6213    173.5944     27.1574
  1475.6000      8.0699      2.4163      0.0348     14.1608    163.0018     26.8779
  1475.7000      8.0699      2.4280      0.0718     13.4533    150.2357     27.1967
  1475.8000      8.0687      2.4429      0.1189     12.5499    144.3858     27.7719
  1475.9000      8.0687      2.4607      0.0973     11.4734    142.6578     28.0908
  1476.0000      8.0297      2.4809      0.2193     10.2492    140.2146     28.1417
  1476.1000      8.0297      2.4908      0.2203      9.6461    133.3924     28.2988
  1476.2000      8.0297      2.5085      0.1331      8.5779    122.7975     28.6344
  1476.3000      8.0422      2.5630      0.1830      5.2755    115.5641     28.9704
  1476.4000      8.0422      2.6244      0.2743      1.5520    116.9416     29.3046
  1476.5000      8.1504      2.6423      0.2580      0.4672    120.8337     29.6658
  1476.6000      8.1504      2.6066      0.2149      2.6307    120.5370     29.9290
  1476.7000      8.1504      2.5534      0.1195      5.8569    119.4100     29.9448
  1476.8000      8.1432      2.5272      0.1006      7.4446    123.7230     29.6655
  1476.9000      8.1432      2.5287      0.2084      7.3491    133.7861     29.2560
  1477.0000      8.1073      2.5354      0.1335      6.9431    141.0609     29.1666
  1477.1000      8.1073      2.5447      0.1309      6.3803    137.7984     29.3718
  1477.2000      8.1073      2.5586      0.0929      5.5391    128.8544     29.1101
  1477.3000      7.9906      2.5709      0.1475      4.7959    120.6832     28.2469
  1477.4000      7.9906      2.5709      0.1587      4.7915    116.1348     27.5161
  1477.5000      7.9793      2.5474      0.1484      6.2159    120.7359     27.0338
  1477.6000      7.9793      2.5030      0.0986      8.9098    135.2105     26.4603
  1477.7000      7.9793      2.4713      0.0119     10.8331    150.5347     25.7479
  1477.8000      8.0010      2.4745      0.1471     10.6343    154.8682     24.9258
  1477.9000      8.0010      2.4848      0.0889     10.0114    143.1308     24.3010
  1478.0000      7.9928      2.4809      0.0976     10.2484    127.3479     24.0825
  1478.1000      7.9928      2.4700      0.1159     10.9092    126.4286     23.8610
  1478.2000      7.9928      2.4488      0.1131     12.1965    136.9125     23.3560
  1478.3000      8.0233      2.4119      0.0903     14.4274    137.7372     22.8621
  1478.4000      8.0233      2.3675      0.1024     17.1220    121.2555     22.8664
  1478.5000      8.0361      2.3109      0.0782     20.5487    105.0196     23.4387
  1478.6000      8.0361      2.2365      0.0340     25.0580    104.8075     24.1160
  1478.7000      8.0361      2.1671     -0.0125     29.2661    112.3560     24.5615
  1478.8000      8.0986      2.1362      0.0149     31.1414    117.8183     24.7079
  1478.9000      8.0986      2.1584      0.0548     29.7959    125.7426     24.6131
  1479.0000      8.1140      2.2219      0.1616     25.9436    142.8715     24.5957
  1479.1000      8.1140      2.3029      0.1949     21.0366    166.8416     24.9618
  1479.2000      8.1140      2.3823      0.2393     16.2265    175.2749     25.5513
  1479.3000      8.1487      2.4482      0.2743     12.2284    155.8261     25.9061
  1479.4000      8.1487      2.4863      0.3388      9.9195    132.9368     25.8869
  1479.5000      8.1805      2.4819      0.2952     10.1861    124.3163     25.6936
  1479.6000      8.1805      2.4338      0.3166     13.1047    120.5722     25.2829
  1479.7000      8.1805      2.3450      0.2732     18.4872    118.4287     24.5505
  1479.8000      8.1399      2.2310      0.1959     25.3956    123.6237     23.5596
  1479.9000      8.1399      2.1357      0.0701     31.1711    127.9461     22.3797
  1480.0000      8.1602      2.0934      0.1486     33.7356    125.8897     21.1885
  1480.1000      8.1602      2.0890      0.1476     33.9993    120.6940     20.0680
  1480.2000      8.1602      2.0937      0.1424     33.7179    114.2310     18.6235
  1480.3000      8.1472      2.1072      0.2012     32.8957    116.6943     16.7859
  1480.4000      8.1472      2.1457      0.3746     30.5667    128.6062     15.5353
  1480.5000      8.1693      2.2101      0.5540     26.6601    132.4020     15.6862
  1480.6000      8.1693      2.2789      0.5658     22.4935    123.3757     17.1054
  1480.7000      8.1693      2.3139      0.6197     20.3689    116.2704     19.0883
  1480.8000      8.2037      2.2855      0.4803     22.0922    115.2951     20.8927
  1480.9000      8.2037      2.2188      0.2356     26.1303    109.7678     22.5408
  1481.0000      8.2128      2.1713      0.1892     29.0143    102.3356     24.3368
  1481.1000      8.2128      2.1750      0.1883     28.7861    102.6274     26.0048
  1481.2000      8.2128      2.2309      0.2503     25.4019    106.9930     27.2155
  1481.3000      8.1490      2.3084      0.2532     20.7005    105.2877     28.0906
  1481.4000      8.1490      2.3649      0.2069     17.2810     97.8406     28.6687
  1481.5000      8.1665      2.3928      0.0596     15.5855     97.2654     28.5843
  1481.6000      8.1665      2.4193     -0.0052     13.9844    105.7107     27.9775
  1481.7000      8.1665      2.4429      0.0852     12.5516    111.9952     27.5268
  1481.8000      8.0288      2.4488     -0.0711     12.1926    112.1722     27.5076
  1481.9000      8.0288      2.4522      0.0139     11.9856    112.6740     27.7662
  1482.0000      7.9857      2.4652      0.0612     11.2019    116.6536     28.0978
  1482.1000      7.9857      2.4950      0.0210      9.3923    121.7902     28.2682
  1482.2000      7.9857      2.5392      0.0952      6.7140    123.2044     28.0476
  1482.3000      7.9653      2.5711      0.0288      4.7847    118.1746     27.6070
  1482.4000      7.9653      2.5836      0.1070      4.0270    110.5708     27.4257
  1482.5000      7.9577      2.5760      0.0614      4.4849    102.3468     27.6908
  1482.6000      7.9577      2.5336      0.0482      7.0540     94.0390     27.9536
  1482.7000      7.9577      2.4781     -0.0621     10.4152     88.9998     27.6924
  1482.8000      7.9475      2.4595     -0.0244     11.5469     84.9525     26.9610
  1482.9000      7.9475      2.4794      0.0576     10.3403     74.5362     26.4328
  1483.0000      7.8988      2.5018      0.0132      8.9811     65.5853     26.6563
  1483.1000      7.8988      2.5041     -0.0275      8.8415     72.2671     27.0711
  1483.2000      7.8988      2.4743      0.0173     10.6480     87.2557     26.9714
  1483.3000      7.8911      2.4208     -0.0459     13.8918     94.2327     26.5412
  1483.4000      7.8911      2.3856     -0.0473     16.0214     91.0338     26.0423
  1483.5000      7.8820      2.4047     -0.0560     14.8672     85.9464     25.5673
  1483.6000      7.8820      2.4763     -0.0023     10.5273     84.5416     25.3601
