~Version Information
VERS.                      2.0: CWLS Log ASCII Standard - VERSION 2.0
WRAP.                       NO: One line per depth step
~Well Information Block
STRT.FT               605.6000: 
STOP.FT              1938.0000: 
STEP.FT                 0.1000: 
NULL.                -999.2500: 
COMP.          Petrogulf Corporation: COMPANY
WELL.              Graff 9-31R: WELL
FLD.           Purgatorie River: FIELD
LOC.           707' FNL & 1713' FEL: LOCATION
CNTY.               Las Animas: COUNTY
SRVC.                         : SERVICE COMPANY
DATE.          Mon Oct 25 06:13:30 2004: LOG DATE
UWI.           05 071 08037 00: UNIQUE WELL ID
STAT.                 Colorado: STATE
~Curve Information Block
DEPT.FT            0 000 00 00: Depth
DCAL.in                       : CDL Caliper
RHOB.g/cc                     : CDL Bulk Density
RHOC.g/cc                     : CDL Density Correction
DPOR.pu                       : CDL Density Porosity
GR.GAPI                       : Gamma Ray
NPOR.pu                       : Neutron Porosity
~Parameter Information Block
~A  Depth       DCAL        RHOB        RHOC        DPOR         GR         NPOR    
# ...
   624.8000   -999.2500   -999.2500   -999.2500   -999.2500     84.6034     48.7401
   624.9000   -999.2500   -999.2500   -999.2500   -999.2500     85.1561     49.4463
   625.0000   -999.2500   -999.2500   -999.2500   -999.2500     82.9840     49.7146
   625.1000   -999.2500   -999.2500   -999.2500   -999.2500     81.5890     49.2645
   625.2000   -999.2500   -999.2500   -999.2500   -999.2500     84.0045     48.7293
   625.3000   -999.2500   -999.2500   -999.2500   -999.2500     86.8373     48.6310
   625.4000   -999.2500   -999.2500   -999.2500   -999.2500     85.9823     48.9471
   625.5000   -999.2500   -999.2500   -999.2500   -999.2500     84.0954     49.3800
   625.6000   -999.2500   -999.2500   -999.2500   -999.2500     85.6594     49.7206
   625.7000   -999.2500   -999.2500   -999.2500   -999.2500     89.3023     49.7787
   625.8000   -999.2500   -999.2500   -999.2500   -999.2500     89.4016     49.2681
   625.9000   -999.2500   -999.2500   -999.2500   -999.2500     84.2693     48.5012
   626.0000   -999.2500   -999.2500   -999.2500   -999.2500     78.9924     48.1528
   626.1000   -999.2500   -999.2500   -999.2500   -999.2500     77.3605     48.2780
   626.2000   -999.2500   -999.2500   -999.2500   -999.2500     78.4556     48.6426
   626.3000   -999.2500   -999.2500   -999.2500   -999.2500     80.8481     49.0718
   626.4000   -999.2500   -999.2500   -999.2500   -999.2500     80.1264     49.3020
   626.5000   -999.2500   -999.2500   -999.2500   -999.2500     75.9815     49.4030
   626.6000   -999.2500   -999.2500   -999.2500   -999.2500     74.1415     49.7876
   626.7000   -999.2500   -999.2500   -999.2500   -999.2500     75.6550     50.2072
   626.8000   -999.2500   -999.2500   -999.2500   -999.2500     77.7346     49.8297
   626.9000   -999.2500   -999.2500   -999.2500   -999.2500     78.9013     48.6320
   627.0000   -999.2500   -999.2500   -999.2500   -999.2500     77.0895     47.5764
   627.1000   -999.2500   -999.2500   -999.2500   -999.2500     72.2085     47.2371
   627.2000   -999.2500   -999.2500   -999.2500   -999.2500     70.2574     47.3447
   627.3000   -999.2500   -999.2500   -999.2500   -999.2500     75.5252     47.5284
   627.4000   -999.2500   -999.2500     -0.1600   -999.2500     84.4825     47.6867
   627.5000      4.8202   -999.2500     -0.1625   -999.2500     89.0623     47.8456
   627.6000      4.8202   -999.2500     -0.1434   -999.2500     85.7430     48.0686
   627.7000      4.8202   -999.2500     -0.0026   -999.2500     81.0855     48.1103
   627.8000      4.8187   -999.2500     -0.0719   -999.2500     80.8812     47.5377
   627.9000      4.8187      2.3140     -0.0393     20.3612     82.5267     46.8174
   628.0000      4.8206      2.2402     -0.1511     24.8383     81.9736     46.9318
   628.1000      4.8206      2.1703     -0.2237     29.0726     79.9725     47.7817
   628.2000      4.8206      2.1492     -0.1714     30.3541     80.1010     48.2514
   628.3000      4.8198      2.1618     -0.1208     29.5867     83.0651     47.9015
   628.4000      4.8198      2.1676     -0.1482     29.2359     85.2303     47.5821
   628.5000      4.8181      2.1565     -0.1918     29.9099     82.6517     48.0024
   628.6000      4.8181      2.1422     -0.1597     30.7737     74.8758     48.3672
   628.7000      4.8181      2.1454     -0.1298     30.5795     65.5343     47.8822
   628.8000      4.8143      2.1732     -0.0556     28.8974     58.6805     47.2680
   628.9000      4.8143      2.1952     -0.0580     27.5629     56.7856     47.4182
   629.0000      4.8189      2.1849     -0.1595     28.1894     59.2285     47.9757
   629.1000      4.8189      2.1650     -0.1283     29.3935     62.6322     48.1340
   629.2000      4.8189      2.1698     -0.1372     29.1009     65.6680     47.9062
   629.3000      4.8214      2.1964     -0.0956     27.4912     69.5004     47.8197
   629.4000      4.8214      2.2121     -0.0910     26.5416     74.2767     47.8227
   629.5000      4.8146      2.2040     -0.1397     27.0326     77.3570     47.6133
   629.6000      4.8146      2.1879     -0.0889     28.0059     77.9312     47.5247
   629.7000      4.8146      2.1695     -0.1182     29.1211     78.9292     47.7430
   629.8000      4.8203      2.1432     -0.1161     30.7132     80.1211     47.9784
   629.9000      4.8203      2.1164     -0.1597     32.3392     80.2926     48.1723
   630.0000      4.8192      2.1110     -0.1940     32.6697     81.1364     48.3818
   630.1000      4.8192      2.1367     -0.1271     31.1080     81.0520     48.4668
   630.2000      4.8192      2.1691     -0.1252     29.1476     79.4363     48.2926
   630.3000      4.8230      2.1747     -0.0951     28.8078     79.6236     48.1195
   630.4000      4.8230      2.1528     -0.1032     30.1332     82.4883     48.3725
   630.5000      4.8114      2.1304     -0.1784     31.4893     84.3318     49.0110
   630.6000      4.8114      2.1205     -0.1466     32.0909     82.4558     49.6003
   630.7000      4.8114      2.1112     -0.1524     32.6525     80.9947     49.7701
   630.8000      4.8257      2.0995     -0.1609     33.3636     84.7508     49.4933
   630.9000      4.8257      2.0954     -0.1454     33.6136     91.4528     49.1823
   631.0000      4.8178      2.0958     -0.1673     33.5885     95.2045     49.1253
   631.1000      4.8178      2.0921     -0.1653     33.8147     92.8993     49.1772
   631.2000      4.8178      2.0832     -0.1331     34.3491     85.7442     49.0954
   631.3000      4.8190      2.0740     -0.1742     34.9098     79.8543     48.9319
   631.4000      4.8190      2.0658     -0.1830     35.4083     82.3139     48.9207
   631.5000      4.8239      2.0575     -0.1514     35.9110     91.1096     49.1313
   631.6000      4.8239      2.0615     -0.2084     35.6691     96.6266     49.4900
   631.7000      4.8239      2.0887     -0.2167     34.0183     95.2901     49.9360
   631.8000      4.8238      2.1250     -0.1652     31.8174     91.4981     50.4331
   631.9000      4.8238      2.1461     -0.1033     30.5388     88.5779     50.7907
   632.0000      4.8242      2.1479     -0.1058     30.4298     87.4176     50.7785
   632.1000      4.8242      2.1415     -0.1494     30.8187     87.9170     50.7348
   632.2000      4.8242      2.1240     -0.0973     31.8789     87.4046     50.9526
   632.3000      4.8184      2.0963     -0.1947     33.5564     83.9375     51.0159
   632.4000      4.8184      2.0791     -0.1740     34.6002     79.9630     50.8081
   632.5000      4.8223      2.0817     -0.1880     34.4405     78.0622     50.6056
   632.6000      4.8223      2.0967     -0.1179     33.5363     77.9605     50.4666
   632.7000      4.8223      2.1090     -0.1331     32.7890     78.2698     50.2958
   632.8000      4.8163      2.1025     -0.1525     33.1815     78.1927     49.9390
   632.9000      4.8163      2.0738     -0.1017     34.9184     77.1207     49.4516
   633.0000      4.8209      2.0396     -0.2182     36.9929     74.6369     49.0994
   633.1000      4.8209      2.0222     -0.2152     38.0455     72.9138     49.0224
   633.2000      4.8209      2.0220     -0.1502     38.0588     75.8387     49.1094
   633.3000      4.8151      2.0284     -0.2230     37.6714     82.8851     49.2385
   633.4000      4.8151      2.0440     -0.1478     36.7261     87.6039     49.3095
   633.5000      4.8210      2.0668     -0.1699     35.3469     86.7019     49.0843
   633.6000      4.8210      2.0829     -0.1874     34.3674     82.1129     48.5444
   633.7000      4.8210      2.0860     -0.1289     34.1802     76.3977     48.1265
   633.8000      4.8193      2.0942     -0.2912     33.6838     73.3862     48.1183
   633.9000      4.8193      2.1170     -0.0915     32.3022     75.0848     48.2819
   634.0000      4.8131      2.1164     -0.0624     32.3407     79.9259     48.2552
   634.1000      4.8131      2.0777     -0.1534     34.6873     84.3062     48.1363
   634.2000      4.8131      2.0472     -0.2143     36.5320     86.0753     48.2008
   634.3000      4.8116      2.0588     -0.1674     35.8309     85.6416     48.3264
