~Version Information
VERS.                      2.0: CWLS Log ASCII Standard - VERSION 2.0
WRAP.                       NO: One line per depth step
~Well Information Block
STRT.FT               510.0000: 
STOP.FT              1848.7500: 
STEP.FT                 0.2500: 
NULL.                -999.2500: 
COMP.          Pioneer Natural Resources: COMPANY
WELL.           Stampede 42-18: WELL
FLD.           Purgatoire River: FIELD
LOC.           2479' FNL & 160' FEL--: LOCATION
CNTY.               Las Animas: COUNTY
SRVC.          Superior Well Services: SERVICE COMPANY
DATE.          Sat Jun 09 02:07:27 2007: LOG DATE
UWI.           05 071 08237 00: UNIQUE WELL ID
STAT.                 Colorado: STATE
~Curve Information Block
DEPT.FT            0 000 00 00: Depth
SN.Ohm-m                      : IEL Short Normal
SP.mV                         : IEL Spontaneous Potential
DIR.Ohm-m                     : IEL Induction Resistivity
GR.GAPI                       : Gamma Ray
~Parameter Information Block
~A  Depth        SN          SP         DIR          GR     
# ...
  1481.5000     12.5714     94.9338     11.7088    123.4015
  1481.7500     12.5458     95.1406     11.9536    123.1344
  1482.0000     12.5686     95.3353     12.1717    122.5267
  1482.2500     12.7007     95.5067     12.3779    121.6287
  1482.5000     13.0043     95.6380     12.5817    119.9882
  1482.7500     13.5191     95.7227     12.7873    119.2677
  1483.0000     14.2322     95.7782     12.9994    119.0033
  1483.2500     15.0465     95.8400     13.2242    118.9075
  1483.5000     15.7876     95.9418     13.4654    118.1268
  1483.7500     16.2990     96.0981     13.7186    117.2847
  1484.0000     16.5479     96.3018     13.9701    116.3250
  1484.2500     16.6149     96.5294     14.2030    116.2288
  1484.5000     16.6034     96.7488     14.4043    116.9740
  1484.7500     16.5761     96.9264     14.5702    117.9248
  1485.0000     16.5489     97.0320     14.7008    119.7284
  1485.2500     16.5131     97.0380     14.7920    120.9960
  1485.5000     16.4558     96.9170     14.8319    122.6222
  1485.7500     16.3600     96.6486     14.8082    123.3504
  1486.0000     16.1948     96.2362     14.7213    123.8699
  1486.2500     15.9207     95.7153     14.5912    123.8922
  1486.5000     15.5072     95.1394     14.4496    123.2747
  1486.7500     14.9640     94.5564     14.3220    122.1528
  1487.0000     14.3810     93.9976     14.2136    119.1042
  1487.2500     13.9072     93.4836     14.1075    116.3798
  1487.5000     13.6496     93.0285     13.9771    112.3263
  1487.7500     13.6109     92.6312     13.8054    110.3830
  1488.0000     13.7324     92.2683     13.5953    109.4653
  1488.2500     13.9362     91.9044     13.3650    110.2549
  1488.5000     14.1168     91.5160     13.1331    112.8797
  1488.7500     14.1643     91.1059     12.9063    114.9398
  1489.0000     14.0291     90.6992     12.6782    117.6282
  1489.2500     13.7451     90.3264     12.4377    119.1046
  1489.5000     13.3904     90.0080     12.1783    121.5382
  1489.7500     13.0324     89.7525     11.9036    123.8222
  1490.0000     12.7035     89.5650     11.6254    128.5444
  1490.2500     12.4121     89.4569     11.3584    132.2182
  1490.5000     12.1533     89.4427     11.1155    137.4152
  1490.7500     11.9071     89.5241     10.9033    140.0215
  1491.0000     11.6468     89.6816     10.7208    141.8328
  1491.2500     11.3602     89.8861     10.5613    141.5145
  1491.5000     11.0621     90.1175     10.4174    139.4064
  1491.7500     10.7874     90.3702     10.2868    137.5887
  1492.0000     10.5735     90.6416     10.1724    134.9490
  1492.2500     10.4390     90.9203     10.0767    133.2866
  1492.5000     10.3757     91.1856      9.9957    131.1049
  1492.7500     10.3602     91.4166      9.9173    130.2049
  1493.0000     10.3636     91.6020      9.8254    130.1390
  1493.2500     10.3521     91.7438      9.7077    130.9566
  1493.5000     10.3010     91.8559      9.5610    133.3863
  1493.7500     10.2043     91.9571      9.3909    135.7182
  1494.0000     10.0666     92.0630      9.2078    139.4639
  1494.2500      9.8972     92.1824      9.0217    141.2250
  1494.5000      9.7101     92.3194      8.8395    141.6672
  1494.7500      9.5181     92.4765      8.6648    140.7558
  1495.0000      9.3311     92.6564      8.4981    139.1903
  1495.2500      9.1587     92.8606      8.3386    138.7336
  1495.5000      9.0057     93.0857      8.1861    138.7061
  1495.7500      8.8698     93.3214      8.0416    138.4807
  1496.0000      8.7439     93.5512      7.9072    137.1765
  1496.2500      8.6244     93.7607      7.7832    135.8219
  1496.5000      8.5166     93.9450      7.6659    133.7752
  1496.7500      8.4234     94.1077      7.5477    132.7554
  1497.0000      8.3404     94.2512      7.4206    132.0575
  1497.2500      8.2715     94.3698      7.2823    132.1439
  1497.5000      8.2266     94.4532      7.1390    132.7484
  1497.7500      8.1979     94.4967      7.0022    133.0273
  1498.0000      8.1646     94.5083      6.8834    131.8888
  1498.2500      8.1322     94.5046      6.7893    128.9035
  1498.5000      8.1391     94.4958      6.7214    119.3840
  1498.7500      8.2186     94.4744      6.6790    109.7998
  1499.0000      8.3780     94.4202      6.6617     93.1956
  1499.2500      8.6072     94.3177      6.6703     82.8543
  1499.5000      8.8771     94.1750      6.7053     71.7805
  1499.7500      9.1348     94.0273      6.7651     68.6311
  1500.0000      9.3256     93.9269      6.8440     70.8966
  1500.2500      9.4205     93.9241      6.9337     76.4016
  1500.5000      9.4155     94.0529      7.0264     88.1505
  1500.7500      9.3091     94.3204      7.1170     96.6828
  1501.0000      9.1021     94.6982      7.2033    108.4335
  1501.2500      8.8212     95.1205      7.2852    114.8671
  1501.5000      8.5266     95.5012      7.3636    121.9545
  1501.7500      8.2909     95.7676      7.4412    125.1185
  1502.0000      8.1754     95.8847      7.5236    128.4167
  1502.2500      8.2188     95.8541      7.6181    130.3103
  1502.5000      8.4340     95.6946      7.7307    133.4144
  1502.7500      8.7887     95.4270      7.8623    135.5429
  1503.0000      9.1889     95.0733      8.0047    137.7890
  1503.2500      9.5225     94.6598      8.1422    138.0909
  1503.5000      9.7331     94.2157      8.2576    136.8203
  1503.7500      9.8388     93.7644      8.3409    135.4322
  1504.0000      9.8928     93.3169      8.3943    133.7295
  1504.2500      9.9402     92.8705      8.4293    133.3425
  1504.5000      9.9976     92.4156      8.4607    134.3244
  1504.7500     10.0641     91.9471      8.5014    136.0024
  1505.0000     10.1398     91.4734      8.5628    139.3646
  1505.2500     10.2274     91.0141      8.6545    141.4827
  1505.5000     10.3288     90.5883      8.7841    143.5663
  1505.7500     10.4514     90.2034      8.9550    144.1965
  1506.0000     10.6090     89.8517      9.1664    144.5351
  1506.2500     10.8090     89.5173      9.4146    144.5767
  1506.5000     11.0464     89.1829      9.6954    144.1628
  1506.7500     11.3042     88.8356     10.0040    143.1798
  1507.0000     11.5505     88.4711     10.3340    139.9884
  1507.2500     11.7457     88.0940     10.6772    136.7592
  1507.5000     11.8803     87.7112     11.0253    131.4403
  1507.7500     11.9994     87.3278     11.3738    128.4832
  1508.0000     12.1770     86.9498     11.7248    125.7846
  1508.2500     12.4642     86.5861     12.0875    125.2226
  1508.5000     12.8607     86.2447     12.4755    126.2198
  1508.7500     13.3270     85.9255     12.9020    127.9756
  1509.0000     13.8121     85.6171     13.3745    131.4375
  1509.2500     14.2737     85.2972     13.8909    133.6489
  1509.5000     14.7111     84.9348     14.4373    136.0470
  1509.7500     15.1882     84.5008     14.9912    136.8610
  1510.0000     15.7854     83.9869     15.5307    136.8026
  1510.2500     16.5260     83.4205     16.0480    135.9346
  1510.5000     17.3694     82.8614     16.5543    133.7708
  1510.7500     18.2609     82.3841     17.0717    132.1665
  1511.0000     19.1684     82.0585     17.6157    130.0216
  1511.2500     20.0870     81.9377     18.1826    128.5504
  1511.5000     21.0166     82.0418     18.7517    125.0072
  1511.7500     21.9351     82.3363     19.3029    121.0331
  1512.0000     22.8187     82.7254     19.8380    112.6571
  1512.2500     23.7131     83.0870     20.3888    106.2841
  1512.5000     24.7416     83.3322     21.0032     97.5004
  1512.7500     26.0024     83.4420     21.7213     93.1004
  1513.0000     27.4971     83.4527     22.5576     89.3456
  1513.2500     29.1607     83.4107     23.4999     88.5236
  1513.5000     30.8646     83.3364     24.5173     88.8521
  1513.7500     32.4014     83.2205     25.5696     89.5059
  1514.0000     33.6201     83.0480     26.6172     90.2200
  1514.2500     34.5931     82.8277     27.6298     90.0860
  1514.5000     35.5283     82.6001     28.5853     88.7067
  1514.7500     36.5014     82.4187     29.4549     87.2325
