~Version Information
VERS.                      2.0: CWLS Log ASCII Standard - VERSION 2.0
WRAP.                       NO: One line per depth step
~Well Information Block
STRT.FT                30.0000: 
STOP.FT              2789.0000: 
STEP.FT                 0.1000: 
NULL.                -999.2500: 
COMP.          Pioneer Natural Resources: COMPANY
WELL.          Rabbit Bush Federal 44-19: WELL
FLD.           Purgatorie River: FIELD
LOC.           826' FSL & 1127' FEL: LOCATION
CNTY.               Las Animas: COUNTY
SRVC.                Patterson: SERVICE COMPANY
DATE.          Mon Aug 28 10:56:57 2006: LOG DATE
UWI.           05-071-08149-00: UNIQUE WELL ID
STAT.                 Colorado: STATE
~Curve Information Block
DEPT.FT            0 000 00 00: Depth
DCAL.in                       : CDL Caliper
RHOB.g/cc                     : CDL Bulk Density
RHOC.g/cc                     : CDL Density Correction
DPOR.pu                       : CDL Density Porosity
GR.GAPI                       : Gamma Ray
NPOR.pu                       : Neutron Porosity
~Parameter Information Block
~A  Depth       DCAL        RHOB        RHOC        DPOR         GR         NPOR    
# ...
  2756.4000      7.8866      2.4721      0.0509     10.7800     78.8254   -999.2500
  2756.5000      7.8823      2.4835      0.0632     10.0933     80.4996   -999.2500
  2756.6000      7.8823      2.4874      0.0788      9.8543     85.8641   -999.2500
  2756.7000      7.8823      2.4824      0.1110     10.1578     90.5967   -999.2500
  2756.8000      7.8768      2.4702      0.0348     10.8969     90.3558   -999.2500
  2756.9000      7.8768      2.4568      0.0460     11.7068     86.1029   -999.2500
  2757.0000      7.8734      2.4479      0.0462     12.2455     84.0181   -999.2500
  2757.1000      7.8734      2.4446      0.0730     12.4499     85.9968   -999.2500
  2757.2000      7.8734      2.4471      0.0512     12.2975     87.8154   -999.2500
  2757.3000      7.8739      2.4572      0.0242     11.6855     85.0546   -999.2500
  2757.4000      7.8739      2.4685      0.0848     10.9991     79.6565   -999.2500
  2757.5000      7.8761      2.4730      0.0297     10.7297     78.3430   -999.2500
  2757.6000      7.8761      2.4726      0.0985     10.7518     81.3945   -999.2500
  2757.7000      7.8761      2.4712      0.0391     10.8373     84.0470   -999.2500
  2757.8000      7.8758      2.4782      0.0407     10.4104     85.5586   -999.2500
  2757.9000      7.8758      2.4944      0.0919      9.4297     86.9175   -999.2500
  2758.0000      7.8744      2.5013      0.0863      9.0145     87.5110   -999.2500
  2758.1000      7.8744      2.4901      0.0710      9.6891     86.4627   -999.2500
  2758.2000      7.8744      2.4674      0.0574     11.0681     83.4845   -999.2500
  2758.3000      7.8779      2.4383      0.0394     12.8323     80.6819   -999.2500
  2758.4000      7.8779      2.4178     -0.0052     14.0752     80.2103   -999.2500
  2758.5000      7.8840      2.4232      0.0324     13.7443     81.4669   -999.2500
  2758.6000      7.8840      2.4446      0.0601     12.4509     82.4597   -999.2500
  2758.7000      7.8840      2.4649      0.0500     11.2194     82.9218   -999.2500
  2758.8000      7.8840      2.4792      0.0903     10.3533     83.1684   -999.2500
  2758.9000      7.8840      2.4839      0.0679     10.0665     83.2351   -999.2500
  2759.0000      7.8791      2.4762      0.1028     10.5357     83.7260   -999.2500
  2759.1000      7.8791      2.4589      0.0294     11.5801     84.3548   -999.2500
  2759.2000      7.8791      2.4428      0.0522     12.5557     85.1373   -999.2500
  2759.3000      7.8762      2.4298      0.0711     13.3463     86.8519   -999.2500
  2759.4000      7.8762      2.4207      0.0074     13.8941     89.1248   -999.2500
  2759.5000      7.8774      2.4207      0.0851     13.8982     91.1730   -999.2500
  2759.6000      7.8774      2.4270      0.0535     13.5154     92.2036   -999.2500
  2759.7000      7.8774      2.4396      0.0733     12.7525     90.4889   -999.2500
  2759.8000      7.8794      2.4525      0.0991     11.9707     87.0137   -999.2500
  2759.9000      7.8794      2.4544      0.0852     11.8568     85.5933   -999.2500
  2760.0000      7.8808      2.4496      0.0476     12.1466     86.6126   -999.2500
  2760.1000      7.8808      2.4503      0.0520     12.1046     85.7926   -999.2500
  2760.2000      7.8808      2.4564      0.0764     11.7355     77.0710   -999.2500
  2760.3000      7.8814      2.4581      0.0838     11.6329     55.8229   -999.2500
  2760.4000      7.8814      2.4527      0.0658     11.9601     28.2814   -999.2500
  2760.5000      7.8808      2.4482      0.0551     12.2308      8.9162   -999.2500
  2760.6000      7.8808      2.4509      0.0538     12.0656      1.6232   -999.2500
  2760.7000      7.8808      2.4552      0.0760     11.8087      0.1634   -999.2500
  2760.8000      7.8812      2.4556      0.0179     11.7793      0.0086   -999.2500
  2760.9000      7.8812      2.4570      0.0582     11.6979      0.0000   -999.2500
  2761.0000      7.8819      2.4560      0.0639     11.7593   -999.2500   -999.2500
  2761.1000      7.8819      2.4482      0.0606     12.2310   -999.2500   -999.2500
  2761.2000      7.8819      2.4368      0.0776     12.9200   -999.2500   -999.2500
  2761.3000      7.8824      2.4271      0.0227     13.5112   -999.2500   -999.2500
  2761.4000      7.8824      2.4277      0.0061     13.4749   -999.2500   -999.2500
  2761.5000      7.8836      2.4404      0.0440     12.7031   -999.2500   -999.2500
  2761.6000      7.8836      2.4529      0.0794     11.9466   -999.2500   -999.2500
  2761.7000      7.8836      2.4566      0.0428     11.7225   -999.2500   -999.2500
  2761.8000      7.8864      2.4570      0.0324     11.6947   -999.2500   -999.2500
  2761.9000      7.8864      2.4592      0.0441     11.5618   -999.2500   -999.2500
  2762.0000      7.8920      2.4594      0.0828     11.5528   -999.2500   -999.2500
  2762.1000      7.8920      2.4576      0.0109     11.6595   -999.2500   -999.2500
  2762.2000      7.8920      2.4614      0.0722     11.4317   -999.2500   -999.2500
  2762.3000      7.8988      2.4682      0.0862     11.0183   -999.2500   -999.2500
  2762.4000      7.8988      2.4751      0.0277     10.6005   -999.2500   -999.2500
  2762.5000      7.9006      2.4855      0.0800      9.9672   -999.2500   -999.2500
  2762.6000      7.9006      2.4908      0.0699      9.6466   -999.2500   -999.2500
  2762.7000      7.9006      2.4802      0.0739     10.2904   -999.2500   -999.2500
  2762.8000      7.8957      2.4599      0.0386     11.5227   -999.2500   -999.2500
  2762.9000      7.8957      2.4420      0.0080     12.6064   -999.2500   -999.2500
  2763.0000      7.8881      2.4265      0.0373     13.5457   -999.2500   -999.2500
  2763.1000      7.8881      2.4134      0.0124     14.3392   -999.2500   -999.2500
  2763.2000      7.8881      2.4108     -0.0079     14.4969   -999.2500   -999.2500
  2763.3000      7.8732      2.4152      0.0718     14.2292   -999.2500   -999.2500
  2763.4000      7.8732      2.4143      0.0533     14.2866   -999.2500   -999.2500
  2763.5000      7.8476      2.4159      0.0093     14.1891   -999.2500   -999.2500
  2763.6000      7.8476      2.4459      0.0230     12.3674   -999.2500   -999.2500
  2763.7000      7.8476      2.5081      0.0881      8.5998   -999.2500   -999.2500
  2763.8000      7.8254      2.5703      0.1758      4.8287   -999.2500   -999.2500
  2763.9000      7.8254      2.6071      0.1613      2.5985   -999.2500   -999.2500
  2764.0000      7.8146      2.6261      0.1257      1.4510   -999.2500   -999.2500
  2764.1000      7.8146      2.6368      0.1654      0.8027   -999.2500   -999.2500
  2764.2000      7.8146      2.6281      0.1461      1.3291   -999.2500   -999.2500
  2764.3000      7.8148      2.5907      0.0835      3.5951   -999.2500   -999.2500
  2764.4000      7.8148      2.5411      0.0172      6.5984   -999.2500   -999.2500
  2764.5000      7.8268      2.5018      0.0275      8.9837   -999.2500   -999.2500
  2764.6000      7.8268      2.4761      0.0183     10.5374   -999.2500   -999.2500
  2764.7000      7.8268      2.4635     -0.0154     11.3023   -999.2500   -999.2500
  2764.8000      7.8475      2.4638     -0.0054     11.2872   -999.2500   -999.2500
  2764.9000      7.8475      2.4720      0.0432     10.7897   -999.2500   -999.2500
  2765.0000      7.8678      2.4881      0.0441      9.8093   -999.2500   -999.2500
  2765.1000      7.8678      2.5126      0.0860      8.3285   -999.2500   -999.2500
  2765.2000      7.8678      2.5345      0.1232      7.0010   -999.2500   -999.2500
  2765.3000      7.8728      2.5394      0.1672      6.7040   -999.2500   -999.2500
  2765.4000      7.8728      2.5221      0.0989      7.7497   -999.2500   -999.2500
  2765.5000      7.8669      2.4908      0.0952      9.6469   -999.2500   -999.2500
  2765.6000      7.8669      2.4628      0.0200     11.3478   -999.2500   -999.2500
  2765.7000      7.8669      2.4541      0.0458     11.8753   -999.2500   -999.2500
  2765.8000      7.8613      2.4623      0.0787     11.3760   -999.2500   -999.2500
  2765.9000      7.8613      2.4745      0.0680     10.6359   -999.2500   -999.2500
