~Version Information
VERS.                      2.0: CWLS Log ASCII Standard - VERSION 2.0
WRAP.                       NO: One line per depth step
~Well Information Block
STRT.FT               -12.5000: 
STOP.FT              2742.5000: 
STEP.FT                 0.2500: 
NULL.                -999.2500: 
COMP.          Pioneer Natural Resources: COMPANY
WELL.            Rangely 22-28: WELL
FLD.           Purgatorie River: FIELD
LOC.           720' FSL & 1036' FEL--: LOCATION
PROV.                       CO: PROVINCE
CNTY.               Las Animas: COUNTRY
SRVC.                         : SERVICE COMPANY
DATE.          Wed Nov 10 08:59:10 2004: LOG DATE
UWI.                          : UNIQUE WELL ID
~Curve Information Block
DEPT.FT            0 000 00 00: Depth
GR.GAPI                       : Gamma Ray
CCL.                          : Casing Collar Locator
TT3.usec                      : CBL 3' Travel Time
AMP3.mV                       : CBL 3' Amplitude
~Parameter Information Block
~A  Depth        GR         CCL         TT3         AMP3    
# ...
  1964.0000    147.0258      0.0000    720.8521      4.7644
  1964.2500    152.4445      0.0000    725.2471      4.5683
  1964.5000    159.5081      0.0000    729.6995      4.4024
  1964.7500    166.5743      0.0000    733.9451      4.3924
  1965.0000    171.8769      0.0000    738.7477      4.6360
  1965.2500    174.1720      0.0000    744.5002      5.1441
  1965.5000    172.9318      0.0000    750.5743      5.8349
  1965.7500    168.5899      0.0000    755.7205      6.5729
  1966.0000    162.9081      0.0000    758.9514      7.2286
  1966.2500    158.4731      0.0000    760.2944      7.7234
  1966.5000    157.2954      0.0000    760.5768      8.0337
  1966.7500    159.8925      0.0000    760.1533      8.1613
  1967.0000    165.3885      0.0000    758.2629      8.1090
  1967.2500    171.9608      0.0000    754.2224      7.8850
  1967.5000    177.2023      0.0000    748.8367      7.5195
  1967.7500    178.5684      0.0000    743.7570      7.0746
  1968.0000    174.2431      0.0000    739.4330      6.6381
  1968.2500    164.5677      0.0000    734.5156      6.2897
  1968.5000    152.9826      0.0000    727.8433      6.0529
  1968.7500    144.5540      0.0000    720.5500      5.8803
  1969.0000    142.1822      0.0000    715.3214      5.6945
  1969.2500    144.0407      0.0000    713.2972      5.4415
  1969.5000    145.4659      0.0000    712.3044      5.1070
  1969.7500    143.3815      0.0000    708.4045      4.7032
  1970.0000    138.2171      0.0000    698.6152      4.2609
  1970.2500    131.8991      0.0000    681.3687      3.8264
  1970.5000    125.6099      0.0000    654.5447      3.4480
  1970.7500    119.9370      0.0000    615.1622      3.1609
  1971.0000    115.8111      0.0000    564.1613      2.9831
  1971.2500    114.1764      0.0000    512.4261      2.9140
  1971.5000    115.0119      0.0000    479.0865      2.9282
  1971.7500    117.1480      0.0000    479.9592      2.9792
  1972.0000    119.2174      0.0000    515.7161      3.0212
  1972.2500    120.9927      0.0000    571.0809      3.0296
  1972.5000    123.8338      0.0000    625.9009      3.0036
  1972.7500    129.4137      0.0000    667.6155      2.9530
  1973.0000    137.8510      0.0000    694.6083      2.8891
  1973.2500    147.2526      0.0000    710.7794      2.8253
  1973.5000    155.0813      0.0000    719.7850      2.7787
  1973.7500    159.9253      0.0000    723.9897      2.7619
  1974.0000    162.1628      0.0000    726.0632      2.7758
  1974.2500    163.0580      0.0000    729.3245      2.8148
  1974.5000    163.3040      0.0000    736.0212      2.8723
  1974.7500    162.6461      0.0000    745.5480      2.9361
  1975.0000    160.9866      0.0000    754.6961      2.9836
  1975.2500    159.5445      0.0000    760.0814      2.9922
  1975.5000    160.3613      0.0000    760.6904      2.9577
  1975.7500    164.1429      0.0000    758.2174      2.9040
  1976.0000    168.8391      0.0000    754.9881      2.8711
  1976.2500    171.1074      0.0000    751.8961      2.8900
  1976.5000    169.5067      0.0000    748.4272      2.9595
  1976.7500    165.6993      0.0000    743.8749      3.0443
  1977.0000    162.2591      0.0000    737.8708      3.0983
  1977.2500    159.9945      0.0000    730.3931      3.0990
  1977.5000    157.7579      0.0000    722.1891      3.0667
  1977.7500    153.7803      0.0000    714.7034      3.0524
  1978.0000    146.4562      0.0000    708.5887      3.0940
  1978.2500    135.0568      0.0000    702.8669      3.1820
  1978.5000    121.2025      0.0000    697.0801      3.2712
  1978.7500    109.3987     -2.0000    693.6282      3.3259
  1979.0000    104.8876      1.9342    695.5380      3.3392
  1979.2500    110.1975      0.0000    701.8879      3.3178
  1979.5000    123.3869      0.0000    707.9656      3.2712
  1979.7500    139.3950      0.0000    710.4288      3.2171
  1980.0000    153.2332      0.0000    710.0646      3.1740
  1980.2500    162.3522      0.0000    709.0692      3.1445
  1980.5000    166.6460      0.0000    707.8427      3.1245
  1980.7500    166.7500      0.0000    705.3430      3.1225
  1981.0000    162.6168      0.0000    701.1934      3.1512
  1981.2500    153.9366      0.0000    696.4273      3.2048
  1981.5000    141.8145      0.0000    692.5170      3.2621
  1981.7500    129.2282      0.0000    690.2435      3.3082
  1982.0000    119.2537      0.0000    689.4716      3.3441
  1982.2500    113.1193      0.0000    689.5691      3.3800
  1982.5000    110.0706      0.0000    689.8605      3.4275
  1982.7500    108.4878      0.0000    689.9247      3.4939
  1983.0000    107.0071      0.0000    689.7379      3.5777
  1983.2500    105.2991      0.0000    689.5590      3.6702
  1983.5000    103.9792      0.0000    689.6039      3.7639
  1983.7500    103.3847      0.0000    689.8527      3.8580
  1984.0000    102.7709      0.0000    690.1357      3.9545
  1984.2500    101.2701      0.0000    690.2968      4.0491
  1984.5000     99.3110      0.0000    690.2032      4.1267
  1984.7500     98.2693      0.0000    689.6642      4.1667
  1985.0000     98.7104      0.0000    688.4032      4.1542
  1985.2500     99.7320      0.0000    686.1902      4.0859
  1985.5000    100.3275      0.0000    683.2119      3.9693
  1985.7500    100.8677      0.0000    680.4290      3.8247
  1986.0000    102.8739      0.0000    679.2396      3.6889
  1986.2500    107.5994      0.0000    680.3708      3.6063
  1986.5000    114.8332      0.0000    683.1882      3.6004
  1986.7500    122.5300      0.0000    686.3146      3.6509
  1987.0000    127.6068      0.0000    688.7372      3.7032
  1987.2500    127.9273      0.0000    690.1885      3.7076
  1987.5000    124.1053      0.0000    690.8135      3.6532
  1987.7500    119.4680      0.0000    690.8154      3.5657
  1988.0000    118.2268      0.0000    690.3136      3.4724
  1988.2500    123.1568      0.0000    689.2723      3.3740
  1988.5000    133.8720      0.0000    687.5286      3.2482
  1988.7500    146.7398      0.0000    685.1074      3.0763
  1989.0000    157.1123      0.0000    682.9332      2.8644
  1989.2500    162.3654      0.0000    683.3038      2.6423
  1989.5000    162.7881      0.0000    689.0798      2.4434
  1989.7500    159.6680      0.0000    701.6757      2.2850
  1990.0000    153.3419      0.0000    719.7573      2.1621
  1990.2500    143.5716      0.0000    740.1294      2.0603
  1990.5000    131.1434      0.0000    759.8447      1.9717
  1990.7500    118.3060      0.0000    777.0233      1.8992
  1991.0000    107.6629      0.0000    788.9401      1.8459
  1991.2500    100.8218      0.0000    789.9330      1.8081
  1991.5000     97.5878      0.0000    774.1559      1.7780
  1991.7500     95.9962      0.0000    742.5012      1.7492
  1992.0000     93.6989      0.0000    705.1753      1.7183
  1992.2500     89.9856      0.0000    675.3240      1.6856
  1992.5000     86.1542      0.0000    660.5348      1.6558
  1992.7500     83.6647      0.0000    660.6822      1.6390
  1993.0000     82.4129      0.0000    671.3607      1.6545
  1993.2500     81.2871      0.0000    686.8278      1.7304
  1993.5000     80.0676      0.0000    700.9580      1.8993
  1993.7500     80.0084      0.0000    709.0949      2.1965
  1994.0000     82.4062      0.0000    711.0962      2.6668
  1994.2500     87.1527      0.0000    711.8734      3.3656
  1994.5000     92.9417      0.0000    717.6581      4.3260
  1994.7500     98.6171      0.0000    731.1475      5.4968
  1995.0000    104.1958      0.0000    749.9357      6.7238
  1995.2500    110.7289      0.0000    769.0069      7.8406
  1995.5000    119.0761      0.0000    784.4949      8.7938
  1995.7500    128.7714      0.0000    795.5865      9.6488
  1996.0000    138.3208      0.0000    803.2819     10.4426
  1996.2500    146.4329      0.0000    807.4210     11.0571
  1996.5000    152.5538      0.0000    805.6915     11.2762
  1996.7500    156.5041      0.0000    796.5475     10.9677
  1997.0000    158.2643      0.0000    782.3474     10.1936
  1997.2500    158.2705      0.0000    768.1132      9.1582
