~Version Information
VERS.                      2.0: CWLS Log ASCII Standard - VERSION 2.0
WRAP.                       NO: One line per depth step
~Well Information Block
STRT.FT               802.1000: 
STOP.FT              1915.0000: 
STEP.FT                 0.1000: 
NULL.                -999.2500: 
COMP.          Petrogulf Corporation: COMPANY
WELL.             State 16-32R: WELL
FLD.           Purgatorie River: FIELD
LOC.           1849' FNL & 1677' FEL: LOCATION
CNTY.               Las Animas: COUNTY
SRVC.                         : SERVICE COMPANY
DATE.          Thu May 13 18:17:16 2004: LOG DATE
UWI.           05 071 08033 00: UNIQUE WELL ID
STAT.                 Colorado: STATE
~Curve Information Block
DEPT.FT            0 000 00 00: Depth
DCAL.in                       : CDL Caliper
RHOB.g/cc                     : CDL Bulk Density
RHOC.g/cc                     : CDL Density Correction
DPOR.pu                       : CDL Density Porosity
GR.GAPI                       : Gamma Ray
NPOR.pu                       : Neutron Porosity
~Parameter Information Block
~A  Depth       DCAL        RHOB        RHOC        DPOR         GR         NPOR    
# ...
  1406.9000      7.8651      2.5064      0.3861      8.7001    157.9962     25.4184
  1407.0000      7.8667      2.5212      0.3265      7.8063    156.7672     25.9100
  1407.1000      7.8667      2.4928      0.2968      9.5290    157.3200     25.7331
  1407.2000      7.8667      2.4508      0.1474     12.0699    150.6136     25.2472
  1407.3000      7.9011      2.4306      0.1401     13.2987    135.7171     25.0066
  1407.4000      7.9011      2.4321      0.1157     13.2065    124.5163     25.0943
  1407.5000      8.0657      2.4477      0.0561     12.2636    121.5618     25.2724
  1407.6000      8.0657      2.4724      0.1590     10.7665    127.4343     25.3116
  1407.7000      8.0657      2.4775      0.1905     10.4563    137.4162     25.2016
  1407.8000      8.1431      2.4489      0.1708     12.1866    147.2908     24.9117
  1407.9000      8.1431      2.4210      0.0318     13.8791    161.0059     24.5422
  1408.0000      8.0274      2.4164      0.1611     14.1603    169.8907     24.2936
  1408.1000      8.0274      2.4036      0.1819     14.9305    156.5526     24.0354
  1408.2000      8.0274      2.3566      0.1160     17.7801    126.6521     23.7747
  1408.3000      7.9686      2.2962      0.1473     21.4440    100.7643     23.7784
  1408.4000      7.9686      2.2633      0.0420     23.4346     95.4820     24.0185
  1408.5000      7.9307      2.2753      0.1504     22.7113    107.8624     24.3085
  1408.6000      7.9307      2.3182      0.1640     20.1073    122.5527     24.4825
  1408.7000      7.9307      2.3715      0.1887     16.8791    129.3261     24.6285
  1408.8000      7.9182      2.4136      0.1979     14.3280    122.7298     25.0908
  1408.9000      7.9182      2.4390      0.2288     12.7866    103.8170     25.6045
  1409.0000      7.9597      2.4609      0.2105     11.4583     83.3887     25.9321
  1409.1000      7.9597      2.4869      0.2286      9.8833     74.1880     26.4494
  1409.2000      7.9597      2.5160      0.1438      8.1204     81.6678     27.0684
  1409.3000      7.9376      2.5404      0.1988      6.6443     93.4085     27.3115
  1409.4000      7.9376      2.5542      0.1401      5.8050     92.5615     27.2061
  1409.5000      7.9278      2.5694      0.1277      4.8831     83.0522     27.1693
  1409.6000      7.9278      2.5871      0.1891      3.8121     79.0838     27.4894
  1409.7000      7.9278      2.5896      0.1729      3.6620     85.7645     28.0721
  1409.8000      7.8787      2.5768      0.1031      4.4343     98.7690     28.6642
  1409.9000      7.8787      2.5607      0.0667      5.4129    110.7641     29.0129
  1410.0000      7.8872      2.5510      0.0481      5.9999    114.9051     28.8096
  1410.1000      7.8872      2.5643      0.0589      5.1957    110.1561     28.1998
  1410.2000      7.8872      2.5910      0.1749      3.5777    105.7259     27.8697
  1410.3000      7.8810      2.6040      0.1181      2.7863    104.9246     28.0093
  1410.4000      7.8810      2.6092      0.0179      2.4730    105.7545     28.0013
  1410.5000      7.8403      2.6027      0.1706      2.8645    110.5198     27.3878
  1410.6000      7.8403      2.5639      0.1087      5.2166    116.4616     26.6780
  1410.7000      7.8403      2.5262     -0.0073      7.5053    115.0482     26.5508
  1410.8000      7.8355      2.5250      0.1209      7.5753    108.0411     26.8337
  1410.9000      7.8355      2.5454     -0.0048      6.3410    105.2893     26.8525
  1411.0000      7.8824      2.5687      0.1341      4.9290    106.9170     26.4220
  1411.1000      7.8824      2.5883      0.1140      3.7393    107.9354     25.9611
  1411.2000      7.8824      2.5967      0.1758      3.2297    109.4496     25.5953
  1411.3000      7.8772      2.5779      0.1611      4.3697    113.5486     25.3076
  1411.4000      7.8772      2.5413      0.0854      6.5852    120.0986     25.4095
  1411.5000      7.7704      2.5233      0.0437      7.6805    127.4247     25.7918
  1411.6000      7.7704      2.5204      0.0928      7.8576    128.9979     25.9651
  1411.7000      7.7704      2.5004      0.0470      9.0647    119.5229     26.1350
  1411.8000      7.7677      2.4703      0.0382     10.8892    109.2868     26.6557
  1411.9000      7.7677      2.4617      0.0465     11.4121    109.2483     27.1570
  1412.0000      7.8427      2.4824      0.0620     10.1574    111.3209     27.4195
  1412.1000      7.8427      2.5108      0.0567      8.4389    109.9514     27.5336
  1412.2000      7.8427      2.5266      0.0189      7.4764    112.2590     27.1804
  1412.3000      7.8643      2.5268      0.0634      7.4685    116.4658     26.4268
  1412.4000      7.8643      2.5161      0.0654      8.1155    111.5459     25.9720
  1412.5000      7.8558      2.5095      0.0075      8.5174    100.8263     26.0962
  1412.6000      7.8558      2.5169      0.0556      8.0694     97.8778     26.5239
  1412.7000      7.8558      2.5363      0.0164      6.8932    101.8088     26.9553
  1412.8000      7.8434      2.5555      0.0280      5.7273    106.6057     27.3512
  1412.9000      7.8434      2.5461      0.0244      6.2979    111.8195     27.8536
  1413.0000      7.8875      2.5106     -0.0614      8.4494    115.9402     28.3039
  1413.1000      7.8875      2.4963     -0.0613      9.3168    116.2716     28.3142
  1413.2000      7.8875      2.5280     -0.0247      7.3927    110.8234     28.0197
  1413.3000      7.8876      2.5753      0.0898      4.5257     98.7957     27.9947
  1413.4000      7.8876      2.6004      0.0784      3.0081     88.3102     28.4435
  1413.5000      7.8868      2.6085      0.0081      2.5162     83.0425     28.9431
  1413.6000      7.8868      2.6107      0.0964      2.3817     79.4618     28.9522
  1413.7000      7.8868      2.5841      0.0093      3.9911     77.3857     28.4165
  1413.8000      7.9059      2.5294     -0.0804      7.3064     74.5029     27.6128
  1413.9000      7.9059      2.4833      0.0523     10.1042     68.6164     26.9332
  1414.0000      7.8920      2.4740     -0.0605     10.6691     66.7739     26.6686
  1414.1000      7.8920      2.5091      0.0104      8.5395     73.0473     26.5255
  1414.2000      7.8920      2.5566      0.0294      5.6604     77.7851     25.9398
  1414.3000      7.8823      2.5718      0.0748      4.7399     72.7406     25.1096
  1414.4000      7.8823      2.5625     -0.0557      5.3048     65.6298     24.9193
  1414.5000      7.8834      2.5893     -0.0654      3.6812     67.6019     25.4924
  1414.6000      7.8834      2.6656      0.0526     -0.9484     78.5218     25.9290
  1414.7000      7.8834      2.7207      0.1704     -4.2830     88.5047     25.7692
  1414.8000      7.8791      2.7193      0.0991     -4.1972     91.6095     25.4860
  1414.9000      7.8791      2.7105      0.1251     -3.6693     92.5185     25.5353
  1415.0000      7.8268      2.7133      0.1790     -3.8382     92.4422     25.9411
  1415.1000      7.8268      2.6981      0.1637     -2.9133     89.0304     26.3621
  1415.2000      7.8268      2.6633      0.0683     -0.8080     88.7922     26.2973
  1415.3000      7.7909      2.6343      0.0437      0.9495     92.8773     25.9401
  1415.4000      7.7909      2.6226     -0.0208      1.6602     93.0600     26.0077
  1415.5000      7.8108      2.6298     -0.0093      1.2226     90.6695     26.6380
  1415.6000      7.8108      2.6476      0.0993      0.1466     93.7139     27.3341
  1415.7000      7.8108      2.6498      0.0494      0.0119    101.4540     27.4989
  1415.8000      7.8649      2.6254      0.0267      1.4909    104.8102     27.0694
  1415.9000      7.8649      2.5860      0.0190      3.8761    104.7270     26.4749
  1416.0000      7.8541      2.5409      0.0346      6.6145    109.3661     26.0672
  1416.1000      7.8541      2.5033     -0.0479      8.8933    113.9251     25.9465
  1416.2000      7.8541      2.4869     -0.0404      9.8819    114.0136     26.0392
  1416.3000      7.8498      2.4783     -0.0113     10.4037    116.0736     26.0768
  1416.4000      7.8498      2.4597     -0.0206     11.5332    121.7922     25.9125
