~Version Information
 VERS.                2.0:  CWLS LOG ASCII STANDARD -VERSION 2.0
 WRAP.                 NO:  ONE LINE PER DEPTH STEP
~WELL INFORMATION BLOCK
#MNEM.UNIT       DATA		            DESCRIPTION OF MNEMONIC
#---------    -------------            ------------------------
 STRT.FT  0.500                          :START DEPTH
 STOP.FT  1812.700                       :STOP DEPTH
 STEP.FT  0.100                          :STEP    UP_HOLE  
 NULL.    -999.25                        :NULL VALUE
 COMP.              EL PASO PRODUCTIONS  :COMPANY
 WELL.                     COREHOLE #38  :WELL
 FLD .                 PURGATOIRE RIVER  :FIELD
 LOC .      15   35S   65W               :LOCATION
 CNTY.                           COLFAX  :COUNTY
 STAT.                     NM            :STATE
 CTRY.                                   :
 SRVC.     O'DRISCOLL                    :SERVICE COMPANY
 DATE.   04/28/05                        :LOG DATE
 API .                                   :API NUMBER
 LIC .                                   :LICENSE NUMBER
~Curve Information Block
#MNEM.UNIT      API CODE     Curve Description
#---------    -------------  ------------------------
 DEPT     .FT        00 001 00 00          :  1  DEPTH   
 GAMMA    .API-GR    00 310 00 00          :  2                GAMMA
 TEMP     .DEG F     00 660 00 00          :  3                 TEMP
 RES(16N) .OHM-M     00 040 00 00          :  4             RES(16N)
 RES(64N) .OHM-M     00 060 00 00          :  5             RES(64N)
 RES      .OHM       00 000 00 00          :  6                  RES
 LATERAL  .OHM-M     00 070 00 00          :  7              LATERAL
 NEUTRON  .API-N     00 000 00 00          :  8              NEUTRON
 POR(NEU) .PERCENT   00 330 00 00          :  9             POR(NEU)
 SANGB    .DEG       00 631 00 00          : 10                SANGB
 DEL_TEMP .DEG F     00 000 00 00          : 11             DEL_TEMP
 SANG     .DEG       00 620 00 00          : 12                 SANG
 SP       .MV        00 010 00 00          : 13                   SP
 TIME     .MINUTES   00 000 00 00          : 14                 TIME
~Parameter Information Block
#MNEM.UNIT   Information     Description
#---------- ---------------  ------------------------
 FILE.      ORIGINAL           :File Type
 FIID.      9057A              :File Type Identifier
 VERS.      3.58G              :System Version
 SER .      1                  :System Serial Number
 TRUK.      .498775            :Truck Calibration Number
 TOOL.        1061             :Tool Serial Number
 TIME.      1335               :Time    HrHrMinMin
 LAT .       36 59'            :Latitude
 LON .       104 39'           :Longitude
 LMF .            GL           :Log Measured From
 DMF .            GL           :Driller Measured From
 PD  .            GL           :Permanent Data
 PDEV.                         :Elevation Permanent Data
 EKB .M                        :Elevation Kelly Bushing
 ELEV.DF                       :Elevation DF
 EGL .M        7777            :Elevation Ground Level
 DRDP.          1825           :Driller's Depth
 CASD.       10.               :Casing Diameter
 CASB.           300           :Casing Bottom
 CASX.         STEEL           :Casing Type
 CAST.                         :Casing Thickness
 TNOC.                         :Time Circulation Stopped
 LOGU.        108              :Logging Unit
 RECB.           R.SIPES       :Recorded By
 OSR1.          9139           :Other Services
 OSR2.                         :Other Services
 OSR3.                         :Other Services
 BS  .MM         3.5           :Bit Size
 MST .                         :Mean Surface Temperature
 TGRD.                         :Temperature Gradiant
 MAGN.            12           :Magnetic Declination
 MDEN.       2.7               :Density Matrix
 MATR.      SANDSTONE          :Neutron Matrix
 DTMT.            54           :Delta T Matrix
 DTFL.                         :Delta T Fluid
 MUDS.                         :Mud Sample Source
 MRS .                         :Mud Resistivity
 MTP .                         :Mud Temperature
 MFRS.                         :Resistivity Mud Filtrate
 MFTP.                         :Temperature Mud Filtrate
 MCRS.                         :Resistivity Mud Cake
 MCTP.                         :Temperature Mud Cake
 FTYP.                         :Fluid Type
 FD  .K/M3                     :Fluid Density
 DFV .S                        :Fluid Viscosity
 FPH .                         :Fuild PH
 ELCO.       50000             :Electron Cutoff
~Other Information
#MNEM.UNIT  Information      Description
#---------- ---------------  ------------------------
# -------------------------- 
~A DEPTH  GAMMA    TEMP  RES(16N) RES(64N) RES      LATERAL  NEUTRON  POR(NEU) SANGB  DEL_TEMP SANG   SP    TIME    
# ...
 604.700    134.5  63.8      1.2      9.2      9.4     -2.6   1007.1  34.7  22.77  -0.08  3.02  -1318.9 0.20000 
 604.800    132.9  63.8      5.3      8.8      9.8      2.6    952.3  34.1  22.61  -0.01  2.79  -1318.9 0.20000 
 604.900    127.6  63.8      1.2      8.4     10.0     -3.7    950.8  34.2  20.78  -0.06  2.89  -1318.9 0.20000 
 605.000    128.6  63.8     -1.3      8.0     10.3     -7.5    980.5  33.7  20.81  -0.03  2.89  -1318.9 0.20000 
 605.100    123.3  63.9     -1.4      7.7      9.8     -7.2    960.2  34.1  35.20  0.04  2.89  -1318.7 0.20000 
 605.200    119.6  63.9     -1.5      8.7      9.9    -14.3    977.4  34.4  19.14  0.01  2.56  -1318.7 0.20000 
 605.300    121.2  63.9     -1.9      9.4      9.9     -5.9    977.4  34.5  18.00  -0.03  2.64  -1318.7 0.20000 
 605.400    119.1  63.9     -2.7     10.2     10.5     -3.4   1010.2  34.3  18.00  -0.01  2.64  -1318.7 0.20000 
 605.500    121.8  63.9      0.1     10.7     10.5      1.4    949.2  34.6  43.99  0.01  2.64  -1319.0 0.20000 
 605.600    127.6  63.9      3.2     10.8      9.8      5.0    932.0  34.3  87.76  0.04  2.55  -1319.0 0.10000 
 605.700    128.1  63.9     -0.6     10.9      9.6     -1.6    872.6  34.2  83.83  -0.09  2.51  -1319.0 0.20000 
 605.800    132.9  63.9     -1.6     11.0      9.7     -2.3    891.3  34.3  83.83  0.03  2.51  -1319.0 0.20000 
 605.900    131.3  63.9     -3.3     11.6      9.8     -7.7    849.1  34.2  76.22  0.06  2.51  -1318.6 0.20000 
 606.000    125.5  63.9      0.0     10.8      9.5     -2.8    899.2  33.7  50.53  -0.06  2.47  -1318.6 0.20000 
 606.100    117.5  63.9      1.3     10.9      9.9     -4.2    903.9  33.8  48.16  0.01  2.45  -1318.6 0.20000 
 606.200    111.2  63.9      0.5     11.4     10.0     -5.7    977.4  33.6  48.16  -0.07  2.45  -1318.6 0.20000 
 606.300    108.5  63.9     -2.1     10.9     10.0     -8.2    971.1  33.7  31.10  0.08  2.45  -1318.8 0.20000 
 606.400    104.3  63.9     -2.0     11.1     10.0     -8.2    968.0  33.0   4.85  0.00  2.42  -1319.0 0.20000 
 606.500    100.1  63.9     -1.7     11.5      9.7     -8.5    993.0  32.8   3.10  0.00  2.35  -1319.0 0.20000 
 606.600     99.0  63.9     -1.6     11.3      9.8    -10.8   1063.4  31.9   3.10  -0.04  2.35  -1319.0 0.20000 
 606.700     92.1  63.9     -1.6     10.7      9.8    -10.0   1035.2  31.6  23.23  0.04  2.35  -1318.9 0.20000 
 606.800     90.0  63.9      1.2     11.1      9.9     -2.3   1038.3  31.3  170.77 -0.09  2.35  -1318.8 0.20000 
 606.900     90.5  63.9      2.3     11.3      9.7      1.0   1071.2  31.0  167.98 0.10  2.32  -1318.8 0.20000 
 607.000     93.2  63.9      0.9     10.8      9.4      4.6   1054.0  30.7  168.06 -0.04  2.31  -1318.8 0.20000 
 607.100     96.3  63.9     -0.7      9.9      9.7     -1.1    993.0  30.6  168.16 -0.01  2.31  -1318.8 0.20000 
 607.200     98.5  63.9      6.6      9.6      9.6      6.1   1022.7  30.6  140.79 -0.03  2.31  -1318.9 0.10000 
 607.300    105.9  63.9      2.2      9.1      9.6      3.9   1057.1  30.5  140.80 0.04  2.29  -1318.9 0.20000 
 607.400    105.9  63.9     -0.2      8.7      9.6     -0.4   1063.4  30.3  140.77 -0.07  2.30  -1318.9 0.20000 
 607.500    105.9  64.0     -2.6      8.4     10.2     -8.2   1086.8  30.6  140.73 -0.04  2.30  -1318.9 0.20000 
 607.600    105.3  64.0     -1.7      8.5     10.4     -9.6   1104.0  30.6  235.48 0.06  2.30  -1318.9 0.20000 
 607.700    104.8  63.9      1.2      8.8     10.3     -2.0   1113.4  30.4  249.18 0.02  2.30  -1318.9 0.20000 
 607.800    107.5  63.9     -0.5     10.2     11.4     -1.6   1080.6  30.7  249.17 0.06  2.30  -1318.9 0.20000 
 607.900    109.6  63.9      0.7     11.1     10.1     -2.9   1050.8  30.9  249.71 -0.10  2.30  -1318.9 0.20000 
 608.000    108.5  63.9      0.8     11.1     10.4     -2.9   1068.0  31.3  159.45 0.04  2.30  -1318.0 0.20000 
 608.100    102.2  63.9      5.3     11.6     10.0      0.4   1069.6  31.9  178.01 -0.05  2.34  -1318.0 0.20000 
 608.200     95.3  64.0      4.8     11.8      9.7     -0.1   1036.8  32.7  177.94 0.05  2.35  -1318.0 0.20000 
 608.300     92.1  64.0      1.4     11.5      9.8     -2.4   1047.7  32.9  177.99 -0.01  2.35  -1318.0 0.20000 
 608.400     90.5  64.0      1.9     10.7     10.1     -1.1   1046.2  33.6  174.99 -0.07  2.35  -1319.0 0.20000 
 608.500     91.6  64.0      4.3     10.6     11.5      2.0    983.6  33.9  147.02 0.12  2.37  -1319.0 0.20000 
 608.600     93.7  64.0      5.5     11.1     10.7      3.0    933.6  34.0  148.56 -0.07  2.41  -1319.0 0.20000 
 608.700     97.4  64.0      2.6     11.1     10.8      0.6    899.2  34.1  148.56 -0.05  2.41  -1319.0 0.20000 
 608.800     90.5  64.0     -0.2     10.9     11.2     -2.0    855.4  34.2  176.50 0.08  2.41  -1318.7 0.10000 
 608.900     93.2  64.0      0.2     10.4     11.0     -0.5    861.6  34.7  312.72 -0.10  2.41  -1318.7 0.20000 
 609.000     98.5  64.0     -3.9      9.7     10.7     -8.6    841.3  35.0  312.42 0.14  2.40  -1318.7 0.20000 
 609.100    101.1  64.0     -2.3      9.7     11.7     -6.2    866.3  34.8  312.42 -0.07  2.40  -1318.7 0.20000 
 609.200    101.6  64.0      0.1     10.0     11.7     -3.2    911.7  34.8  106.56 -0.02  2.40  -1318.7 0.20000 
 609.300    101.1  64.0      0.0     10.0     12.1     -3.4    941.4  34.9  184.12 -0.05  2.39  -1318.7 0.20000 
 609.400    104.3  64.0      0.7     10.1     11.0     -2.8    924.2  34.7  182.95 0.02  2.39  -1318.7 0.20000 
 609.500    102.7  64.1      2.1     10.4     11.3     -0.1    955.5  34.1  182.95 -0.03  2.39  -1318.7 0.20000 
 609.600    101.6  64.1      2.3     10.4      9.9     -0.9    949.2  33.7  174.71 -0.02  2.39  -1318.8 0.20000 
 609.700    108.5  64.1      1.8     10.5     11.0     -0.8    952.3  32.7  143.80 0.04  2.36  -1318.9 0.20000 
 609.800    105.3  64.1      0.1      9.8     11.3     -4.1    963.3  32.8  139.86 -0.02  2.29  -1318.9 0.20000 
 609.900    104.8  64.1      0.7      9.6     11.6     -4.0    968.0  32.2  139.86 0.04  2.29  -1318.9 0.20000 
 610.000    105.9  64.1     -1.2      9.6     10.9     -5.7    974.2  32.1  165.26 -0.01  2.29  -1318.8 0.20000 
 610.100    103.8  64.0      1.9      9.5     11.9     -1.9   1010.2  32.0  314.30 -0.07  2.30  -1318.7 0.20000 
 610.200    105.9  64.0      2.6      9.5     11.9     -1.2   1000.8  31.7  315.87 0.16  2.34  -1318.7 0.20000 
 610.300    105.3  64.1      1.2      9.7     12.0     -0.1   1049.3  31.2  315.87 -0.12  2.34  -1318.7 0.20000 
 610.400    106.4  64.0     -0.4      9.4     10.8     -1.7   1057.1  30.9  316.31 0.01  2.34  -1318.8 0.20000 
 610.500    106.4  64.0      1.8     10.3     11.5      2.3   1068.0  30.6  147.23 0.05  2.34  -1318.8 0.20000 
 610.600    107.5  64.1      3.5     10.8     11.1      2.7   1050.8  30.4  177.98 0.01  2.42  -1318.8 0.20000 
 610.700    103.8  64.1      0.2     10.5     11.1     -3.0   1063.4  30.0  177.98 -0.12  2.42  -1318.8 0.10000 
 610.800    101.1  64.1     -3.0     10.4     10.6     -7.2   1038.3  29.9  178.01 0.00  2.42  -1318.8 0.20000 
 610.900    101.1  64.1     -2.6     10.0     10.7     -7.3   1083.7  29.5  164.84 0.04  2.42  -1318.9 0.20000 
 611.000    103.8  64.1      1.7      9.5     10.2     -1.4   1086.8  29.5  163.92 -0.04  2.48  -1318.9 0.20000 
 611.100     97.9  64.1      1.2      9.6      9.9     -1.1   1105.6  29.3  163.79 0.12  2.49  -1318.9 0.20000 
 611.200     96.9  64.1     -1.3     10.1      9.4     -9.3   1130.6  29.4  163.91 -0.08  2.49  -1318.9 0.20000 
 611.300     92.6  64.1     -1.0     10.6      8.8     -7.9   1143.1  29.1  191.10 -0.03  2.49  -1319.0 0.20000 
 611.400     90.5  64.1      0.9     10.6      8.8     -2.3   1107.1  29.0  80.83  -0.04  2.53  -1319.0 0.20000 
 611.500     82.6  64.1      0.4     10.2      8.3     -3.2   1132.2  28.9  80.69  0.10  2.54  -1319.0 0.20000 
 611.600     85.2  64.1     -0.8      9.9      8.1     -3.5   1127.5  28.7  78.39  -0.04  2.54  -1319.0 0.20000 
 611.700     86.3  64.1     -0.9      9.6      8.1     -3.5   1111.8  28.4  148.55 -0.05  2.54  -1318.6 0.20000 
 611.800     82.1  64.1      2.2      9.1      8.9      0.9   1119.7  28.4  174.66 0.05  2.62  -1318.6 0.20000 
