~Version Information
VERS.                      2.0: CWLS Log ASCII Standard - VERSION 2.0
WRAP.                       NO: One line per depth step
~Well Information Block
STRT.FT                -7.7500: 
STOP.FT              2394.2500: 
STEP.FT                 0.2500: 
NULL.                -999.2500: 
COMP.      PIONEER NATURAL RESOURCES  : COMPANY
WELL.         NOMAD 32-10  : WELL
FLD.                          : FIELD
LOC.      SWNE 10 32S 66W 6PM : LOCATION
PROV.                         : PROVINCE
CNTY.                         : COUNTRY
SRVC.                         : SERVICE COMPANY
DATE.          Thu Aug 26 13:45:47 2004: LOG DATE
UWI.      005 071 08127  : UNIQUE WELL ID
~Curve Information Block
DEPT.FT            0 000 00 00: Depth
CCL.                          : Casing Collar Locator
TT3.usec                      : CBL 3' Travel Time
AMP3.mV                       : CBL 3' Amplitude
GR.GAPI                       : Gamma Ray
~Parameter Information Block
~A  Depth       CCL         TT3         AMP3         GR     
# ...
   628.7500      0.0000    750.2082      3.7653     85.9067
   629.0000      0.0000    753.0827      3.5510     82.6066
   629.2500      0.0000    753.0951      3.4548     79.4036
   629.5000      0.0000    752.8849      3.5383     76.8781
   629.7500      0.0000    755.8839      3.8213     75.2285
   630.0000      0.0000    763.3773      4.2775     74.4536
   630.2500      0.0000    773.1960      4.8340     74.3338
   630.5000      0.0000    781.2087      5.3867     74.3480
   630.7500      0.0000    784.1796      5.8584     73.8953
   631.0000      0.0000    781.5219      6.2682     72.7045
   631.2500      0.0000    775.0690      6.7369     71.0310
   631.5000      0.0000    767.6959      7.3997     69.5928
   631.7500      0.0000    761.7465      8.2995     69.2850
   632.0000      0.0000    757.9120      9.3476     70.6534
   632.2500      0.0000    755.3151     10.3663     73.4755
   632.5000      0.0000    752.8792     11.1661     76.8582
   632.7500      0.0000    750.6304     11.6247     79.8063
   633.0000      0.0000    749.4946     11.7355     81.8335
   633.2500      0.0000    750.0369     11.5948     83.1068
   633.5000      0.0000    751.7255     11.3390     83.9905
   633.7500      0.0000    753.5621     11.0796     84.5451
   634.0000      0.0000    755.3798     10.8709     84.7087
   634.2500      0.0000    758.1758     10.7179     84.9313
   634.5000      0.0000    762.8586     10.6035     85.9068
   634.7500      0.0000    768.9049     10.5112     87.2021
   635.0000      0.0000    774.6292     10.4288     86.7901
   635.2500      0.0000    778.6241     10.3351     82.8441
   635.5000      0.0000    780.6340     10.1889     75.9100
   635.7500      0.0000    781.2484      9.9479     68.8615
   636.0000      0.0000    781.1854      9.6018     64.7951
   636.2500      0.0000    780.9076      9.1845     65.0011
   636.5000      0.0000    780.6118      8.7620     68.5367
   636.7500      0.0000    780.3011      8.4061     73.3802
   637.0000      0.0000    779.7672      8.1468     77.9145
   637.2500      0.0000    778.5124      7.9417     81.5675
   637.5000      0.0000    775.8949      7.7171     84.5845
   637.7500      0.0000    771.7150      7.4558     87.4379
   638.0000      0.0000    766.8404      7.2246     90.3991
   638.2500      0.0000    762.9301      7.1038     93.6153
   638.5000      0.0000    761.0594      7.1015     97.2609
   638.7500      0.0000    760.5180      7.1523    101.1008
   639.0000      0.0000    759.2119      7.1877    104.2285
   639.2500      2.0000    755.6373      7.1889    106.0013
   639.5000      2.0000    750.4097      7.1826    106.9056
   639.7500      0.0000    745.1590      7.2207    107.7555
   640.0000      0.0000    739.0933      7.3773    108.7049
   640.2500      0.0000    727.7333      7.7251    110.0199
   640.5000      0.0000    707.8702      8.2528    112.9446
   640.7500      0.0000    684.8495      8.8006    118.3726
   641.0000      0.0000    671.5750      9.1477    124.9689
   641.2500      0.0000    676.8053      9.2048    129.7839
   641.5000      0.0000    696.2577      9.0809    131.0238
   641.7500      0.0000    717.7397      8.9488    129.8428
   642.0000      0.0000    732.5757      8.8955    129.1057
   642.2500      0.0000    739.9051      8.9097    130.5119
   642.5000      0.0000    743.0529      8.9504    133.3695
   642.7500      0.0000    745.1739      8.9941    136.0905
   643.0000      0.0000    747.6218      9.0371    138.0702
   643.2500      0.0000    750.0649      9.0754    139.7158
   643.5000      0.0000    751.3456      9.0980    141.3519
   643.7500      0.0000    750.7763      9.0987    142.9169
   644.0000      0.0000    748.8190      9.0775    144.5670
   644.2500      0.0000    746.5910      9.0347    146.5641
   644.5000      0.0000    744.9185      8.9767    148.1838
   644.7500      0.0000    744.0256      8.9140    147.5966
   645.0000      0.0000    743.7933      8.8388    143.5945
   645.2500      0.0000    743.9611      8.7322    137.3188
   645.5000      0.0000    744.1468      8.5989    131.9517
   645.7500      0.0000    743.8925      8.4689    130.4954
   646.0000      0.0000    742.8475      8.3644    133.4357
   646.2500      0.0000    741.0867      8.2896    138.1430
   646.5000      0.0000    739.3657      8.2426    140.5182
   646.7500      0.0000    738.7979      8.2141    137.8456
   647.0000      0.0000    739.9126      8.1838    130.8568
   647.2500      0.0000    742.0854      8.1322    123.1740
   647.5000      0.0000    744.1128      8.0496    118.3802
   647.7500      0.0000    745.2348      7.9413    117.4945
   648.0000      0.0000    745.4868      7.8292    119.0780
   648.2500      0.0000    745.3147      7.7353    121.0347
   648.5000      0.0000    745.1104      7.6630    121.9554
   648.7500      0.0000    745.0303      7.6059    121.5161
   649.0000      0.0000    745.0355      7.5676    120.5657
   649.2500      0.0000    745.0033      7.5588    120.7400
   649.5000      0.0000    744.8466      7.5815    123.1407
   649.7500      0.0000    744.5880      7.6292    127.1780
   650.0000      0.0000    744.3687      7.6943    131.1268
   650.2500      0.0000    744.4037      7.7616    133.9195
   650.5000      0.0000    744.9358      7.7924    136.0309
   650.7500      0.0000    746.2233      7.7329    138.4741
   651.0000      0.0000    748.4334      7.5610    141.1049
   651.2500      0.0000    751.2712      7.3238    142.1437
   651.5000      0.0000    753.5827      7.1074    139.5891
   651.7500      0.0000    753.5969      6.9744    133.2313
   652.0000      0.0000    750.0004      6.9413    125.1666
   652.2500      0.0000    742.9976      6.9928    118.1986
   652.5000      0.0000    734.4986      7.0912    113.6936
   652.7500      0.0000    727.4068      7.1866    111.0710
   653.0000      0.0000    724.2830      7.2409    109.3331
   653.2500      0.0000    725.8845      7.2468    108.6408
   653.5000      0.0000    730.6913      7.2319    110.0954
   653.7500      0.0000    736.0851      7.2482    114.3341
   654.0000      0.0000    740.1478      7.3342    120.7501
   654.2500      0.0000    742.4454      7.4760    127.8368
   654.5000      0.0000    743.4910      7.6197    134.0013
   654.7500      0.0000    743.8964      7.7224    138.3933
   655.0000      0.0000    744.0088      7.7748    141.3889
   655.2500      0.0000    744.0067      7.7892    144.1972
   655.5000      0.0000    744.0441      7.7804    147.6450
   655.7500      0.0000    744.2288      7.7471    151.2474
   656.0000      0.0000    744.5350      7.6677    153.4337
   656.2500      0.0000    744.8124      7.5317    152.5731
   656.5000      0.0000    744.9078      7.3707    148.0005
   656.7500      0.0000    744.7891      7.2369    140.8206
   657.0000      0.0000    744.6015      7.1591    133.8585
   657.2500      0.0000    744.6483      7.1336    130.0067
   657.5000      0.0000    745.3317      7.1435    130.2844
   657.7500      0.0000    747.0029      7.1719    133.5166
   658.0000      0.0000    749.6063      7.2037    137.3345
   658.2500      0.0000    752.3282      7.2192    139.3658
   658.5000      0.0000    753.8803      7.1923    138.5156
   658.7500      0.0000    753.5019      7.1112    135.7418
   659.0000      0.0000    751.6032      7.0018    133.1582
   659.2500      0.0000    749.2417      6.9075    132.0610
   659.5000      0.0000    747.1884      6.8518    132.1859
   659.7500      0.0000    745.6607      6.8404    132.8709
   660.0000      0.0000    744.6234      6.8816    134.1922
   660.2500      0.0000    744.0103      6.9747    136.6681
   660.5000      0.0000    743.7311      7.0906    140.2613
   660.7500      0.0000    743.6688      7.1892    144.0179
   661.0000      0.0000    743.7260      7.2479    146.6832
   661.2500      0.0000    743.8470      7.2611    147.7088
   661.5000      0.0000    744.0081      7.2275    147.8130
   661.7500      0.0000    744.1983      7.1457    148.4347
   662.0000      0.0000    744.4121      7.0161    150.3756
