~Version Information
VERS.                      2.0: CWLS Log ASCII Standard - VERSION 2.0
WRAP.                       NO: One line per depth step
~Well Information Block
STRT.FT                 8.7500: 
STOP.FT              2723.0000: 
STEP.FT                 0.2500: 
NULL.                -999.2500: 
COMP.          Pioneer Natural Resources: COMPANY
WELL.           Desoto 13-7 Tr: WELL
FLD.           Purgatoire River: FIELD
LOC.           1404' FSL & 1115' FWL: LOCATION
PROV.                 Colorado: PROVINCE
CNTY.               Las Animas: COUNTRY
SRVC.                Patterson: SERVICE COMPANY
DATE.          Wed Mar 16 18:00:51 2005: LOG DATE
UWI.           05 071 08216 00: UNIQUE WELL ID
~Curve Information Block
DEPT.FT            0 000 00 00: Depth
GR.GAPI                       : Gamma Ray
CCL.                          : Casing Collar Locator
TT3.usec                      : CBL 3' Travel Time
AMP3.mV                       : CBL 3' Amplitude
AMP5.mV                       : CBL 5' Amplitude
~Parameter Information Block
~A  Depth        GR         CCL         TT3         AMP3        AMP5    
# ...
  1800.7500    126.2752      0.0000   1042.2128      4.1235      0.2990
  1801.0000    122.6960      0.0000   1121.7489      3.7766      0.2756
  1801.2500    116.8949      0.0000   1170.7340      3.4744      0.2567
  1801.5000    110.5216      0.0000   1163.5870      3.1957      0.2421
  1801.7500    105.3230      0.0000   1103.6575      2.9297      0.2303
  1802.0000    101.5116      0.0000   1020.6816      2.6738      0.2197
  1802.2500     97.8885      0.0000    947.0126      2.4361      0.2110
  1802.5000     93.5106      0.0000    899.4378      2.2397      0.2060
  1802.7500     88.6788      0.0000    885.3589      2.1205      0.2059
  1803.0000     84.1215      0.0000    914.7903      2.1164      0.2103
  1803.2500     79.8845      0.0000    992.2772      2.2533      0.2177
  1803.5000     75.7427      0.0000   1100.7341      2.5316      0.2274
  1803.7500     72.4753      0.0000   1206.4161      2.9185      0.2401
  1804.0000     71.8716      0.0000   1282.5706      3.3617      0.2569
  1804.2500     75.1463      0.0000   1323.4338      3.8268      0.2781
  1804.5000     81.7088      0.0000   1336.9557      4.3340      0.3030
  1804.7500     89.7803      0.0000   1329.8777      4.9507      0.3297
  1805.0000     97.7890      0.0000   1300.4879      5.7373      0.3565
  1805.2500    104.7270      0.0000   1242.9988      6.6944      0.3830
  1805.5000    109.5657      0.0000   1158.4655      7.7508      0.4110
  1805.7500    111.1955      0.0000   1060.9364      8.7759      0.4464
  1806.0000    109.1043      0.0000    970.3641      9.6001      0.4969
  1806.2500    103.8045      0.0000    898.5149     10.0628      0.5660
  1806.5000     96.5769      0.0000    843.7665     10.0891      0.6494
  1806.7500     88.9128      0.0000    799.0253      9.7364      0.7342
  1807.0000     81.9647      0.0000    761.1930      9.1618      0.8016
  1807.2500     76.3835      0.0000    732.1072      8.5394      0.8337
  1807.5000     72.7290      0.0000    713.5577      7.9927      0.8218
  1807.7500     71.8073      0.0000    704.1513      7.5725      0.7713
  1808.0000     74.2028      0.0000    700.4459      7.2680      0.6988
  1808.2500     79.4980      0.0000    699.3391      7.0335      0.6233
  1808.5000     86.1366      0.0000    699.1127      6.8195      0.5576
  1808.7500     92.1466      0.0000    699.0809      6.6006      0.5056
  1809.0000     96.2084      0.0000    698.8273      6.3795      0.4656
  1809.2500     98.2467      0.0000    697.4454      6.1678      0.4343
  1809.5000     98.9876      0.0000    692.8210      5.9638      0.4093
  1809.7500     99.0319      0.0000    681.5094      5.7534      0.3893
  1810.0000     98.4852      0.0000    660.3217      5.5301      0.3729
  1810.2500     97.3207      0.0000    629.5313      5.3118      0.3589
  1810.5000     95.8009      0.0000    594.7041      5.1369      0.3476
  1810.7500     94.5236      0.0000    564.1948      5.0429      0.3399
  1811.0000     94.0957      0.0000    544.3032      5.0426      0.3351
  1811.2500     94.7238      0.0000    537.3610      5.1114      0.3333
  1811.5000     96.0524      0.0000    543.8405      5.1976      0.3353
  1811.7500     97.3496      0.0000    564.0874      5.2491      0.3411
  1812.0000     97.8504      0.0000    596.7656      5.2384      0.3491
  1812.2500     97.1163      0.0000    636.7888      5.1684      0.3576
  1812.5000     95.3413      0.0000    676.5729      5.0600      0.3641
  1812.7500     93.3668      0.0000    709.3918      4.9321      0.3659
  1813.0000     92.0490      0.0000    731.0409      4.7922      0.3615
  1813.2500     91.3275      0.0000    739.7619      4.6446      0.3538
  1813.5000     90.1954      0.0000    736.6969      4.5042      0.3470
  1813.7500     87.8623      0.0000    726.3157      4.3970      0.3422
  1814.0000     84.5279      0.0000    714.6988      4.3434      0.3356
  1814.2500     80.6696      0.0000    706.6066      4.3393      0.3219
  1814.5000     76.1718      0.0000    704.1667      4.3538      0.2997
  1814.7500     70.7792      0.0000    707.6442      4.3461      0.2730
  1815.0000     65.0550      0.0000    716.3992      4.2879      0.2474
  1815.2500     60.3172      0.0000    728.9967      4.1743      0.2260
  1815.5000     57.6726      0.0000    743.1760      4.0160      0.2092
  1815.7500     57.3405      0.0000    756.1074      3.8283      0.1961
  1816.0000     58.8017      0.0000    764.6696      3.6210      0.1849
  1816.2500     61.3142      0.0000    766.2351      3.3878      0.1733
  1816.5000     64.1551      0.0000    761.0820      3.1073      0.1603
  1816.7500     66.4853      0.0000    754.5872      2.7678      0.1479
  1817.0000     67.3113      0.0000    754.2956      2.3998      0.1395
  1817.2500     65.9489      0.0000    762.2056      2.0709      0.1365
  1817.5000     62.5590      0.0000    771.4426      1.8430      0.1362
  1817.7500     58.0923      0.0000    773.7598      1.7363      0.1346
  1818.0000     53.7515      0.0000    769.3723      1.7311      0.1306
  1818.2500     50.5704      0.0000    765.9483      1.7921      0.1261
  1818.5000     49.2212      0.0000    768.8181      1.8922      0.1239
  1818.7500     49.7969      0.0000    777.5961      2.0247      0.1256
  1819.0000     51.7382      0.0000    793.6556      2.1986      0.1314
  1819.2500     54.3249      0.0000    822.6129      2.4157      0.1402
  1819.5000     57.3549      0.0000    861.5620      2.6573      0.1512
  1819.7500     61.0361      0.0000    888.9875      2.9047      0.1664
  1820.0000     65.2430      0.0000    879.6909      3.1604      0.1884
  1820.2500     69.3594      0.0000    831.6631      3.4352      0.2162
  1820.5000     72.9830      0.0000    769.9216      3.7243      0.2426
  1820.7500     76.3556      0.0000    722.3168      4.0103      0.2586
  1821.0000     79.8091      0.0000    698.3599      4.2757      0.2619
  1821.2500     82.9940      0.0000    691.1672      4.5051      0.2583
  1821.5000     84.9320      0.0000    690.7476      4.6851      0.2563
  1821.7500     84.8323      0.0000    691.5931      4.8106      0.2618
  1822.0000     82.6716      0.0000    692.3965      4.8867      0.2757
  1822.2500     79.0522      0.0000    693.8167      4.9249      0.2950
  1822.5000     74.8458      0.0000    697.4562      4.9399      0.3140
  1822.7500     71.0612      0.0000    705.3051      4.9478      0.3288
  1823.0000     68.6964      0.0000    718.2734      4.9610      0.3403
  1823.2500     68.4590      0.0000    734.4136      4.9798      0.3511
  1823.5000     70.6325      0.0000    749.7630      4.9909      0.3617
  1823.7500     75.1800      0.0000    762.1531      4.9785      0.3699
  1824.0000     81.8346      0.0000    772.9769      4.9425      0.3734
  1824.2500     90.0441      0.0000    783.7101      4.9002      0.3721
  1824.5000     98.9391      0.0000    792.4760      4.8688      0.3680
  1824.7500    107.6054      0.0000    797.1713      4.8504      0.3625
  1825.0000    115.5789      0.0000    801.0598      4.8355      0.3551
  1825.2500    123.0970      0.0000    810.9615      4.8155      0.3452
  1825.5000    130.5695      0.0000    827.9728      4.7877      0.3342
  1825.7500    137.5781      0.0000    842.6627      4.7506      0.3244
  1826.0000    142.6865      0.0000    842.3387      4.7028      0.3165
  1826.2500    144.6260      0.0000    822.4798      4.6493      0.3102
  1826.5000    143.5932      0.0000    789.8204      4.6065      0.3059
  1826.7500    141.1934      0.0000    755.7286      4.5959      0.3044
  1827.0000    139.1382      0.0000    728.4868      4.6291      0.3055
  1827.2500    138.0854      0.0000    710.6670      4.6960      0.3090
  1827.5000    137.6316      0.0000    700.8200      4.7672      0.3143
  1827.7500    137.0970      0.0000    696.1323      4.8129      0.3200
  1828.0000    136.0106      0.0000    694.1542      4.8236      0.3254
  1828.2500    133.8660      0.0000    693.3983      4.8130      0.3308
  1828.5000    129.9415      0.0000    693.1705      4.7983      0.3365
