~Version Information
VERS.                      2.0: CWLS Log ASCII Standard - VERSION 2.0
WRAP.                       NO: One line per depth step
~Well Information Block
STRT.FT                -7.5000: 
STOP.FT              1702.2500: 
STEP.FT                 0.2500: 
NULL.                -999.2500: 
COMP.          Pioneer Natural Resources: COMPANY
WELL.          Warrior 33-1 Tr: WELL
FLD.           Purgatoire River: FIELD
LOC.           2648' FSL & 2341' FEL--: LOCATION
PROV.                 Colorado: PROVINCE
CNTY.               Las Animas: COUNTRY
SRVC.                Patterson: SERVICE COMPANY
DATE.          Wed Jun 22 12:18:08 2005: LOG DATE
UWI.           05 071 08412 00: UNIQUE WELL ID
~Curve Information Block
DEPT.FT            0 000 00 00: Depth
CCL.                          : Casing Collar Locator
TT3.usec                      : CBL 3' Travel Time
AMP3.mV                       : CBL 3' Amplitude
GR.GAPI                       : Gamma Ray
~Parameter Information Block
~A  Depth       CCL         TT3         AMP3         GR     
# ...
  1332.5000      0.0000    711.3099      5.9611    140.0598
  1332.7500      0.0000    709.0161      6.1762    147.4677
  1333.0000      0.0000    708.1969      6.4018    154.3594
  1333.2500      0.0000    708.0947      6.6047    160.4819
  1333.5000      0.0000    708.3794      6.7455    165.5594
  1333.7500      0.0000    709.1761      6.7925    169.2379
  1334.0000      0.0000    711.1946      6.7382    171.9440
  1334.2500      0.0000    715.5516      6.6067    174.9839
  1334.5000      0.0000    722.8105      6.4427    178.8045
  1334.7500      0.0000    731.5860      6.2878    181.9638
  1335.0000      0.0000    738.4393      6.1604    182.9014
  1335.2500      0.0000    740.0385      6.0551    182.0790
  1335.5000      0.0000    735.4375      5.9588    181.3055
  1335.7500      0.0000    725.7430      5.8658    181.2851
  1336.0000      0.0000    712.4332      5.7759    180.7368
  1336.2500      0.0000    697.2055      5.6823    177.9771
  1336.5000      0.0000    682.4949      5.5688    172.9071
  1336.7500      0.0000    670.3464      5.4221    167.4560
  1337.0000      0.0000    660.8429      5.2467    164.0630
  1337.2500      0.0000    652.6442      5.0678    163.4968
  1337.5000      0.0000    645.0705      4.9195    164.2259
  1337.7500      0.0000    638.8474      4.8260    164.1009
  1338.0000      0.0000    634.4483      4.7870    162.5053
  1338.2500      0.0000    630.5781      4.7817    160.7528
  1338.5000      0.0000    625.9612      4.7903    160.5887
  1338.7500      0.0000    622.9753      4.8126    162.5366
  1339.0000      0.0000    627.5853      4.8648    165.6274
  1339.2500      0.0000    643.6183      4.9602    168.1282
  1339.5000      0.0000    667.3001      5.0948    167.9187
  1339.7500      0.0000    688.9167      5.2499    162.7929
  1340.0000      0.0000    700.2874      5.4053    151.7984
  1340.2500      0.0000    700.5331      5.5513    136.7312
  1340.5000      0.0000    695.5339      5.6912    121.7837
  1340.7500      0.0000    692.6580      5.8325    111.1671
  1341.0000      0.0000    695.1808      5.9754    106.5946
  1341.2500      0.0000    700.3765      6.1114    106.6230
  1341.5000      0.0000    702.5475      6.2334    108.1892
  1341.7500      0.0000    698.1840      6.3430    108.9391
  1342.0000      0.0000    688.5663      6.4451    108.5380
  1342.2500      0.0000    677.9035      6.5378    108.2109
  1342.5000      0.0000    669.6663      6.6092    109.2510
  1342.7500      0.0000    664.7758      6.6443    111.7922
  1343.0000      0.0000    662.3648      6.6380    114.6882
  1343.2500      0.0000    661.2722      6.5976    116.5482
  1343.5000      0.0000    660.7718      6.5353    116.9799
  1343.7500      0.0000    660.5624      6.4615    116.6715
  1344.0000      0.0000    660.5565      6.3828    116.3240
  1344.2500      0.0000    660.7419      6.3006    116.0142
  1344.5000      0.0000    661.1021      6.2084    115.7411
  1344.7500      0.0000    661.5834      6.1006    115.7528
  1345.0000      0.0000    662.1629      5.9855    115.6866
  1345.2500      0.0000    663.0624      5.8858    113.9207
  1345.5000      0.0000    665.0530      5.8174    108.7767
  1345.7500      0.0000    669.5548      5.7737    100.3760
  1346.0000      0.0000    678.0485      5.7346     90.6254
  1346.2500      0.0000    690.7781      5.6917     81.4850
  1346.5000      0.0000    705.9347      5.6575     73.9046
  1346.7500      0.0000    720.5312      5.6477     68.0877
  1347.0000      0.0000    732.1473      5.6569     63.8712
  1347.2500      0.0000    739.6526      5.6555     60.9007
  1347.5000      0.0000    742.8871      5.6163     59.0815
  1347.7500      0.0000    742.6276      5.5438     58.8691
  1348.0000      0.0000    740.7517      5.4727     60.7503
  1348.2500      0.0000    739.5540      5.4375     64.4825
  1348.5000      0.0000    740.4569      5.4462     69.0666
  1348.7500      0.0000    743.2311      5.4810     73.3501
  1349.0000      0.0000    746.2280      5.5175     76.4919
  1349.2500      0.0000    747.4595      5.5398     77.9138
  1349.5000      0.0000    745.9447      5.5465     77.1839
  1349.7500      0.0000    742.3262      5.5492     74.2886
  1350.0000      0.0000    738.2313      5.5647     70.0416
  1350.2500      0.0000    735.0314      5.6025     66.0050
  1350.5000      0.0000    733.1451      5.6544     63.8836
  1350.7500      0.0000    732.2284      5.6973     64.8944
  1351.0000      0.0000    731.7473      5.7110     69.7046
  1351.2500      0.0000    731.3438      5.6962     78.8284
  1351.5000      0.0000    730.7631      5.6718     92.4844
  1351.7500      0.0000    729.3423      5.6545    109.6171
  1352.0000      0.0000    725.2128      5.6441    127.6174
  1352.2500      0.0000    714.8506      5.6250    143.7174
  1352.5000      0.0000    694.2696      5.5797    156.4607
  1352.7500      0.0000    662.5173      5.5048    165.5342
  1353.0000      0.0000    625.1741      5.4206    170.7469
  1353.2500      0.0000    593.6351      5.3620    171.6894
  1353.5000      0.0000    579.2944      5.3540    168.1502
  1353.7500      0.0000    587.1564      5.3942    160.6033
  1354.0000      0.0000    613.5492      5.4617    150.4331
  1354.2500      0.0000    648.4755      5.5380    139.7101
  1354.5000      0.0000    680.5788      5.6185    130.4870
  1354.7500      0.0000    702.2635      5.7091    124.0133
  1355.0000      0.0000    712.3445      5.8180    120.4239
  1355.2500      0.0000    714.9315      5.9493    118.8602
  1355.5000      0.0000    715.6982      6.0950    117.9525
  1355.7500      0.0000    718.1230      6.2335    116.7518
  1356.0000      0.0000    722.0934      6.3425    115.5725
  1356.2500      0.0000    725.2944      6.4198    115.6717
  1356.5000      0.0000    725.3347      6.4895    117.9424
  1356.7500      0.0000    720.8292      6.5829    122.1431
  1357.0000      0.0000    711.8765      6.7129    127.3776
  1357.2500      0.0000    700.7450      6.8640    132.7353
  1357.5000      0.0000    691.7375      7.0068    137.1329
  1357.7500      0.0000    688.9698      7.1200    139.1790
  1358.0000      0.0000    693.1720      7.1962    138.0322
  1358.2500      0.0000    700.6439      7.2261    134.3937
  1358.5000      0.0000    705.8595      7.1882    130.2706
  1358.7500      0.0000    705.3879      7.0627    127.8969
  1359.0000      0.0000    699.4057      6.8557    129.0855
  1359.2500      0.0000    690.2202      6.6055    134.9927
  1359.5000      0.0000    680.3669      6.3615    145.3264
  1359.7500      0.0000    671.8360      6.1569    157.3808
  1360.0000      0.0000    665.7029      5.9933    166.7344
  1360.2500      0.0000    661.7926      5.8431    170.0039
  1360.5000      0.0000    658.8582      5.6634    167.2729
  1360.7500      0.0000    655.4779      5.4302    161.7648
  1361.0000      0.0000    651.3656      5.1810    157.2618
  1361.2500      0.0000    648.5938      5.0047    155.7057
  1361.5000      0.0000    651.2382      4.9538    156.4646
  1361.7500      0.0000    662.2897      4.9755    157.2276
  1362.0000      0.0000    679.9073      4.9710    155.8830
  1362.2500      0.0000    697.4585      4.9027    152.1844
  1362.5000      2.0000    708.4744      4.8017    147.9110
  1362.7500     -2.0000    711.8053      4.6985    145.4345
  1363.0000     -2.0000    711.8369      4.5964    146.0656
  1363.2500      2.0000    713.9157      4.5043    149.5771
  1363.5000      0.0000    718.9973      4.4618    154.7604
  1363.7500      0.0000    721.8932      4.5249    160.0424
  1364.0000      0.0000    714.9644      4.7133    163.8424
  1364.2500      0.0000    694.1194      4.9574    165.1128
  1364.5000      0.0000    661.7960      5.1165    163.9928
  1364.7500      0.0000    625.7776      5.0917    161.6900
  1365.0000      0.0000    595.8973      4.9168    159.3363
  1365.2500      0.0000    579.7099      4.7186    156.8584
  1365.5000      0.0000    578.5515      4.5993    153.0022
  1365.7500      0.0000    587.6404      4.5750    146.4546
