~Version Information
VERS.                      2.0: CWLS Log ASCII Standard - VERSION 2.0
WRAP.                       NO: One line per depth step
~Well Information Block
STRT.FT               768.0000: 
STOP.FT              2635.5000: 
STEP.FT                 0.1000: 
NULL.                -999.2500: 
COMP.          Pioneer Natural Resources: COMPANY
WELL.               Zink 44-10: WELL
FLD.           Purgatoire River: FIELD
LOC.           548' FSL & 473' FEL: LOCATION
PROV.                 Colorado: PROVINCE
CNTY.               Las Animas: COUNTRY
SRVC.                Patterson: SERVICE COMPANY
DATE.          Tue May 31 07:05:25 2005: LOG DATE
UWI.           05 071 08380 00: UNIQUE WELL ID
~Curve Information Block
DEPT.FT            0 000 00 00: Depth
DCAL.in                       : CDL Caliper
RHOB.g/cc                     : CDL Bulk Density
RHOC.g/cc                     : CDL Density Correction
DPOR.pu                       : CDL Density Porosity
GR.GAPI                       : Gamma Ray
NPOR.pu                       : Neutron Porosity
~Parameter Information Block
~A  Depth       DCAL        RHOB        RHOC        DPOR         GR         NPOR    
# ...
  2496.0000      7.8951      2.6195      0.1119      1.8482    101.5226     23.4308
  2496.1000      7.8951      2.6206      0.0944      1.7839    107.1049     22.6908
  2496.2000      7.8951      2.6134      0.0890      2.2191    113.6834     21.3636
  2496.3000      7.9336      2.6035      0.1217      2.8154    116.8658     21.1981
  2496.4000      7.9336      2.5950      0.0767      3.3338    117.6357     22.4989
  2496.5000      7.9092      2.5961      0.1166      3.2695    116.1566     23.9284
  2496.6000      7.9092      2.6072      0.0885      2.5916    112.6097     24.4621
  2496.7000      7.9092      2.6248      0.1268      1.5256    111.2832     24.1345
  2496.8000      7.9037      2.6362      0.1483      0.8382    113.6186     22.9508
  2496.9000      7.9037      2.6307      0.1563      1.1698    117.0619     21.5164
  2497.0000      7.9076      2.6202      0.0971      1.8065    118.5538     20.8424
  2497.1000      7.9076      2.6159      0.1253      2.0647    115.2013     20.7185
  2497.2000      7.9076      2.6077      0.1269      2.5638    111.0783     20.3852
  2497.3000      7.9193      2.5914      0.1107      3.5545    111.3667     20.0981
  2497.4000      7.9193      2.5870      0.0747      3.8188    114.1111     20.1776
  2497.5000      7.9074      2.6105      0.1087      2.3955    116.1298     19.8554
  2497.6000      7.9074      2.6479      0.1545      0.1273    115.5994     19.0681
  2497.7000      7.9074      2.6736      0.1645     -1.4316    113.1324     18.6688
  2497.8000      7.8880      2.6812      0.1890     -1.8929    112.1218     18.6436
  2497.9000      7.8880      2.6866      0.1466     -2.2190    110.4271     18.7877
  2498.0000      7.8102      2.7016      0.1896     -3.1289    105.2464     19.2898
  2498.1000      7.8102      2.7168      0.1734     -4.0471    100.8175     20.1040
  2498.2000      7.8102      2.7196      0.1956     -4.2183    100.6439     20.7486
  2498.3000      7.7895      2.7082      0.1831     -3.5287    103.4173     21.1754
  2498.4000      7.7895      2.6883      0.1356     -2.3240    106.0682     21.3850
  2498.5000      7.8046      2.6606      0.1224     -0.6432    104.9674     20.9950
  2498.6000      7.8046      2.6281      0.0398      1.3259     98.2747     20.5725
  2498.7000      7.8046      2.6072      0.1103      2.5957     89.6173     20.7623
  2498.8000      7.8401      2.5970      0.1033      3.2103     85.4649     20.8460
  2498.9000      7.8401      2.5843      0.0657      3.9810     86.3596     20.3101
  2499.0000      7.8488      2.5728      0.0493      4.6761     89.2529     19.6794
  2499.1000      7.8488      2.5735      0.0608      4.6377     95.3099     19.5453
  2499.2000      7.8488      2.5823      0.0987      4.1020    101.9232     19.9585
  2499.3000      7.8487      2.5955      0.0520      3.3046    103.6069     20.4771
  2499.4000      7.8487      2.6160      0.1008      2.0632    101.1340     20.6513
  2499.5000      7.8457      2.6346      0.0821      0.9360     96.7310     20.4421
  2499.6000      7.8457      2.6488      0.0903      0.0716     92.2909     19.8159
  2499.7000      7.8457      2.6624      0.1100     -0.7495     88.4522     19.0775
  2499.8000      7.8631      2.6638      0.1109     -0.8357     83.4393     18.9711
  2499.9000      7.8631      2.6495      0.0680      0.0325     77.5900     19.3684
  2500.0000      7.8797      2.6324      0.0956      1.0646     73.0896     19.4964
  2500.1000      7.8797      2.6205      0.0676      1.7879     70.3153     19.1891
  2500.2000      7.8797      2.6212      0.0232      1.7429     66.7148     18.4740
  2500.3000      7.8763      2.6366      0.1024      0.8110     61.7289     17.6399
  2500.4000      7.8763      2.6497      0.0852      0.0200     58.2941     17.0557
  2500.5000      7.8928      2.6535      0.0820     -0.2147     56.4658     16.2240
  2500.6000      7.8928      2.6514      0.1095     -0.0851     54.2400     14.9969
  2500.7000      7.8928      2.6370      0.0753      0.7874     53.4645     14.0202
  2500.8000      7.9099      2.6158      0.0325      2.0738     55.9865     13.5443
  2500.9000      7.9099      2.6039      0.0558      2.7933     60.7944     13.7530
  2501.0000      7.8878      2.5960      0.0996      3.2728     66.1152     14.4117
  2501.1000      7.8878      2.5803      0.0497      4.2245     70.9389     14.7557
  2501.2000      7.8878      2.5676      0.0250      4.9933     73.9565     14.7279
  2501.3000      7.8783      2.5717      0.0218      4.7448     73.4884     14.9809
  2501.4000      7.8783      2.5860      0.0697      3.8796     71.4658     15.5755
  2501.5000      7.8709      2.5935      0.0541      3.4270     70.1885     15.8175
  2501.6000      7.8709      2.5976      0.0219      3.1786     68.2209     15.6437
  2501.7000      7.8709      2.6174      0.0134      1.9751     66.4391     15.4869
  2501.8000      7.8811      2.6483      0.0443      0.1039     67.7152     15.5076
  2501.9000      7.8811      2.6622      0.0806     -0.7424     72.2752     15.9670
  2502.0000      7.8966      2.6522      0.0536     -0.1363     78.4081     16.9724
  2502.1000      7.8966      2.6388      0.0906      0.6767     82.0626     17.8129
  2502.2000      7.8966      2.6315      0.0787      1.1204     81.2961     17.7453
  2502.3000      7.9284      2.6222      0.1089      1.6853     78.8920     17.3385
  2502.4000      7.9284      2.6076      0.0345      2.5693     77.0381     17.3867
  2502.5000      7.9182      2.5960     -0.0187      3.2755     75.9629     17.4972
  2502.6000      7.9182      2.5912      0.0588      3.5663     76.3578     17.2451
  2502.7000      7.9182      2.5863      0.0422      3.8625     79.8052     17.3826
  2502.8000      7.9163      2.5759      0.0130      4.4909     84.1255     18.6047
  2502.9000      7.9163      2.5612      0.0132      5.3794     87.2226     20.1313
  2503.0000      7.9175      2.5474     -0.0052      6.2163     90.6689     20.9672
  2503.1000      7.9175      2.5395      0.0051      6.6969     92.6447     21.2215
  2503.2000      7.9175      2.5360      0.0340      6.9084     90.1530     21.0391
  2503.3000      7.9223      2.5351      0.0291      6.9617     84.1353     20.2032
  2503.4000      7.9223      2.5453      0.0193      6.3446     78.3664     19.1923
  2503.5000      7.9129      2.5723      0.0689      4.7064     77.8363     18.5198
  2503.6000      7.9129      2.6014      0.1254      2.9438     80.3639     18.2350
  2503.7000      7.9129      2.6211      0.1191      1.7526     78.6817     18.5098
  2503.8000      7.8864      2.6352      0.0879      0.8940     73.8465     19.0501
  2503.9000      7.8864      2.6419      0.0502      0.4883     71.9146     18.9875
  2504.0000      7.8933      2.6392      0.0582      0.6519     74.1220     18.2907
  2504.1000      7.8933      2.6271      0.1303      1.3891     78.8462     17.7447
  2504.2000      7.8933      2.6073      0.0462      2.5852     83.9218     17.3947
  2504.3000      7.9114      2.5960      0.0400      3.2700     87.2982     17.1749
  2504.4000      7.9114      2.5962      0.0602      3.2582     88.4158     17.6782
  2504.5000      7.9242      2.5936      0.0529      3.4166     86.1778     18.3551
  2504.6000      7.9242      2.5880      0.0776      3.7564     80.2713     17.9186
  2504.7000      7.9242      2.5902      0.0695      3.6229     73.4933     17.2198
  2504.8000      7.9247      2.6019      0.0375      2.9154     69.3337     17.6641
  2504.9000      7.9247      2.6186      0.0606      1.9038     69.5328     18.4575
  2505.0000      7.9243      2.6353      0.0571      0.8900     71.3791     18.3279
  2505.1000      7.9243      2.6446      0.0876      0.3289     69.3968     17.6683
  2505.2000      7.9243      2.6452      0.0663      0.2901     62.5971     17.1901
  2505.3000      7.9224      2.6458      0.1066      0.2524     55.2597     16.9901
  2505.4000      7.9224      2.6491      0.0804      0.0553     52.3153     16.8654
  2505.5000      7.9253      2.6505      0.0914     -0.0332     54.6256     16.7100
