~Version Information
VERS.                      2.0: CWLS Log ASCII Standard - VERSION 2.0
WRAP.                       NO: One line per depth step
~Well Information Block
STRT.FT               259.0000: 
STOP.FT              2379.0000: 
STEP.FT                 0.2500: 
NULL.                -999.2500: 
COMP.          Pioneer Natural Resources: COMPANY
WELL.          Foothills 12-36: WELL
FLD.           Purgatoire River: FIELD
LOC.           2450' FNL & 201' FWL: LOCATION
PROV.                 Colorado: PROVINCE
CNTY.               Las Animas: COUNTRY
SRVC.                Patterson: SERVICE COMPANY
DATE.          Thu Apr 21 09:19:57 2005: LOG DATE
UWI.           05 071 08339 00: UNIQUE WELL ID
~Curve Information Block
DEPT.FT            0 000 00 00: Depth
DCAL.in                       : CDL Caliper
RHOB.g/cc                     : CDL Bulk Density
RHOC.g/cc                     : CDL Density Correction
DPOR.pu                       : CDL Density Porosity
GR.GAPI                       : Gamma Ray
NPOR.pu                       : Neutron Porosity
~Parameter Information Block
~A  Depth       DCAL        RHOB        RHOC        DPOR         GR         NPOR    
# ...
  1651.0000      8.7553      2.5166     -0.0121      8.0847    101.8430     24.2878
  1651.2500      8.2766      2.5413      0.0683      6.5862     96.9311     25.4932
  1651.5000      7.9548      2.5315      0.0059      7.1806     91.6770     25.0883
  1651.7500      7.8280      2.5371     -0.0463      6.8406     85.9570     24.7803
  1652.0000      7.7627      2.6354      0.0735      0.8850     78.0892     22.9838
  1652.2500      7.7319      2.6707      0.0687     -1.2519     76.1936     21.0557
  1652.5000      7.7301      2.6544     -0.0016     -0.2674     77.3220     24.0969
  1652.7500      7.7500      2.6141     -0.0138      2.1748     73.6514     24.4939
  1653.0000      7.7738      2.6260      0.0641      1.4536     78.0813     23.3880
  1653.2500      7.7926      2.6127      0.0006      2.2609     70.9580     22.1050
  1653.5000      7.8037      2.5898     -0.0221      3.6464     78.3759     24.7921
  1653.7500      7.8063      2.5661      0.0217      5.0863     80.6037     23.8552
  1654.0000      7.8060      2.5198     -0.0156      7.8915     73.8845     23.5306
  1654.2500      7.7960      2.5746      0.0600      4.5675     79.4590     23.6889
  1654.5000      7.7766      2.5556     -0.0238      5.7190     74.7168     24.0446
  1654.7500      7.7599      2.5261      0.0374      7.5100     71.4112     23.0864
  1655.0000      7.7407      2.5179      0.0246      8.0070     74.9918     20.9683
  1655.2500      7.7215      2.5517      0.0536      5.9571     83.0187     21.2014
  1655.5000      7.7095      2.5305      0.0326      7.2415     97.9434     24.3178
  1655.7500      7.7013      2.5299      0.0761      7.2772     99.3279     23.3199
  1656.0000      7.6983      2.5679      0.0694      4.9769     94.6964     24.9737
  1656.2500      7.7009      2.5874      0.0702      3.7934     85.6307     24.7619
  1656.5000      7.7028      2.6133      0.0866      2.2239     94.8948     24.6839
  1656.7500      7.7086      2.5858      0.0457      3.8923    108.2842     25.3841
  1657.0000      7.7210      2.5675      0.0274      4.9988    121.6902     25.4815
  1657.2500      7.7329      2.5081     -0.0304      8.5996    128.9428     25.3984
  1657.5000      7.7562      2.5078      0.0263      8.6171    122.1988     27.4402
  1657.7500      7.7998      2.5209      0.0475      7.8265    117.8522     26.9264
  1658.0000      7.8456      2.5561      0.0663      5.6882    134.0123     27.0242
  1658.2500      7.8844      2.5189      0.0417      7.9448    119.8221     28.8325
  1658.5000      7.8900      2.5116      0.0129      8.3883    116.4466     28.1230
  1658.7500      7.8669      2.4957      0.0089      9.3525    120.3693     26.5747
  1659.0000      7.8502      2.4005     -0.0605     15.1210    117.1545     27.9024
  1659.2500      7.8522      2.3968     -0.0203     15.3465    123.3908     27.6022
  1659.5000      7.8549      2.5003      0.0681      9.0752    115.0268     27.3944
  1659.7500      7.8538      2.4996      0.0635      9.1150    116.3323     27.0874
  1660.0000      7.8718      2.5152      0.0377      8.1724    101.7074     25.6891
  1660.2500      7.9112      2.5495      0.0733      6.0890     97.4021     25.1041
  1660.5000      7.9215      2.5719      0.0987      4.7343     91.1086     25.9442
  1660.7500      7.8713      2.5357      0.0559      6.9254     89.7275     24.4009
  1661.0000      7.8123      2.5366      0.0079      6.8752     88.5246     22.7988
  1661.2500      7.7707      2.5537      0.0360      5.8375     80.2413     21.3206
  1661.5000      7.7372      2.6213      0.1297      1.7401     79.4281     23.1069
  1661.7500      7.7189      2.6329      0.1105      1.0356     84.8617     24.6815
  1662.0000      7.7102      2.5690      0.0690      4.9062     90.9823     24.7704
  1662.2500      7.7092      2.5228     -0.0019      7.7076    107.5858     23.3673
  1662.5000      7.7177      2.5254      0.0119      7.5512    120.3982     23.9892
  1662.7500      7.7323      2.5665      0.1380      5.0615    121.6149     24.9627
  1663.0000      7.7494      2.5802      0.0729      4.2287    125.7601     23.6504
  1663.2500      7.7659      2.5430      0.0488      6.4826    126.7676     25.7425
  1663.5000      7.7853      2.5385      0.0436      6.7585    121.0645     26.4491
  1663.7500      7.8114      2.5409      0.0485      6.6114    121.1689     25.7120
  1664.0000      7.8262      2.5665      0.0568      5.0608     95.6483     25.2540
  1664.2500      7.8124      2.5717      0.0610      4.7478     85.7323     24.7181
  1664.5000      7.7908      2.5836      0.0389      4.0237     78.4419     22.7524
  1664.7500      7.7766      2.5591     -0.0125      5.5117     65.3957     23.0589
  1665.0000      7.7646      2.6093     -0.0049      2.4638     64.6500     23.8974
  1665.2500      7.7595      2.6522      0.0474     -0.1313     68.0227     22.7055
  1665.5000      7.7645      2.6459      0.0383      0.2474     66.0655     21.5027
  1665.7500      7.7750      2.5835      0.0308      4.0309     64.0529     22.0036
  1666.0000      7.7825      2.5284     -0.0229      7.3691     55.2214     22.9306
  1666.2500      7.7852      2.5327      0.0051      7.1081     54.0345     20.5683
  1666.5000      7.7767      2.5596      0.0290      5.4782     60.8080     18.4594
  1666.7500      7.7584      2.5369      0.0168      6.8564     67.8987     19.7840
  1667.0000      7.7475      2.5237      0.0051      7.6563     67.2445     21.6492
  1667.2500      7.7394      2.5563      0.0899      5.6764     69.2982     20.0006
  1667.5000      7.7252      2.5653      0.0901      5.1336     63.0304     20.1216
  1667.7500      7.7177      2.5603      0.0117      5.4365     61.7788     20.0584
  1668.0000      7.7204      2.6036      0.0431      2.8124     60.0296     22.2556
  1668.2500      7.7245      2.5752      0.0584      4.5350     57.6331     19.6409
  1668.5000      7.7265      2.5267     -0.0009      7.4708     59.3640     18.4815
  1668.7500      7.7295      2.5410      0.0881      6.6053     67.7143     19.4660
  1669.0000      7.7349      2.5401     -0.0033      6.6584     76.9975     20.6226
  1669.2500      7.7394      2.5270      0.0137      7.4544     84.9958     20.9147
  1669.5000      7.7451      2.4926     -0.0211      9.5381    109.3568     22.3323
  1669.7500      7.7640      2.4814      0.0019     10.2209    118.6674     23.4221
  1670.0000      7.8064      2.5251      0.0964      7.5712    108.9412     25.9910
  1670.2500      7.8481      2.5173      0.0269      8.0449    100.8184     26.7444
  1670.5000      7.8456      2.5184      0.0271      7.9765     92.7761     24.7799
  1670.7500      7.8043      2.5072      0.0192      8.6559     97.9768     25.9063
  1671.0000      7.7691      2.5035      0.0411      8.8806    122.0103     24.3492
  1671.2500      7.7595      2.4790      0.0135     10.3645    122.8420     25.2762
  1671.5000      7.7644      2.4630      0.0317     11.3322    124.4686     25.4952
  1671.7500      7.7765      2.5378      0.1442      6.7988    123.5314     25.2215
  1672.0000      7.7918      2.5223      0.1021      7.7395    118.9102     27.2656
  1672.2500      7.8010      2.4970      0.0602      9.2714    119.0562     26.9871
  1672.5000      7.8070      2.4655      0.0026     11.1843    133.9927     27.7110
  1672.7500      7.8154      2.4671      0.0427     11.0842    141.9250     29.0045
  1673.0000      7.8304      2.4050      0.0484     14.8466    129.4371     28.4972
  1673.2500      7.8705      2.3969      0.1616     15.3401    129.1057     28.7021
  1673.5000      7.9210      2.3797      0.0766     16.3824    128.7211     28.9689
  1673.7500      7.9235      2.4708      0.2148     10.8578    124.1340     28.3091
  1674.0000      7.9141      2.6916      0.4566     -2.5186    113.5833     27.4243
  1674.2500      7.9616      2.6982      0.2736     -2.9184    104.7465     27.2013
  1674.5000      8.0002      2.6459      0.1766      0.2472     95.0138     26.2056
  1674.7500      7.9479      2.5394     -0.0306      6.7040     98.2092     26.5320
