~Version Information
VERS.                      2.0: CWLS Log ASCII Standard - VERSION 2.0
WRAP.                       NO: One line per depth step
~Well Information Block
STRT.FT               964.0000: 
STOP.FT              2440.0000: 
STEP.FT                 0.2500: 
NULL.                -999.2500: 
COMP.          Petrogulf Corporation: COMPANY
WELL.              Hand 8-44 V: WELL
FLD.           Purgatorie River: FIELD
LOC.           1076' FEL & 820' FSL: LOCATION
CNTY.               Las Animas: COUNTY
SRVC.                         : SERVICE COMPANY
DATE.          Fri Nov 21 11:54:17 2003: LOG DATE
UWI.                          : UNIQUE WELL ID
STAT.                 Colorado: STATE
~Curve Information Block
DEPT.FT            0 000 00 00: Depth
SP.mV                         : IEL Spontaneous Potential
DIR.Ohm-m                     : IEL Induction Resistivity
GR.GAPI                       : Gamma Ray
~Parameter Information Block
~A  Depth        SP         DIR          GR     
# ...
  1047.5000     -3.9125     10.8156    138.6615
  1047.7500     -3.9062     11.1818    139.3460
  1048.0000     -3.8979     11.6407    142.9706
  1048.2500     -3.8874     12.1862    145.8035
  1048.5000     -3.8755     12.8076    147.9806
  1048.7500     -3.8640     13.4942    146.9501
  1049.0000     -3.8551     14.2394    141.5506
  1049.2500     -3.8508     15.0437    136.2876
  1049.5000     -3.8532     15.9115    127.7987
  1049.7500     -3.8628     16.8400    122.1628
  1050.0000     -3.8790     17.8040    113.0147
  1050.2500     -3.8996     18.7429    105.9808
  1050.5000     -3.9218     19.5675     94.5663
  1050.7500     -3.9429     20.1889     87.3856
  1051.0000     -3.9621     20.5551     78.9704
  1051.2500     -3.9809     20.6664     75.4930
  1051.5000     -4.0032     20.5620     73.5150
  1051.7500     -4.0327     20.2955     73.8208
  1052.0000     -4.0714     19.9223     75.1517
  1052.2500     -4.1187     19.4966     75.9445
  1052.5000     -4.1727     19.0698     77.5014
  1052.7500     -4.2324     18.6810     79.9659
  1053.0000     -4.2994     18.3439     87.5755
  1053.2500     -4.3781     18.0460     95.3131
  1053.5000     -4.4752     17.7624    109.3696
  1053.7500     -4.5970     17.4751    118.9286
  1054.0000     -4.7449     17.1829    130.7129
  1054.2500     -4.9092     16.8968    135.4411
  1054.5000     -5.0670     16.6289    137.1012
  1054.7500     -5.1881     16.3813    135.5105
  1055.0000     -5.2468     16.1398    131.8946
  1055.2500     -5.2326     15.8735    129.8819
  1055.5000     -5.1523     15.5459    127.7299
  1055.7500     -5.0239     15.1380    126.3668
  1056.0000     -4.8678     14.6688    123.7938
  1056.2500     -4.7015     14.1915    121.8138
  1056.5000     -4.5387     13.7663    119.0126
  1056.7500     -4.3903     13.4318    117.5337
  1057.0000     -4.2648     13.1942    116.3162
  1057.2500     -4.1666     13.0325    116.6047
  1057.5000     -4.0948     12.9100    119.6299
  1057.7500     -4.0447     12.7855    123.5827
  1058.0000     -4.0101     12.6233    131.4231
  1058.2500     -3.9852     12.4024    136.6245
  1058.5000     -3.9657     12.1228    141.9100
  1058.7500     -3.9487     11.8058    142.8287
  1059.0000     -3.9339     11.4865    140.3250
  1059.2500     -3.9222     11.2034    136.9866
  1059.5000     -3.9153     10.9892    131.7453
  1059.7500     -3.9137     10.8649    129.1715
  1060.0000     -3.9161     10.8380    127.3492
  1060.2500     -3.9197     10.9026    127.3314
  1060.5000     -3.9209     11.0404    128.7682
  1060.7500     -3.9171     11.2220    130.7238
  1061.0000     -3.9077     11.4096    135.2683
  1061.2500     -3.8936     11.5627    139.1818
  1061.5000     -3.8764     11.6477    145.2262
  1061.7500     -3.8578     11.6485    148.2765
  1062.0000     -3.8402     11.5705    149.5757
  1062.2500     -3.8264     11.4360    147.8136
  1062.5000     -3.8192     11.2738    141.8539
  1062.7500     -3.8199     11.1113    136.5289
  1063.0000     -3.8281     10.9725    128.2032
  1063.2500     -3.8420     10.8761    123.3954
  1063.5000     -3.8597     10.8288    118.5291
  1063.7500     -3.8799     10.8170    117.0744
  1064.0000     -3.9011     10.8063    117.2460
  1064.2500     -3.9220     10.7544    118.6554
  1064.5000     -3.9410     10.6321    122.2882
  1064.7500     -3.9570     10.4366    125.3153
  1065.0000     -3.9693     10.1881    129.7346
  1065.2500     -3.9782      9.9162    132.0725
  1065.5000     -3.9847      9.6471    134.3237
  1065.7500     -3.9904      9.3978    135.1332
  1066.0000     -3.9966      9.1771    136.0584
  1066.2500     -4.0038      8.9880    137.0373
  1066.5000     -4.0118      8.8304    139.5332
  1066.7500     -4.0198      8.7017    141.6416
  1067.0000     -4.0268      8.5972    144.4338
  1067.2500     -4.0319      8.5112    145.4386
  1067.5000     -4.0344      8.4395    145.1642
  1067.7500     -4.0341      8.3808    143.9372
  1068.0000     -4.0317      8.3371    141.3476
  1068.2500     -4.0292      8.3112    139.7185
  1068.5000     -4.0292      8.3049    138.2221
  1068.7500     -4.0342      8.3162    137.9253
  1069.0000     -4.0462      8.3396    137.7494
  1069.2500     -4.0670      8.3666    137.2231
  1069.5000     -4.0990      8.3901    135.8812
  1069.7500     -4.1441      8.4069    135.4138
  1070.0000     -4.2026      8.4179    136.5983
  1070.2500     -4.2707      8.4262    138.4496
  1070.5000     -4.3387      8.4341    140.9974
  1070.7500     -4.3911      8.4417    141.5002
  1071.0000     -4.4108      8.4470    140.1692
  1071.2500     -4.3874      8.4468    138.5549
  1071.5000     -4.3248      8.4360    136.2581
  1071.7500     -4.2404      8.4087    134.9023
  1072.0000     -4.1571      8.3607    132.2765
  1072.2500     -4.0921      8.2934    129.6862
  1072.5000     -4.0509      8.2145    124.8511
  1072.7500     -4.0285      8.1342    121.6556
  1073.0000     -4.0156      8.0612    117.9506
  1073.2500     -4.0050      7.9999    116.5438
  1073.5000     -3.9938      7.9509    116.2147
  1073.7500     -3.9822      7.9125    117.1135
  1074.0000     -3.9713      7.8811    119.8070
  1074.2500     -3.9618      7.8523    122.2510
  1074.5000     -3.9536      7.8245    126.3566
  1074.7500     -3.9464      7.8014    129.0477
  1075.0000     -3.9399      7.7925    132.5806
  1075.2500     -3.9339      7.8085    134.4328
  1075.5000     -3.9283      7.8570    136.1344
  1075.7500     -3.9225      7.9409    136.3917
  1076.0000     -3.9161      8.0603    135.6692
  1076.2500     -3.9095      8.2159    134.8923
  1076.5000     -3.9033      8.4091    133.8222
  1076.7500     -3.8985      8.6402    132.9973
  1077.0000     -3.8953      8.9051    131.0106
  1077.2500     -3.8937      9.1946    129.2462
  1077.5000     -3.8936      9.4965    126.5317
  1077.7500     -3.8958      9.8001    124.7113
  1078.0000     -3.9006     10.0998    121.2553
  1078.2500     -3.9083     10.3947    118.1087
  1078.5000     -3.9179     10.6857    112.3404
  1078.7500     -3.9278     10.9712    108.2822
  1079.0000     -3.9366     11.2444    102.7096
  1079.2500     -3.9437     11.4927     99.7308
  1079.5000     -3.9491     11.6998     97.1085
  1079.7500     -3.9527     11.8491     97.0335
  1080.0000     -3.9537     11.9286     99.4288
  1080.2500     -3.9508     11.9364    101.9226
  1080.5000     -3.9432     11.8831    105.1449
  1080.7500     -3.9314     11.7891    106.4009
  1081.0000     -3.9170     11.6776    107.4775
  1081.2500     -3.9014     11.5679    108.2935
  1081.5000     -3.8852     11.4728    110.2854
  1081.7500     -3.8681     11.4011    112.1662
  1082.0000     -3.8495     11.3598    115.7852
  1082.2500     -3.8304     11.3527    118.7484
  1082.5000     -3.8128     11.3750    123.8757
  1082.7500     -3.7983     11.4106    127.4263
  1083.0000     -3.7871     11.4367    132.0177
  1083.2500     -3.7775     11.4379    134.0128
  1083.5000     -3.7681     11.4212    134.9653
  1083.7500     -3.7584     11.4175    134.4702
  1084.0000     -3.7492     11.4666    132.7696
  1084.2500     -3.7423     11.5966    131.1627
  1084.5000     -3.7379     11.8119    127.7888
  1084.7500     -3.7345     12.0939    124.8571
  1085.0000     -3.7285     12.4105    120.1058
  1085.2500     -3.7155     12.7272    117.3491
  1085.5000     -3.6924     13.0128    114.6500
  1085.7500     -3.6588     13.2393    113.8010
  1086.0000     -3.6190     13.3812    112.7285
  1086.2500     -3.5818     13.4218    110.8229
  1086.5000     -3.5593     13.3620    104.1380
  1086.7500     -3.5611     13.2258     96.9757
  1087.0000     -3.5887     13.0524     84.1204
  1087.2500     -3.6342     12.8805     75.9413
  1087.5000     -3.6851     12.7325     67.0430
  1087.7500     -3.7311     12.6089     64.4115
  1088.0000     -3.7682     12.4958     66.0582
  1088.2500     -3.7979     12.3777     70.6096
  1088.5000     -3.8231     12.2490     81.2488
  1088.7500     -3.8453     12.1133     89.6441
  1089.0000     -3.8641     11.9735    101.6834
