~Version Information
VERS.                      2.0: CWLS Log ASCII Standard - VERSION 2.0
WRAP.                       NO: One line per depth step
~Well Information Block
STRT.FT                17.7500: 
STOP.FT              1139.0000: 
STEP.FT                 0.2500: 
NULL.                -999.2500: 
COMP.          El Paso E&P Company L.P.: COMPANY
WELL.              VPR "ST" 38: WELL
FLD.           Purgatorie River: FIELD
LOC.           687' FNL & 2121' FEL: LOCATION
CNTY.               Las Animas: COUNTY
SRVC.          Superior Well Services: SERVICE COMPANY
DATE.          Sat Oct 13 22-40-21 2007: LOG DATE
UWI.           05-071-08357-00: UNIQUE WELL ID
STAT.                       CO: STATE
~Curve Information Block
DEPT.FT            0 000 00 00: Depth
CCL.                          : Casing Collar Locator
TT3.usec                      : CBL 3' Travel Time
AMP3.mV                       : CBL 3' Amplitude
GR.GAPI                       : Gamma Ray
~Parameter Information Block
~A  Depth       CCL         TT3         AMP3         GR     
# ...
   520.2500      0.0000    786.8746      4.8204    144.5966
   520.5000      0.0000    785.9876      4.8437    144.5285
   520.7500      0.0000    784.4053      4.8731    148.1564
   521.0000      0.0000    782.6223      4.9148    152.5234
   521.2500      0.0000    782.4846      4.9580    159.7227
   521.5000      0.0000    786.7567      4.9774    163.1148
   521.7500      0.0000    796.8223      4.9539    163.8355
   522.0000      0.0000    810.2026      4.8947    161.2082
   522.2500      0.0000    820.8621      4.8318    154.0411
   522.5000      0.0000    823.0287      4.8010    148.7596
   522.7500      0.0000    815.1860      4.8204    143.4074
   523.0000      0.0000    800.3253      4.8816    142.8023
   523.2500      0.0000    782.6013      4.9562    145.8061
   523.5000      0.0000    763.7698      5.0103    148.6568
   523.7500      0.0000    741.9789      5.0182    150.3874
   524.0000      0.0000    713.4344      4.9697    148.1759
   524.2500      0.0000    676.2834      4.8707    139.1911
   524.5000      0.0000    634.3320      4.7387    130.5081
   524.7500      0.0000    597.0787      4.5945    116.7054
   525.0000      0.0000    574.7791      4.4567    108.5917
   525.2500      0.0000    571.8708      4.3385     99.1641
   525.5000      0.0000    583.8277      4.2478     94.9210
   525.7500      0.0000    600.0782      4.1883     92.7725
   526.0000      0.0000    611.3774      4.1621     95.0934
   526.2500      0.0000    615.6046      4.1723    104.4552
   526.5000      0.0000    616.4070      4.2223    113.4051
   526.7500      0.0000    616.4342      4.3120    127.3252
   527.0000      0.0000    613.2956      4.4363    134.9399
   527.2500      0.0000    602.8307      4.5882    142.4100
   527.5000      0.0000    584.9199      4.7617    145.4158
   527.7500      0.0000    564.4694      4.9515    148.5700
   528.0000      0.0000    547.2073      5.1499    149.1618
   528.2500      0.0000    535.7903      5.3470    144.1732
   528.5000      0.0000    529.5419      5.5279    135.7041
   528.7500      0.0000    526.4398      5.6716    118.0169
   529.0000      0.0000    524.7294      5.7546    106.4032
   529.2500      0.0000    523.2925      5.7639     93.9914
   529.5000      0.0000    521.2929      5.7078     89.4174
   529.7500      0.0000    517.9268      5.6118     85.1274
   530.0000      0.0000    512.8365      5.5019     81.9303
   530.2500      0.0000    506.8875      5.3896     75.3742
   530.5000      0.0000    502.1242      5.2732     70.4347
   530.7500      0.0000    500.2932      5.1519     63.7630
   531.0000      0.0000    501.4533      5.0374     60.3970
   531.2500      0.0000    504.5647      4.9474     57.1154
   531.5000      0.0000    509.2025      4.8904     55.7615
   531.7500      0.0000    515.9162      4.8607     54.1138
   532.0000      0.0000    524.9051      4.8493     52.9247
   532.2500      0.0000    534.7927      4.8524     50.8785
   532.5000      0.0000    542.7333      4.8678     49.4726
   532.7500      0.0000    545.8596      4.8895     47.9020
   533.0000      0.0000    543.2036      4.9111     47.7033
   533.2500      0.0000    536.4904      4.9333     49.0150
   533.5000      0.0000    528.9337      4.9645     50.5995
   533.7500      0.0000    523.2431      5.0105     53.1109
   534.0000      0.0000    520.8608      5.0670     54.6272
   534.2500      0.0000    522.6849      5.1222     56.5276
   534.5000      0.0000    529.7799      5.1673     57.3102
   534.7500      0.0000    542.6791      5.2016     57.4664
   535.0000      0.0000    559.5402      5.2277     57.2167
   535.2500      0.0000    575.4059      5.2432     57.4155
   535.5000      0.0000    584.8950      5.2422     58.2885
   535.7500      0.0000    587.2214      5.2233     60.5868
   536.0000      0.0000    588.5447      5.1916     62.7973
   536.2500      0.0000    598.1867      5.1534     67.7855
   536.5000      0.0000    621.5533      5.1123     72.5273
   536.7500      0.0000    655.8134      5.0705     81.6455
   537.0000      0.0000    691.2665      5.0299     88.9702
   537.2500      0.0000    716.9105      4.9899    101.6081
   537.5000      0.0000    727.1751      4.9492    110.2493
   537.7500      0.0000    726.0283      4.9115    120.6072
   538.0000      0.0000    723.8006      4.8886    124.5653
   538.2500      0.0000    727.8646      4.8972    127.1062
   538.5000      0.0000    737.1876      4.9529    128.3784
   538.7500      0.0000    746.4336      5.0656    131.8945
   539.0000      0.0000    752.4003      5.2381    135.4184
   539.2500      0.0000    755.1171      5.4650    142.1808
   539.5000      0.0000    755.7222      5.7266    147.8625
   539.7500      0.0000    756.2264      5.9722    157.8636
   540.0000      0.0000    760.5477      6.1255    164.3457
   540.2500      0.0000    772.7568      6.1348    171.2715
   540.5000      0.0000    792.3453      6.0172    173.2945
   540.7500      0.0000    812.9271      5.8358    172.4791
   541.0000      0.0000    827.9268      5.6423    169.5811
   541.2500      2.0000    835.8463      5.4570    162.7172
   541.5000     -2.0000    837.7192      5.2885    157.7549
   541.7500     -2.0000    833.0238      5.1462    151.4281
   542.0000      0.0000    822.0795      5.0329    147.3918
   542.2500      0.0000    809.3895      4.9378    139.1109
   542.5000      0.0000    800.3976      4.8423    131.7613
   542.7500      0.0000    796.3900      4.7298    120.6740
   543.0000      0.0000    794.5200      4.5947    115.5836
   543.2500      0.0000    790.4342      4.4464    114.2865
   543.5000      0.0000    778.5947      4.3056    117.9573
   543.7500      0.0000    752.3439      4.1931    127.9876
   544.0000      0.0000    707.9669      4.1224    135.2966
   544.2500      0.0000    650.6296      4.0970    144.1164
   544.5000      0.0000    594.9180      4.1126    148.3815
   544.7500      0.0000    557.8570      4.1623    153.1717
   545.0000      0.0000    550.4326      4.2402    154.8767
   545.2500      0.0000    573.4292      4.3377    152.9394
   545.5000      0.0000    617.4698      4.4337    147.9996
   545.7500      0.0000    666.4691      4.4994    137.0625
   546.0000      0.0000    704.8135      4.5189    129.5051
   546.2500      0.0000    724.5709      4.5048    119.9844
   546.5000      0.0000    726.4729      4.4863    114.9253
   546.7500      0.0000    714.7798      4.4829    109.2178
   547.0000      0.0000    693.2104      4.4941    107.2677
   547.2500      0.0000    666.4269      4.5099    107.8933
   547.5000      0.0000    643.0545      4.5266    109.9576
   547.7500      0.0000    633.3824      4.5486    112.8182
   548.0000      0.0000    641.7092      4.5770    113.4043
   548.2500      0.0000    661.6157      4.5976    112.3605
   548.5000      0.0000    680.2932      4.5858    111.1554
   548.7500      0.0000    687.4913      4.5257    109.6286
   549.0000      0.0000    680.8556      4.4242    108.9866
   549.2500      0.0000    665.8318      4.3048    108.8946
   549.5000      0.0000    652.4131      4.1870    109.8190
   549.7500      0.0000    649.5967      4.0773    112.8832
   550.0000      0.0000    659.8054      3.9752    115.1282
   550.2500      0.0000    678.0759      3.8847    115.6925
   550.5000      0.0000    696.7230      3.8163    112.8962
   550.7500      0.0000    710.3142      3.7791    105.1004
   551.0000      0.0000    717.0375      3.7725     99.7919
   551.2500      0.0000    717.5593      3.7872     95.1769
   551.5000      0.0000    713.4226      3.8140     94.9842
   551.7500      0.0000    706.0204      3.8514     98.0219
   552.0000      0.0000    696.9587      3.9044    101.1950
   552.2500      0.0000    690.2462      3.9777    106.4685
   552.5000      0.0000    693.1081      4.0689    110.4992
   552.7500      0.0000    711.5638      4.1660    118.4066
   553.0000      0.0000    742.9464      4.2517    124.9851
   553.2500      0.0000    774.1081      4.3115    135.2497
   553.5000      0.0000    789.7794      4.3410    141.0963
