~Version Information
VERS.                      2.0: CWLS Log ASCII Standard - VERSION 2.0
WRAP.                       NO: One line per depth step
~Well Information Block
STRT.FT               425.0000: 
STOP.FT              2461.0000: 
STEP.FT                 0.1000: 
NULL.                -999.2500: 
COMP.          Evergreen Operating Corporation: COMPANY
WELL.              Nomad 32-10: WELL
FLD.           Purgatorie River: FIELD
LOC.           2281' FNL & 1585' FEL: LOCATION
PROV.                 Colorado: PROVINCE
CNTY.               Las Animas: COUNTRY
SRVC.                Patterson: SERVICE COMPANY
DATE.          Thu Aug 12 11:13:52 2004: LOG DATE
UWI.           05 071 08127 00: UNIQUE WELL ID
~Curve Information Block
DEPT.FT            0 000 00 00: Depth
DCAL.in                       : CDL Caliper
RHOB.g/cc                     : CDL Bulk Density
RHOC.g/cc                     : CDL Density Correction
DPOR.pu                       : CDL Density Porosity
NPOR.pu                       : Neutron Porosity
GR.GAPI                       : Gamma Ray
~Parameter Information Block
~A  Depth       DCAL        RHOB        RHOC        DPOR        NPOR         GR     
# ...
  1490.6000      8.0052      2.7169      0.0703     -4.0574     18.8524     77.8880
  1490.7000      8.0052      2.7236      0.0408     -4.4596     18.8479     83.5486
  1490.8000      8.0008      2.7292      0.0826     -4.8028     19.5448     87.3468
  1490.9000      8.0008      2.7111      0.0661     -3.7024     20.5438     84.6035
  1491.0000      7.9909      2.6760      0.0549     -1.5787     21.4524     78.9774
  1491.1000      7.9909      2.6431      0.0216      0.4188     21.6609     77.1285
  1491.2000      7.9909      2.6273      0.0125      1.3764     20.8902     80.0957
  1491.3000      7.9960      2.6339      0.0221      0.9739     19.7297     82.5561
  1491.4000      7.9960      2.6496      0.0576      0.0257     19.0051     80.6697
  1491.5000      8.0021      2.6497      0.0599      0.0163     19.0087     77.1017
  1491.6000      8.0021      2.6272      0.0159      1.3837     19.3246     77.3971
  1491.7000      8.0021      2.6082     -0.0183      2.5323     19.6154     79.0690
  1491.8000      7.9940      2.6208      0.0174      1.7703     20.0518     76.2000
  1491.9000      7.9940      2.6549      0.0624     -0.2966     20.5874     70.2691
  1492.0000      7.9973      2.6764      0.0869     -1.6021     21.0377     66.0068
  1492.1000      7.9973      2.6685      0.0641     -1.1205     21.0321     65.0056
  1492.2000      7.9973      2.6430      0.0381      0.4269     20.5677     67.4615
  1492.3000      8.0124      2.6231      0.0154      1.6296     20.3210     73.1855
  1492.4000      8.0124      2.6220      0.0407      1.6966     20.1532     78.6317
  1492.5000      8.0254      2.6283      0.0541      1.3170     19.8097     79.4240
  1492.6000      8.0254      2.6282      0.0521      1.3240     19.8323     74.9234
  1492.7000      8.0254      2.6277      0.0219      1.3513     20.1002     69.1143
  1492.8000      8.0263      2.6345      0.0637      0.9411     20.2685     66.1520
  1492.9000      8.0263      2.6503     -0.0118     -0.0195     20.3016     64.2935
  1493.0000      8.0239      2.6755      0.0867     -1.5456     19.9857     60.8492
  1493.1000      8.0239      2.6967      0.0530     -2.8326     19.6948     58.8226
  1493.2000      8.0239      2.7060      0.0364     -3.3934     19.9870     63.6483
  1493.3000      8.0383      2.7067      0.0425     -3.4365     20.4854     71.3100
  1493.4000      8.0383      2.7077      0.0346     -3.4952     20.6619     73.6465
  1493.5000      8.0263      2.7159      0.0396     -3.9942     20.4460     71.0737
  1493.6000      8.0263      2.7217      0.0764     -4.3448     19.8627     67.1835
  1493.7000      8.0263      2.7139      0.0376     -3.8750     19.0122     64.7583
  1493.8000      8.0250      2.6934      0.0432     -2.6321     18.2763     64.9924
  1493.9000      8.0250      2.6698     -0.0094     -1.2007     17.9698     65.3519
  1494.0000      8.0341      2.6625     -0.0250     -0.7588     17.8162     66.1999
  1494.1000      8.0341      2.6752      0.0090     -1.5295     17.7106     70.5301
  1494.2000      8.0341      2.6967     -0.0087     -2.8308     17.8917     76.5636
  1494.3000      8.0206      2.7285      0.0372     -4.7599     17.9112     80.2948
  1494.4000      8.0206      2.7617      0.0802     -6.7690     17.4333     80.2596
  1494.5000      8.0190      2.7742      0.0211     -7.5265     16.5701     77.8256
  1494.6000      8.0190      2.7693      0.0372     -7.2330     15.5801     75.9422
  1494.7000      8.0190      2.7672      0.0443     -7.1033     15.1026     77.6430
  1494.8000      8.0219      2.7737      0.0415     -7.4972     15.1613     82.1179
  1494.9000      8.0219      2.7797      0.0197     -7.8613     15.1068     81.8566
  1495.0000      8.0231      2.7821      0.0264     -8.0032     14.7557     73.7696
  1495.1000      8.0231      2.7790      0.0654     -7.8206     14.6763     67.8189
  1495.2000      8.0231      2.7653      0.0475     -6.9854     14.9351     71.0918
  1495.3000      8.0176      2.7525      0.0294     -6.2114     14.6956     76.6010
  1495.4000      8.0176      2.7508      0.0540     -6.1093     13.8719     77.2854
  1495.5000      7.9880      2.7552      0.0147     -6.3739     13.2238     74.4769
  1495.6000      7.9880      2.7687      0.0217     -7.1935     13.0427     72.4914
  1495.7000      7.9880      2.7953      0.0451     -8.8090     13.1332     72.7665
  1495.8000      8.0216      2.8169      0.0799    -10.1138     13.2766     72.2980
  1495.9000      8.0216      2.8098      0.0636     -9.6835     13.2673     69.1103
  1496.0000      8.0185      2.7847      0.0260     -8.1638     13.1629     65.5430
  1496.1000      8.0185      2.7821     -0.0043     -8.0069     13.0493     63.4836
  1496.2000      8.0185      2.8209     -0.0037    -10.3596     12.6438     61.6814
  1496.3000      8.0184      2.8707      0.0982    -13.3760     12.1873     60.8704
  1496.4000      8.0184      2.8967      0.0654    -14.9517     12.3604     63.1985
  1496.5000      8.0235      2.9004      0.0688    -15.1741     12.9671     66.3897
  1496.6000      8.0235      2.8933      0.0623    -14.7436     13.2683     68.1119
  1496.7000      8.0235      2.8784      0.0588    -13.8414     13.3230     68.2189
  1496.8000      8.0090      2.8548      0.0577    -12.4137     13.5389     67.8409
  1496.9000      8.0090      2.8250      0.0181    -10.6087     13.9133     68.4993
  1497.0000      8.0216      2.8005      0.0226     -9.1204     14.2641     70.5349
  1497.1000      8.0216      2.7911      0.0214     -8.5544     14.2042     72.4434
  1497.2000      8.0216      2.7915      0.0480     -8.5742     13.7696     72.9673
  1497.3000      8.0116      2.7878      0.0533     -8.3525     13.6200     72.9857
  1497.4000      8.0116      2.7810     -0.0007     -7.9380     13.6830     73.4853
  1497.5000      8.0237      2.7832      0.0422     -8.0751     13.3807     75.0933
  1497.6000      8.0237      2.7912      0.0196     -8.5579     12.8211     76.4004
  1497.7000      8.0237      2.7942      0.0109     -8.7366     12.4765     77.5505
  1497.8000      8.0229      2.7875      0.0407     -8.3345     12.4248     81.2203
  1497.9000      8.0229      2.7737     -0.0131     -7.4957     12.7525     83.7182
  1498.0000      8.0106      2.7588      0.0057     -6.5945     13.8384     80.4915
  1498.1000      8.0106      2.7397      0.0283     -5.4351     15.4412     76.9451
  1498.2000      8.0106      2.7167     -0.0111     -4.0397     16.8836     78.0795
  1498.3000      8.0165      2.7007      0.0107     -3.0754     18.0504     79.6047
  1498.4000      8.0165      2.6945      0.0119     -2.6995     19.3335     78.7856
  1498.5000      8.0188      2.6936     -0.0037     -2.6438     20.7068     78.6711
  1498.6000      8.0188      2.6908      0.0199     -2.4752     21.3520     78.6196
  1498.7000      8.0188      2.6772      0.0191     -1.6474     21.1856     76.7219
  1498.8000      8.0209      2.6481      0.0151      0.1122     21.4958     76.2724
  1498.9000      8.0209      2.6108      0.0157      2.3773     22.8373     80.1292
  1499.0000      8.0158      2.5796      0.0172      4.2653     24.1746     86.8346
  1499.1000      8.0158      2.5616      0.0363      5.3555     24.7299     93.2492
  1499.2000      8.0158      2.5552      0.0071      5.7440     24.9407     99.4981
  1499.3000      8.0232      2.5599      0.0626      5.4623     25.4913    107.3477
  1499.4000      8.0232      2.5705      0.0734      4.8195     26.4483    119.0020
  1499.5000      8.0259      2.5753      0.0864      4.5263     27.1611    135.0422
  1499.6000      8.0259      2.5674      0.0742      5.0069     27.3544    148.3744
  1499.7000      8.0259      2.5490      0.1117      6.1238     27.4856    158.3007
  1499.8000      8.0509      2.5301      0.0643      7.2651     27.2778    167.5158
  1499.9000      8.0509      2.5274      0.0267      7.4284     26.0603    171.2913
  1500.0000      8.0545      2.5436      0.0583      6.4499     24.5010    173.9581
  1500.1000      8.0545      2.5591      0.0758      5.5106     23.9614    178.8535
