~Version Information
 VERS.                                  2.0 : CWLS LAS VERSION
 WRAP.                                   NO : WRAPING MODE
 SWARE .                 MController 2.5.0J : SOFTWARE VERSION
~Well Information
 WELL.            Rabbit Bush Federal 44-19 : WELL
 COMP.  Pioneer Natural Resources USA, Inc. : COMPANY
 FLD.                      Purgatoire River : FIELD
 LOC.              SE/SE  Sec 19 T32S  R66W : LOCATION
 DATE.                      8/24/06-8/25/06 : DATE(S) LOGGED
 SRVC.       BLANCO Geological Services LLC : SERVICE COMPANY
 STAT.                                   CO : STATE
 CNTY.                            Las Animas: COUNTY
 CTRY.                               U.S.A. : COUNTRY
 API.                       05-071-08149-00 : API NUMBER
 STRT.FT                             539.00 : START DEPTH
 STOP.FT                            2785.00 : STOP DEPTH
 STEP.FT                               1.00 : DEPTH INCREMENT
 NULL.                                -9999 : NULL VALUE
~Curve information
 DEPTH.FT                                   :
 ROP.MIN/FT                                 :
 GAS.UNITS                                  :
~ASCII Log data
# ...
       939.0         0.45          4.5 
       940.0         0.50          4.8 
       941.0         0.37          4.6 
       942.0         0.43          4.6 
       943.0         0.27          4.1 
       944.0         0.23          3.8 
       945.0         0.37          4.3 
       946.0         0.23          3.9 
       947.0         0.23          4.2 
       948.0         0.23          3.7 
       949.0         0.20          4.0 
       950.0         0.38          3.6 
       951.0         0.30          3.4 
       952.0         0.23          3.4 
       953.0         0.17          3.4 
       954.0         0.20          4.1 
       955.0         0.20          4.2 
       956.0         4.75          9.7 
       957.0         0.43          4.0 
       958.0         0.32          4.2 
       959.0         0.33          5.0 
       960.0         0.23          5.1 
       961.0         0.37          5.1 
       962.0         0.33          4.7 
       963.0         0.23          4.8 
       964.0         0.30          5.1 
       965.0         0.37          5.6 
       966.0         0.33          9.2 
       967.0         0.27         10.7 
       968.0         0.20          9.4 
       969.0         0.20          8.2 
       970.0         0.22          7.4 
       971.0         0.20          6.6 
       972.0         0.13          6.3 
       973.0         0.10          6.6 
       974.0         0.10          6.5 
       975.0         0.23          6.5 
       976.0         0.27          6.2 
       977.0         0.20          5.9 
       978.0         0.23          6.8 
       979.0         0.20          6.6 
       980.0         0.20          6.1 
       981.0         0.23          5.6 
       982.0         0.50          5.4 
       983.0         0.33          5.5 
       984.0         0.35          6.0 
       985.0         0.40          6.3 
       986.0         3.58         14.0 
       987.0         0.17          4.8 
       988.0         0.37          5.0 
       989.0         0.20          4.6 
       990.0         0.27          3.8 
       991.0         0.30          5.2 
       992.0         0.30          5.8 
       993.0         0.13          5.6 
       994.0         0.20          5.5 
       995.0         0.17          5.4 
       996.0         0.30          5.2 
       997.0         0.38          5.4 
       998.0         0.33          7.2 
       999.0         0.27          9.0 
      1000.0         0.30          8.8 
      1001.0         0.27          6.9 
      1002.0         0.40          5.6 
      1003.0         0.37          3.6 
      1004.0         0.30          4.0 
      1005.0         0.33          4.0 
      1006.0         0.30          4.0 
      1007.0         0.35          4.4 
      1008.0         0.33          4.4 
      1009.0         0.30          4.5 
      1010.0         0.37          4.8 
      1011.0         0.37          7.0 
      1012.0         0.30         11.8 
      1013.0         0.27         11.8 
      1014.0         0.23          9.8 
      1015.0         0.27          7.9 
      1016.0         2.18          5.7 
      1017.0         0.40          5.3 
      1018.0         0.23          5.1 
      1019.0         0.17          4.4 
      1020.0         0.17          4.4 
      1021.0         0.17          4.1 
      1022.0         0.23          5.0 
      1023.0         0.23          4.9 
      1024.0         0.27          4.6 
      1025.0         0.22          4.4 
      1026.0         0.27          4.1 
      1027.0         0.37          4.6 
      1028.0         0.37          4.0 
      1029.0         0.20          4.0 
      1030.0         0.33          3.9 
      1031.0         0.30          4.4 
      1032.0         0.30          4.1 
      1033.0         0.30          4.1 
      1034.0         0.30          4.1 
      1035.0         0.27          4.0 
      1036.0         0.27          4.2 
      1037.0         0.35          4.4 
      1038.0         0.33          5.3 
      1039.0         0.47          4.9 
      1040.0         0.27          4.1 
      1041.0         0.23          4.3 
      1042.0         0.20          3.8 
      1043.0         0.20          4.0 
      1044.0         0.17          3.2 
      1045.0         0.17          4.1 
      1046.0         4.87          9.5 
      1047.0         0.17          7.8 
      1048.0         0.20          7.5 
      1049.0         0.23          5.5 
      1050.0         0.13          5.2 
      1051.0         0.13          4.3 
      1052.0         0.10          5.2 
      1053.0         0.17          4.0 
      1054.0         0.30          4.6 
      1055.0         0.33          4.1 
      1056.0         0.37          4.2 
      1057.0         0.23          3.9 
      1058.0         0.33          4.0 
      1059.0         0.32          4.0 
      1060.0         0.30          4.9 
      1061.0         0.33          4.7 
      1062.0         0.30          4.5 
      1063.0         0.23          4.1 
      1064.0         0.17          3.6 
      1065.0         0.20          3.8 
      1066.0         0.17          4.3 
      1067.0         0.23          4.0 
      1068.0         0.17          3.6 
      1069.0         0.13          3.5 
      1070.0         0.20          3.5 
      1071.0         0.17          3.8 
      1072.0         0.20          3.2 
      1073.0         0.17          3.9 
      1074.0         0.13          3.6 
      1075.0         0.18          4.1 
      1076.0         2.63          8.0 
      1077.0         0.30          3.8 
      1078.0         0.32          4.5 
      1079.0         0.27          4.1 
      1080.0         0.27          4.1 
      1081.0         0.20          4.1 
      1082.0         0.27          7.2 
      1083.0         0.30          8.4 
      1084.0         0.27          9.8 
      1085.0         0.23          9.7 
      1086.0         0.27          9.9 
      1087.0         0.27          9.4 
      1088.0         0.13          7.9 
      1089.0         0.10          7.0 
      1090.0         0.13          7.3 
      1091.0         0.10          7.0 
      1092.0         0.13          6.2 
      1093.0         0.13          6.6 
      1094.0         0.13          5.5 
      1095.0         0.15          6.1 
      1096.0         0.10          5.0 
      1097.0         0.23          4.5 
      1098.0         0.20          3.8 
      1099.0         0.13          4.0 
      1100.0         0.17          4.0 
      1101.0         0.17          3.9 
      1102.0         0.20          3.4 
      1103.0         0.20          3.8 
      1104.0         0.17          3.7 
      1105.0         0.17          4.3 
      1106.0         3.52         15.4 
      1107.0         0.27          4.9 
      1108.0         0.23          4.7 
      1109.0         0.27          4.3 
      1110.0         0.30          4.5 
      1111.0         0.20          4.1 
      1112.0         0.25          4.2 
      1113.0         0.33          4.0 
      1114.0         0.20          3.6 
      1115.0         0.17          3.8 
      1116.0         0.20          3.4 
      1117.0         0.20          4.1 
      1118.0         0.20          4.1 
      1119.0         0.20          3.8 
      1120.0         0.17          3.2 
      1121.0         0.20          2.9 
      1122.0         0.17          2.8 
      1123.0         0.17          3.3 
      1124.0         0.20          2.5 
      1125.0         0.20          2.9 
      1126.0         0.13          2.1 
      1127.0         0.17          2.4 
      1128.0         0.10          2.6 
      1129.0         0.17          2.3 
      1130.0         0.15          2.5 
      1131.0         0.17          3.3 
      1132.0         0.20          3.4 
      1133.0         0.23          3.6 
      1134.0         0.27          4.0 
      1135.0         0.30          6.3 
      1136.0         3.62         15.0 
      1137.0         0.33          4.3 
      1138.0         0.27          4.0 
