~Version Information
VERS.                      2.0: CWLS Log ASCII Standard - VERSION 2.0
WRAP.                       NO: One line per depth step
~Well Information Block
STRT.FT               846.5000: 
STOP.FT              2610.0000: 
STEP.FT                 0.2500: 
NULL.                -999.2500: 
COMP.          Petrogulf Corporation: COMPANY
WELL.            Lavedure 7-44: WELL
FLD.           Purgatoire River: FIELD
LOC.           969' FSL & 501' FEL: LOCATION
PROV.                 Colorado: PROVINCE
CNTY.               Las Animas: COUNTRY
SRVC.                Patterson: SERVICE COMPANY
DATE.          Sun Dec 07 15:26:03 2003: LOG DATE
UWI.                          : UNIQUE WELL ID
~Curve Information Block
DEPT.FT            0 000 00 00: Depth
SP.mV                         : DIL Spontaneous Potential
RILD.Ohm-m                    : DIL Deep Resistivity
RILM.Ohm-m                    : DIL Medium Resistivity
RLL3.Ohm-m                    : DIL Shallow Resistivity
GR.GAPI                       : Gamma Ray
~Parameter Information Block
~A  Depth        SP         RILD        RILM        RLL3         GR     
# ...
  2134.5000   -394.9218     25.4513     27.4584     29.8683     47.5039
  2134.7500   -393.9911     25.4716     27.5718     29.5642     48.9578
  2135.0000   -392.8004     25.4834     27.6303     29.3260     50.1566
  2135.2500   -391.4595     25.5186     27.6587     29.2717     50.0630
  2135.5000   -390.1422     25.5865     27.6742     29.3914     48.8874
  2135.7500   -389.0209     25.6679     27.6738     29.5428     47.7215
  2136.0000   -388.2087     25.7202     27.6370     29.5466     45.7833
  2136.2500   -387.7343     25.6948     27.5432     29.3244     44.5333
  2136.5000   -387.5424     25.5671     27.3865     28.9371     43.0715
  2136.7500   -387.5153     25.3665     27.1745     28.4930     42.6191
  2137.0000   -387.5155     25.1761     26.9211     28.0647     43.0037
  2137.2500   -387.4359     25.0930     26.6513     27.7084     43.8707
  2137.5000   -387.2342     25.1766     26.4175     27.5154     45.4944
  2137.7500   -386.9335     25.4213     26.3011     27.5952     46.4839
  2138.0000   -386.5934     25.7645     26.3800     27.9992     47.6564
  2138.2500   -386.2699     26.1179     26.6804     28.6556     48.1856
  2138.5000   -385.9854     26.4023     27.1486     29.3695     48.4552
  2138.7500   -385.7280     26.5702     27.6677     29.9015     48.3767
  2139.0000   -385.4815     26.6141     28.1106     30.1060     48.4643
  2139.2500   -385.2628     26.5572     28.3941     30.0325     48.9486
  2139.5000   -385.1279     26.4366     28.4970     29.8691     50.1515
  2139.7500   -385.1298     26.2902     28.4428     29.7544     50.8672
  2140.0000   -385.2554     26.1545     28.2725     29.6478     51.1287
  2140.2500   -385.4043     26.0649     28.0255     29.3895     50.6241
  2140.5000   -385.4368     26.0504     27.7281     28.8658     49.1350
  2140.7500   -385.2449     26.1199     27.3875     28.1153     47.9379
  2141.0000   -384.7900     26.2521     26.9941     27.2974     46.1799
  2141.2500   -384.1090     26.3989     26.5373     26.5726     45.1313
  2141.5000   -383.3045     26.5058     26.0310     26.0140     43.7142
  2141.7500   -382.5137     26.5390     25.5346     25.6216     42.7127
  2142.0000   -381.8582     26.5009     25.1484     25.3930     40.9192
  2142.2500   -381.3973     26.4221     24.9754     25.3451     39.6659
  2142.5000   -381.1056     26.3386     25.0735     25.4752     38.2217
  2142.7500   -380.8871     26.2708     25.4265     25.7348     37.7380
  2143.0000   -380.6201     26.2189     25.9476     26.0431     37.7104
  2143.2500   -380.2122     26.1738     26.5136     26.3090     38.0627
  2143.5000   -379.6353     26.1348     27.0083     26.4708     38.9682
  2143.7500   -378.9267     26.1194     27.3535     26.5738     39.7154
  2144.0000   -378.1610     26.1553     27.5199     26.7822     40.8908
  2144.2500   -377.4135     26.2594     27.5231     27.2156     41.5682
  2144.5000   -376.7393     26.4234     27.4095     27.7497     41.9313
  2144.7500   -376.1675     26.6184     27.2395     28.0570     41.4447
  2145.0000   -375.6943     26.8175     27.0739     27.8895     39.7658
  2145.2500   -375.2792     27.0194     26.9735     27.2930     38.5706
  2145.5000   -374.8602     27.2527     26.9999     26.5427     37.6198
  2145.7500   -374.3832     27.5561     27.2129     25.9210     37.5913
  2146.0000   -373.8213     27.9468     27.6604     25.5796     37.7457
  2146.2500   -373.1806     28.4022     28.3662     25.5659     37.6190
  2146.5000   -372.4983     28.8690     29.3162     25.9138     37.0337
  2146.7500   -371.8306     29.2935     30.4439     26.6665     36.4491
  2147.0000   -371.2320     29.6450     31.6255     27.8004     35.1784
  2147.2500   -370.7394     29.9148     32.7093     29.1475     34.0251
  2147.5000   -370.3732     30.0970     33.5836     30.4331     32.2708
  2147.7500   -370.1432     30.1784     34.2304     31.4309     31.6098
  2148.0000   -370.0492     30.1442     34.7008     32.0921     32.0259
  2148.2500   -370.0715     29.9902     35.0219     32.5210     33.0421
  2148.5000   -370.1586     29.7235     35.1289     32.8490     34.4935
  2148.7500   -370.2226     29.3531     34.8857     33.1522     34.8832
  2149.0000   -370.1584     28.8856     34.1795     33.4255     34.9463
  2149.2500   -369.8799     28.3338     33.0058     33.5377     35.3738
  2149.5000   -369.3471     27.7299     31.4840     33.2019     37.6853
  2149.7500   -368.5706     27.1211     29.8065     32.0725     40.5798
  2150.0000   -367.6041     26.5435     28.1719     29.9751     46.7176
  2150.2500   -366.5341     25.9953     26.7402     27.1191     51.5313
  2150.5000   -365.4577     25.4354     25.6131     24.1045     58.6096
  2150.7500   -364.4537     24.8115     24.8284     21.6688     62.5422
  2151.0000   -363.5613     24.0937     24.3567     20.3507     66.5967
  2151.2500   -362.7678     23.2906     24.1025     20.3182     68.0886
  2151.5000   -362.0028     22.4421     23.9211     21.4122     69.2108
  2151.7500   -361.1499     21.6002     23.6594     23.2474     69.8271
  2152.0000   -360.0830     20.8136     23.2106     25.2607     71.1904
  2152.2500   -358.7138     20.1170     22.5504     26.7786     72.2816
  2152.5000   -357.0299     19.5253     21.7369     27.2141     73.8812
  2152.7500   -355.1104     19.0324     20.8786     26.3419     75.2588
  2153.0000   -353.1174     18.6146     20.0923     24.4346     78.9830
  2153.2500   -351.2617     18.2358     19.4691     22.1221     82.8434
  2153.5000   -349.7411     17.8513     19.0546     20.0849     89.6913
  2153.7500   -348.6728     17.4103     18.8408     18.8446     93.8461
  2154.0000   -348.0569     16.8634     18.7647     18.7756     97.6821
  2154.2500   -347.7965     16.1818     18.7106     20.2070     98.1382
  2154.5000   -347.7499     15.3779     18.5267     23.3465     96.1560
  2154.7500   -347.7819     14.5082     18.0704     27.8630     93.8710
  2155.0000   -347.7904     13.6495     17.2726     32.4086     90.1874
  2155.2500   -347.7107     12.8677     16.1804     34.8352     87.8486
  2155.5000   -347.5067     12.1996     14.9340     33.4905     84.9271
  2155.7500   -347.1655     11.6522     13.6953     28.6162     84.0190
  2156.0000   -346.6978     11.2128     12.5859     22.2899     85.7926
  2156.2500   -346.1412     10.8583     11.6686     16.8519     89.4489
  2156.5000   -345.5547     10.5607     10.9585     13.4582     97.1426
  2156.7500   -345.0073     10.2917     10.4421     11.9569    102.0200
  2157.0000   -344.5615     10.0284     10.0909     11.6425    106.9930
  2157.2500   -344.2495      9.7621      9.8678     11.8918    109.0139
  2157.5000   -344.0506      9.5017      9.7337     12.3322    111.7922
  2157.7500   -343.8907      9.2687      9.6552     12.7697    113.8657
  2158.0000   -343.6741      9.0865      9.6121     13.1108    116.2997
  2158.2500   -343.3260      8.9717      9.6000     13.3343    116.7139
  2158.5000   -342.8139      8.9323      9.6260     13.4822    115.1987
  2158.7500   -342.1510      8.9688      9.7017     13.6376    113.0304
  2159.0000   -341.3941      9.0772      9.8375     13.8765    108.7282
  2159.2500   -340.6306      9.2493     10.0401     14.2177    105.6997
  2159.5000   -339.9450      9.4726     10.3108     14.6303    102.1631
  2159.7500   -339.3770      9.7310     10.6445     15.1109    101.0819
  2160.0000   -338.8950     10.0085     11.0282     15.7323    101.3665
  2160.2500   -338.3982     10.2949     11.4411     16.5634    102.1988
  2160.5000   -337.7514     10.5873     11.8571     17.5243    103.1869
  2160.7500   -336.8397     10.8889     12.2520     18.3495    103.3069
  2161.0000   -335.6172     11.2048     12.6117     18.7365    102.6709
  2161.2500   -334.1302     11.5394     12.9383     18.5637    101.9042
  2161.5000   -332.5115     11.8928     13.2498     17.9992    100.6806
  2161.7500   -330.9487     12.2593     13.5711     17.4337     99.9742
  2162.0000   -329.6216     12.6270     13.9217     17.2785     99.0867
  2162.2500   -328.6292     12.9823     14.3050     17.7139     98.6210
