~Version Information
VERS.                      2.0: CWLS Log ASCII Standard - VERSION 2.0
WRAP.                       NO: One line per depth step
~Well Information Block
STRT.FT               375.0000: 
STOP.FT              2637.0000: 
STEP.FT                 0.1000: 
NULL.                -999.2500: 
COMP.          Pioneer Natural Resources: COMPANY
WELL.            Cortina 23-25: WELL
FLD.           Purgatoire River: FIELD
LOC.           2344' FWL & 2526' FSL----: LOCATION
PROV.                 Colorado: PROVINCE
CNTY.               Las Animas: COUNTRY
SRVC.                Patterson: SERVICE COMPANY
DATE.          Thu Mar 24 07:44:45 2005: LOG DATE
UWI.           05 071 08340 00: UNIQUE WELL ID
~Curve Information Block
DEPT.FT            0 000 00 00: Depth
DCAL.in                       : CDL Caliper
DPOR.pu                       : CDL Density Porosity
NPOR.pu                       : Neutron Porosity
RHOB.g/cc                     : CDL Bulk Density
RHOC.g/cc                     : CDL Density Correction
GR.GAPI                       : Gamma Ray
~Parameter Information Block
~A  Depth       DCAL        DPOR        NPOR        RHOB        RHOC         GR     
# ...
  1421.4000      7.8295      5.9265     17.8988      2.5522      0.0512     51.3641
  1421.5000      7.8304      5.8784     18.4893      2.5530      0.0355     52.3055
  1421.6000      7.8304      5.9228     18.9931      2.5523      0.0266     54.4199
  1421.7000      7.8304      5.9477     19.4940      2.5519      0.0595     56.3901
  1421.8000      7.8283      6.3134     20.2551      2.5458      0.0561     56.4460
  1421.9000      7.8283      7.0264     20.7917      2.5341      0.0577     54.4513
  1422.0000      7.8251      7.8985     20.8171      2.5197      0.0373     52.5513
  1422.1000      7.8251      8.3759     20.7019      2.5118      0.0449     54.2007
  1422.2000      7.8251      7.4761     20.4693      2.5266      0.0159     59.5963
  1422.3000      7.8248      5.1042     19.8772      2.5658      0.0529     65.2016
  1422.4000      7.8248      3.0750     19.3737      2.5993      0.1127     69.0661
  1422.5000      7.8273      3.0795     19.2592      2.5992      0.0855     71.9150
  1422.6000      7.8273      4.4890     19.1611      2.5759      0.0588     75.0358
  1422.7000      7.8273      5.8308     18.9170      2.5538      0.0179     76.4117
  1422.8000      7.8287      6.8558     18.5625      2.5369      0.0252     72.0269
  1422.9000      7.8287      7.8364     17.8683      2.5207      0.0413     65.8682
  1423.0000      7.8284      8.2267     17.4522      2.5143     -0.0111     64.6966
  1423.1000      7.8284      7.7570     18.2547      2.5220      0.0069     66.2184
  1423.2000      7.8284      7.2777     19.5459      2.5299      0.0334     65.2589
  1423.3000      7.8286      7.0207     19.8526      2.5342      0.0084     61.5209
  1423.4000      7.8286      6.0574     19.3909      2.5501      0.0145     58.8886
  1423.5000      7.8305      4.3123     19.0372      2.5788      0.0443     59.5731
  1423.6000      7.8305      2.7112     18.8848      2.6053      0.0332     60.9015
  1423.7000      7.8305      1.5745     18.7587      2.6240      0.0840     60.1196
  1423.8000      7.8356      0.7923     19.1122      2.6369      0.0952     59.9368
  1423.9000      7.8356      0.0597     20.1386      2.6490      0.0748     63.9560
  1424.0000      7.8401     -1.1233     20.8334      2.6685      0.0744     69.0100
  1424.1000      7.8401     -2.1873     20.5980      2.6861      0.1465     69.6594
  1424.2000      7.8401     -2.1137     20.2240      2.6849      0.0949     66.6411
  1424.3000      7.8362     -1.3975     20.2404      2.6731      0.0727     64.2750
  1424.4000      7.8362     -0.7588     20.1682      2.6625      0.0938     62.7403
  1424.5000      7.8308      0.0050     19.7640      2.6499      0.0987     59.5922
  1424.6000      7.8308      1.1479     19.2319      2.6311      0.1034     55.6054
  1424.7000      7.8308      2.3422     18.5079      2.6114      0.0324     52.8761
  1424.8000      7.8295      2.7627     17.7354      2.6044      0.0146     51.4175
  1424.9000      7.8295      2.3004     17.1394      2.6120      0.0307     51.5473
  1425.0000      7.8294      1.7143     16.8569      2.6217      0.0506     54.1029
  1425.1000      7.8294      1.6233     17.1797      2.6232      0.0454     57.3281
  1425.2000      7.8294      2.0025     18.0012      2.6170      0.0205     57.9151
  1425.3000      7.8297      2.5119     18.7867      2.6086      0.0404     56.8512
  1425.4000      7.8297      3.4335     19.2475      2.5933      0.0778     57.2206
  1425.5000      7.8294      4.6593     19.4701      2.5731      0.0151     57.6643
  1425.6000      7.8294      4.7429     19.5880      2.5717      0.0162     56.7391
  1425.7000      7.8294      3.0986     19.5603      2.5989      0.0656     56.3100
  1425.8000      7.8284      1.2381     19.2898      2.6296      0.1224     55.7710
  1425.9000      7.8284      0.5085     18.9989      2.6416      0.1038     53.7284
  1426.0000      7.8274      0.4633     19.2596      2.6424      0.0928     53.5574
  1426.1000      7.8274      0.3017     20.1520      2.6450      0.0858     56.8899
  1426.2000      7.8274     -0.3249     21.1210      2.6554      0.0933     57.4298
  1426.3000      7.8265     -1.4780     21.6795      2.6744      0.0826     52.7552
  1426.4000      7.8265     -2.6064     21.7105      2.6930      0.1117     51.3214
  1426.5000      7.8279     -3.0409     21.4291      2.7002      0.1107     55.4511
  1426.6000      7.8279     -2.6237     21.3043      2.6933      0.1046     57.8652
  1426.7000      7.8279     -1.4259     21.1065      2.6735      0.0605     57.0721
  1426.8000      7.8371      0.1225     20.1790      2.6480      0.0178     57.6284
  1426.9000      7.8371      1.0216     19.1749      2.6331      0.0376     59.7097
  1427.0000      7.8561      0.9744     19.1854      2.6339      0.0887     62.1702
  1427.1000      7.8561      0.7831     19.9821      2.6371      0.0567     67.5939
  1427.2000      7.8561      1.1668     20.3554      2.6307      0.0581     73.1667
  1427.3000      7.8758      2.0655     19.5787      2.6159      0.0542     72.6627
  1427.4000      7.8758      2.7903     18.3733      2.6040      0.0346     67.8228
  1427.5000      7.8925      3.3498     17.6939      2.5947      0.0745     65.4019
  1427.6000      7.8925      3.8759     17.5234      2.5860      0.0238     66.6764
  1427.7000      7.8925      3.8008     17.6099      2.5873      0.0499     65.9139
  1427.8000      7.9067      3.3335     17.9887      2.5950      0.0564     60.0856
  1427.9000      7.9067      3.1029     18.6298      2.5988      0.0260     55.9638
  1428.0000      7.9136      3.0476     19.3786      2.5997      0.0609     60.5560
  1428.1000      7.9136      2.5681     19.9418      2.6076      0.0462     69.1367
  1428.2000      7.9136      1.5949     20.0538      2.6237      0.0880     74.6835
  1428.3000      7.9148      1.0245     19.8398      2.6331      0.1100     77.6374
  1428.4000      7.9148      0.6766     19.4542      2.6388      0.0337     79.4096
  1428.5000      7.9148     -0.1087     18.8466      2.6518      0.0793     80.3673
  1428.6000      7.9148     -0.4535     18.6444      2.6575      0.0659     79.7549
  1428.7000      7.9148      0.3891     19.3589      2.6436      0.0767     76.3771
  1428.8000      7.9163      1.7795     20.1194      2.6206      0.0419     72.5038
  1428.9000      7.9163      2.4431     19.8574      2.6097      0.0488     71.8276
  1429.0000      7.9227      1.9364     18.7947      2.6181      0.0522     74.7634
  1429.1000      7.9227      0.4390     17.8484      2.6428      0.0144     78.3578
  1429.2000      7.9227     -1.3313     17.7512      2.6720      0.1018     82.0470
  1429.3000      7.9293     -1.5509     18.7400      2.6756      0.1035     88.0114
  1429.4000      7.9293      0.0741     20.3176      2.6488      0.0486     93.8726
  1429.5000      7.9282      1.7594     21.6454      2.6210      0.0275     94.8467
  1429.6000      7.9282      2.6944     22.4829      2.6055      0.0231     91.4875
  1429.7000      7.9282      3.5537     23.1469      2.5914      0.0366     92.0081
  1429.8000      7.9248      4.3616     23.6841      2.5780     -0.0121    100.6923
  1429.9000      7.9248      4.5235     23.6187      2.5754      0.0203    111.2916
  1430.0000      7.9251      4.7427     22.8568      2.5717      0.0694    116.9114
  1430.1000      7.9251      7.1512     22.2379      2.5320      0.0389    117.1270
  1430.2000      7.9251     13.2358     22.4564      2.4316      0.0043    117.0092
  1430.3000      7.9293     21.3704     23.5022      2.2974     -0.0538    121.9782
  1430.4000      7.9293     27.5478     24.9661      2.1955     -0.0912    130.5907
  1430.5000      7.9361     29.4835     26.3558      2.1635     -0.0779    137.8484
  1430.6000      7.9361     28.2724     27.3264      2.1835     -0.0705    141.3512
  1430.7000      7.9361     25.9401     27.3750      2.2220     -0.0546    141.4930
  1430.8000      7.9382     23.1992     26.3593      2.2672     -0.0148    141.2125
  1430.9000      7.9382     19.7296     25.2485      2.3245      0.0878    141.4573
