~Version Information
VERS.                      2.0: CWLS Log ASCII Standard - VERSION 2.0
WRAP.                       NO: One line per depth step
~Well Information Block
STRT.FT               240.0000: 
STOP.FT              1452.5000: 
STEP.FT                 0.1000: 
NULL.                -999.2500: 
COMP.          Petrogulf Corporation: COMPANY
WELL.          Robinson 15-12R: WELL
FLD.           Purgatorie River: FIELD
LOC.           1752' FNL & 561' FWL: LOCATION
PROV.                 Colorado: PROVINCE
CNTY.               Las Animas: COUNTRY
SRVC.                Patterson: SERVICE COMPANY
DATE.          Tue Sep 13 15:07:52 2005: LOG DATE
UWI.                          : UNIQUE WELL ID
~Curve Information Block
DEPT.FT            0 000 00 00: Depth
DCAL.in                       : CDL Caliper
RHOB.g/cc                     : CDL Bulk Density
RHOC.g/cc                     : CDL Density Correction
DPOR.pu                       : CDL Density Porosity
GR.GAPI                       : Gamma Ray
NPOR.pu                       : Neutron Porosity
~Parameter Information Block
~A  Depth       DCAL        RHOB        RHOC        DPOR         GR         NPOR    
# ...
   796.8000      8.2619      1.8777     -0.0302     46.8041    115.0444     32.3487
   796.9000      8.2619      1.7629     -0.0818     53.7637    103.9042     32.4377
   797.0000      8.2741      1.6563     -0.1072     60.2257     93.0590     32.9012
   797.1000      8.2741      1.5573     -0.0629     66.2261     82.4155     33.3619
   797.2000      8.2741      1.4511     -0.0949     72.6618     72.7401     33.6630
   797.3000      8.2912      1.3524     -0.1227     78.6403     63.9208     33.9039
   797.4000      8.2912      1.2927     -0.0971     82.2577     56.6252     34.1434
   797.5000      8.4807      1.2722     -0.0292     83.5041     50.6910     34.3721
   797.6000      8.4807      1.2714     -0.0088     83.5496     44.8997     34.4917
   797.7000      8.4807      1.2790     -0.0037     83.0895     39.4335     34.4356
   797.8000      8.5015      1.2894      0.0152     82.4598     35.8923     34.3543
   797.9000      8.5015      1.2984      0.0432     81.9129     34.1307     34.3720
   798.0000      8.4458      1.3062      0.0071     81.4425     32.3010     34.5007
   798.1000      8.4458      1.3114      0.0516     81.1245     29.5345     34.7046
   798.2000      8.4458      1.3100      0.0093     81.2095     26.8583     34.8151
   798.3000      8.5115      1.3060     -0.0070     81.4560     25.6076     34.6754
   798.4000      8.5115      1.3056     -0.0014     81.4781     25.9354     34.4695
   798.5000      8.4673      1.3112     -0.0272     81.1400     26.8287     34.5172
   798.6000      8.4673      1.3195      0.0042     80.6350     27.3103     34.6433
   798.7000      8.4673      1.3184      0.0442     80.7048     27.7388     34.4127
   798.8000      8.3718      1.3054     -0.0216     81.4904     29.0866     34.1146
   798.9000      8.3718      1.2968     -0.0318     82.0150     31.1978     34.2146
   799.0000      8.3329      1.2982     -0.0065     81.9263     32.1716     34.5519
   799.1000      8.3329      1.2956      0.0176     82.0868     31.0078     34.9075
   799.2000      8.3329      1.2806     -0.0281     82.9961     29.1826     35.0426
   799.3000      8.3360      1.2660     -0.0279     83.8815     28.6247     34.8210
   799.4000      8.3360      1.2649     -0.0246     83.9454     30.1827     34.6360
   799.5000      8.3490      1.2735      0.0146     83.4237     32.8130     34.7330
   799.6000      8.3490      1.2834     -0.0072     82.8266     35.3271     34.9544
   799.7000      8.3490      1.2966      0.0022     82.0227     37.4627     35.2102
   799.8000      8.3618      1.3158      0.0359     80.8610     38.8516     35.3311
   799.9000      8.3618      1.3367      0.0497     79.5911     40.9364     35.0392
   800.0000      8.4312      1.3579      0.0707     78.3103     45.4257     34.5589
   800.1000      8.4312      1.3801      0.0872     76.9659     50.9069     34.3405
   800.2000      8.4312      1.4046      0.0810     75.4767     54.8469     34.4050
   800.3000      8.2928      1.4364      0.0868     73.5525     56.9764     34.5637
   800.4000      8.2928      1.4792      0.0810     70.9602     59.4019     34.6683
   800.5000      8.2826      1.5340      0.0836     67.6367     64.2362     34.5169
   800.6000      8.2826      1.6042      0.0855     63.3795     72.1827     34.2220
   800.7000      8.2826      1.6849      0.1323     58.4903     81.1722     34.0266
   800.8000      8.3467      1.7581      0.1351     54.0537     87.9740     33.9925
   800.9000      8.3467      1.8186      0.1303     50.3885     91.9795     34.1626
   801.0000      8.4079      1.8714      0.1791     47.1903     96.7756     34.2027
   801.1000      8.4079      1.9111      0.1255     44.7838    104.5468     33.9314
   801.2000      8.4079      1.9357      0.0909     43.2882    110.6388     33.6073
   801.3000      8.2140      1.9471      0.1094     42.5990    111.2840     33.3144
   801.4000      8.2140      1.9345      0.0753     43.3650    109.2310     32.9733
   801.5000      8.1874      1.8893      0.0396     46.1023    108.6367     32.6465
   801.6000      8.1874      1.8260     -0.0314     49.9410    109.1399     32.5685
   801.7000      8.1874      1.7680      0.0110     53.4554    107.5809     32.6992
   801.8000      8.2131      1.7093      0.0447     57.0112    103.9479     32.7385
   801.9000      8.2131      1.6251     -0.0170     62.1142    100.0293     32.8153
   802.0000      8.2891      1.5249     -0.0775     68.1874     97.1034     33.1005
   802.1000      8.2891      1.4538     -0.1001     72.4953     94.9744     33.2346
   802.2000      8.2891      1.4476     -0.0359     72.8728     92.3683     33.1859
   802.3000      8.2822      1.5075      0.0762     69.2445     91.9022     33.2553
   802.4000      8.2822      1.6108      0.1303     62.9796     96.1183     33.5524
   802.5000      8.2937      1.7423      0.1653     55.0095    103.4190     33.9284
   802.6000      8.2937      1.8965      0.2106     45.6653    111.1650     33.9890
   802.7000      8.2937      2.0565      0.2347     35.9676    117.9836     33.6970
   802.8000      8.2517      2.2113      0.2400     26.5882    125.0820     33.3893
   802.9000      8.2517      2.3620      0.2826     17.4540    132.2654     33.1812
   803.0000      8.0912      2.4853      0.3337      9.9828    137.3010     33.1368
   803.1000      8.0912      2.5487      0.2693      6.1392    141.0337     33.0695
   803.2000      8.0912      2.5628      0.1500      5.2869    146.0450     32.5427
   803.3000      7.9727      2.5653      0.0792      5.1337    150.5723     31.6773
   803.4000      7.9727      2.5713      0.0993      4.7681    152.7374     31.0474
   803.5000      7.9625      2.5725      0.0595      4.6974    155.9324     30.7805
   803.6000      7.9625      2.5659      0.0718      5.0985    161.7213     30.5678
   803.7000      7.9625      2.5572      0.0538      5.6240    166.1566     30.2151
   803.8000      7.9724      2.5569      0.0322      5.6436    165.9807     29.6240
   803.9000      7.9724      2.5719      0.0218      4.7350    164.3513     28.8928
   804.0000      7.9771      2.5875      0.1087      3.7897    167.6884     28.2487
   804.1000      7.9771      2.5849      0.0809      3.9447    175.6480     27.5591
   804.2000      7.9771      2.5764      0.0242      4.4619    181.5169     26.6630
   804.3000      7.9860      2.5804      0.0376      4.2180    182.2980     25.9404
   804.4000      7.9860      2.5925      0.0195      3.4827    176.0114     25.7074
   804.5000      7.9773      2.6005      0.0771      3.0025    162.9774     25.6145
   804.6000      7.9773      2.6035      0.0334      2.8160    153.2028     25.4496
   804.7000      7.9773      2.6099      0.0433      2.4305    153.4045     25.2908
   804.8000      7.9928      2.6145      0.0586      2.1493    154.1101     24.8179
   804.9000      7.9928      2.6096      0.0733      2.4501    144.8520     24.0049
   805.0000      7.9969      2.6016      0.0532      2.9361    131.2728     23.2639
   805.1000      7.9969      2.6010      0.0636      2.9705    124.1952     22.3945
   805.2000      7.9969      2.6134      0.0939      2.2163    122.8584     21.2438
   805.3000      7.9670      2.6399      0.0947      0.6127    119.8404     20.3357
   805.4000      7.9670      2.6735      0.1215     -1.4260    115.0744     19.7693
   805.5000      7.9212      2.7019      0.1293     -3.1446    110.1484     18.9882
   805.6000      7.9212      2.7131      0.1680     -3.8237    103.8407     17.7754
   805.7000      7.9212      2.7080      0.1113     -3.5171     97.7868     16.4854
   805.8000      7.9169      2.6981      0.1440     -2.9132     94.2919     15.3804
   805.9000      7.9169      2.6877      0.0680     -2.2825     94.0584     14.3988
   806.0000      7.9276      2.6727      0.0773     -1.3732     95.7829     13.5266
   806.1000      7.9276      2.6382      0.0638      0.7175     96.2648     12.8380
   806.2000      7.9276      2.5839     -0.0083      4.0087     94.6437     12.5355
   806.3000      7.9326      2.5391      0.0154      6.7218     93.7998     12.9663
