~Version Information
VERS.                      2.0: CWLS Log ASCII Standard - VERSION 2.0
WRAP.                       NO: One line per depth step
~Well Information Block
STRT.FT               588.6000: 
STOP.FT              2281.0000: 
STEP.FT                 0.1000: 
NULL.                -999.2500: 
COMP.          Petrogulf Corporation: COMPANY
WELL.             State 16-41V: WELL
FLD.           Purgatorie River: FIELD
LOC.           335' FNL & 823' FEL: LOCATION
CNTY.               Las Animas: COUNTY
SRVC.                         : SERVICE COMPANY
DATE.          Tue Aug 02 07:31:25 2005: LOG DATE
UWI.                          : UNIQUE WELL ID
STAT.                 Colorado: STATE
~Curve Information Block
DEPT.FT            0 000 00 00: Depth
DCAL.in                       : CDL Caliper
RHOB.g/cc                     : CDL Bulk Density
RHOC.g/cc                     : CDL Density Correction
DPOR.pu                       : CDL Density Porosity
GR.GAPI                       : Gamma Ray
NPOR.pu                       : Neutron Porosity
~Parameter Information Block
~A  Depth       DCAL        RHOB        RHOC        DPOR         GR         NPOR    
# ...
  1692.6000      8.0721      2.5747      0.0876      4.5651     99.4955     24.8298
  1692.7000      8.0721      2.5711      0.1199      4.7809    104.4803     24.8563
  1692.8000      8.0709      2.5687      0.1424      4.9285    111.9803     24.9062
  1692.9000      8.0709      2.5622      0.1301      5.3235    117.5536     24.9751
  1693.0000      8.0828      2.5505      0.1048      6.0291    117.3010     25.0578
  1693.1000      8.0828      2.5373      0.1068      6.8308    113.6461     25.1478
  1693.2000      8.0828      2.5285      0.0918      7.3628    113.1312     25.2389
  1693.3000      8.0827      2.5388      0.0617      6.7379    117.6523     25.3255
  1693.4000      8.0827      2.5735      0.1413      4.6380    123.3762     25.4032
  1693.5000      8.1086      2.6079      0.1638      2.5497    125.2937     25.4697
  1693.6000      8.1086      2.6216      0.1438      1.7232    121.9371     25.5249
  1693.7000      8.1086      2.6195      0.1822      1.8468    117.0335     25.5707
  1693.8000      8.1219      2.6111      0.1473      2.3595    114.1208     25.6109
  1693.9000      8.1219      2.6001      0.1677      3.0266    112.9665     25.6499
  1694.0000      8.0969      2.5886      0.1451      3.7187    111.4961     25.6923
  1694.1000      8.0969      2.5824      0.0973      4.0953    111.2584     25.7413
  1694.2000      8.0969      2.5828      0.1214      4.0735    114.8793     25.7980
  1694.3000      8.0678      2.5853      0.0914      3.9201    119.7265     25.8606
  1694.4000      8.0678      2.5927      0.1049      3.4700    122.5906     25.9250
  1694.5000      8.0491      2.6073      0.1277      2.5853    123.7551     25.9843
  1694.6000      8.0491      2.6203      0.1083      1.8012    123.6895     26.0305
  1694.7000      8.0491      2.6194      0.1372      1.8530    123.6379     26.0549
  1694.8000      8.0574      2.6009      0.1284      2.9785    124.8990     26.0493
  1694.9000      8.0574      2.5758      0.0597      4.4986    125.6523     26.0063
  1695.0000      8.0541      2.5593      0.0679      5.4965    124.6599     25.9199
  1695.1000      8.0541      2.5520      0.0556      5.9378    124.6964     25.7844
  1695.2000      8.0541      2.5468      0.0482      6.2547    127.5983     25.5942
  1695.3000      8.0911      2.5410      0.0476      6.6046    128.5497     25.3421
  1695.4000      8.0911      2.5365      0.0211      6.8801    124.9104     25.0193
  1695.5000      8.1469      2.5373      0.0315      6.8330    122.8559     24.6149
  1695.6000      8.1469      2.5404      0.0693      6.6454    125.6951     24.1165
  1695.7000      8.1469      2.5357      0.0625      6.9281    128.0568     23.5111
  1695.8000      8.1714      2.5235      0.0159      7.6661    127.7737     22.7874
  1695.9000      8.1714      2.5074      0.0358      8.6445    127.1228     21.9371
  1696.0000      8.2045      2.4718      0.0452     10.8013    124.9737     20.9577
  1696.1000      8.2045      2.3969     -0.0296     15.3401    120.2416     19.8535
  1696.2000      8.2045      2.2751      0.0126     22.7193    114.5975     18.6372
  1696.3000      8.1888      2.1081     -0.0419     32.8412    110.7406     17.3302
  1696.4000      8.1888      1.9189     -0.1051     44.3079    108.7919     15.9629
  1696.5000      8.1931      1.7426     -0.1550     54.9909    104.0785     14.5727
  1696.6000      8.1931      1.5920     -0.1471     64.1216     93.6222     13.2026
  1696.7000      8.1931      1.4546     -0.1069     72.4467     81.4310     11.8968
  1696.8000      8.2303      1.3290     -0.0793     80.0614     72.9599     10.6951
  1696.9000      8.2303      1.2533     -0.0363     84.6471     67.7933      9.6235
  1697.0000      8.4118      1.2742      0.0794     83.3813     63.3347      8.7028
  1697.1000      8.4118      1.3673      0.2114     77.7390     59.5181      7.9505
  1697.2000      8.4118      1.4333      0.2969     73.7383     56.2734      7.3819
  1697.3000      8.5877      1.4155      0.2521     74.8188     52.5356      7.0105
  1697.4000      8.5877      1.3598      0.2603     78.1926     48.5786      6.8475
  1697.5000      9.4230      1.3268      0.2654     80.1949     45.5076      6.9008
  1697.6000      9.4230      1.3277      0.2723     80.1383     44.8081      7.1741
  1697.7000      9.4230      1.3465      0.3201     79.0017     47.5101      7.6663
  1697.8000      9.8757      1.3696      0.2795     77.6000     51.1940      8.3714
  1697.9000      9.8757      1.3982      0.2424     75.8637     53.7461      9.2781
  1698.0000      9.5518      1.4404      0.2218     73.3066     56.3500     10.3692
  1698.1000      9.5518      1.5012      0.2424     69.6235     60.0865     11.6203
  1698.2000      9.5518      1.5784      0.2606     64.9466     65.3498     12.9969
  1698.3000      9.0001      1.6622      0.2343     59.8683     71.7989     14.4462
  1698.4000      9.0001      1.7385      0.2570     55.2432     78.4017     15.9051
  1698.5000      8.8608      1.8015      0.2011     51.4227     84.8276     17.3143
  1698.6000      8.8608      1.8641      0.2121     47.6291     90.9600     18.6251
  1698.7000      8.8608      1.9416      0.2085     42.9319     95.4180     19.8034
  1698.8000      8.4500      2.0341      0.2084     37.3252     97.1304     20.8311
  1698.9000      8.4500      2.1245      0.1675     31.8498     98.5214     21.7043
  1699.0000      8.2315      2.1954      0.1091     27.5528    101.5307     22.4307
  1699.1000      8.2315      2.2521      0.1346     24.1176    103.7408     23.0253
  1699.2000      8.2315      2.3228      0.1308     19.8294    104.1694     23.5075
  1699.3000      8.2215      2.4221      0.3185     13.8103    104.8218     23.8976
  1699.4000      8.2215      2.5196      0.4386      7.9044    107.8302     24.2143
  1699.5000      8.2906      2.5806      0.4387      4.2069    113.7670     24.4733
  1699.6000      8.2906      2.6110      0.3820      2.3650    119.8551     24.6864
  1699.7000      8.2906      2.6355      0.3654      0.8781    124.2764     24.8615
  1699.8000      8.1910      2.6588      0.3521     -0.5320    125.0968     25.0032
  1699.9000      8.1910      2.6721      0.2670     -1.3391    119.2751     25.1137
  1700.0000      8.1672      2.6747      0.2219     -1.4967    110.3017     25.1939
  1700.1000      8.1672      2.6682      0.1935     -1.1055    104.6951     25.2448
  1700.2000      8.1672      2.6528      0.1847     -0.1694    103.4752     25.2684
  1700.3000      8.1379      2.6320      0.1648      1.0911    103.1839     25.2681
  1700.4000      8.1379      2.6130      0.1440      2.2420    102.2695     25.2491
  1700.5000      8.0516      2.6027      0.0932      2.8655    103.2759     25.2180
  1700.6000      8.0516      2.6042      0.1040      2.7746    106.9272     25.1819
  1700.7000      8.0516      2.6089      0.1375      2.4893    110.4697     25.1484
  1700.8000      8.0420      2.6048      0.1218      2.7415    112.8430     25.1241
  1700.9000      8.0420      2.5992      0.0374      3.0774    113.6845     25.1143
  1701.0000      8.0533      2.6060      0.0798      2.6650    114.3816     25.1226
  1701.1000      8.0533      2.6155      0.1129      2.0928    116.5986     25.1511
  1701.2000      8.0533      2.6125      0.1116      2.2727    117.7620     25.2000
  1701.3000      8.0431      2.5989      0.0691      3.0982    115.7122     25.2683
  1701.4000      8.0431      2.5845      0.0774      3.9706    111.7575     25.3541
  1701.5000      8.0515      2.5773      0.0226      4.4050    108.5241     25.4547
  1701.6000      8.0515      2.5819      0.0960      4.1242    108.4378     25.5673
  1701.7000      8.0515      2.5928      0.0914      3.4673    111.0233     25.6892
  1701.8000      8.0696      2.6010      0.0695      2.9722    113.2284     25.8176
  1701.9000      8.0696      2.6040      0.0393      2.7853    113.5018     25.9504
  1702.0000      8.0721      2.6027      0.0424      2.8684    114.2340     26.0857
  1702.1000      8.0721      2.5935      0.0773      3.4214    117.4340     26.2219
