~Version Information
VERS.                      2.0: CWLS Log ASCII Standard - VERSION 2.0
WRAP.                       NO: One line per depth step
~Well Information Block
STRT.FT               698.9000: 
STOP.FT              2459.5000: 
STEP.FT                 0.1000: 
NULL.                -999.2500: 
COMP.          Petrogulf Corporation: COMPANY
WELL.             State 16-23V: WELL
FLD.           Purgatorie River: FIELD
LOC.           2414' FSL & 2215' FWL: LOCATION
PROV.                 Colorado: PROVINCE
CNTY.               Las Animas: COUNTRY
SRVC.                         : SERVICE COMPANY
DATE.          Mon Jun 09 12:47:39 2003: LOG DATE
UWI.           05 071 07865 00: UNIQUE WELL ID
~Curve Information Block
DEPT.FT            0 000 00 00: Depth
SP.mV                         : DIL Spontaneous Potential
RILD.Ohm-m                    : DIL Deep Resistivity
RILM.Ohm-m                    : DIL Medium Resistivity
RLL3.Ohm-m                    : DIL Shallow Resistivity
GR.GAPI                       : Gamma Ray
~Parameter Information Block
~A  Depth        SP         RILD        RILM        RLL3         GR     
# ...
  2434.9000     10.3869     46.1874     39.7965     51.8721      0.0431
  2435.0000     10.2484     47.5356     41.1374     50.5946      0.0201
  2435.1000     10.2484     47.5356     41.1374     50.5946      0.0085
  2435.2000     10.2484     47.5356     41.1374     50.5946      0.0028
  2435.3000     10.1100     47.8490     41.8247     54.1963      0.0000
  2435.4000     10.1100     47.8490     41.8247     54.1963   -999.2500
  2435.5000      9.9674     47.1893     41.6989     61.5140   -999.2500
  2435.6000      9.9674     47.1893     41.6989     61.5140   -999.2500
  2435.7000      9.9674     47.1893     41.6989     61.5140   -999.2500
  2435.8000      9.8156     45.9567     40.8241     69.4635   -999.2500
  2435.9000      9.8156     45.9567     40.8241     69.4635   -999.2500
  2436.0000      9.6463     44.5798     39.4982     74.1539   -999.2500
  2436.1000      9.6463     44.5798     39.4982     74.1539   -999.2500
  2436.2000      9.6463     44.5798     39.4982     74.1539   -999.2500
  2436.3000      9.4663     43.2141     38.0812     73.1302   -999.2500
  2436.4000      9.4663     43.2141     38.0812     73.1302   -999.2500
  2436.5000      9.3058     41.8545     36.8170     67.3157   -999.2500
  2436.6000      9.3058     41.8545     36.8170     67.3157   -999.2500
  2436.7000      9.3058     41.8545     36.8170     67.3157   -999.2500
  2436.8000      9.1904     40.5988     35.7875     60.2121   -999.2500
  2436.9000      9.1904     40.5988     35.7875     60.2121   -999.2500
  2437.0000      9.1156     39.6540     34.9710     54.9408   -999.2500
  2437.1000      9.1156     39.6540     34.9710     54.9408   -999.2500
  2437.2000      9.1156     39.6540     34.9710     54.9408   -999.2500
  2437.3000      9.0643     39.1304     34.2949     52.3209   -999.2500
  2437.4000      9.0643     39.1304     34.2949     52.3209   -999.2500
  2437.5000      9.0270     38.9253     33.6488     51.2918   -999.2500
  2437.6000      9.0270     38.9253     33.6488     51.2918   -999.2500
  2437.7000      9.0270     38.9253     33.6488     51.2918   -999.2500
  2437.8000      8.9947     38.8110     32.9215     50.3853   -999.2500
  2437.9000      8.9947     38.8110     32.9215     50.3853   -999.2500
  2438.0000      8.9561     38.6148     32.0881     48.7728   -999.2500
  2438.1000      8.9561     38.6148     32.0881     48.7728   -999.2500
  2438.2000      8.9561     38.6148     32.0881     48.7728   -999.2500
  2438.3000      8.9139     38.3031     31.2435     46.3820   -999.2500
  2438.4000      8.9139     38.3031     31.2435     46.3820   -999.2500
  2438.5000      8.8872     38.6430     30.5358     43.5514   -999.2500
  2438.6000      8.8872     38.6430     30.5358     43.5514   -999.2500
  2438.7000      8.8872     38.6430     30.5358     43.5514   -999.2500
  2438.8000      8.8957     38.8932     30.0866     40.8780   -999.2500
  2438.9000      8.8957     38.8932     30.0866     40.8780   -999.2500
  2439.0000      8.9526     38.2745     29.9615     39.1962   -999.2500
  2439.1000      8.9526     38.2745     29.9615     39.1962   -999.2500
  2439.2000      8.9526     38.2745     29.9615     39.1962   -999.2500
  2439.3000      9.0788     37.5862     30.1583     39.2314   -999.2500
  2439.4000      9.0788     37.5862     30.1583     39.2314   -999.2500
  2439.5000      9.3095     36.9298     30.5941     40.9904   -999.2500
  2439.6000      9.3095     36.9298     30.5941     40.9904   -999.2500
  2439.7000      9.3095     36.9298     30.5941     40.9904   -999.2500
  2439.8000      9.6616     36.4004     31.1161     43.5940   -999.2500
  2439.9000      9.6616     36.4004     31.1161     43.5940   -999.2500
  2440.0000     10.1001     35.9955     31.5396     45.9173   -999.2500
  2440.1000     10.1001     35.9955     31.5396     45.9173   -999.2500
  2440.2000     10.1001     35.9955     31.5396     45.9173   -999.2500
  2440.3000     10.5589     35.5887     31.6919     47.3431   -999.2500
  2440.4000     10.5589     35.5887     31.6919     47.3431   -999.2500
  2440.5000     10.9995     35.0369     31.4659     47.8719   -999.2500
  2440.6000     10.9995     35.0369     31.4659     47.8719   -999.2500
  2440.7000     10.9995     35.0369     31.4659     47.8719   -999.2500
  2440.8000     11.4316     34.3369     30.8759     47.7844   -999.2500
  2440.9000     11.4316     34.3369     30.8759     47.7844   -999.2500
  2441.0000     11.8683     33.6279     30.0413     47.3277   -999.2500
  2441.1000     11.8683     33.6279     30.0413     47.3277   -999.2500
  2441.2000     11.8683     33.6279     30.0413     47.3277   -999.2500
  2441.3000     12.2779     33.0421     29.0895     46.5328   -999.2500
  2441.4000     12.2779     33.0421     29.0895     46.5328   -999.2500
  2441.5000     12.5973     32.6158     28.0825     45.2031   -999.2500
  2441.6000     12.5973     32.6158     28.0825     45.2031   -999.2500
  2441.7000     12.5973     32.6158     28.0825     45.2031   -999.2500
  2441.8000     12.7889     32.3733     27.0331     43.0933   -999.2500
  2441.9000     12.7889     32.3733     27.0331     43.0933   -999.2500
  2442.0000     12.8638     32.5194     25.9649     40.0982   -999.2500
  2442.1000     12.8638     32.5194     25.9649     40.0982   -999.2500
  2442.2000     12.8638     32.5194     25.9649     40.0982   -999.2500
  2442.3000     12.8018     32.9917     24.9424     36.3482   -999.2500
  2442.4000     12.8018     32.9917     24.9424     36.3482   -999.2500
  2442.5000     12.3531     36.3219     24.0542     32.2725   -999.2500
  2442.6000     12.3531     36.3219     24.0542     32.2725   -999.2500
  2442.7000     12.3531     36.3219     24.0542     32.2725   -999.2500
  2442.8000     10.9417     44.6724     23.3739     28.5778   -999.2500
  2442.9000     10.9417     44.6724     23.3739     28.5778   -999.2500
  2443.0000      8.1816     65.9952     22.9258     26.0039   -999.2500
  2443.1000      8.1816     65.9952     22.9258     26.0039   -999.2500
  2443.2000      8.1816     65.9952     22.9258     26.0039   -999.2500
  2443.3000      4.7390    137.4068     22.6698     24.8968   -999.2500
  2443.4000      4.7390    137.4068     22.6698     24.8968   -999.2500
  2443.5000      1.9873   1663.6727     22.5182     24.9493   -999.2500
  2443.6000      1.9873   1663.6727     22.5182     24.9493   -999.2500
  2443.7000      1.9873   1663.6727     22.5182     24.9493   -999.2500
  2443.8000      0.5763 100000.0000     22.3783     25.4089   -999.2500
  2443.9000      0.5763 100000.0000     22.3783     25.4089   -999.2500
  2444.0000      0.1123 100000.0000     22.1959     25.5928   -999.2500
  2444.1000      0.1123 100000.0000     22.1959     25.5928   -999.2500
  2444.2000      0.1123 100000.0000     22.1959     25.5928   -999.2500
  2444.3000      0.0144 100000.0000     21.9755     25.2749   -999.2500
  2444.4000      0.0144 100000.0000     21.9755     25.2749   -999.2500
  2444.5000      0.0011 100000.0000     21.7736     24.6542   -999.2500
  2444.6000      0.0011 100000.0000     21.7736     24.6542   -999.2500
  2444.7000      0.0011 100000.0000     21.7736     24.6542   -999.2500
  2444.8000   -999.2500 100000.0000     21.6822     24.0295   -999.2500
  2444.9000   -999.2500 100000.0000     21.6822     24.0295   -999.2500
  2445.0000   -999.2500 100000.0000     21.8035     23.6053   -999.2500
  2445.1000   -999.2500 100000.0000     21.8035     23.6053   -999.2500
  2445.2000   -999.2500 100000.0000     21.8035     23.6053   -999.2500
  2445.3000   -999.2500    585.8917     22.2210     23.6094   -999.2500
  2445.4000   -999.2500    585.8917     22.2210     23.6094   -999.2500
  2445.5000   -999.2500    647.8022     22.9903     24.4945   -999.2500
  2445.6000   -999.2500    647.8022     22.9903     24.4945   -999.2500
  2445.7000   -999.2500    647.8022     22.9903     24.4945   -999.2500
  2445.8000   -999.2500    805.2994     24.1759     26.9469   -999.2500
  2445.9000   -999.2500    805.2994     24.1759     26.9469   -999.2500
  2446.0000   -999.2500   1227.4436     25.9477     31.5856   -999.2500
