~Version Information
VERS.                      2.0: CWLS Log ASCII Standard - VERSION 2.0
WRAP.                       NO: One line per depth step
~Well Information Block
STRT.FT                15.0000: 
STOP.FT              2565.5000: 
STEP.FT                 0.2500: 
NULL.                -999.2500: 
COMP.          Pioneer Natural Resources: COMPANY
WELL.           Costello 44-24: WELL
FLD.           Purgatoire River: FIELD
LOC.           327' FSL & 378' FEL: LOCATION
PROV.                 Colorado: PROVINCE
CNTY.               Las Animas: COUNTRY
SRVC.                Patterson: SERVICE COMPANY
DATE.          Mon Jul 25 10:15:19 2005: LOG DATE
UWI.           05 071 08413 00: UNIQUE WELL ID
~Curve Information Block
DEPT.FT            0 000 00 00: Depth
GR.GAPI                       : Gamma Ray
CCL.                          : Casing Collar Locator
TT3.usec                      : CBL 3' Travel Time
AMP3.mV                       : CBL 3' Amplitude
~Parameter Information Block
~A  Depth        GR         CCL         TT3         AMP3    
# ...
  1857.5000    140.5012      0.0000    687.5790      4.9161
  1857.7500    135.9403      0.0000    680.4445      4.9984
  1858.0000    133.5112      0.0000    665.1950      5.0514
  1858.2500    135.4908      3.0000    647.8118      5.0560
  1858.5000    141.4770      0.0000    631.7961      5.0083
  1858.7500    148.1821      0.0000    618.4234      4.9330
  1859.0000    151.9998      0.0000    610.1949      4.8823
  1859.2500    152.0838      0.0000    610.9440      4.9136
  1859.5000    150.6173      0.0000    622.6049      5.0494
  1859.7500    150.1176      0.0000    642.3386      5.2579
  1860.0000    151.1133      0.0000    663.1277      5.4856
  1860.2500    152.6841      0.0000    678.2005      5.6990
  1860.5000    154.4887      0.0000    685.2822      5.8853
  1860.7500    157.3854      0.0000    686.5456      6.0337
  1861.0000    162.0268      0.0000    685.3745      6.1337
  1861.2500    167.4238      0.0000    683.8250      6.1843
  1861.5000    171.4267      0.0000    682.3015      6.1961
  1861.7500    172.6086      0.0000    680.3367      6.1851
  1862.0000    171.2523      0.0000    677.4678      6.1622
  1862.2500    168.4232      0.0000    673.8548      6.1262
  1862.5000    164.7056      0.0000    670.2894      6.0659
  1862.7500    160.2014      0.0000    667.6105      5.9682
  1863.0000    155.2576      0.0000    666.1567      5.8281
  1863.2500    150.6963      0.0000    665.8587      5.6591
  1863.5000    147.4830      0.0000    666.6007      5.4959
  1863.7500    146.4934      0.0000    668.1534      5.3776
  1864.0000    148.4675      0.0000    669.8141      5.3226
  1864.2500    153.4950      0.0000    670.5762      5.3174
  1864.5000    159.9365      0.0000    670.0646      5.3295
  1864.7500    164.3447      0.0000    669.2111      5.3325
  1865.0000    163.7182      0.0000    669.7519      5.3206
  1865.2500    158.1213      0.0000    672.9288      5.3059
  1865.5000    150.2674      0.0000    678.4775      5.3052
  1865.7500    142.4190      0.0000    684.5556      5.3269
  1866.0000    134.6077      0.0000    688.6625      5.3660
  1866.2500    126.0612      0.0000    689.0210      5.4068
  1866.5000    117.3482      0.0000    685.5395      5.4319
  1866.7500    110.4061      0.0000    679.7418      5.4311
  1867.0000    106.7626      0.0000    673.7437      5.4045
  1867.2500    106.2734      0.0000    669.0589      5.3571
  1867.5000    107.6086      0.0000    666.1096      5.2963
  1867.7500    109.4487      0.0000    664.5623      5.2357
  1868.0000    110.7924      0.0000    663.8751      5.1967
  1868.2500    110.6229      0.0000    663.5933      5.1965
  1868.5000    108.3407      0.0000    663.4305      5.2333
  1868.7500    104.6299      0.0000    663.2680      5.2855
  1869.0000    101.0905      0.0000    663.1020      5.3270
  1869.2500     98.8630      0.0000    662.9824      5.3446
  1869.5000     98.1088      0.0000    662.9866      5.3424
  1869.7500     98.6532      0.0000    663.1774      5.3318
  1870.0000    100.4845      0.0000    663.5940      5.3192
  1870.2500    103.6236      0.0000    664.3831      5.3016
  1870.5000    107.8560      0.0000    666.0406      5.2720
  1870.7500    112.6233      0.0000    669.3431      5.2294
  1871.0000    117.1440      0.0000    674.6483      5.1843
  1871.2500    120.9126      0.0000    681.1103      5.1543
  1871.5000    124.2118      0.0000    686.9702      5.1484
  1871.7500    127.8042      0.0000    690.8649      5.1603
  1872.0000    131.9333      0.0000    692.5134      5.1792
  1872.2500    135.9254      0.0000    691.8708      5.2037
  1872.5000    138.9296      0.0000    688.3140      5.2391
  1872.7500    140.7185      0.0000    681.4026      5.2849
  1873.0000    141.4960      0.0000    672.4706      5.3273
  1873.2500    141.2340      0.0000    664.8138      5.3433
  1873.5000    139.5795      0.0000    661.5732      5.3158
  1873.7500    136.2204      0.0000    663.1489      5.2498
  1874.0000    130.9839      0.0000    666.9243      5.1741
  1874.2500    123.7836      0.0000    669.7905      5.1260
  1874.5000    114.9323      0.0000    670.8882      5.1370
  1874.7500    105.4676      0.0000    671.7850      5.2257
  1875.0000     96.7939      0.0000    674.4191      5.3920
  1875.2500     89.9313      0.0000    679.2496      5.6016
  1875.5000     85.3700      0.0000    684.9697      5.7809
  1875.7500     83.6652      0.0000    689.4762      5.8478
  1876.0000     85.7454      0.0000    691.2404      5.7693
  1876.2500     92.1566      0.0000    690.1150      5.5888
  1876.5000    101.9322      0.0000    687.1207      5.3903
  1876.7500    112.4827      0.0000    683.5853      5.2402
  1877.0000    120.8167      0.0000    680.3079      5.1621
  1877.2500    124.9300      0.0000    676.9802      5.1517
  1877.5000    124.3695      0.0000    672.3710      5.1949
  1877.7500    120.2488      0.0000    665.8427      5.2719
  1878.0000    114.9129      0.0000    659.0443      5.3567
  1878.2500    110.8100      0.0000    655.4264      5.4267
  1878.5000    108.9556      0.0000    657.4910      5.4773
  1878.7500    108.3426      0.0000    664.3046      5.5236
  1879.0000    106.8933      0.0000    671.7045      5.5831
  1879.2500    103.1483      0.0000    675.2673      5.6563
  1879.5000     97.3727      0.0000    673.6432      5.7259
  1879.7500     91.3286      0.0000    669.2676      5.7730
  1880.0000     87.0370      0.0000    665.9697      5.7877
  1880.2500     85.5144      0.0000    665.9592      5.7668
  1880.5000     86.2206      0.0000    668.6310      5.7110
  1880.7500     87.6540      0.0000    671.5700      5.6294
  1881.0000     88.7622      0.0000    672.6080      5.5402
  1881.2500     89.6635      0.0000    671.3209      5.4610
  1881.5000     90.8058      0.0000    668.8587      5.3971
  1881.7500     91.9493      0.0000    666.6143      5.3404
  1882.0000     92.4621      0.0000    665.1993      5.2807
  1882.2500     92.2102      0.0000    664.4058      5.2151
  1882.5000     91.5741      0.0000    663.6534      5.1520
  1882.7500     90.6703      0.0000    662.2861      5.1062
  1883.0000     89.0357      0.0000    659.8235      5.0922
  1883.2500     86.3661      0.0000    656.4071      5.1169
  1883.5000     83.2647      0.0000    653.1733      5.1767
  1883.7500     80.7289      0.0000    651.7823      5.2587
  1884.0000     79.0371      0.0000    653.1977      5.3450
  1884.2500     77.8315      0.0000    657.0870      5.4175
  1884.5000     77.1025      0.0000    662.5828      5.4651
  1884.7500     77.1951      0.0000    669.1294      5.4869
  1885.0000     77.7882      0.0000    676.0847      5.4918
  1885.2500     77.8345      0.0000    681.9178      5.4930
  1885.5000     76.8629      0.0000    684.6931      5.4996
  1885.7500     75.6450      0.0000    683.7209      5.5086
  1886.0000     75.1148      0.0000    680.3810      5.5044
  1886.2500     75.1488      0.0000    676.9030      5.4720
  1886.5000     74.9640      0.0000    674.3939      5.4100
  1886.7500     74.4756      0.0000    672.3358      5.3333
  1887.0000     74.9001      0.0000    669.8975      5.2670
  1887.2500     78.1403      0.0000    667.2016      5.2369
  1887.5000     85.4967      0.0000    665.1592      5.2566
  1887.7500     96.5166      0.0000    664.5380      5.3167
  1888.0000    108.9977      0.0000    665.4324      5.3875
  1888.2500    120.4259      0.0000    667.1683      5.4380
  1888.5000    129.4078      0.0000    668.0475      5.4525
  1888.7500    135.6877      0.0000    665.1497      5.4332
  1889.0000    139.4072      0.0000    655.2458      5.3954
  1889.2500    140.9158      0.0000    636.8455      5.3600
  1889.5000    140.8226      0.0000    611.3972      5.3434
  1889.7500    139.5135      0.0000    582.2417      5.3497
  1890.0000    136.8929      0.0000    553.0583      5.3709
  1890.2500    133.2629      0.0000    527.7288      5.3944
  1890.5000    130.1332      0.0000    510.6212      5.4098
  1890.7500    129.3460      0.0000    505.4813      5.4129
