~Version Information
VERS.                      2.0: CWLS Log ASCII Standard - VERSION 2.0
WRAP.                       NO: One line per depth step
~Well Information Block
STRT.FT               258.0000: 
STOP.FT               998.2000: 
STEP.FT                 0.1000: 
NULL.                -999.2500: 
COMP.          Pioneer Natural Resources: COMPANY
WELL.          Piggyback 33-25: WELL
FLD.           Purgatoire River: FIELD
LOC.           1600' FSL & 1800' FEL: LOCATION
PROV.                 Colorado: PROVINCE
CNTY.               Las Animas: COUNTRY
SRVC.                Patterson: SERVICE COMPANY
DATE.          Fri Apr 29 16:11:48 2005: LOG DATE
UWI.           05 071 08233 00: UNIQUE WELL ID
~Curve Information Block
DEPT.FT            0 000 00 00: Depth
DCAL.in                       : CDL Caliper
RHOB.g/cc                     : CDL Bulk Density
RHOC.g/cc                     : CDL Density Correction
DPOR.pu                       : CDL Density Porosity
GR.GAPI                       : Gamma Ray
NPOR.pu                       : Neutron Porosity
~Parameter Information Block
~A  Depth       DCAL        RHOB        RHOC        DPOR         GR         NPOR    
# ...
   939.6000      7.8421      2.5534      0.1061      5.8548     95.2821     25.4374
   939.7000      7.8421      2.5366      0.1324      6.8724     95.1895     25.7054
   939.8000      7.8393      2.5124      0.0787      8.3371     97.4570     25.1846
   939.9000      7.8393      2.5018      0.0072      8.9840    104.1613     24.0543
   940.0000      7.8255      2.5164      0.0445      8.0946    110.5995     23.6183
   940.1000      7.8255      2.5416      0.0703      6.5694    110.8632     24.2932
   940.2000      7.8255      2.5532      0.1097      5.8676    108.3137     24.8172
   940.3000      7.8408      2.5435      0.1129      6.4553    107.8394     24.4177
   940.4000      7.8408      2.5276      0.0455      7.4171    109.2068     23.7716
   940.5000      7.8331      2.5225      0.0679      7.7252    111.1402     23.8607
   940.6000      7.8331      2.5291      0.1057      7.3286    112.2784     25.0070
   940.7000      7.8331      2.5357      0.0971      6.9301    110.6684     26.5513
   940.8000      7.8312      2.5363      0.1050      6.8929    103.9848     27.2551
   940.9000      7.8312      2.5404      0.0392      6.6414     93.8079     26.7970
   941.0000      7.8412      2.5505      0.1468      6.0296     88.4516     25.9741
   941.1000      7.8412      2.5543      0.1330      5.7972     90.9129     25.3958
   941.2000      7.8412      2.5558      0.0922      5.7116     94.9848     25.2725
   941.3000      7.8251      2.5623      0.1397      5.3163     96.8894     25.4838
   941.4000      7.8251      2.5600      0.1590      5.4560     99.5293     25.5398
   941.5000      7.8195      2.5411      0.1160      6.6025    102.1882     25.0191
   941.6000      7.8195      2.5245      0.0993      7.6050    100.0054     24.2058
   941.7000      7.8195      2.5290      0.0686      7.3305     95.1537     23.9100
   941.8000      7.8168      2.5473      0.0908      6.2240     93.9171     24.4096
   941.9000      7.8168      2.5591      0.0823      5.5071     96.0577     24.9411
   942.0000      7.8288      2.5592      0.1072      5.5028     97.6983     24.8825
   942.1000      7.8288      2.5516      0.1072      5.9619     97.8526     24.7688
   942.2000      7.8288      2.5384      0.0660      6.7614     99.4249     24.8472
   942.3000      7.8401      2.5274      0.0819      7.4282    103.7500     24.4391
   942.4000      7.8401      2.5222      0.0936      7.7481    105.6964     23.3137
   942.5000      7.8218      2.5128      0.1084      8.3149    103.0275     21.8830
   942.6000      7.8218      2.4990      0.0439      9.1515    100.1857     21.0636
   942.7000      7.8218      2.4984      0.0423      9.1878     97.8755     21.6871
   942.8000      7.8281      2.5114      0.0755      8.4021     93.3700     23.4909
   942.9000      7.8281      2.5225      0.1059      7.7273     87.5307     24.8808
   943.0000      7.8388      2.5307      0.1207      7.2292     84.1851     24.6592
   943.1000      7.8388      2.5427      0.1270      6.5057     85.5343     23.8944
   943.2000      7.8388      2.5593      0.1424      5.4970     89.4262     23.7913
   943.3000      7.8427      2.5751      0.1467      4.5420     91.9333     24.0765
   943.4000      7.8427      2.5816      0.1384      4.1440     90.6762     24.5483
   943.5000      7.8242      2.5783      0.1152      4.3445     86.4754     24.7532
   943.6000      7.8242      2.5710      0.1210      4.7894     81.7949     24.3589
   943.7000      7.8242      2.5627      0.0962      5.2906     77.7388     23.9970
   943.8000      7.8117      2.5518      0.0886      5.9538     75.4523     24.1104
   943.9000      7.8117      2.5390      0.0264      6.7272     74.0230     24.4314
   944.0000      7.8143      2.5357      0.0526      6.9281     71.1436     24.2789
   944.1000      7.8143      2.5487      0.1064      6.1401     69.2782     23.2713
   944.2000      7.8143      2.5762      0.0918      4.4734     71.7340     21.7072
   944.3000      7.8306      2.6093      0.1681      2.4666     76.4452     20.1989
   944.4000      7.8306      2.6278      0.1858      1.3472     79.3700     19.4002
   944.5000      7.8082      2.6282      0.1421      1.3219     79.5088     19.5008
   944.6000      7.8082      2.6317      0.1536      1.1114     77.0740     20.3233
   944.7000      7.8082      2.6442      0.1405      0.3487     72.7754     21.1908
   944.8000      7.7889      2.6460      0.1555      0.2424     69.6463     21.1001
   944.9000      7.7889      2.6232      0.1532      1.6265     68.2101     20.2048
   945.0000      7.8027      2.5877      0.0630      3.7766     65.9146     19.5703
   945.1000      7.8027      2.5506      0.1111      6.0217     63.6388     19.4123
   945.2000      7.8027      2.5234      0.0043      7.6723     64.0621     19.5739
   945.3000      7.8175      2.5238      0.0487      7.6481     67.4284     20.1182
   945.4000      7.8175      2.5370      0.1048      6.8473     72.1002     20.5072
   945.5000      7.8205      2.5409      0.0640      6.6107     77.1252     20.1490
   945.6000      7.8205      2.5453      0.0833      6.3436     81.9789     19.7591
   945.7000      7.8205      2.5567      0.1138      5.6550     85.2620     20.2770
   945.8000      7.8424      2.5599      0.0818      5.4629     85.8423     21.4308
   945.9000      7.8424      2.5536      0.0830      5.8453     85.0341     22.4003
   946.0000      7.8159      2.5510      0.1126      5.9994     86.3565     22.6719
   946.1000      7.8159      2.5480      0.1370      6.1802     90.6394     22.4453
   946.2000      7.8159      2.5286      0.1070      7.3558     94.2419     22.4038
   946.3000      7.8159      2.4942      0.0483      9.4435     92.8847     22.7183
   946.4000      7.8159      2.4684      0.0250     11.0067     85.3839     22.7320
   946.5000      7.8475      2.4717      0.0281     10.8060     75.4073     21.9652
   946.6000      7.8475      2.4967      0.0728      9.2932     69.3779     21.0467
   946.7000      7.8475      2.5140      0.0738      8.2452     69.8039     21.0052
   946.8000      7.8623      2.4993      0.0836      9.1313     71.4236     21.8394
   946.9000      7.8623      2.4670      0.0398     11.0930     69.7945     22.6522
   947.0000      7.8547      2.4616      0.0366     11.4152     69.8021     23.0970
   947.1000      7.8547      2.4883      0.1526      9.8030     74.9555     23.9890
   947.2000      7.8547      2.5065      0.0901      8.6969     81.0120     25.2031
   947.3000      7.8412      2.5026      0.0901      8.9305     85.9623     25.3675
   947.4000      7.8412      2.4994      0.0531      9.1293     89.8107     24.5064
   947.5000      7.8409      2.5120      0.0650      8.3644     90.8095     23.5982
   947.6000      7.8409      2.5337      0.0756      7.0503     88.2963     23.1233
   947.7000      7.8409      2.5512      0.1356      5.9851     83.9491     23.0991
   947.8000      7.8394      2.5541      0.1110      5.8107     81.9181     23.3986
   947.9000      7.8394      2.5415      0.0865      6.5752     83.2092     24.0946
   948.0000      7.8259      2.5242      0.1155      7.6216     85.1238     24.9879
   948.1000      7.8259      2.5146      0.0994      8.2064     86.6938     25.5333
   948.2000      7.8259      2.5133      0.1043      8.2832     87.8151     25.4357
   948.3000      7.8187      2.5127      0.0885      8.3203     88.8845     25.3226
   948.4000      7.8187      2.5096      0.0692      8.5061     88.7109     25.6581
   948.5000      7.8197      2.5085      0.0751      8.5729     87.8427     25.6836
   948.6000      7.8197      2.5151      0.0608      8.1774     89.4056     25.2668
   948.7000      7.8197      2.5280      0.0481      7.3964     93.1964     25.2728
   948.8000      7.8265      2.5462      0.0439      6.2903     97.7665     25.3229
   948.9000      7.8265      2.5668      0.1043      5.0435    102.5032     24.7659
   949.0000      7.8316      2.5672      0.1319      5.0155    105.3339     24.0266
   949.1000      7.8316      2.5378      0.0870      6.7975    105.2896     23.5796
