~Version Information
VERS.                      2.0: CWLS Log ASCII Standard - VERSION 2.0
WRAP.                       NO: One line per depth step
~Well Information Block
STRT.FT               420.0000: 
STOP.FT              1528.5000: 
STEP.FT                 0.2500: 
NULL.                -999.2500: 
COMP.          Evergreen Operating Corporation: COMPANY
WELL.              Chase 21-10: WELL
FLD.           Purgatoire River: FIELD
LOC.           1122' FNL & 1544' FWL: LOCATION
PROV.                       CO: PROVINCE
CNTY.               Las Animas: COUNTRY
SRVC.                         : SERVICE COMPANY
DATE.          Sun May 23 21:20:45 2004: LOG DATE
UWI.           05 071 08006 00: UNIQUE WELL ID
~Curve Information Block
DEPT.FT            0 000 00 00: Depth
SN.Ohm-m                      : IEL Short Normal
SP.mV                         : IEL Spontaneous Potential
DIR.Ohm-m                     : IEL Induction Resistivity
GR.GAPI                       : Gamma Ray
~Parameter Information Block
~A  Depth        SN          SP         DIR          GR     
# ...
  1123.5000     35.8928    127.9934     36.6885     50.6499
  1123.7500     36.9496    127.9170     38.6238     45.2680
  1124.0000     37.9209    127.8517     40.2754     40.6426
  1124.2500     38.8375    127.8012     41.6540     39.0388
  1124.5000     39.7282    127.7688     42.8333     37.7407
  1124.7500     40.6148    127.7570     43.8946     37.3707
  1125.0000     41.5050    127.7667     44.8938     37.6572
  1125.2500     42.3858    127.7968     45.8550     38.3675
  1125.5000     43.2224    127.8445     46.7754     39.3638
  1125.7500     43.9675    127.9055     47.6308     39.2677
  1126.0000     44.5790    127.9743     48.3856     37.6131
  1126.2500     45.0361    128.0448     49.0059     36.0510
  1126.5000     45.3455    128.1105     49.4751     34.3386
  1126.7500     45.5356    128.1655     49.8022     33.9603
  1127.0000     45.6429    128.2044     50.0149     34.1724
  1127.2500     45.7002    128.2230     50.1404     34.3882
  1127.5000     45.7297    128.2190     50.1913     34.1924
  1127.7500     45.7436    128.1920     50.1709     33.4976
  1128.0000     45.7456    128.1442     50.0902     31.4682
  1128.2500     45.7325    128.0801     49.9718     29.5475
  1128.5000     45.6954    128.0058     49.8296     26.3611
  1128.7500     45.6232    127.9284     49.6452     24.5224
  1129.0000     45.5081    127.8549     49.3759     22.9340
  1129.2500     45.3506    127.7915     48.9990     22.7986
  1129.5000     45.1606    127.7420     48.5509     23.6634
  1129.7500     44.9545    127.7083     48.1157     24.6564
  1130.0000     44.7503    127.6898     47.7743     26.6116
  1130.2500     44.5642    127.6842     47.5600     28.4104
  1130.5000     44.4090    127.6878     47.4550     32.1025
  1130.7500     44.2940    127.6970     47.4149     34.9402
  1131.0000     44.2238    127.7084     47.3945     38.4207
  1131.2500     44.1954    127.7201     47.3552     39.3752
  1131.5000     44.1955    127.7318     47.2614     38.1358
  1131.7500     44.2006    127.7451     47.0753     35.8086
  1132.0000     44.1792    127.7632     46.7581     31.2784
  1132.2500     44.0964    127.7908     46.2805     28.4168
  1132.5000     43.9174    127.8332     45.6409     25.6481
  1132.7500     43.6103    127.8960     44.8762     25.2818
  1133.0000     43.1496    127.9841     44.0498     27.1470
  1133.2500     42.5220    128.1009     43.2190     29.8232
  1133.5000     41.7344    128.2480     42.4014     35.1813
  1133.7500     40.8171    128.4253     41.5636     38.9112
  1134.0000     39.8177    128.6308     40.6391     43.5275
  1134.2500     38.7847    128.8610     39.5617     45.5435
  1134.5000     37.7506    129.1115     38.2950     46.5636
  1134.7500     36.7223    129.3771     36.8439     45.6345
  1135.0000     35.6827    129.6523     35.2509     41.8067
  1135.2500     34.6009    129.9311     33.5827     38.2870
  1135.5000     33.4435    130.2070     31.9139     33.5314
  1135.7500     32.1868    130.4731     30.3112     31.7914
  1136.0000     30.8272    130.7217     28.8234     32.4841
  1136.2500     29.3897    130.9452     27.4807     35.4280
  1136.5000     27.9277    131.1361     26.2992     43.2930
  1136.7500     26.5122    131.2881     25.2819     50.1881
  1137.0000     25.2122    131.3974     24.4183     61.4722
  1137.2500     24.0772    131.4627     23.6834     68.8511
  1137.5000     23.1295    131.4863     23.0425     78.8007
  1137.7500     22.3674    131.4737     22.4614     84.2632
  1138.0000     21.7753    131.4330     21.9199     89.9527
  1138.2500     21.3329    131.3735     21.4201     91.7097
  1138.5000     21.0212    131.3049     20.9859     91.1389
  1138.7500     20.8255    131.2359     20.6510     88.9342
  1139.0000     20.7361    131.1736     20.4450     84.0154
  1139.2500     20.7471    131.1225     20.3835     80.3991
  1139.5000     20.8532    131.0850     20.4650     75.2749
  1139.7500     21.0457    131.0615     20.6708     72.1963
  1140.0000     21.3087    131.0505     20.9709     68.3035
  1140.2500     21.6196    131.0497     21.3326     66.5007
  1140.5000     21.9534    131.0560     21.7310     65.2870
  1140.7500     22.2902    131.0667     22.1519     65.1717
  1141.0000     22.6210    131.0797     22.5862     65.0405
  1141.2500     22.9480    131.0942     23.0230     64.5831
  1141.5000     23.2802    131.1108     23.4474     63.3804
  1141.7500     23.6259    131.1315     23.8454     62.5327
  1142.0000     23.9876    131.1595     24.2115     61.5685
  1142.2500     24.3614    131.1984     24.5512     60.9700
  1142.5000     24.7399    131.2517     24.8774     59.3754
  1142.7500     25.1161    131.3216     25.2018     57.6202
  1143.0000     25.4851    131.4092     25.5256     54.5387
  1143.2500     25.8417    131.5133     25.8382     52.8318
  1143.5000     26.1791    131.6310     26.1251     51.5126
  1143.7500     26.4889    131.7579     26.3798     51.4624
  1144.0000     26.7640    131.8882     26.6107     52.1325
  1144.2500     27.0025    132.0157     26.8366     52.6880
  1144.5000     27.2084    132.1338     27.0725     53.0833
  1144.7500     27.3890    132.2365     27.3146     52.7707
  1145.0000     27.5505    132.3187     27.5350     51.2057
  1145.2500     27.6925    132.3763     27.6920     49.6451
  1145.5000     27.8082    132.4071     27.7489     47.5958
  1145.7500     27.8868    132.4107     27.6873     47.1233
  1146.0000     27.9193    132.3885     27.5081     48.3480
  1146.2500     27.9013    132.3441     27.2270     50.3802
  1146.5000     27.8329    132.2823     26.8713     54.6165
  1146.7500     27.7170    132.2091     26.4801     57.5927
  1147.0000     27.5560    132.1307     26.1016     60.8552
  1147.2500     27.3521    132.0532     25.7851     61.5785
  1147.5000     27.1094    131.9819     25.5682     60.5280
  1147.7500     26.8371    131.9210     25.4659     59.1458
  1148.0000     26.5540    131.8733     25.4650     57.7514
  1148.2500     26.2907    131.8401     25.5259     58.0361
  1148.5000     26.0865    131.8214     25.5906     60.8616
  1148.7500     25.9820    131.8160     25.5931     64.2578
  1149.0000     26.0066    131.8214     25.4705     70.5888
  1149.2500     26.1673    131.8347     25.1766     74.4830
  1149.5000     26.4407    131.8521     24.6945     77.5728
  1149.7500     26.7691    131.8703     24.0422     76.9545
  1150.0000     27.0602    131.8863     23.2680     72.1467
  1150.2500     27.1971    131.8986     22.4332     67.2596
  1150.5000     27.0647    131.9072     21.5945     59.4970
  1150.7500     26.5891    131.9142     20.7920     55.0374
  1151.0000     25.7692    131.9232     20.0495     50.3547
  1151.2500     24.6784    131.9392     19.3805     48.9090
  1151.5000     23.4349    131.9673     18.7900     50.1441
  1151.7500     22.1570    132.0121     18.2677     53.7430
  1152.0000     20.9331    132.0766     17.7829     62.9140
  1152.2500     19.8147    132.1617     17.2942     70.3157
  1152.5000     18.8277    132.2662     16.7732     80.7592
  1152.7500     17.9841    132.3864     16.2232     86.4397
  1153.0000     17.2872    132.5169     15.6740     93.1077
  1153.2500     16.7303    132.6510     15.1604     96.6013
  1153.5000     16.2952    132.7815     14.7036    100.0800
  1153.7500     15.9553    132.9011     14.3078    100.6581
  1154.0000     15.6825    133.0037     13.9670     98.8490
  1154.2500     15.4548    133.0845     13.6724     96.9386
  1154.5000     15.2583    133.1407     13.4167     95.6226
  1154.7500     15.0839    133.1718     13.1943     96.4000
  1155.0000     14.9230    133.1792     13.0014     98.8018
  1155.2500     14.7663    133.1664     12.8336    100.1588
  1155.5000     14.6066    133.1385     12.6854    101.3306
  1155.7500     14.4416    133.1010     12.5492    101.8560
  1156.0000     14.2733    133.0596     12.4171    102.3634
  1156.2500     14.1051    133.0192     12.2828    102.1777
  1156.5000     13.9382    132.9838     12.1436    101.0319
  1156.7500     13.7712    132.9556     12.0015    100.2852
