~Version Information
VERS.                      2.0: CWLS Log ASCII Standard - VERSION 2.0
WRAP.                       NO: One line per depth step
~Well Information Block
STRT.FT                -4.2500: 
STOP.FT              2218.5000: 
STEP.FT                 0.2500: 
NULL.                -999.2500: 
COMP.          Pioneer Natural Resources: COMPANY
WELL.             Warrior 32-1: WELL
FLD.           Purgatorie River: FIELD
LOC.           2624' FNL & 2392' FEL--: LOCATION
PROV.                       CO: PROVINCE
CNTY.               Las Animas: COUNTRY
SRVC.                         : SERVICE COMPANY
DATE.          Tue Oct 12 10:54:12 2004: LOG DATE
UWI.           005 071 08176 : UNIQUE WELL ID
~Curve Information Block
DEPT.FT            0 000 00 00: Depth
GR.GAPI                       : Gamma Ray
CCL.                          : Casing Collar Locator
TT3.usec                      : CBL 3' Travel Time
AMP3.mV                       : CBL 3' Amplitude
~Parameter Information Block
~A  Depth        GR         CCL         TT3         AMP3    
# ...
  1871.7500     57.7959      0.0000    423.6112      4.1714
  1872.0000     60.0056      0.0000    446.2904      4.2204
  1872.2500     60.8838      0.0000    467.3880      4.2458
  1872.5000     61.0935      0.0000    481.6293      4.2541
  1872.7500     61.6522      0.0000    490.4146      4.2595
  1873.0000     62.6454      0.0000    502.3034      4.2749
  1873.2500     63.4790      0.0000    525.6258      4.3051
  1873.5000     63.7869      0.0000    559.2366      4.3406
  1873.7500     63.8153      0.0000    591.3930      4.3565
  1874.0000     64.0412      0.0000    609.2555      4.3239
  1874.2500     64.5628      0.0000    609.9987      4.2345
  1874.5000     65.1454      0.0000    602.9719      4.1159
  1874.7500     65.9578      0.0000    600.5430      4.0152
  1875.0000     67.7111      0.0000    606.3989      3.9576
  1875.2500     70.6751      0.0000    614.2990      3.9263
  1875.5000     74.0186      0.0000    618.3806      3.8881
  1875.7500     76.7222      0.0000    621.0029      3.8302
  1876.0000     79.0348      0.0000    628.5230      3.7670
  1876.2500     82.3765      0.0000    642.8532      3.7167
  1876.5000     87.5403      0.0000    659.8380      3.6820
  1876.7500     93.5317      0.0000    673.7800      3.6569
  1877.0000     98.5318      0.0000    681.5167      3.6452
  1877.2500    101.5182      0.0000    683.4715      3.6660
  1877.5000    102.6287      0.0000    682.7003      3.7325
  1877.7500    102.4456      0.0000    682.7896      3.8300
  1878.0000    101.4514      0.0000    685.4250      3.9205
  1878.2500    100.0544      0.0000    689.3354      3.9731
  1878.5000     98.8421      0.0000    691.8483      3.9848
  1878.7500     98.6979      0.0000    691.3691      3.9712
  1879.0000    100.4747      0.0000    687.9913      3.9430
  1879.2500    104.2066      0.0000    681.9368      3.8987
  1879.5000    108.6262      0.0000    672.8561      3.8331
  1879.7500    111.9130      0.0000    661.4694      3.7482
  1880.0000    113.1583      0.0000    650.8558      3.6516
  1880.2500    112.8870      0.0000    644.9520      3.5481
  1880.5000    112.1209      0.0000    646.0146      3.4360
  1880.7500    111.4113      0.0000    653.6933      3.3171
  1881.0000    110.9746      0.0000    665.9993      3.2097
  1881.2500    111.2340      0.0000    680.8056      3.1422
  1881.5000    112.4428      0.0000    696.4914      3.1224
  1881.7500    113.8447      0.0000    711.6989      3.1225
  1882.0000    114.1097      0.0000    725.2745      3.1126
  1882.2500    112.8132      0.0000    736.4484      3.1055
  1882.5000    110.8586      0.0000    744.1290      3.1460
  1882.7500    109.5273      0.0000    746.4331      3.2495
  1883.0000    109.6521      0.0000    742.7308      3.3698
  1883.2500    111.3588      2.0000    736.2814      3.4314
  1883.5000    113.9232      0.0000    732.9390      3.3800
  1883.7500    116.0354      0.0000    736.1906      3.2108
  1884.0000    116.6948      0.0000    743.9572      2.9725
  1884.2500    115.8744      0.0000    750.4526      2.7454
  1884.5000    114.1856      0.0000    750.6222      2.5974
  1884.7500    111.9489      0.0000    742.7705      2.5546
  1885.0000    108.8798      0.0000    728.0385      2.6187
  1885.2500    104.9005      0.0000    708.7527      2.7874
  1885.5000    100.8747      0.0000    687.4335      3.0348
  1885.7500     98.0975      0.0000    666.3850      3.2958
  1886.0000     97.3221      0.0000    647.8477      3.5039
  1886.2500     98.5480      0.0000    634.9002      3.6375
  1886.5000    101.2737      0.0000    631.4395      3.7144
  1886.7500    104.5462      0.0000    639.7563      3.7531
  1887.0000    107.0131      0.0000    658.1326      3.7565
  1887.2500    107.3905      0.0000    681.7295      3.7250
  1887.5000    105.2114      0.0000    705.7932      3.6670
  1887.7500    101.3366      0.0000    727.4661      3.5956
  1888.0000     97.4871      0.0000    744.6056      3.5208
  1888.2500     94.7116      0.0000    753.4899      3.4471
  1888.5000     92.2538      0.0000    748.4939      3.3760
  1888.7500     88.4099      0.0000    725.0865      3.3096
  1889.0000     82.7069      0.0000    685.1674      3.2534
  1889.2500     76.8120      0.0000    640.4173      3.2153
  1889.5000     73.0509      0.0000    607.4547      3.2005
  1889.7500     72.3960      0.0000    595.8646      3.2072
  1890.0000     74.1571      0.0000    601.2488      3.2277
  1890.2500     77.0883      0.0000    611.9927      3.2542
  1890.5000     80.1065      0.0000    620.8057      3.2861
  1890.7500     82.2320      0.0000    626.5974      3.3301
  1891.0000     82.7843      0.0000    627.7176      3.3921
  1891.2500     82.1980      0.0000    619.2281      3.4696
  1891.5000     82.3276      0.0000    598.6093      3.5494
  1891.7500     85.1846      0.0000    570.8621      3.6154
  1892.0000     90.9060      0.0000    545.2527      3.6568
  1892.2500     97.1671      0.0000    527.9818      3.6723
  1892.5000    100.9861      0.0000    519.2634      3.6682
  1892.7500    101.1043      0.0000    515.9101      3.6526
  1893.0000     98.5697      0.0000    514.6996      3.6306
  1893.2500     95.4924      0.0000    513.6072      3.6027
  1893.5000     93.5892      0.0000    511.8142      3.5691
  1893.7500     93.3149      0.0000    510.3053      3.5364
  1894.0000     93.6907      0.0000    512.8085      3.5173
  1894.2500     93.2242      0.0000    524.5292      3.5240
  1894.5000     91.3840      0.0000    547.2853      3.5637
  1894.7500     88.8315      0.0000    575.4472      3.6389
  1895.0000     86.0126      0.0000    598.4264      3.7469
  1895.2500     82.2134      0.0000    608.0150      3.8764
  1895.5000     76.5481      0.0000    603.0368      4.0097
  1895.7500     69.4434      0.0000    588.6773      4.1292
  1896.0000     62.6183      0.0000    573.7355      4.2207
  1896.2500     57.7995      0.0000    567.6907      4.2674
  1896.5000     55.7884      0.0000    576.9622      4.2536
  1896.7500     56.4687      0.0000    601.4097      4.1840
  1897.0000     59.1542      0.0000    634.3328      4.0911
  1897.2500     62.7977      0.0000    666.3542      4.0042
  1897.5000     66.3134      0.0000    689.2343      3.9130
  1897.7500     69.2082      0.0000    697.5098      3.7810
  1898.0000     72.0728      0.0000    689.8858      3.5971
  1898.2500     76.2819      0.0000    670.7219      3.3994
  1898.5000     82.8202      0.0000    648.7287      3.2396
  1898.7500     91.2456      0.0000    632.5409      3.1350
  1899.0000     99.8788      0.0000    626.7352      3.0614
  1899.2500    106.9050      0.0000    631.0707      2.9847
  1899.5000    111.2022      0.0000    642.2665      2.8934
  1899.7500    112.6920      0.0000    656.5267      2.8029
  1900.0000    112.6390      0.0000    671.1041      2.7362
  1900.2500    113.2501      0.0000    684.2242      2.7063
  1900.5000    115.9539      0.0000    694.4124      2.7134
  1900.7500    119.8909      0.0000    700.7385      2.7489
  1901.0000    122.6685      0.0000    703.6281      2.7990
  1901.2500    122.6211      0.0000    704.5656      2.8506
  1901.5000    120.0311      0.0000    704.4510      2.8964
  1901.7500    116.3692      0.0000    702.7351      2.9326
  1902.0000    112.8324      0.0000    698.7556      2.9555
  1902.2500    109.5824      0.0000    693.1984      2.9674
  1902.5000    106.1053      0.0000    686.1595      2.9795
  1902.7500    102.1625      0.0000    673.0678      3.0033
  1903.0000     98.2019      0.0000    645.4004      3.0372
  1903.2500     94.8178      0.0000    598.9892      3.0653
  1903.5000     92.0928      0.0000    541.2125      3.0722
  1903.7500     89.6394      0.0000    487.2082      3.0588
  1904.0000     87.1868      0.0000    448.7081      3.0417
  1904.2500     85.0989      0.0000    427.8672      3.0357
  1904.5000     84.4136      0.0000    420.6589      3.0385
  1904.7500     86.1716      0.0000    423.7309      3.0315
  1905.0000     90.3070      0.0000    437.9836      2.9936
