~Version Information
 VERS.                                  2.0 : CWLS LAS VERSION
 WRAP.                                   NO : WRAPING MODE
 SWARE .                 MController 2.5.0J : SOFTWARE VERSION
~Well Information
 WELL.                         Sliva 01-43V : WELL
 COMP.                Petrogulf Corporation : COMPANY
 FLD.                      Purgatoire River : FIELD
 LOC.                 NE/SE Sec 1 T33S R68W : LOCATION
 DATE.                          08/26-27/05 : DATE(S) LOGGED
 SRVC.       BLANCO Geological Services LLC : SERVICE COMPANY
 STAT.                                   CO : STATE
 CNTY.                           Las Animas : COUNTY
 CTRY.                                  USA : COUNTRY
 API.                       05-071-08371-00 : API NUMBER
 STRT.FT                             503.00 : START DEPTH
 STOP.FT                            2764.00 : STOP DEPTH
 STEP.FT                               1.00 : DEPTH INCREMENT
 NULL.                                -9999 : NULL VALUE
~Curve information
 DEPTH.FT                                   :
 ROP.MIN/FT                                 :
 GAS.UNITS                                  :
~ASCII Log data
# ...
      1503.0         0.17          9.6 
      1504.0         0.18          9.6 
      1505.0         0.20          9.4 
      1506.0         0.30          8.9 
      1507.0         0.27          8.4 
      1508.0         0.20          7.5 
      1509.0         0.17          7.5 
      1510.0         0.23          7.3 
      1511.0         0.17          7.4 
      1512.0         0.17          7.6 
      1513.0         0.30          9.7 
      1514.0         0.40         11.2 
      1515.0         0.20         11.5 
      1516.0         0.27         11.3 
      1517.0         0.20         10.5 
      1518.0         0.18          9.8 
      1519.0         0.17          9.5 
      1520.0         0.10          8.5 
      1521.0         0.13          8.3 
      1522.0         0.10          7.9 
      1523.0         0.13          7.7 
      1524.0         0.17          7.6 
      1525.0         0.23          8.0 
      1526.0         0.23          8.5 
      1527.0         0.23         12.3 
      1528.0         0.23         20.1 
      1529.0         0.23         34.2 
      1530.0         1.45         57.8 
      1531.0         0.23         24.2 
      1532.0         0.30         17.8 
      1533.0         0.30         12.0 
      1534.0         0.30          9.2 
      1535.0         0.37          8.5 
      1536.0         0.40          7.5 
      1537.0         0.45          7.7 
      1538.0         0.33          7.9 
      1539.0         0.37          7.7 
      1540.0         0.30          7.7 
      1541.0         0.27          7.4 
      1542.0         0.37          7.7 
      1543.0         0.33          7.8 
      1544.0         0.43          7.8 
      1545.0         0.48          8.4 
      1546.0         0.53          8.6 
      1547.0         0.47          8.2 
      1548.0         0.30          9.4 
      1549.0         0.27         10.3 
      1550.0         0.27         12.7 
      1551.0         0.30         13.9 
      1552.0         0.37         14.5 
      1553.0         0.42         14.6 
      1554.0         0.30         14.0 
      1555.0         0.33         13.2 
      1556.0         0.30         12.2 
      1557.0         0.47         11.3 
      1558.0         0.37         10.2 
      1559.0         0.40          9.7 
      1560.0         3.70         57.0 
      1561.0         0.63         21.8 
      1562.0         0.53         13.0 
      1563.0         0.43         11.7 
      1564.0         0.40         13.1 
      1565.0         0.33         14.6 
      1566.0         0.35         13.7 
      1567.0         0.17         12.2 
      1568.0         0.27         11.8 
      1569.0         0.17         10.6 
      1570.0         0.33         10.2 
      1571.0         0.37          9.7 
      1572.0         0.27          9.6 
      1573.0         0.23          8.8 
      1574.0         0.27          9.1 
      1575.0         0.30          9.0 
      1576.0         0.30          9.5 
      1577.0         0.35          9.2 
      1578.0         0.30          9.9 
      1579.0         0.37          9.4 
      1580.0         0.40         10.5 
      1581.0         0.50         11.1 
      1582.0         0.43         10.5 
      1583.0         0.17          8.7 
      1584.0         0.20          9.0 
      1585.0         0.17          9.7 
      1586.0         0.13         10.5 
      1587.0         0.22         11.6 
      1588.0         0.13         14.5 
      1589.0         0.13         18.5 
      1590.0         1.80         68.0 
      1591.0         0.27         48.3 
      1592.0         0.20         37.6 
      1593.0         0.72         30.0 
      1594.0         0.93         14.7 
      1595.0         0.63         11.4 
      1596.0         0.57         10.1 
      1597.0         0.48          8.7 
      1598.0         0.53          7.8 
      1599.0         0.67          8.5 
      1600.0         0.47          8.7 
      1601.0         0.40          8.6 
      1602.0         0.30          9.0 
      1603.0         0.48          9.5 
      1604.0         0.37          9.2 
      1605.0         0.40          9.2 
      1606.0         0.43          9.0 
      1607.0         0.43          8.7 
      1608.0         0.40          8.5 
      1609.0         0.40          8.5 
      1610.0         0.45          8.5 
      1611.0         0.43          8.1 
      1612.0         0.27          8.3 
      1613.0         0.23          8.4 
      1614.0         0.20          8.1 
      1615.0         0.23          8.2 
      1616.0         0.23          8.0 
      1617.0         0.20          7.9 
      1618.0         0.17          8.7 
      1619.0         0.23         10.4 
      1620.0         2.75         71.5 
      1621.0         0.53         21.5 
      1622.0         0.43         12.0 
      1623.0         0.52         10.4 
      1624.0         0.33         10.5 
      1625.0         0.40          8.9 
      1626.0         0.57          8.2 
      1627.0         0.70          7.8 
      1628.0         0.63          7.5 
      1629.0         0.32          7.7 
      1630.0         0.30          7.8 
      1631.0         0.27          7.9 
      1632.0         0.27          7.7 
      1633.0         0.30          8.0 
      1634.0         0.30          8.2 
      1635.0         0.27          8.3 
      1636.0         0.37          8.5 
      1637.0         0.33          8.8 
      1638.0         0.30          9.1 
      1639.0         0.33          9.3 
      1640.0         0.32          9.5 
      1641.0         0.30          9.5 
      1642.0         0.30          9.5 
      1643.0         0.27          9.1 
      1644.0         0.27          8.6 
      1645.0         0.30          7.6 
      1646.0         0.30          8.5 
      1647.0         0.27         10.0 
      1648.0         0.27         14.6 
      1649.0         0.30         29.9 
      1650.0         2.95         64.8 
      1651.0         0.63         11.7 
      1652.0         0.55          9.9 
      1653.0         0.43          9.6 
      1654.0         0.37          8.6 
      1655.0         0.37          8.4 
      1656.0         0.40          7.3 
      1657.0         0.37          7.4 
      1658.0         0.37          7.5 
      1659.0         0.33          7.0 
      1660.0         0.42          7.9 
      1661.0         0.40          7.9 
      1662.0         0.33          8.1 
      1663.0         0.30          8.1 
      1664.0         0.30          8.3 
      1665.0         0.33          8.2 
      1666.0         0.27          8.3 
      1667.0         0.30          8.8 
      1668.0         0.30          8.5 
      1669.0         0.38          8.4 
      1670.0         0.27          8.1 
      1671.0         0.20          8.4 
      1672.0         0.27          8.1 
      1673.0         0.37          8.0 
      1674.0         0.43          7.4 
      1675.0         0.30          7.3 
      1676.0         0.27          7.8 
      1677.0         0.27          8.3 
      1678.0         0.27          9.6 
      1679.0         0.23          9.6 
      1680.0         4.53         93.2 
      1681.0         0.43         19.9 
      1682.0         0.67         12.6 
      1683.0         0.60          8.6 
      1684.0         0.60          8.4 
      1685.0         0.35          7.8 
      1686.0         0.30          7.6 
      1687.0         0.30          7.5 
      1688.0         0.33          7.1 
      1689.0         0.30          7.1 
      1690.0         0.37          7.2 
      1691.0         0.30          7.3 
      1692.0         0.20          7.4 
      1693.0         0.27          8.0 
      1694.0         0.30          9.2 
      1695.0         0.27          9.4 
      1696.0         0.22          9.1 
      1697.0         0.23          8.1 
      1698.0         0.30          7.4 
      1699.0         0.20          8.2 
      1700.0         0.17          8.6 
      1701.0         0.17          8.7 
      1702.0         0.20          9.2 
