~Version Information
VERS.                      2.0: CWLS Log ASCII Standard - VERSION 2.0
WRAP.                       NO: One line per depth step
~Well Information Block
STRT.FT               -10.0000: 
STOP.FT              2297.5000: 
STEP.FT                 0.2500: 
NULL.                -999.2500: 
COMP.          Pioneer Natural Resources: COMPANY
WELL.              Bobsy 34-11: WELL
FLD.           Purgatorie River: FIELD
LOC.           1937' FEL & 451' FSL----------: LOCATION
PROV.                       CO: PROVINCE
CNTY.               Las Animas: COUNTRY
SRVC.          Patterson Wireline: SERVICE COMPANY
DATE.          Mon Apr 18 09:37:11 2005: LOG DATE
UWI.           05 071 08330 00: UNIQUE WELL ID
~Curve Information Block
DEPT.FT            0 000 00 00: Depth
CCL.                          : Casing Collar Locator
TT3.usec                      : CBL 3' Travel Time
AMP3.mV                       : CBL 3' Amplitude
GR.GAPI                       : Gamma Ray
~Parameter Information Block
~A  Depth       CCL         TT3         AMP3         GR     
# ...
  1665.0000      0.0000    743.4604      4.9297     74.5496
  1665.2500      0.0000    744.6995      4.9659     73.2228
  1665.5000      0.0000    739.3278      4.9180     73.8980
  1665.7500      0.0000    727.1154      4.8523     76.9603
  1666.0000      0.0000    709.7739      4.8357     82.0413
  1666.2500      0.0000    691.2279      4.8926     88.0565
  1666.5000      0.0000    675.8550      4.9957     93.7435
  1666.7500      0.0000    666.4626      5.0778     98.2286
  1667.0000      0.0000    663.7861      5.0658    101.2357
  1667.2500      0.0000    667.4714      4.9364    103.0145
  1667.5000      0.0000    676.9170      4.7471    104.0161
  1667.7500      0.0000    690.8353      4.5867    104.5511
  1668.0000      0.0000    706.1784      4.4909    105.0176
  1668.2500      0.0000    718.1512      4.4229    106.5029
  1668.5000      0.0000    722.7822      4.3307    110.4263
  1668.7500     -2.0000    720.9142      4.2058    117.0872
  1669.0000     -2.0000    718.6121      4.0880    124.9486
  1669.2500      0.0000    721.1219      4.0275    131.7517
  1669.5000      0.0000    727.0107      4.0417    136.0994
  1669.7500      0.0000    730.4551      4.1078    137.7828
  1670.0000      0.0000    727.9174      4.1995    137.0774
  1670.2500      0.0000    720.2744      4.3166    134.3195
  1670.5000      0.0000    709.6191      4.4612    130.1880
  1670.7500      0.0000    696.6360      4.5958    125.9025
  1671.0000      0.0000    681.9601      4.6544    122.7278
  1671.2500      0.0000    669.0350      4.6047    121.1928
  1671.5000      0.0000    663.3453      4.4818    120.8708
  1671.7500      0.0000    667.2903      4.3498    121.0568
  1672.0000      0.0000    676.8005      4.2480    121.6507
  1672.2500      0.0000    684.5900      4.1858    123.1549
  1672.5000      0.0000    686.3608      4.1628    125.7396
  1672.7500      0.0000    683.3973      4.1734    128.6717
  1673.0000      0.0000    680.1709      4.2048    130.8809
  1673.2500      0.0000    680.1611      4.2462    132.0165
  1673.5000      0.0000    683.6584      4.2793    132.8945
  1673.7500      0.0000    688.9396      4.2568    134.6364
  1674.0000      0.0000    694.8088      4.1250    136.9905
  1674.2500      0.0000    701.4923      3.8931    137.7593
  1674.5000      0.0000    709.1880      3.6503    134.5263
  1674.7500      0.0000    716.7372      3.4837    126.9265
  1675.0000      0.0000    722.5080      3.3925    116.9097
  1675.2500      0.0000    726.6193      3.3212    107.1088
  1675.5000      0.0000    731.8776      3.2601     99.5501
  1675.7500      0.0000    741.9308      3.2610     95.6983
  1676.0000      0.0000    757.6375      3.3484     96.4843
  1676.2500      0.0000    775.0627      3.4670    101.3592
  1676.5000      0.0000    787.4694      3.5402    107.8068
  1676.7500      0.0000    789.1888      3.5535    112.8139
  1677.0000      0.0000    777.7009      3.5605    115.0724
  1677.2500      0.0000    753.6882      3.6228    115.3165
  1677.5000      0.0000    721.0074      3.7562    114.5869
  1677.7500      0.0000    686.5491      3.9319    112.8282
  1678.0000      0.0000    658.4963      4.1115    109.4543
  1678.2500      0.0000    642.6846      4.2749    104.6498
  1678.5000      0.0000    639.0340      4.4238     99.4321
  1678.7500      0.0000    641.5164      4.5678     94.5715
  1679.0000      0.0000    642.8116      4.7071     90.0840
  1679.2500      0.0000    639.8362      4.8175     85.8877
  1679.5000      0.0000    635.0545      4.8595     82.5550
  1679.7500      0.0000    632.7694      4.8162     81.1112
  1680.0000      0.0000    634.5444      4.7149     82.0456
  1680.2500      0.0000    638.3114      4.5992     84.7904
  1680.5000      0.0000    641.4261      4.4878     88.4982
  1680.7500      0.0000    643.9413      4.3795     93.1342
  1681.0000      0.0000    648.7429      4.2888     99.2649
  1681.2500      0.0000    657.8855      4.2423    106.7207
  1681.5000      0.0000    667.8586      4.2281    114.0128
  1681.7500      0.0000    669.2048      4.1822    119.2910
  1682.0000      0.0000    653.0716      4.0551    121.5147
  1682.2500      0.0000    619.6775      3.8839    120.7114
  1682.5000      0.0000    580.8863      3.7616    117.7443
  1682.7500      0.0000    553.9693      3.7349    114.0134
  1683.0000      0.0000    550.9158      3.7678    110.8404
  1683.2500      0.0000    571.1323      3.8182    108.8262
  1683.5000      0.0000    602.7917      3.9072    107.8314
  1683.7500      0.0000    631.4456      4.0753    107.3996
  1684.0000      0.0000    648.7883      4.2946    107.0506
  1684.2500      0.0000    654.9880      4.4749    106.3271
  1684.5000      0.0000    654.9083      4.5625    104.7389
  1684.7500      0.0000    653.1882      4.5970    101.7379
  1685.0000      0.0000    651.7335      4.6508     96.9628
  1685.2500      0.0000    649.9952      4.7364     90.7073
  1685.5000      0.0000    646.7318      4.8027     84.0744
  1685.7500      0.0000    641.4382      4.8110     78.4981
  1686.0000      0.0000    634.7236      4.7767     75.1553
  1686.2500      0.0000    628.3773      4.7222     74.8962
  1686.5000      0.0000    625.2073      4.6264     78.3604
  1686.7500      0.0000    627.4514      4.4611     85.5284
  1687.0000      0.0000    634.5940      4.2651     94.8838
  1687.2500      0.0000    643.5496      4.1330    103.3887
  1687.5000      0.0000    651.3910      4.1151    108.0003
  1687.7500      0.0000    656.5796      4.1583    107.7168
  1688.0000      0.0000    657.0013      4.1701    104.2194
  1688.2500      0.0000    649.0826      4.1273    100.6252
  1688.5000      0.0000    631.5114      4.1018     99.8210
  1688.7500      0.0000    609.1761      4.1700    103.5034
  1689.0000      0.0000    590.8761      4.3156    111.5223
  1689.2500      0.0000    582.8442      4.4468    121.2682
  1689.5000      0.0000    585.9000      4.5038    128.3095
  1689.7500      0.0000    597.7122      4.5162    128.8581
  1690.0000      0.0000    614.9216      4.5503    122.1465
  1690.2500      0.0000    633.1973      4.6226    110.4487
  1690.5000      0.0000    648.1273      4.6760     97.2138
  1690.7500      0.0000    657.4055      4.6362     85.4926
  1691.0000      0.0000    661.6100      4.4896     77.6052
  1691.2500      0.0000    662.7654      4.3033     75.1297
  1691.5000      0.0000    662.6147      4.1574     78.2913
  1691.7500      0.0000    662.0328      4.0642     85.3580
  1692.0000      0.0000    661.6301      3.9776     93.2997
  1692.2500      0.0000    662.7683      3.8809     99.6819
  1692.5000      0.0000    667.8859      3.8295    104.0531
  1692.7500      0.0000    679.0601      3.8851    107.5061
  1693.0000      0.0000    695.5265      4.0250    111.2460
  1693.2500      0.0000    712.8436      4.1488    115.7639
  1693.5000      0.0000    725.4000      4.1768    120.7112
  1693.7500      0.0000    730.2426      4.1220    124.7892
  1694.0000      0.0000    728.6729      4.0559    126.0656
  1694.2500      0.0000    724.5704      4.0169    123.2507
  1694.5000      0.0000    721.3036      3.9685    116.9053
  1694.7500      0.0000    719.4764      3.8515    109.2111
  1695.0000      0.0000    716.8399      3.6727    102.5839
  1695.2500      0.0000    710.1765      3.5286     98.5073
  1695.5000      0.0000    697.5751      3.5288     97.2409
  1695.7500      0.0000    679.6277      3.6908     98.1550
  1696.0000      0.0000    659.1201      3.9148    100.4551
  1696.2500      0.0000    638.8262      4.0716    103.9497
  1696.5000      0.0000    618.7272      4.1197    108.9440
  1696.7500      0.0000    596.4707      4.1292    115.1441
  1697.0000      0.0000    572.3370      4.1907    120.9859
  1697.2500      0.0000    553.0695      4.3091    124.3957
  1697.5000      0.0000    548.1889      4.3926    124.1703
  1697.7500      0.0000    561.0092      4.3460    120.8066
  1698.0000      0.0000    583.9102      4.1732    116.2525
  1698.2500      0.0000    603.5396      3.9861    112.7210
