~Version Information
VERS.                      2.0: CWLS Log ASCII Standard - VERSION 2.0
WRAP.                       NO: One line per depth step
~Well Information Block
STRT.FT               533.0000: 
STOP.FT              1578.0000: 
STEP.FT                 0.2500: 
NULL.                -999.2500: 
COMP.          Pioneer Natural Resources: COMPANY
WELL.           Telna 24-22 Tr: WELL
FLD.           Purgatoire River: FIELD
LOC.           748' FSL & 1931' FWL: LOCATION
PROV.                 Colorado: PROVINCE
CNTY.               Las Animas: COUNTRY
SRVC.                Patterson: SERVICE COMPANY
DATE.          Sun May 01 14:14:42 2005: LOG DATE
UWI.           05 071 08304 00: UNIQUE WELL ID
~Curve Information Block
DEPT.FT            0 000 00 00: Depth
SN.Ohm-m                      : IEL Short Normal
SP.mV                         : IEL Spontaneous Potential
DIR.Ohm-m                     : IEL Induction Resistivity
GR.GAPI                       : Gamma Ray
~Parameter Information Block
~A  Depth        SN          SP         DIR          GR     
# ...
  1471.0000     32.1477     33.0921     28.5758     97.9319
  1471.2500     32.7015     32.6894     28.8645     95.6838
  1471.5000     33.2910     32.2589     28.9569     92.0961
  1471.7500     33.8732     31.8330     28.8938     90.0894
  1472.0000     34.3995     31.4393     28.7546     88.3510
  1472.2500     34.8588     31.0954     28.6037     88.2374
  1472.5000     35.1985     30.8040     28.4522     89.4684
  1472.7500     35.2517     30.5533     28.2565     90.8059
  1473.0000     34.8074     30.3286     27.9406     92.7355
  1473.2500     33.7932     30.1224     27.4245     93.7167
  1473.5000     32.3734     29.9360     26.6555     94.8515
  1473.7500     30.8119     29.7735     25.6393     95.6383
  1474.0000     29.2497     29.6400     24.4530     97.4436
  1474.2500     27.6498     29.5428     23.2150     99.4610
  1474.5000     25.9322     29.4884     22.0325    104.2311
  1474.7500     24.1099     29.4767     20.9646    108.5845
  1475.0000     22.3007     29.4946     20.0232    116.2548
  1475.2500     20.6612     29.5181     19.1994    121.4946
  1475.5000     19.3069     29.5248     18.4848    128.2991
  1475.7500     18.2727     29.5070     17.8734    131.5076
  1476.0000     17.5416     29.4723     17.3499    133.5883
  1476.2500     17.0716     29.4293     16.8833    132.8392
  1476.5000     16.7796     29.3777     16.4381    128.2915
  1476.7500     16.5588     29.3150     15.9935    123.4057
  1477.0000     16.3431     29.2533     15.5538    115.4382
  1477.2500     16.1458     29.2196     15.1391    111.3893
  1477.5000     16.0257     29.2324     14.7684    109.3754
  1477.7500     15.9859     29.2816     14.4449    111.0179
  1478.0000     15.9225     29.3347     14.1523    116.8038
  1478.2500     15.6972     29.3581     13.8603    121.6797
  1478.5000     15.2410     29.3320     13.5388    128.5727
  1478.7500     14.5899     29.2529     13.1742    132.1973
  1479.0000     13.8567     29.1296     12.7759    135.9052
  1479.2500     13.1764     28.9745     12.3671    137.4131
  1479.5000     12.6436     28.7981     11.9696    138.7448
  1479.7500     12.2722     28.6086     11.5945    139.2626
  1480.0000     12.0036     28.4125     11.2427    139.6960
  1480.2500     11.7459     28.2136     10.9110    139.9168
  1480.5000     11.4221     28.0163     10.5969    140.8784
  1480.7500     11.0101     27.8327     10.3010    142.4719
  1481.0000     10.5502     27.6857     10.0275    146.4399
  1481.2500     10.1165     27.6008      9.7853    149.5060
  1481.5000      9.7692     27.5913      9.5874    153.0887
  1481.7500      9.5328     27.6478      9.4482    154.1354
  1482.0000      9.4200     27.7407      9.3772    153.5467
  1482.2500      9.4494     27.8361      9.3731    152.0296
  1482.5000      9.6040     27.9133      9.4228    148.8656
  1482.7500      9.7911     27.9731      9.5059    146.6852
  1483.0000      9.9205     28.0355      9.6056    144.0845
  1483.2500      9.9963     28.1317      9.7160    143.0139
  1483.5000     10.0392     28.2937      9.8426    142.1535
  1483.7500     10.0058     28.5449      9.9973    141.5537
  1484.0000      9.8818     28.8922     10.1913    139.4785
  1484.2500      9.7794     29.3231     10.4311    137.0150
  1484.5000      9.8902     29.8091     10.7176    132.6226
  1484.7500     10.3704     30.3134     11.0483    130.4284
  1485.0000     11.2703     30.8005     11.4192    130.0346
  1485.2500     12.4970     31.2450     11.8244    131.8982
  1485.5000     13.8083     31.6360     12.2512    136.5432
  1485.7500     14.9393     31.9761     12.6743    139.5042
  1486.0000     15.7475     32.2752     13.0566    141.3296
  1486.2500     16.1969     32.5425     13.3616    139.8425
  1486.5000     16.3283     32.7788     13.5721    133.5823
  1486.7500     16.2576     32.9794     13.7016    127.9469
  1487.0000     16.1177     33.1457     13.7837    120.7039
  1487.2500     15.9970     33.2924     13.8490    118.4877
  1487.5000     15.9141     33.4396     13.9087    120.3564
  1487.7500     15.8252     33.6014     13.9570    124.5907
  1488.0000     15.6577     33.7780     13.9847    133.3261
  1488.2500     15.3440     33.9511     13.9883    139.3421
  1488.5000     14.8619     34.0852     13.9691    146.6537
  1488.7500     14.2748     34.1406     13.9267    149.6661
  1489.0000     13.7141     34.0903     13.8566    151.1044
  1489.2500     13.2942     33.9291     13.7562    150.2703
  1489.5000     13.0424     33.6682     13.6323    147.0286
  1489.7500     12.9174     33.3261     13.5014    144.0232
  1490.0000     12.8774     32.9226     13.3791    139.4232
  1490.2500     12.9028     32.4780     13.2698    137.1028
  1490.5000     12.9628     32.0159     13.1631    135.5203
  1490.7500     12.9984     31.5628     13.0415    135.4738
  1491.0000     12.9556     31.1425     12.8932    135.7030
  1491.2500     12.8249     30.7686     12.7214    135.5951
  1491.5000     12.6423     30.4431     12.5445    135.4582
  1491.7500     12.4519     30.1629     12.3877    136.0343
  1492.0000     12.2714     29.9288     12.2725    138.5363
  1492.2500     12.0985     29.7409     12.2087    141.0466
  1492.5000     11.9331     29.5857     12.1929    144.8780
  1492.7500     11.7735     29.4339     12.2107    146.7212
  1493.0000     11.6084     29.2584     12.2416    147.5540
  1493.2500     11.4463     29.0536     12.2654    146.6491
  1493.5000     11.3353     28.8311     12.2679    143.3067
  1493.7500     11.3275     28.6026     12.2435    140.0384
  1494.0000     11.4403     28.3722     12.1937    134.1779
  1494.2500     11.6483     28.1426     12.1237    130.1255
  1494.5000     11.8912     27.9205     12.0403    125.0951
  1494.7500     12.1130     27.7080     11.9505    123.1912
  1495.0000     12.3084     27.4959     11.8622    122.9474
  1495.2500     12.4831     27.2701     11.7814    124.1494
  1495.5000     12.5925     27.0212     11.7091    126.9833
  1495.7500     12.5843     26.7421     11.6385    129.1732
  1496.0000     12.4555     26.4251     11.5557    132.5784
  1496.2500     12.2322     26.0703     11.4454    134.6947
  1496.5000     11.9429     25.6965     11.2971    137.2778
  1496.7500     11.6064     25.3348     11.1099    138.7672
  1497.0000     11.2309     25.0122     10.8908    141.6499
  1497.2500     10.8404     24.7406     10.6507    144.4766
  1497.5000     10.4850     24.5173     10.3993    149.6564
  1497.7500     10.2028     24.3344     10.1451    152.8219
  1498.0000      9.9862     24.1858      9.8974    155.5566
  1498.2500      9.7994     24.0671      9.6675    155.6982
  1498.5000      9.6246     23.9713      9.4667    154.0567
  1498.7500      9.4795     23.8867      9.3015    152.6055
  1499.0000      9.3835     23.8044      9.1713    151.5103
  1499.2500      9.3193     23.7264      9.0710    152.0161
  1499.5000      9.2388     23.6655      8.9960    154.0444
  1499.7500      9.0946     23.6424      8.9466    155.2052
  1500.0000      8.8470     23.6844      8.9272    155.0867
  1500.2500      8.4791     23.8204      8.9432    153.5917
  1500.5000      8.0836     24.0668      8.9985    149.9802
  1500.7500      7.8940     24.4127      9.0969    147.1955
  1501.0000      8.1313     24.8214      9.2429    143.1714
  1501.2500      8.8301     25.2464      9.4425    141.0643
  1501.5000      9.7884     25.6458      9.7008    139.4467
  1501.7500     10.6659     25.9871     10.0197    139.2044
  1502.0000     11.2104     26.2476     10.3964    138.5352
  1502.2500     11.4137     26.4197     10.8242    136.9017
  1502.5000     11.4482     26.5162     11.2941    132.0821
  1502.7500     11.5307     26.5661     11.7987    127.5740
  1503.0000     11.8587     26.6031     12.3348    119.6559
  1503.2500     12.5920     26.6576     12.9052    114.0266
  1503.5000     13.8181     26.7553     13.5182    105.8288
  1503.7500     15.5110     26.9189     14.1894    101.0430
  1504.0000     17.5793     27.1657     14.9432     95.5637
  1504.2500     19.9817     27.4992     15.8103     93.1398
