~Version Information
VERS.                      2.0: CWLS Log ASCII Standard - VERSION 2.0
WRAP.                       NO: One line per depth step
~Well Information Block
STRT.FT               554.0000: 
STOP.FT              1002.0000: 
STEP.FT                 0.1000: 
NULL.                -999.2500: 
COMP.          Pioneer Natural Resources: COMPANY
WELL.          Rising Star 22-11: WELL
FLD.           Purgatoire River: FIELD
LOC.           2152' FNL & 2105' FWL: LOCATION
PROV.                 Colorado: PROVINCE
CNTY.               Las Animas: COUNTRY
SRVC.                Patterson: SERVICE COMPANY
DATE.          Mon Apr 11 16:46:53 2005: LOG DATE
UWI.           05 071 08354 00: UNIQUE WELL ID
~Curve Information Block
DEPT.FT            0 000 00 00: Depth
DCAL.in                       : CDL Caliper
RHOB.g/cc                     : CDL Bulk Density
RHOC.g/cc                     : CDL Density Correction
DPOR.pu                       : CDL Density Porosity
GR.GAPI                       : Gamma Ray
NPOR.pu                       : Neutron Porosity
~Parameter Information Block
~A  Depth       DCAL        RHOB        RHOC        DPOR         GR         NPOR    
# ...
   928.4000      7.8884      2.5663      0.0208      5.0708     61.0509     25.8537
   928.5000      7.8859      2.5933      0.0624      3.4393     59.9233     25.4621
   928.6000      7.8859      2.5965      0.0419      3.2436     61.0388     25.2643
   928.7000      7.8859      2.5781      0.0197      4.3557     63.4972     25.3108
   928.8000      7.8818      2.5602      0.0251      5.4451     67.4634     25.1702
   928.9000      7.8818      2.5536      0.0386      5.8419     73.5382     24.9447
   929.0000      7.8856      2.5467      0.0729      6.2625     78.3185     25.3237
   929.1000      7.8856      2.5282      0.0121      7.3846     78.6306     25.7686
   929.2000      7.8856      2.5161     -0.0295      8.1128     77.0639     25.4844
   929.3000      7.8804      2.5239      0.0451      7.6432     78.5804     25.1503
   929.4000      7.8804      2.5380     -0.0242      6.7905     83.7892     25.6448
   929.5000      7.8758      2.5497     -0.0074      6.0797     88.1130     26.3758
   929.6000      7.8758      2.5566     -0.0011      5.6589     89.7874     26.3094
   929.7000      7.8758      2.5478      0.0282      6.1967     89.7574     25.8374
   929.8000      7.8852      2.5294     -0.0335      7.3074     87.6398     25.4925
   929.9000      7.8852      2.5264     -0.0078      7.4915     85.6867     25.0237
   930.0000      7.8951      2.5390      0.0287      6.7292     87.0507     24.7270
   930.1000      7.8951      2.5571     -0.0004      5.6297     90.4385     24.9482
   930.2000      7.8951      2.5782      0.0368      4.3532     93.3687     25.4448
   930.3000      7.8952      2.5896      0.0460      3.6633     93.0410     25.8403
   930.4000      7.8952      2.5846      0.0096      3.9611     87.0582     25.8736
   930.5000      7.9015      2.5718      0.0291      4.7392     80.2351     25.1511
   930.6000      7.9015      2.5580     -0.0144      5.5771     77.8672     23.8503
   930.7000      7.9015      2.5440      0.0074      6.4233     78.3348     23.2308
   930.8000      7.9042      2.5364     -0.0182      6.8875     77.0342     23.7772
   930.9000      7.9042      2.5452      0.0325      6.3497     72.5497     24.5497
   931.0000      7.8988      2.5612      0.0555      5.3794     67.7992     25.1824
   931.1000      7.8988      2.5625      0.0656      5.3007     65.2463     25.9016
   931.2000      7.8988      2.5464     -0.0142      6.2773     64.6995     26.3028
   931.3000      7.9025      2.5263     -0.0058      7.4940     66.9074     25.9286
   931.4000      7.9025      2.5101     -0.0073      8.4796     72.5961     25.4083
   931.5000      7.8958      2.5149     -0.0346      8.1878     78.5625     25.7582
   931.6000      7.8958      2.5554      0.0349      5.7318     81.3420     26.5110
   931.7000      7.8958      2.5996      0.0962      3.0542     81.6889     26.1728
   931.8000      7.8950      2.6055      0.0528      2.6942     82.8692     25.2965
   931.9000      7.8950      2.5841      0.0184      3.9937     87.7589     25.2553
   932.0000      7.8957      2.5720      0.0642      4.7276     93.9529     25.3651
   932.1000      7.8957      2.5763      0.0295      4.4663     96.2658     24.6877
   932.2000      7.8957      2.5792      0.0524      4.2914     97.6269     23.8996
   932.3000      7.8953      2.5743      0.0255      4.5886    101.3375     24.0662
   932.4000      7.8953      2.5729     -0.0018      4.6731    100.5007     24.9332
   932.5000      7.9193      2.5777      0.0221      4.3803     92.6044     25.2827
   932.6000      7.9193      2.5734      0.0396      4.6410     86.2598     24.8075
   932.7000      7.9193      2.5564      0.0145      5.6730     83.5796     24.2235
   932.8000      7.8836      2.5456     -0.0190      6.3267     80.6382     24.1093
   932.9000      7.8836      2.5520      0.0128      5.9398     77.2800     24.2613
   933.0000      7.8775      2.5661      0.0239      5.0866     71.5613     24.3146
   933.1000      7.8775      2.5707      0.1098      4.8072     63.7739     24.6194
   933.2000      7.8775      2.5574      0.0211      5.6127     58.4462     24.7703
   933.3000      7.8634      2.5420      0.0506      6.5444     57.0953     23.9930
   933.4000      7.8634      2.5402      0.0845      6.6552     57.5064     22.9327
   933.5000      7.8447      2.5429      0.0879      6.4925     59.1125     22.7167
   933.6000      7.8447      2.5354      0.0567      6.9441     62.2588     23.4998
   933.7000      7.8447      2.5288     -0.0066      7.3459     64.0688     24.5830
   933.8000      7.8235      2.5465      0.0603      6.2713     66.1402     25.3275
   933.9000      7.8235      2.5828      0.1552      4.0715     71.8679     25.7721
   934.0000      7.8168      2.6090      0.1296      2.4857     76.5753     26.0368
   934.1000      7.8168      2.6052      0.1856      2.7126     75.9731     25.9143
   934.2000      7.8168      2.5746      0.1089      4.5679     73.7978     25.4132
   934.3000      7.8085      2.5453      0.0761      6.3480     74.9815     25.0177
   934.4000      7.8085      2.5392      0.0773      6.7166     78.8062     24.8967
   934.5000      7.8006      2.5511      0.0922      5.9915     81.4073     24.9630
   934.6000      7.8006      2.5687      0.0867      4.9284     82.1349     25.0620
   934.7000      7.8006      2.5884      0.0919      3.7324     83.5341     24.9319
   934.8000      7.8503      2.6057      0.1188      2.6849     84.8034     24.7238
   934.9000      7.8503      2.6126      0.1070      2.2651     82.1041     24.7639
   935.0000      7.9051      2.6077      0.0938      2.5648     75.7308     25.1123
   935.1000      7.9051      2.5952      0.0818      3.3186     69.2468     25.5421
   935.2000      7.9051      2.5817      0.0712      4.1387     66.9259     25.9786
   935.3000      7.8956      2.5730      0.0385      4.6657     69.8910     26.6115
   935.4000      7.8956      2.5665      0.0714      5.0625     73.2029     27.1231
   935.5000      7.8717      2.5527      0.0578      5.8954     74.0129     27.1187
   935.6000      7.8717      2.5347      0.0038      6.9902     73.9402     27.2428
   935.7000      7.8717      2.5275     -0.0222      7.4255     75.1237     27.8785
   935.8000      7.8562      2.5353      0.0075      6.9517     79.3227     27.8096
   935.9000      7.8562      2.5445      0.0447      6.3935     85.5570     26.6144
   936.0000      7.8703      2.5464      0.0024      6.2789     90.0961     25.5662
   936.1000      7.8703      2.5461      0.0386      6.2979     90.1604     25.5547
   936.2000      7.8703      2.5486      0.0617      6.1460     88.4270     26.2871
   936.3000      7.8957      2.5551      0.0622      5.7534     89.7504     26.5028
   936.4000      7.8957      2.5625      0.0865      5.3039     93.1997     25.8064
   936.5000      7.9086      2.5676      0.0533      4.9952     94.5417     25.0790
   936.6000      7.9086      2.5737      0.0644      4.6253     91.5716     24.5974
   936.7000      7.9086      2.5803      0.1212      4.2263     85.6436     24.1997
   936.8000      7.9018      2.5794      0.1023      4.2791     79.8601     24.2236
   936.9000      7.9018      2.5712      0.0765      4.7784     76.5091     24.5002
   937.0000      7.9288      2.5683      0.0294      4.9498     74.3445     24.0525
   937.1000      7.9288      2.5801      0.0660      4.2366     70.9590     22.9126
   937.2000      7.9288      2.5950      0.0990      3.3354     68.6547     22.1751
   937.3000      7.8329      2.5971      0.1227      3.2090     70.3890     22.0476
   937.4000      7.8329      2.5834      0.1101      4.0368     74.8656     22.1700
   937.5000      7.8267      2.5617      0.0517      5.3539     78.0131     23.0522
   937.6000      7.8267      2.5440      0.0471      6.4256     80.3321     24.9432
   937.7000      7.8267      2.5327      0.0768      7.1091     87.3711     26.9165
   937.8000      7.8532      2.5297      0.0238      7.2913     97.3840     27.5831
   937.9000      7.8532      2.5385      0.0855      6.7567    103.7435     26.5898
