~Version Information
VERS.                      2.0: CWLS Log ASCII Standard - VERSION 2.0
WRAP.                       NO: One line per depth step
~Well Information Block
STRT.FT               -19.5000: 
STOP.FT              2456.0000: 
STEP.FT                 0.2500: 
NULL.                -999.2500: 
COMP.          Petrogulf Corporation: COMPANY
WELL.           Montoya 12-44V: WELL
FLD.           Purgatorie River: FIELD
LOC.           698' FSL & 599' FEL: LOCATION
CNTY.               Las Animas: COUNTY
SRVC.                         : SERVICE COMPANY
DATE.          Mon Sep 13 13:44:10 2004: LOG DATE
UWI.           05-071-08094-00: UNIQUE WELL ID
STAT.                 Colorado: STATE
~Curve Information Block
DEPT.FT            0 000 00 00: Depth
TT3.usec                      : CBL 3' Travel Time
AMP3.mV                       : CBL 3' Amplitude
GR.GAPI                       : Gamma Ray
CCL.                          : Casing Collar Locator
~Parameter Information Block
~A  Depth       TT3         AMP3         GR         CCL     
# ...
   784.5000    353.8312      6.9962     76.6299      0.0000
   784.7500    348.6494      7.1232     79.9322      0.0000
   785.0000    351.2642      7.1120     85.6974      0.0000
   785.2500    363.4221      6.9931     92.4585      0.0000
   785.5000    379.2410      6.9352     98.4427      0.0000
   785.7500    386.5291      6.9407    102.5793      0.0000
   786.0000    378.7857      6.9259    104.5849      0.0000
   786.2500    364.0923      6.9594    104.5803      0.0000
   786.5000    355.6859      7.0536    103.1457      0.0000
   786.7500    358.4371      7.0793    101.4895      0.0000
   787.0000    367.2151      7.0194    100.9461      0.0000
   787.2500    375.4942      6.9799    102.1752      0.0000
   787.5000    387.6796      6.9945    105.0021      0.0000
   787.7500    422.4300      6.9699    108.8584      0.0000
   788.0000    492.6523      6.7904    113.0548      0.0000
   788.2500    582.1458      6.4324    116.7355      0.0000
   788.5000    660.1899      5.9809    119.0315      0.0000
   788.7500    710.1315      5.5534    119.5353      0.0000
   789.0000    726.7458      5.2279    118.4813      0.0000
   789.2500    708.2001      5.0268    116.3300      0.0000
   789.5000    666.2430      4.9242    113.3772      0.0000
   789.7500    633.8667      4.8600    110.0341      0.0000
   790.0000    642.2829      4.7822    107.2249      0.0000
   790.2500    683.5768      4.6787    106.0502      0.0000
   790.5000    720.7917      4.5542    107.0659      0.0000
   790.7500    734.1800      4.4028    109.9600      0.0000
   791.0000    732.0885      4.2325    113.5272      0.0000
   791.2500    727.5977      4.0835    115.8299      0.0000
   791.5000    725.7253      3.9942    115.1665      0.0000
   791.7500    726.7189      3.9652    111.3493      0.0000
   792.0000    730.2025      3.9666    105.6153      0.0000
   792.2500    735.0084      3.9703     99.2844      0.0000
   792.5000    738.4646      3.9652     93.1244      0.0000
   792.7500    740.6115      3.9480     87.8469      0.0000
   793.0000    747.3039      3.9216     84.3373      0.0000
   793.2500    761.7160      3.9094     83.1690      0.0000
   793.5000    776.1159      3.9336     84.1695      0.0000
   793.7500    782.2017      3.9794     86.5307      0.0000
   794.0000    782.9568      4.0167     89.2462      0.0000
   794.2500    784.4765      4.0516     91.4948      0.0000
   794.5000    787.7479      4.1534     92.8588      0.0000
   794.7500    789.7251      4.4537     93.3804      0.0000
   795.0000    778.7045      5.0810     93.3357      0.0000
   795.2500    732.8077      6.0506     92.9275      0.0000
   795.5000    637.7650      7.2244     92.3783      0.0000
   795.7500    514.7474      8.4105     92.3010      0.0000
   796.0000    412.6700      9.5242     93.7068      0.0000
   796.2500    358.2851     10.6059     97.5153      0.0000
   796.5000    339.4404     11.6285    104.0268      0.0000
   796.7500    335.0221     12.4093    112.7437      0.0000
   797.0000    334.3628     12.8461    122.4657      0.0000
   797.2500    334.4166     13.1242    131.5354      0.0000
   797.5000    334.4182     13.5371    138.4718      0.0000
   797.7500    334.2175     14.1557    143.0867      0.0000
   798.0000    333.9937     14.7357    147.0679      0.0000
   798.2500    334.0232     14.9147    152.7176      0.0000
   798.5000    334.4872     14.4739    160.5590      0.0000
   798.7500    335.3405     13.4473    168.5152      0.0000
   799.0000    336.3470     12.0859    173.9085      0.0000
   799.2500    337.2554     10.7596    176.0316      0.0000
   799.5000    337.9069      9.7956    176.3547      0.0000
   799.7500    338.2357      9.3211    176.5800      0.0000
   800.0000    338.2376      9.2597    177.1929      0.0000
   800.2500    337.9221      9.4838    177.7556      0.0000
   800.5000    337.3283      9.9657    177.8096      0.0000
   800.7500    336.5711     10.7653    177.2576      0.0000
   801.0000    335.7860     11.8860    176.4146      0.0000
   801.2500    335.0457     13.2271    176.0835      0.0000
   801.5000    334.3834     14.6838    177.2279      0.0000
   801.7500    333.8253     16.2112    180.0287      0.0000
   802.0000    333.3759     17.7949    183.3261      0.0000
   802.2500    333.0098     19.3869    185.3207      0.0000
   802.5000    332.6754     20.8607    184.7903      0.0000
   802.7500    332.3324     22.0425    181.7222      0.0000
   803.0000    331.8209     22.8345    177.1906      0.0000
   803.2500    330.3610     23.3483    172.6043      0.0000
   803.5000    326.4213     23.8346    168.6852      0.0000
   803.7500    319.6945     24.3513    165.2983      0.0000
   804.0000    313.9018     24.5506    162.4498      0.0000
   804.2500    314.2217     23.9824    160.8650      0.0000
   804.5000    320.4976     22.6125    161.2736      0.0000
   804.7500    327.4412     20.8249    163.8042      0.0000
   805.0000    331.4803     18.9527    168.2075      0.0000
   805.2500    333.0305     17.0770    173.7202      0.0000
   805.5000    333.5620     15.2475    178.5217      0.0000
   805.7500    333.7703     13.6449    180.3142      0.0000
   806.0000    333.8604     12.4811    178.0560      0.0000
   806.2500    333.9830     11.8470    172.9589      0.0000
   806.5000    334.2060     11.6646    167.7785      0.0000
   806.7500    334.4717     11.7127    165.0992      0.0000
   807.0000    334.7151     11.7103    165.8027      0.0000
   807.2500    334.9202     11.4641    168.6831      0.0000
   807.5000    335.1247     10.9694    171.3477      0.0000
   807.7500    335.4051     10.3599    171.7833      0.0000
   808.0000    335.7946      9.7750    169.9643      0.0000
   808.2500    336.2567      9.2906    168.4021      0.0000
   808.5000    336.7359      8.9358    170.2161      0.0000
   808.7500    337.1820      8.7203    175.7732      0.0000
   809.0000    337.5806      8.6292    181.7927      0.0000
   809.2500    338.2085      8.5893    184.5035      0.0000
   809.5000    340.1930      8.4936    183.1301      0.0000
   809.7500    345.6704      8.3021    179.7627      0.0000
   810.0000    356.1869      8.0549    176.7432      0.0000
   810.2500    371.2822      7.7929    175.0966      0.0000
   810.5000    393.4763      7.5405    174.7842      0.0000
   810.7500    433.9349      7.3466    175.0760      0.0000
   811.0000    495.8342      7.2841    174.5558      0.0000
   811.2500    545.6238      7.4018    171.8387      0.0000
   811.5000    535.2999      7.7001    166.7724      0.0000
   811.7500    467.5000      8.1442    160.3655      0.0000
   812.0000    394.8149      8.6900    153.3977      0.0000
   812.2500    353.1668      9.3009    145.7014      0.0000
   812.5000    338.4341      9.9523    137.0067      0.0000
   812.7500    334.8696     10.6282    128.0135      0.0000
   813.0000    334.0472     11.3032    120.1420      0.0000
   813.2500    333.6431     11.9325    114.3232      0.0000
   813.5000    333.2592     12.4581    110.5470      0.0000
   813.7500    332.9084     12.8116    108.6199      0.0000
   814.0000    332.6868     12.9238    108.6507      0.0000
   814.2500    332.6711     12.7527    110.4854      0.0000
   814.5000    332.9252     12.3237    113.2353      0.0000
   814.7500    333.4405     11.7692    115.7996      0.0000
   815.0000    333.9951     11.2944    117.7216      0.0000
   815.2500    334.2891     11.0617    119.5648      0.0000
   815.5000    334.2798     11.1053    122.6348      0.0000
   815.7500    334.1893     11.2870    128.0361      0.0000
   816.0000    334.2443     11.3116    135.4721      0.0000
   816.2500    334.5535     10.9418    143.1664      0.0000
   816.5000    335.1176     10.2454    149.5682      0.0000
   816.7500    335.8495      9.5171    155.1185      0.0000
   817.0000    336.5767      8.9885    161.7440      0.0000
   817.2500    337.0209      8.7081    170.3524      0.0000
   817.5000    336.9441      8.6513    179.2321      0.0000
   817.7500    336.3854      8.8365    185.3766      0.0000
