~Version Information
VERS.                      2.0: CWLS Log ASCII Standard - VERSION 2.0
WRAP.                       NO: One line per depth step
~Well Information Block
STRT.FT               492.8000: 
STOP.FT              1992.0000: 
STEP.FT                 0.1000: 
NULL.                -999.2500: 
COMP.          Petrogulf Corporation: COMPANY
WELL.               Furu 6-23R: WELL
FLD.           Purgatoire River: FIELD
LOC.           2211' FSL & 1780' FWL--: LOCATION
CNTY.               Las Animas: COUNTY
SRVC.                Patterson: SERVICE COMPANY
DATE.          Thu Jun 22 14:21:35 2006: LOG DATE
UWI.           05 071 08266 00: UNIQUE WELL ID
STAT.                 Colorado: STATE
~Curve Information Block
DEPT.FT            0 000 00 00: Depth
DCAL.in                       : CDL Caliper
RHOB.g/cc                     : CDL Bulk Density
RHOC.g/cc                     : CDL Density Correction
DPOR.pu                       : CDL Density Porosity
NPOR.pu                       : Neutron Porosity
GR.GAPI                       : Gamma Ray
~Parameter Information Block
~A  Depth       DCAL        RHOB        RHOC        DPOR        NPOR         GR     
# ...
   598.4000      8.0399      2.6331      0.0746      1.0228     24.8755    130.9141
   598.5000      8.0398      2.6696      0.1085     -1.1861     25.4776    128.6466
   598.6000      8.0398      2.6888      0.1101     -2.3544     26.0162    130.8036
   598.7000      8.0398      2.6931      0.1185     -2.6121     26.3496    134.3221
   598.8000      8.0396      2.6947      0.1065     -2.7078     26.5142    133.2958
   598.9000      8.0396      2.7049      0.1287     -3.3286     26.5391    131.5213
   599.0000      8.0392      2.7205      0.1505     -4.2721     26.5884    135.9616
   599.1000      8.0392      2.7268      0.1034     -4.6566     26.8230    142.6266
   599.2000      8.0392      2.7151      0.1216     -3.9442     27.1978    144.2987
   599.3000      8.0384      2.6912      0.0516     -2.4973     27.6330    139.4638
   599.4000      8.0384      2.6714      0.0610     -1.2992     28.0299    132.0733
   599.5000      8.0368      2.6646      0.0642     -0.8847     28.3126    127.8417
   599.6000      8.0368      2.6731      0.0654     -1.3989     28.4053    129.0545
   599.7000      8.0368      2.6945      0.1086     -2.6986     28.4155    131.8619
   599.8000      8.0335      2.7220      0.0990     -4.3640     28.8144    129.1090
   599.9000      8.0335      2.7479      0.0655     -5.9360     29.8753    121.7236
   600.0000      8.0270      2.7580      0.1200     -6.5437     31.1669    118.7456
   600.1000      8.0270      2.7408      0.0373     -5.5060     31.8974    121.1127
   600.2000      8.0270      2.7025      0.0086     -3.1838     31.7841    122.4191
   600.3000      8.0271      2.6529     -0.0273     -0.1736     31.2780    122.0909
   600.4000      8.0271      2.5989     -0.0630      3.0960     30.7563    122.7289
   600.5000      8.0271      2.5491     -0.0459      6.1173     30.1855    122.6235
   600.6000      8.0271      2.5113     -0.1147      8.4045     29.6166    120.4562
   600.7000      8.0271      2.4889     -0.0457      9.7634     29.2148    120.9724
   600.8000      8.0273      2.4770     -0.0029     10.4870     28.8708    127.9828
   600.9000      8.0273      2.4683      0.0600     11.0134     28.2488    139.3295
   601.0000      8.0275      2.4585      0.0817     11.6036     27.4506    149.7776
   601.1000      8.0275      2.4515      0.1233     12.0326     26.8616    152.8400
   601.2000      8.0275      2.4619      0.1225     11.3989     26.6457    146.5180
   601.3000      8.0280      2.4941      0.2289      9.4506     26.7317    138.3402
   601.4000      8.0280      2.5235      0.2305      7.6680     26.7743    138.0815
   601.5000      8.0291      2.5320      0.1857      7.1491     26.6025    143.9275
   601.6000      8.0291      2.5295      0.1741      7.3014     26.4280    144.9436
   601.7000      8.0291      2.5270      0.1655      7.4552     26.2564    138.0410
   601.8000      8.0311      2.5263      0.1306      7.4990     26.0042    131.8594
   601.9000      8.0311      2.5245      0.1124      7.6054     25.5256    133.9120
   602.0000      8.0352      2.5182      0.0961      7.9853     24.7927    143.2312
   602.1000      8.0352      2.5165      0.0385      8.0883     24.3457    152.9378
   602.2000      8.0352      2.5257      0.0973      7.5319     24.5243    155.9603
   602.3000      8.0304      2.5303      0.1021      7.2541     24.8458    149.8536
   602.4000      8.0304      2.5231      0.1001      7.6935     24.8024    138.8293
   602.5000      8.0207      2.5248      0.0488      7.5905     24.5504    130.2365
   602.6000      8.0207      2.5549      0.0726      5.7664     24.6746    124.2210
   602.7000      8.0207      2.5975      0.1427      3.1794     25.3876    116.4607
   602.8000      8.0014      2.6217      0.1391      1.7123     26.1806    111.5974
   602.9000      8.0014      2.6219      0.0851      1.7000     26.4965    115.9891
   603.0000      8.0018      2.6099      0.0977      2.4318     26.5124    127.1134
   603.1000      8.0018      2.5857      0.1248      3.8982     26.7561    136.0728
   603.2000      8.0018      2.5541      0.0577      5.8137     27.3768    138.2069
   603.3000      8.0026      2.5372      0.0567      6.8367     27.9606    137.7615
   603.4000      8.0026      2.5486      0.0228      6.1473     27.9693    136.4960
   603.5000      8.0042      2.5748      0.0823      4.5596     27.6241    131.7621
   603.6000      8.0042      2.5903      0.1077      3.6156     27.5309    124.7885
   603.7000      8.0042      2.5932      0.0708      3.4447     27.6745    119.2335
   603.8000      8.0075      2.6027      0.0568      2.8651     27.8613    119.4384
   603.9000      8.0075      2.6242      0.0906      1.5634     28.0810    125.5380
   604.0000      8.0140      2.6427      0.1369      0.4418     28.2774    129.5449
   604.1000      8.0140      2.6448      0.1189      0.3150     28.4421    125.2604
   604.2000      8.0140      2.6347      0.0636      0.9272     28.4834    117.6502
   604.3000      8.0270      2.6279      0.1009      1.3393     28.2347    111.5965
   604.4000      8.0270      2.6314      0.0817      1.1243     27.7145    106.1198
   604.5000      8.0400      2.6407      0.1080      0.5653     27.2519    102.3556
   604.6000      8.0400      2.6473      0.0724      0.1624     27.1326    103.8493
   604.7000      8.0400      2.6545      0.0716     -0.2756     27.0847    108.2267
   604.8000      8.0596      2.6670      0.1096     -1.0306     26.6383    110.2989
   604.9000      8.0596      2.6830      0.0786     -1.9972     26.2611    109.2666
   605.0000      8.0791      2.7027      0.1212     -3.1930     26.7935    106.7650
   605.1000      8.0791      2.7214      0.0898     -4.3251     27.9608    108.0900
   605.2000      8.0791      2.7371      0.0992     -5.2761     28.9295    114.7325
   605.3000      8.0856      2.7515      0.1221     -6.1538     29.6767    118.4137
   605.4000      8.0856      2.7672      0.0511     -7.1004     30.5766    114.8335
   605.5000      8.0920      2.7841      0.1010     -8.1293     31.5431    109.9764
   605.6000      8.0920      2.7876      0.0925     -8.3380     32.3290    107.0291
   605.7000      8.0920      2.7644      0.0610     -6.9321     32.9763    105.3133
   605.8000      8.0919      2.7238      0.0634     -4.4742     33.4521    105.0328
   605.9000      8.0919      2.6885      0.0047     -2.3325     33.5105    105.8431
   606.0000      8.0917      2.6697      0.0340     -1.1934     33.0869    107.2516
   606.1000      8.0917      2.6632      0.0306     -0.8011     32.4055    107.0959
   606.2000      8.0917      2.6680      0.0470     -1.0919     31.6059    105.5217
   606.3000      8.0912      2.6797      0.0370     -1.7975     30.6603    108.7174
   606.4000      8.0912      2.6782      0.0800     -1.7110     29.7774    117.7147
   606.5000      8.0904      2.6460      0.1109      0.2406     29.2975    125.5622
   606.6000      8.0904      2.6013      0.0299      2.9543     29.2777    128.3390
   606.7000      8.0904      2.5821      0.0431      4.1133     29.3529    128.0163
   606.8000      8.0886      2.5936      0.0589      3.4189     29.1650    127.1961
   606.9000      8.0886      2.6180      0.0716      1.9413     28.9877    126.9452
   607.0000      8.0850      2.6464      0.0663      0.2194     29.0938    127.9939
   607.1000      8.0850      2.6676      0.1199     -1.0665     29.0436    128.6299
   607.2000      8.0850      2.6712      0.0567     -1.2846     28.5486    128.9578
   607.3000      8.0779      2.6614      0.0831     -0.6890     28.0407    130.4177
   607.4000      8.0779      2.6442      0.0991      0.3528     27.8605    131.8334
   607.5000      8.0636      2.6268      0.0731      1.4041     28.1489    132.6287
   607.6000      8.0636      2.6190      0.0847      1.8776     29.1005    133.7587
   607.7000      8.0636      2.6252      0.0553      1.5009     30.2963    134.0779
   607.8000      8.0481      2.6368      0.1362      0.8003     30.8603    130.5083
   607.9000      8.0481      2.6336      0.1220      0.9969     30.7824    125.7955
