~Version Information
VERS.                      2.0: CWLS Log ASCII Standard - VERSION 2.0
WRAP.                       NO: One line per depth step
~Well Information Block
STRT.FT               732.2500: 
STOP.FT              2476.0000: 
STEP.FT                 0.2500: 
NULL.                -999.2500: 
COMP.          Petrogulf Corporation: COMPANY
WELL.            Montoya 7-14V: WELL
FLD.           Purgatorie River: FIELD
LOC.           535' FSL & 491' FWL: LOCATION
CNTY.               Las Animas: COUNTY
SRVC.                         : SERVICE COMPANY
DATE.          Mon Aug 23 05:51:43 2004: LOG DATE
UWI.           05 071 08019 00: UNIQUE WELL ID
STAT.                 Colorado: STATE
~Curve Information Block
DEPT.FT            0 000 00 00: Depth
SP.mV                         : DIL Spontaneous Potential
RILD.Ohm-m                    : DIL Deep Resistivity
RILM.Ohm-m                    : DIL Medium Resistivity
RLL3.Ohm-m                    : DIL Shallow Resistivity
GR.GAPI                       : Gamma Ray
~Parameter Information Block
~A  Depth        SP         RILD        RILM        RLL3         GR     
# ...
  1432.2500    -32.3426     28.1797     40.9947    102.1711     67.0287
  1432.5000    -32.3694     26.2558     39.0857    101.3416     68.6448
  1432.7500    -32.4978     24.3739     36.6439     96.3286     71.4908
  1433.0000    -32.8228     22.6838     33.9642     87.4684     78.5805
  1433.2500    -33.3340     21.2301     31.3032     75.6567     85.2952
  1433.5000    -33.9173     20.0081     28.8442     62.2947     98.1650
  1433.7500    -34.3961     19.0052     26.6903     49.0502    108.1209
  1434.0000    -34.5986     18.2161     24.8819     37.4656    123.3644
  1434.2500    -34.4198     17.6428     23.4194     28.5873    132.2376
  1434.5000    -33.8627     17.2883     22.2815     22.7976    141.2098
  1434.7500    -33.0444     17.1499     21.4395     19.8950    143.7231
  1435.0000    -32.1625     17.2144     20.8645     19.3072    143.1202
  1435.2500    -31.4408     17.4576     20.5299     20.2972    140.8324
  1435.5000    -31.0656     17.8475     20.4109     22.1236    136.0576
  1435.7500    -31.1319     18.3519     20.4826     24.1897    132.4620
  1436.0000    -31.6217     18.9446     20.7153     26.1813    126.9201
  1436.2500    -32.4040     19.6044     21.0729     28.1064    123.3663
  1436.5000    -33.2696     20.3020     21.5121     30.1696    118.5731
  1436.7500    -33.9835     20.9826     21.9855     32.5338    115.7917
  1437.0000    -34.3407     21.5613     22.4473     35.1120    112.1491
  1437.2500    -34.2220     21.9454     22.8594     37.5146    110.0539
  1437.5000    -33.6247     22.0850     23.1967     39.1785    107.6609
  1437.7500    -32.6549     22.0136     23.4473     39.6196    106.8305
  1438.0000    -31.4918     21.8442     23.6111     38.6830    107.0192
  1438.2500    -30.3299     21.7196     23.6957     36.6337    107.9789
  1438.5000    -29.3244     21.7547     23.7151     34.0023    110.1187
  1438.7500    -28.5627     22.0019     23.6882     31.2906    111.8948
  1439.0000    -28.0688     22.4397     23.6382     28.7668    115.6228
  1439.2500    -27.8232     22.9819     23.5908     26.5026    119.1036
  1439.5000    -27.7941     23.5021     23.5699     24.5730    125.0210
  1439.7500    -27.9514     23.8776     23.5922     23.2137    128.2601
  1440.0000    -28.2615     24.0316     23.6604     22.8167    130.2065
  1440.2500    -28.6763     23.9539     23.7603     23.8125    129.0544
  1440.5000    -29.1233     23.6828     23.8570     26.5393    123.6287
  1440.7500    -29.5082     23.2712     23.8976     31.1422    117.9635
  1441.0000    -29.7347     22.7556     23.8169     37.4745    107.9313
  1441.2500    -29.7318     22.1484     23.5507     44.9867    101.3421
  1441.5000    -29.4794     21.4460     23.0511     52.6451     93.1896
  1441.7500    -29.0204     20.6449     22.3014     58.9905     89.5737
  1442.0000    -28.4501     19.7535     21.3249     62.4472     87.7673
  1442.2500    -27.8943     18.7925     20.1809     61.8671     89.2217
  1442.5000    -27.4724     17.7880     18.9501     57.0714     94.9895
  1442.7500    -27.2752     16.7682     17.7157     49.0318    100.6287
  1443.0000    -27.3485     15.7649     16.5473     39.5118    110.8271
  1443.2500    -27.6910     14.8174     15.4929     30.3566    118.3884
  1443.5000    -28.2603     13.9688     14.5790     22.8568    129.7111
  1443.7500    -28.9750     13.2573     13.8151     17.5113    136.0240
  1444.0000    -29.7210     12.7073     13.2003     14.1842    141.7306
  1444.2500    -30.3626     12.3265     12.7291     12.4280    142.8875
  1444.5000    -30.7621     12.1089     12.3961     11.7446    142.1090
  1444.7500    -30.8122     12.0398     12.1985     11.7132    141.0051
  1445.0000    -30.4673     12.0996     12.1380     12.0395    139.7520
  1445.2500    -29.7647     12.2672     12.2204     12.5996    139.5130
  1445.5000    -28.8212     12.5212     12.4550     13.5082    139.7926
  1445.7500    -27.8134     12.8431     12.8527     15.1774    139.7391
  1446.0000    -26.9317     13.2207     13.4233     18.2910    137.8218
  1446.2500    -26.3402     13.6489     14.1707     23.6235    134.7208
  1446.5000    -26.1380     14.1265     15.0872     31.6801    127.0078
  1446.7500    -26.3390     14.6493     16.1453     42.2478    119.9305
  1447.0000    -26.8712     15.1999     17.2899     54.0782    107.3280
  1447.2500    -27.5992     15.7391     18.4349     64.9733     98.8061
  1447.5000    -28.3619     16.2019     19.4668     72.4121     88.6481
  1447.7500    -29.0143     16.5073     20.2617     74.5357     85.0537
  1448.0000    -29.4682     16.5861     20.7103     70.9929     85.4695
  1448.2500    -29.7044     16.4148     20.7453     63.1118     89.1235
  1448.5000    -29.7672     16.0315     20.3576     53.2434     97.2312
  1448.7500    -29.7402     15.5178     19.5988     43.6721    102.8580
  1449.0000    -29.7101     14.9621     18.5669     35.7611    110.6662
  1449.2500    -29.7414     14.4317     17.3822     29.7641    116.0211
  1449.5000    -29.8547     13.9651     16.1627     25.2240    125.5493
  1449.7500    -30.0298     13.5788     15.0065     21.5378    132.8562
  1450.0000    -30.2148     13.2774     13.9826     18.3211    143.7176
  1450.2500    -30.3492     13.0592     13.1326     15.4773    149.8438
  1450.5000    -30.3807     12.9162     12.4759     13.0914    156.4961
  1450.7500    -30.2814     12.8322     12.0177     11.2968    159.3745
  1451.0000    -30.0481     12.7833     11.7548     10.1945    161.9797
  1451.2500    -29.6931     12.7444     11.6795      9.8376    162.7405
  1451.5000    -29.2333     12.6991     11.7818     10.2563    162.2257
  1451.7500    -28.6816     12.6459     12.0485     11.4887    160.6338
  1452.0000    -28.0476     12.5970     12.4609     13.5815    156.5238
  1452.2500    -27.3459     12.5686     12.9913     16.5402    152.9993
  1452.5000    -26.6044     12.5696     13.5988     20.2497    147.1146
  1452.7500    -25.8701     12.5955     14.2275     24.4119    142.7695
  1453.0000    -25.2021     12.6302     14.8088     28.5445    135.3386
  1453.2500    -24.6613     12.6517     15.2703     32.0550    130.1700
  1453.5000    -24.2947     12.6406     15.5494     34.3769    124.1526
  1453.7500    -24.1272     12.5854     15.6085     35.1339    122.5349
  1454.0000    -24.1483     12.4836     15.4430     34.2639    124.1584
  1454.2500    -24.3134     12.3388     15.0796     32.0257    127.1487
  1454.5000    -24.5483     12.1563     14.5663     28.8754    132.3852
  1454.7500    -24.7652     11.9393     13.9587     25.2972    135.2756
  1455.0000    -24.8878     11.6889     13.3092     21.6943    137.7578
  1455.2500    -24.8768     11.4067     12.6606     18.3734    138.4183
  1455.5000    -24.7511     11.0984     12.0441     15.5627    139.2077
  1455.7500    -24.5826     10.7752     11.4802     13.4091    140.1340
  1456.0000    -24.4712     10.4515     10.9808     11.9513    142.0286
  1456.2500    -24.5065     10.1409     10.5515     11.1130    143.4280
  1456.5000    -24.7282      9.8538     10.1933     10.7451    145.8974
  1456.7500    -25.1092      9.5970      9.9046     10.6978    147.9164
  1457.0000    -25.5566      9.3766      9.6818     10.8704    151.0460
  1457.2500    -25.9440      9.1996      9.5203     11.2070    152.7355
  1457.5000    -26.1464      9.0735      9.4160     11.6584    154.3601
  1457.7500    -26.0803      9.0041      9.3655     12.1533    155.0039
  1458.0000    -25.7237      8.9915      9.3666     12.6109    155.7417
  1458.2500    -25.1293      9.0291      9.4186     12.9789    156.2245
  1458.5000    -24.4117      9.1034      9.5212     13.2577    156.9504
  1458.7500    -23.7251      9.1973      9.6737     13.4891    157.3410
  1459.0000    -23.2271      9.2954      9.8732     13.7213    157.5170
  1459.2500    -23.0394      9.3876     10.1132     13.9837    157.1644
  1459.5000    -23.2190      9.4723     10.3822     14.2905    155.8099
  1459.7500    -23.7437      9.5551     10.6642     14.6565    154.6773
  1460.0000    -24.5275      9.6449     10.9398     15.0921    153.7606
