~Version Information
VERS.                      2.0: CWLS Log ASCII Standard - VERSION 2.0
WRAP.                       NO: One line per depth step
~Well Information Block
STRT.FT               955.2500: 
STOP.FT              2226.0000: 
STEP.FT                 0.2500: 
NULL.                -999.2500: 
COMP.          Petrogulf Corporation: COMPANY
WELL.             Burson 8-13R: WELL
FLD.           Purgatorie River: FIELD
LOC.           1045' FNL & 2189' FEL: LOCATION
CNTY.               Las Animas: COUNTY
SRVC.                         : SERVICE COMPANY
DATE.          Fri Apr 30 04:52:15 2004: LOG DATE
UWI.           05 071 08039 00: UNIQUE WELL ID
STAT.                 Colorado: STATE
~Curve Information Block
DEPT.FT            0 000 00 00: Depth
SP.mV                         : DIL Spontaneous Potential
RILD.Ohm-m                    : DIL Deep Resistivity
RILM.Ohm-m                    : DIL Medium Resistivity
RLL3.Ohm-m                    : DIL Shallow Resistivity
~Parameter Information Block
~A  Depth        SP         RILD        RILM        RLL3    
# ...
  1792.7500    117.8575     16.6115     18.4222     36.3570
  1793.0000    117.7924     16.3818     18.5540     37.5673
  1793.2500    117.7484     16.1564     18.6150     38.4206
  1793.5000    117.7344     15.9307     18.5619     38.8167
  1793.7500    117.7581     15.7093     18.3684     38.9231
  1794.0000    117.8240     15.5052     18.0331     39.0501
  1794.2500    117.9319     15.3354     17.5833     39.2916
  1794.5000    118.0762     15.2164     17.0689     39.1895
  1794.7500    118.2414     15.1589     16.5468     37.8555
  1795.0000    118.4001     15.1647     16.0684     34.6880
  1795.2500    118.5228     15.2269     15.6782     30.1175
  1795.5000    118.5954     15.3316     15.4187     25.5814
  1795.7500    118.6260     15.4612     15.3300     22.7072
  1796.0000    118.6338     15.5994     15.4409     22.5233
  1796.2500    118.6348     15.7366     15.7543     25.2790
  1796.5000    118.6352     15.8778     16.2373     30.6367
  1796.7500    118.6347     16.0471     16.8230     37.7610
  1797.0000    118.6334     16.2819     17.4289     45.3076
  1797.2500    118.6390     16.6157     17.9848     51.7083
  1797.5000    118.6687     17.0535     18.4567     55.8323
  1797.7500    118.7393     17.5557     18.8542     57.4499
  1798.0000    118.8496     18.0491     19.2198     57.0188
  1798.2500    118.9737     18.4635     19.6118     55.2337
  1798.5000    119.0746     18.7660     20.0864     53.0532
  1798.7500    119.1293     18.9607     20.6820     51.8862
  1799.0000    119.1434     19.0571     21.4027     53.0861
  1799.2500    119.1437     19.0434     22.1984     57.0916
  1799.5000    119.1597     18.8883     22.9506     63.3788
  1799.7500    119.2097     18.5632     23.4799     71.0711
  1800.0000    119.2980     18.0659     23.5974     78.8487
  1800.2500    119.4195     17.4271     23.1851     84.2134
  1800.5000    119.5620     16.6966     22.2535     83.9556
  1800.7500    119.7065     15.9218     20.9347     76.3730
  1801.0000    119.8294     15.1338     19.4191     63.0533
  1801.2500    119.9114     14.3480     17.8843     48.0722
  1801.5000    119.9487     13.5720     16.4495     35.3331
  1801.7500    119.9577     12.8131     15.1671     26.5772
  1802.0000    119.9669     12.0805     14.0384     21.4040
  1802.2500    120.0012     11.3832     13.0397     18.5156
  1802.5000    120.0700     10.7291     12.1431     16.7815
  1802.7500    120.1657     10.1243     11.3283     15.5462
  1803.0000    120.2697      9.5757     10.5859     14.4777
  1803.2500    120.3633      9.0908      9.9137     13.4089
  1803.5000    120.4364      8.6770      9.3134     12.3058
  1803.7500    120.4904      8.3370      8.7878     11.2449
  1804.0000    120.5300      8.0660      8.3388     10.3274
  1804.2500    120.5544      7.8526      7.9667      9.5974
  1804.5000    120.5540      7.6822      7.6693      9.0364
  1804.7500    120.5185      7.5421      7.4422      8.6179
  1805.0000    120.4451      7.4248      7.2791      8.3499
  1805.2500    120.3427      7.3267      7.1724      8.2601
  1805.5000    120.2287      7.2454      7.1136      8.3524
  1805.7500    120.1226      7.1780      7.0938      8.5907
  1806.0000    120.0391      7.1227      7.1050      8.9226
  1806.2500    119.9823      7.0818      7.1417      9.3057
  1806.5000    119.9459      7.0624      7.2029      9.7105
  1806.7500    119.9182      7.0735      7.2895     10.1148
  1807.0000    119.8902      7.1195      7.4018     10.5086
  1807.2500    119.8630      7.1968      7.5352     10.8871
  1807.5000    119.8483      7.2944      7.6801     11.2292
  1807.7500    119.8642      7.3993      7.8247     11.4941
  1808.0000    119.9232      7.5013      7.9582     11.6488
  1808.2500    120.0177      7.5944      8.0730     11.6946
  1808.5000    120.1176      7.6750      8.1650     11.6676
  1808.7500    120.1858      7.7390      8.2332     11.6183
  1809.0000    120.2010      7.7832      8.2796     11.5875
  1809.2500    120.1681      7.8069      8.3098     11.5945
  1809.5000    120.1091      7.8141      8.3316     11.6384
  1809.7500    120.0465      7.8127      8.3525     11.7055
  1810.0000    119.9923      7.8125      8.3765     11.7749
  1810.2500    119.9493      7.8220      8.4028     11.8232
  1810.5000    119.9167      7.8476      8.4295     11.8339
  1810.7500    119.8939      7.8929      8.4577     11.8094
  1811.0000    119.8766      7.9576      8.4935     11.7693
  1811.2500    119.8529      8.0366      8.5460     11.7351
  1811.5000    119.8074      8.1213      8.6242     11.7293
  1811.7500    119.7319      8.2035      8.7347     11.8003
  1812.0000    119.6365      8.2789      8.8813     12.0460
  1812.2500    119.5482      8.3482      9.0638     12.5889
  1812.5000    119.4970      8.4150      9.2765     13.4994
  1812.7500    119.4994      8.4831      9.5075     14.7146
  1813.0000    119.5513      8.5560      9.7390     16.0258
  1813.2500    119.6340      8.6382      9.9511     17.1488
  1813.5000    119.7262      8.7354     10.1268     17.8203
  1813.7500    119.8145      8.8526     10.2585     17.8764
  1814.0000    119.8988      8.9925     10.3522     17.3117
  1814.2500    119.9869      9.1539     10.4276     16.3100
  1814.5000    120.0818      9.3324     10.5127     15.2034
  1814.7500    120.1729      9.5211     10.6355     14.3638
  1815.0000    120.2421      9.7130     10.8166     14.1025
  1815.2500    120.2787      9.9013     11.0649     14.6134
  1815.5000    120.2892     10.0794     11.3772     15.9221
  1815.7500    120.2944     10.2391     11.7401     17.8524
  1816.0000    120.3180     10.3721     12.1319     20.1161
  1816.2500    120.3746     10.4721     12.5233     22.4945
  1816.5000    120.4630     10.5361     12.8764     24.8736
  1816.7500    120.5664     10.5631     13.1466     27.0470
  1817.0000    120.6607     10.5511     13.2911     28.5697
  1817.2500    120.7277     10.4972     13.2806     28.9158
  1817.5000    120.7637     10.4014     13.1082     27.8160
  1817.7500    120.7771     10.2702     12.7890     25.4597
  1818.0000    120.7789     10.1144     12.3545     22.3951
  1818.2500    120.7788      9.9444     11.8484     19.2131
  1818.5000    120.7887      9.7652     11.3209     16.2740
  1818.7500    120.8219      9.5761     10.8202     13.6892
  1819.0000    120.8816      9.3729     10.3803     11.5076
  1819.2500    120.9535      9.1513     10.0130      9.8643
  1819.5000    121.0140      8.9098      9.7076      8.9238
  1819.7500    121.0458      8.6497      9.4380      8.6872
  1820.0000    121.0482      8.3758      9.1755      8.8908
  1820.2500    121.0351      8.0964      8.9020      9.1366
  1820.5000    121.0242      7.8224      8.6165      9.1489
  1820.7500    121.0271      7.5650      8.3323      8.9111
  1821.0000    121.0451      7.3323      8.0669      8.5796
  1821.2500    121.0733      7.1274      7.8319      8.3136
  1821.5000    121.1050      6.9495      7.6292      8.1890
  1821.7500    121.1354      6.7963      7.4505      8.1996
  1822.0000    121.1654      6.6654      7.2816      8.2657
  1822.2500    121.2007      6.5556      7.1105      8.2543
  1822.5000    121.2421      6.4672      6.9349      8.0523
  1822.7500    121.2748      6.4004      6.7645      7.6499
  1823.0000    121.2722      6.3554      6.6154      7.1453
  1823.2500    121.2172      6.3318      6.5022      6.6694
  1823.5000    121.1164      6.3280      6.4327      6.3119
  1823.7500    120.9900      6.3415      6.4082      6.1030
  1824.0000    120.8565      6.3694      6.4267      6.0362
  1824.2500    120.7315      6.4092      6.4852      6.0915
  1824.5000    120.6327      6.4595      6.5816      6.2566
  1824.7500    120.5741      6.5194      6.7140      6.5363
  1825.0000    120.5550      6.5869      6.8813      6.9394
  1825.2500    120.5605      6.6590      7.0811      7.4721
  1825.5000    120.5718      6.7324      7.3082      8.1750
  1825.7500    120.5794      6.8054      7.5523      9.1416
  1826.0000    120.5888      6.8782      7.7958     10.4272
