~Version Information
 VERS.                                  2.0 : CWLS LAS VERSION
 WRAP.                                   NO : WRAPING MODE
 SWARE .                 MController 2.5.0J : SOFTWARE VERSION
~Well Information
 WELL.                        Montoya 7-12R : WELL
 COMP.                       Petrogulf Corp : COMPANY
 FLD.                      Purgatorie River : FIELD
 LOC.                 SW/NW Sec 7 T33S R67W : LOCATION
 DATE.                    11/18/04 11/19/04 : DATE(S) LOGGED
 SRVC.       Blanco Geological Services LLC : SERVICE COMPANY
 STAT.                                   CO : STATE
 CNTY.                           Las Animas : COUNTY
 CTRY.                                  USA : COUNTRY
 API.                       05-071-08240-00 : API NUMBER
 STRT.FT                              30.00 : START DEPTH
 STOP.FT                            2040.00 : STOP DEPTH
 STEP.FT                               1.00 : DEPTH INCREMENT
 NULL.                                -9999 : NULL VALUE
~Curve information
 DEPTH.FT                                   :
 ROP.MIN/FT                                 :
 GAS.UNITS                                  :
~ASCII Log data
# ...
       230.0         0.27         -1.1 
       231.0         0.27         -0.6 
       232.0         0.33          0.0 
       233.0         0.23          0.9 
       234.0         0.17          0.9 
       235.0         0.23          0.6 
       236.0         0.25         -0.9 
       237.0         0.20         -0.8 
       238.0         0.20         -1.1 
       239.0         0.23         -1.4 
       240.0         0.23         -0.7 
       241.0         0.27         -0.5 
       242.0         0.23          0.3 
       243.0         0.20          0.5 
       244.0         0.20          0.5 
       245.0         0.20          0.6 
       246.0         0.20          0.3 
       247.0         0.23         -0.7 
       248.0         0.20         -1.0 
       249.0         0.23         -0.9 
       250.0         0.23         -0.6 
       251.0         0.22          0.3 
       252.0         0.30         -0.8 
       253.0         0.23         -0.2 
       254.0         0.20         -0.1 
       255.0         0.23          1.1 
       256.0         0.23          0.8 
       257.0         0.20          0.3 
       258.0         0.23         -0.7 
       259.0         0.20         -1.3 
       260.0         0.20         -1.6 
       261.0         0.23         -1.2 
       262.0         0.20         -0.8 
       263.0         0.13         -1.0 
       264.0         0.40         -0.7 
       265.0         0.28         -0.7 
       266.0         0.17         -0.1 
       267.0         0.30          0.2 
       268.0         0.10         -0.2 
       269.0         0.23         -0.9 
       270.0         0.27         -1.3 
       271.0         0.27         -0.5 
       272.0         0.23         -0.4 
       273.0         0.23          0.1 
       274.0         0.23          0.2 
       275.0         0.20         -0.1 
       276.0         0.20          0.1 
       277.0         0.20          0.5 
       278.0         0.23         -0.4 
       279.0         0.23         -0.8 
       280.0         0.25         -0.4 
       281.0         0.23          0.0 
       282.0         0.23         -0.3 
       283.0         0.23         -0.4 
       284.0         0.20         -0.1 
       285.0         0.23          0.1 
       286.0         0.20          0.6 
       287.0         0.23          3.8 
       288.0         0.20          3.5 
       289.0         0.23          3.6 
       290.0         0.20          3.4 
       291.0         0.23          3.1 
       292.0         0.20          3.0 
       293.0         0.23          3.7 
       294.0         0.23          4.1 
       295.0         0.28          4.3 
       296.0         0.27          3.9 
       297.0         0.20          3.9 
       298.0         0.40          3.6 
       299.0         0.27          4.0 
       300.0         0.27          3.4 
       301.0         0.27          3.5 
       302.0         0.27          3.5 
       303.0         0.27          3.4 
       304.0         0.23          3.1 
       305.0         0.23          3.6 
       306.0         0.27          3.9 
       307.0         0.20          4.0 
       308.0         0.25          3.8 
       309.0         0.23          3.5 
       310.0         0.20          3.3 
       311.0         0.27          3.2 
       312.0         0.27          3.6 
       313.0         0.23          2.7 
       314.0         0.23          2.3 
       315.0         0.23          3.2 
       316.0         0.20          3.9 
       317.0         0.20          3.8 
       318.0         0.23          3.4 
       319.0         0.27          3.4 
       320.0         0.27          4.0 
       321.0         0.30          3.2 
       322.0         0.22          3.5 
       323.0         0.20          3.7 
       324.0         0.23          2.8 
       325.0         0.27          3.1 
       326.0         0.27          2.4 
       327.0         0.20          2.1 
       328.0         0.23          2.8 
       329.0         0.23          2.9 
       330.0         0.20          3.8 
       331.0         0.23          4.4 
       332.0         0.20          4.1 
       333.0         0.40          3.2 
       334.0         0.40          3.4 
       335.0         0.28          2.9 
       336.0         0.27          3.9 
       337.0         0.27          2.8 
       338.0         0.10          2.6 
       339.0         0.23          2.8 
       340.0         0.27          3.2 
       341.0         0.17          3.7 
       342.0         0.23          4.0 
       343.0         0.20          4.1 
       344.0         0.23          3.9 
       345.0         0.23          3.4 
       346.0         0.33          4.6 
       347.0         0.30          4.2 
       348.0         0.23          4.1 
       349.0         0.28          5.1 
       350.0         0.27         13.3 
       351.0         0.27         30.7 
       352.0         0.23         26.5 
       353.0         0.37         14.1 
       354.0         0.30          6.6 
       355.0         0.23          4.5 
       356.0         0.23          4.3 
       357.0         0.20          4.2 
       358.0         0.27          2.9 
       359.0         0.20          2.7 
       360.0         0.20          2.9 
       361.0         0.20          3.6 
       362.0         0.25          3.8 
       363.0         0.20          4.2 
       364.0         0.20          3.5 
       365.0         0.20          2.9 
       366.0         0.23          2.9 
       367.0         0.20          3.8 
       368.0         0.27          4.4 
       369.0         0.20          4.4 
       370.0         0.27          4.5 
       371.0         0.27          6.1 
       372.0         0.27          6.2 
       373.0         0.30          4.9 
       374.0         0.30          5.1 
       375.0         0.27          5.3 
       376.0         0.25          5.4 
       377.0         0.23          3.8 
       378.0         0.23          4.0 
       379.0         0.23          4.1 
       380.0         0.23          4.6 
       381.0         0.23          5.2 
       382.0         0.23          5.1 
       383.0         0.20          5.3 
       384.0         0.23          4.9 
       385.0         0.20          5.2 
       386.0         0.23          5.1 
       387.0         0.30          4.9 
       388.0         0.30          5.1 
       389.0         0.23          6.1 
       390.0         0.22          6.2 
       391.0         0.20          6.6 
       392.0         0.23          6.4 
       393.0         0.27          5.7 
       394.0         0.20          5.3 
       395.0         0.23          5.4 
       396.0         0.20          6.0 
       397.0         0.23          6.1 
       398.0         0.20          5.6 
       399.0         0.23          5.1 
       400.0         0.20          4.8 
       401.0         0.20          5.3 
       402.0         0.20          5.9 
       403.0         0.27          5.6 
       404.0         0.20          5.4 
       405.0         0.28          5.1 
       406.0         0.27          5.8 
       407.0         0.27          4.6 
       408.0         0.33          5.4 
       409.0         0.23          5.1 
       410.0         0.27          4.8 
       411.0         0.23          4.2 
       412.0         0.27          3.4 
       413.0         0.27          3.6 
       414.0         0.27          4.8 
       415.0         0.27          5.1 
       416.0         0.27          5.4 
       417.0         0.27          5.7 
       418.0         0.22          5.0 
       419.0         0.20          5.5 
       420.0         0.30          5.5 
       421.0         0.30          5.2 
       422.0         0.23          5.5 
       423.0         0.40          5.7 
       424.0         0.33          3.7 
       425.0         0.27          3.1 
       426.0         0.30          5.2 
       427.0         0.30          5.6 
       428.0         0.27          4.9 
       429.0         0.28          4.6 
