~Version Information
VERS.                      2.0: CWLS Log ASCII Standard - VERSION 2.0
WRAP.                       NO: One line per depth step
~Well Information Block
STRT.FT               430.0000: 
STOP.FT              2826.2500: 
STEP.FT                 0.2500: 
NULL.                -999.2500: 
COMP.          Pioneer Natural Resources: COMPANY
WELL.           Ei-ei-oh 31-24: WELL
FLD.           Purgatoire River: FIELD
LOC.           235' FNL & 2001' FEL--: LOCATION
PROV.                 Colorado: PROVINCE
CNTY.               Las Animas: COUNTRY
SRVC.                Patterson: SERVICE COMPANY
DATE.          Thu Jun 16 06:46:37 2005: LOG DATE
UWI.           05 071 08403 00: UNIQUE WELL ID
~Curve Information Block
DEPT.FT            0 000 00 00: Depth
DIR.Ohm-m                     : IEL Induction Resistivity
SN.Ohm-m                      : IEL Short Normal
SP.mV                         : IEL Spontaneous Potential
GR.GAPI                       : Gamma Ray
~Parameter Information Block
~A  Depth       DIR          SN          SP          GR     
# ...
  2239.0000     14.7840     15.2166     93.0913    121.8639
  2239.2500     14.7766     15.1400     93.2505    122.7199
  2239.5000     14.7700     15.0604     93.3987    121.5899
  2239.7500     14.7416     14.9636     93.5526    120.7984
  2240.0000     14.6740     14.8455     93.7260    120.6058
  2240.2500     14.5592     14.7102     93.9283    120.3791
  2240.5000     14.3955     14.5590     94.1632    118.9604
  2240.7500     14.1810     14.3821     94.4277    118.1066
  2241.0000     13.9118     14.1591     94.7119    118.7502
  2241.2500     13.5889     13.8731     94.9993    120.0365
  2241.5000     13.2261     13.5267     95.2688    120.2760
  2241.7500     12.8497     13.1478     95.4971    117.9909
  2242.0000     12.4913     12.7777     95.6623    111.3773
  2242.2500     12.1770     12.4490     95.7467    106.2394
  2242.5000     11.9213     12.1720     95.7380     99.8104
  2242.7500     11.7262     11.9399     95.6297     97.3438
  2243.0000     11.5830     11.7440     95.4192     97.3709
  2243.2500     11.4778     11.5822     95.1054     99.7834
  2243.5000     11.3974     11.4584     94.6863    104.9936
  2243.7500     11.3360     11.3820     94.1580    107.6633
  2244.0000     11.2992     11.3696     93.5149    108.3039
  2244.2500     11.3014     11.4426     92.7517    106.8481
  2244.5000     11.3600     11.6129     91.8660    104.7719
  2244.7500     11.4860     11.8680     90.8599    105.0915
  2245.0000     11.6776     12.1699     89.7423    108.3401
  2245.2500     11.9187     12.4735     88.5290    111.0118
  2245.5000     12.1846     12.7493     87.2424    113.4616
  2245.7500     12.4527     12.9900     85.9108    113.8239
  2246.0000     12.7107     13.2014     84.5671    113.3459
  2246.2500     12.9547     13.3915     83.2481    112.5689
  2246.5000     13.1833     13.5694     81.9923    110.4912
  2246.7500     13.3932     13.7478     80.8392    108.6320
  2247.0000     13.5802     13.9394     79.8265    105.8525
  2247.2500     13.7418     14.1441     78.9879    104.3058
  2247.5000     13.8742     14.3378     78.3503    102.8948
  2247.7500     13.9679     14.4722     77.9306    103.0175
  2248.0000     14.0056     14.4872     77.7329    105.3664
  2248.2500     13.9675     14.3344     77.7460    108.0250
  2248.5000     13.8387     14.0051     77.9425    111.5567
  2248.7500     13.6141     13.5447     78.2802    112.0807
  2249.0000     13.2995     13.0386     78.7061    109.0998
  2249.2500     12.9094     12.5722     79.1616    105.8284
  2249.5000     12.4655     12.1918     79.5904    103.1265
  2249.7500     11.9933     11.8931     79.9447    104.5432
  2250.0000     11.5198     11.6434      0.0000    111.0564
  2250.2500     11.0685     11.4131      0.0000    116.7416
  2250.5000     10.6559     11.1897      0.0000    125.1308
  2250.7500     10.2893     10.9702      0.0000    130.1321
  2251.0000      9.9684     10.7513      0.0000    135.6604
  2251.2500      9.6888     10.5310      0.0000    136.9093
  2251.5000      9.4459     10.3135      0.0000    134.3578
  2251.7500      9.2359     10.1063      0.0000    130.8994
  2252.0000      9.0544      9.9106      0.0000    126.6396
  2252.2500      8.8940      9.7172      0.0000    125.8711
  2252.5000      8.7452      9.5105      0.0000    128.0533
  2252.7500      8.5995      9.2766      0.0000    130.9580
  2253.0000      8.4529      9.0097      0.0000    135.8812
  2253.2500      8.3072      8.7140      0.0000    138.7850
  2253.5000      8.1676      8.4048      0.0000    141.1900
  2253.7500      8.0399      8.1072      0.0000    140.3573
  2254.0000      7.9276      7.8549      0.0000    133.9445
  2254.2500      7.8320      7.6884      0.0000    126.4454
  2254.5000      7.7528      7.6476      0.0000    112.7883
  2254.7500      7.6894      7.7522      0.0000    104.0367
  2255.0000      7.6423      7.9837      0.0000     94.4828
  2255.2500      7.6146      8.2851      0.0000     91.4487
  2255.5000      7.6132      8.5901      0.0000     91.1609
  2255.7500      7.6484      8.8593      0.0000     92.3315
  2256.0000      7.7303      9.0965      0.0000     93.5843
  2256.2500      7.8650      9.3305      0.0000     93.1327
  2256.5000      8.0499      9.5779      0.0000     89.7268
  2256.7500      8.2715      9.8144      0.0000     85.7595
  2257.0000      8.5074      9.9734      0.0000     78.7339
  2257.2500      8.7323      9.9758      0.0000     74.6067
  2257.5000      8.9254      9.7749      0.0000     71.1416
  2257.7500      9.0771      9.3981      0.0000     71.3807
  2258.0000      9.1902      8.9624      0.0000     76.2553
  2258.2500      9.2758      8.6445      0.0000     82.4675
  2258.5000      9.3478      8.6109      0.0000     94.9878
  2258.7500      9.4188      8.9403      0.0000    104.1292
  2259.0000      9.4987      9.5849      0.0000    116.4017
  2259.2500      9.5954     10.3986      0.0000    122.3741
  2259.5000      9.7143     11.2191      0.0000    127.1002
  2259.7500      9.8570     11.9460      0.0000    127.5550
  2260.0000     10.0185     12.5576      0.0000    124.9730
  2260.2500     10.1864     13.0704      0.0000    121.9319
  2260.5000     10.3436     13.4927      0.0000    117.9067
  2260.7500     10.4754     13.8168      0.0000    116.8335
  2261.0000     10.5776     14.0446      0.0000    116.9222
  2261.2500     10.6596     14.2070      0.0000    116.1907
  2261.5000     10.7389     14.3518      0.0000    111.7672
  2261.7500     10.8322     14.5092      0.0000    107.5130
  2262.0000     10.9471     14.6648      0.0000    102.9405
  2262.2500     11.0790     14.7576      0.0000    102.7235
  2262.5000     11.2127     14.7008      0.0000    106.9973
  2262.7500     11.3270     14.4130      0.0000    112.0758
  2263.0000     11.4011     13.8548      0.0000    120.4231
  2263.2500     11.4238     13.0671      0.0000    124.4226
  2263.5000     11.4000     12.1914      0.0000    124.9664
  2263.7500     11.4302     11.4441      0.0000    121.2135
  2264.0000     11.3834     11.0421      0.0000    111.1758
  2264.2500     11.3618     11.1091      0.0000    103.1827
  2264.5000     11.3691     11.6139      0.0000     91.9889
  2264.7500     11.3875     12.3815      0.0000     86.7720
  2265.0000     11.3857     13.1811      0.0000     84.7929
  2265.2500     11.3369     13.8359      0.0000     87.5221
  2265.5000     11.2346     14.2812      0.0000     95.2226
  2265.7500     11.1024     14.5482      0.0000    100.7382
  2266.0000     10.9941     14.7145      0.0000    106.9173
  2266.2500     10.9933     14.8640      0.0000    108.7496
  2266.5000     11.2229     15.0719      0.0000    107.5369
  2266.7500     11.8730     15.4043      0.0000    104.4311
  2267.0000     13.2648     15.9249      0.0000     98.0486
  2267.2500     15.8296     16.7038      0.0000     94.0095
  2267.5000     21.1484     17.8274      0.0000     89.9287
  2267.7500     32.5391     19.4007      0.0000     88.3205
  2268.0000     62.3237     21.5357      0.0000     85.1071
  2268.2500    202.5337     24.3201      0.0000     80.7361
  2268.5000 100000.0000     27.7772      0.0000     69.9449
  2268.7500 100000.0000     31.8219      0.0000     61.1199
  2269.0000 100000.0000     36.2116      0.0000     49.1681
  2269.2500 100000.0000     40.5046      0.0000     44.0104
  2269.5000 100000.0000     44.0885      0.0000     41.8362
  2269.7500 100000.0000     46.3386      0.0000     43.3894
  2270.0000 100000.0000     46.8762      0.0000     46.9569
  2270.2500 100000.0000     45.7701      0.0000     48.0184
  2270.5000 100000.0000     43.5245      0.0000     45.9897
  2270.7500 100000.0000     40.8292      0.0000     43.1007
  2271.0000 100000.0000     38.2056      0.0000     40.0369
  2271.2500 100000.0000     35.7494      0.0000     40.8521
  2271.5000 100000.0000     33.0750      0.0000     47.7517
  2271.7500 100000.0000     29.4856      0.0000     55.4485
  2272.0000 100000.0000     24.3974      0.0000     68.6522
  2272.2500 100000.0000     17.9098      0.0000     76.7240
