~Version Information
 VERS.                      2.0: CWLS Log ASCII Standard - VERSION 2.0
 WRAP.                       NO: One line per depth step
 ~Well Information Block
 STRT.FT               130.0000: 
 STOP.FT              1766.9000: 
 STEP.FT                 0.1000: 
 NULL.                -999.2500: 
 COMP.          Petrogulf Corporation: COMPANY
 WELL.           Parsons 23-15V: WELL
 FLD.           Purgatorie River: FIELD
 LOC.           2095' FSL & 1817' FWL--API 05 071 07556 00----: LOCATION
 CNTY.               Las Animas: COUNTY
 SRVC.                         : SERVICE COMPANY
 DATE.          Fri Apr 19 17:40:55 2002: LOG DATE
 UWI.                          : UNIQUE WELL ID
 STAT.                       CO: STATE
 PROV.                         :Province
 ~Curve Information Block
 DEPT.FT            0 000 00 00: Depth
 DCAL.in                       : CDL Caliper
 RHOB.g/cc                     : CDL Bulk Density
 RHOC.g/cc                     : CDL Density Correction
 DPOR.pu                       : CDL Density Porosity
 GR.GAPI                       : Gamma Ray
 NPOR.pu                       : Neutron Porosity
 ~Parameter Information Block
 ~A  Depth       DCAL        RHOB        RHOC        DPOR         GR         NPOR    
# ...
   245.2000      8.1642      2.5295     -0.0040      7.3034    163.7080     29.4014
   245.3000      8.1670      2.5289     -0.0051      7.3405    163.7648     29.3903
   245.4000      8.1670      2.5280     -0.0058      7.3920    163.6118     29.4163
   245.5000      8.1751      2.5271     -0.0060      7.4509    163.2832     29.4808
   245.6000      8.1751      2.5261     -0.0057      7.5110    162.8196     29.5806
   245.7000      8.1751      2.5252     -0.0052      7.5660    162.2648     29.7090
   245.8000      8.1880      2.5244     -0.0044      7.6103    161.6544     29.8552
   245.9000      8.1880      2.5240     -0.0034      7.6384    161.0142     30.0060
   246.0000      8.1961      2.5239     -0.0022      7.6447    160.3548     30.1471
   246.1000      8.1961      2.5242     -0.0010      7.6244    159.6662     30.2642
   246.2000      8.1961      2.5251      0.0003      7.5726    158.9273     30.3453
   246.3000      8.1984      2.5265      0.0018      7.4851    158.1012     30.3817
   246.4000      8.1984      2.5286      0.0033      7.3581    157.1456     30.3685
   246.5000      8.1981      2.5314      0.0050      7.1886    156.0155     30.3056
   246.6000      8.1981      2.5349      0.0068      6.9747    154.6661     30.1964
   246.7000      8.1981      2.5392      0.0087      6.7157    153.0666     30.0476
   246.8000      8.1939      2.5442      0.0107      6.4125    151.1982     29.8672
   246.9000      8.1939      2.5499      0.0127      6.0678    149.0612     29.6638
   247.0000      8.1803      2.5562      0.0147      5.6862    146.6809     29.4456
   247.1000      8.1803      2.5630      0.0168      5.2748    144.1013     29.2199
   247.2000      8.1803      2.5701      0.0188      4.8430    141.3857     28.9943
   247.3000      8.1591      2.5774      0.0209      4.4023    138.6094     28.7756
   247.4000      8.1591      2.5845      0.0231      3.9668    135.8506     28.5726
   247.5000      8.1459      2.5914      0.0252      3.5520    133.1815     28.3950
   247.6000      8.1459      2.5976      0.0272      3.1748    130.6649     28.2543
   247.7000      8.1459      2.6029      0.0290      2.8526    128.3545     28.1626
   247.8000      8.1421      2.6071      0.0302      2.6023    126.2948     28.1314
   247.9000      8.1421      2.6097      0.0308      2.4398    124.5249     28.1692
   248.0000      8.1409      2.6108      0.0304      2.3786    123.0824     28.2817
   248.1000      8.1409      2.6099      0.0291      2.4293    122.0040     28.4693
   248.2000      8.1409      2.6071      0.0267      2.5987    121.3291     28.7272
   248.3000      8.1402      2.6023      0.0235      2.8897    121.0992     29.0467
   248.4000      8.1402      2.5955      0.0197      3.3008    121.3545     29.4143
   248.5000      8.1399      2.5869      0.0159      3.8267    122.1307     29.8154
   248.6000      8.1399      2.5764      0.0124      4.4581    123.4527     30.2343
   248.7000      8.1399      2.5645      0.0096      5.1824    125.3235     30.6551
   248.8000      8.1437      2.5512      0.0079      5.9849    127.7199     31.0627
   248.9000      8.1437      2.5370      0.0075      6.8484    130.5829     31.4435
   249.0000      8.1534      2.5220      0.0083      7.7547    133.8064     31.7840
   249.1000      8.1534      2.5067      0.0103      8.6845    137.2455     32.0725
   249.2000      8.1534      2.4913      0.0132      9.6183    140.7193     32.2992
   249.3000      8.1608      2.4761      0.0168     10.5366    144.0348     32.4562
   249.4000      8.1608      2.4616      0.0208     11.4202    147.0054     32.5393
   249.5000      8.1659      2.4479      0.0251     12.2508    149.4832     32.5497
   249.6000      8.1659      2.4353      0.0294     13.0111    151.3777     32.4928
   249.7000      8.1659      2.4242      0.0338     13.6857    152.6688     32.3802
   249.8000      8.1753      2.4147      0.0382     14.2615    153.4060     32.2267
   249.9000      8.1753      2.4070      0.0425     14.7281    153.6969     32.0502
   250.0000      8.1892      2.4012      0.0468     15.0785    153.6825     31.8689
   250.1000      8.1892      2.3974      0.0510     15.3092    153.5121     31.6993
   250.2000      8.1892      2.3956      0.0549     15.4210    153.3243     31.5540
   250.3000      8.1958      2.3956      0.0583     15.4182    153.2247     31.4405
   250.4000      8.1958      2.3974      0.0611     15.3087    153.2815     31.3609
   250.5000      8.1846      2.4008      0.0628     15.1037    153.5220     31.3110
   250.6000      8.1846      2.4055      0.0633     14.8161    153.9426     31.2828
   250.7000      8.1846      2.4114      0.0625     14.4605    154.5115     31.2656
   250.8000      8.1610      2.4181      0.0601     14.0515    155.1798     31.2478
   250.9000      8.1610      2.4256      0.0565     13.6028    155.8906     31.2200
   251.0000      8.1471      2.4334      0.0516     13.1262    156.5806     31.1769
   251.1000      8.1471      2.4416      0.0460     12.6307    157.1896     31.1192
   251.2000      8.1471      2.4500      0.0400     12.1221    157.6593     31.0531
   251.3000      8.1453      2.4586      0.0341     11.6024    157.9385     30.9896
   251.4000      8.1453      2.4673      0.0285     11.0700    157.9839     30.9425
   251.5000      8.1470      2.4764      0.0238     10.5197    157.7629     30.9250
   251.6000      8.1470      2.4859      0.0200      9.9433    157.2455     30.9466
   251.7000      8.1470      2.4960      0.0172      9.3307    156.4072     31.0100
   251.8000      8.1488      2.5069      0.0156      8.6702    155.2209     31.1102
   251.9000      8.1488      2.5188      0.0150      7.9502    153.6615     31.2343
   252.0000      8.1502      2.5319      0.0154      7.1603    151.7058     31.3640
   252.1000      8.1502      2.5462      0.0167      6.2922    149.3365     31.4785
   252.2000      8.1502      2.5619      0.0188      5.3413    146.5530     31.5584
   252.3000      8.1507      2.5789      0.0215      4.3076    143.3746     31.5892
   252.4000      8.1507      2.5973      0.0246      3.1964    139.8434     31.5627
   252.5000      8.1492      2.6167      0.0278      2.0194    136.0303     31.4790
   252.6000      8.1492      2.6369      0.0309      0.7942    132.0271     31.3442
   252.7000      8.1492      2.6575      0.0334     -0.4551    127.9413     31.1692
   252.8000      8.1453      2.6780      0.0350     -1.6991    123.8871     30.9682
   252.9000      8.1453      2.6979      0.0352     -2.9041    119.9765     30.7563
   253.0000      8.1411      2.7166      0.0337     -4.0336    116.3111     30.5480
   253.1000      8.1411      2.7333      0.0301     -5.0505    112.9838     30.3574
   253.2000      8.1411      2.7477      0.0243     -5.9195    110.0707     30.1959
   253.3000      8.1379      2.7590      0.0163     -6.6090    107.6328     30.0728
   253.4000      8.1379      2.7671      0.0064     -7.0941    105.7184     29.9937
   253.5000      8.1348      2.7714     -0.0051     -7.3580    104.3641     29.9600
   253.6000      8.1348      2.7720     -0.0174     -7.3938    103.5923     29.9675
   253.7000      8.1348      2.7689     -0.0298     -7.2047    103.4122     30.0077
   253.8000      8.1339      2.7623     -0.0412     -6.8042    103.8217     30.0677
   253.9000      8.1339      2.7526     -0.0508     -6.2152    104.8042     30.1320
   254.0000      8.1378      2.7402     -0.0578     -5.4678    106.3252     30.1850
   254.1000      8.1378      2.7259     -0.0618     -4.5977    108.3337     30.2128
   254.2000      8.1378      2.7101     -0.0625     -3.6435    110.7595     30.2046
   254.3000      8.1464      2.6936     -0.0602     -2.6438    113.5119     30.1552
   254.4000      8.1464      2.6770     -0.0554     -1.6353    116.4883     30.0639
   254.5000      8.1592      2.6607     -0.0485     -0.6505    119.5795     29.9348
   254.6000      8.1592      2.6453     -0.0402      0.2833    122.6816     29.7755
   254.7000      8.1592      2.6311     -0.0313      1.1454    125.7041     29.5961
