~Version Information
VERS.                      2.0: CWLS Log ASCII Standard - VERSION 2.0
WRAP.                       NO: One line per depth step
~Well Information Block
STRT.FT               845.0000: 
STOP.FT              2308.2500: 
STEP.FT                 0.2500: 
NULL.                -999.2500: 
COMP.          Pioneer Natural Resources: COMPANY
WELL.             Vector 33-23: WELL
FLD.           Purgatoire River: FIELD
LOC.           1560' FEL & 1988' FSL----: LOCATION
PROV.                 Colorado: PROVINCE
CNTY.               Las Animas: COUNTRY
SRVC.                Patterson: SERVICE COMPANY
DATE.          Sat Mar 26 12:39:07 2005: LOG DATE
UWI.           05 071 08336 00: UNIQUE WELL ID
~Curve Information Block
DEPT.FT            0 000 00 00: Depth
SN.Ohm-m                      : IEL Short Normal
SP.mV                         : IEL Spontaneous Potential
DIR.Ohm-m                     : IEL Induction Resistivity
GR.GAPI                       : Gamma Ray
~Parameter Information Block
~A  Depth        SN          SP         DIR          GR     
# ...
  2285.5000     20.7480     56.3447     16.8643   -999.2500
  2285.7500     20.6919     55.2945     16.8767   -999.2500
  2286.0000     20.7845     53.9941     17.0017   -999.2500
  2286.2500     20.9846     52.5034     17.2251   -999.2500
  2286.5000     21.2724     50.8865     17.5208   -999.2500
  2286.7500     21.6325     49.2074     17.8538   -999.2500
  2287.0000     22.0199     47.5251     18.1810   -999.2500
  2287.2500     22.3464     45.8901     18.4534   -999.2500
  2287.5000     22.5144     44.3415     18.6240   -999.2500
  2287.7500     22.4788     42.9061     18.6635   -999.2500
  2288.0000     22.2873     41.5990     18.5757   -999.2500
  2288.2500     22.0564     40.4254     18.4017   -999.2500
  2288.5000     21.8940     39.3831     18.2048   -999.2500
  2288.7500     21.8233     38.4661     18.0429   -999.2500
  2289.0000     21.7689     37.6674     17.9443   -999.2500
  2289.2500     21.6149     36.9824     17.8977   -999.2500
  2289.5000     21.2861     36.4112     17.8600   -999.2500
  2289.7500     20.7996     35.9578     17.7776   -999.2500
  2290.0000     20.2595     35.6276     17.6148   -999.2500
  2290.2500     19.8116     35.4217     17.3729   -999.2500
  2290.5000     19.5833     35.3303     17.0912   -999.2500
  2290.7500     19.6319     35.3273     16.8287   -999.2500
  2291.0000     19.9193     35.3688     16.6402   -999.2500
  2291.2500     20.3298     35.3980     16.5572   -999.2500
  2291.5000     20.7274     35.3553     16.5802   -999.2500
  2291.7500     21.0134     35.1927     16.6783   -999.2500
  2292.0000     21.1478     34.8880     16.7990   -999.2500
  2292.2500     21.1325     34.4560     16.8833   -999.2500
  2292.5000     20.9874     33.9515     16.8819   -999.2500
  2292.7500     20.7409     33.4636     16.7628   -999.2500
  2293.0000     20.4278     33.1002     16.5107   -999.2500
  2293.2500     20.0750     32.9679     16.1229   -999.2500
  2293.5000     19.6811     33.1502     15.6102   -999.2500
  2293.7500     19.2199     33.6901     14.9991   -999.2500
  2294.0000     18.6710     34.5815     14.3303   -999.2500
  2294.2500     18.0428     35.7713     13.6517   -999.2500
  2294.5000     17.3608     37.1703     13.0074   -999.2500
  2294.7500     16.6407     38.6697     12.4281   -999.2500
  2295.0000     15.8802     40.1591     11.9264   -999.2500
  2295.2500     15.0755     41.5416     11.5689   -999.2500
  2295.5000     14.2435     42.7430     11.2012   -999.2500
  2295.7500     13.4345     43.7155     10.8861   -999.2500
  2296.0000     12.7270     44.4373     10.6200   -999.2500
  2296.2500     12.2092     44.9080     10.4123   -999.2500
  2296.5000     11.9531     45.1439     10.2850   -999.2500
  2296.7500     11.9934     45.1732     10.2665   -999.2500
  2297.0000     12.3146     45.0317     10.3823   -999.2500
  2297.2500     12.8465     44.7599     10.6479   -999.2500
  2297.5000     13.4703     44.4007     11.0685   -999.2500
  2297.7500     14.0472     43.9970     11.6534   -999.2500
  2298.0000     14.4725     43.5893     12.4529   -999.2500
  2298.2500     14.7312     43.2123     13.6183   -999.2500
  2298.5000     14.9144     42.8913     15.4875   -999.2500
  2298.7500     15.1830     42.6397     18.5306   -999.2500
  2299.0000     15.6973     42.4574     24.4527   -999.2500
  2299.2500     16.5425     42.3331     36.4713   -999.2500
  2299.5000     17.6797     42.2474     65.1087   -999.2500
  2299.7500     18.9482     42.1823    165.3032   -999.2500
  2300.0000     20.1284     42.1260 100000.0000   -999.2500
  2300.2500     21.0348     42.0768 100000.0000   -999.2500
  2300.5000     21.5844     42.0405 100000.0000   -999.2500
  2300.7500     21.8047     42.0216 100000.0000   -999.2500
  2301.0000     21.7969     42.0085 100000.0000   -999.2500
  2301.2500     21.6904     41.9571 100000.0000   -999.2500
  2301.5000     21.6076     41.7781 100000.0000   -999.2500
  2301.7500     21.6365     41.3351 100000.0000   -999.2500
  2302.0000     21.8085     40.4593 100000.0000   -999.2500
  2302.2500     22.0908     38.9796 100000.0000   -999.2500
  2302.5000     22.3840     36.7652 100000.0000   -999.2500
  2302.7500     22.4983     33.7687 100000.0000   -999.2500
  2303.0000     22.0888     30.0552 100000.0000   -999.2500
  2303.2500     20.6390     25.8064 100000.0000   -999.2500
  2303.5000     17.6816     21.2939 100000.0000   -999.2500
  2303.7500     13.2615     16.8292 100000.0000   -999.2500
  2304.0000      8.2038     12.7037 100000.0000   -999.2500
  2304.2500      3.7223      9.1375 100000.0000   -999.2500
  2304.5000      0.6364      6.2501 100000.0000   -999.2500
  2304.7500     -1.0170      4.0587 100000.0000   -999.2500
  2305.0000     -1.7066      2.4987 100000.0000   -999.2500
  2305.2500     -1.9305      1.4565 100000.0000   -999.2500
  2305.5000     -1.9871      0.8030 100000.0000   -999.2500
  2305.7500     -1.9983      0.4183 100000.0000   -999.2500
  2306.0000   -999.2500      0.2056 100000.0000   -999.2500
  2306.2500   -999.2500      0.0951 100000.0000   -999.2500
  2306.5000   -999.2500      0.0412   6982.7085   -999.2500
  2306.7500   -999.2500      0.0165   3136.0830   -999.2500
  2307.0000   -999.2500      0.0059   2472.6040   -999.2500
  2307.2500   -999.2500      0.0016   2273.0198   -999.2500
  2307.5000   -999.2500   -999.2500   2209.9434   -999.2500
  2307.7500   -999.2500   -999.2500   2191.6160   -999.2500
  2308.0000   -999.2500   -999.2500   2186.9590   -999.2500
  2308.2500   -999.2500   -999.2500 100000.0000   -999.2500
