~Version Information
VERS.                      2.0: CWLS Log ASCII Standard - VERSION 2.0
WRAP.                       NO: One line per depth step
~Well Information Block
STRT.FT               664.0000: 
STOP.FT              1113.5000: 
STEP.FT                 0.1000: 
NULL.                -999.2500: 
COMP.          Petrogulf Corporation: COMPANY
WELL.          Great Plains 22-21R: WELL
FLD.           Purgatorie River: FIELD
LOC.           73' FNL & 1992' FWL: LOCATION
PROV.                 Colorado: PROVINCE
CNTY.               Las Animas: COUNTRY
SRVC.                Patterson: SERVICE COMPANY
DATE.          Thu Sep 08 08:02:28 2005: LOG DATE
UWI.                          : UNIQUE WELL ID
~Curve Information Block
DEPT.FT            0 000 00 00: Depth
DCAL.in                       : CDL Caliper
RHOB.g/cc                     : CDL Bulk Density
RHOC.g/cc                     : CDL Density Correction
DPOR.pu                       : CDL Density Porosity
GR.GAPI                       : Gamma Ray
NPOR.pu                       : Neutron Porosity
~Parameter Information Block
~A  Depth       DCAL        RHOB        RHOC        DPOR         GR         NPOR    
# ...
   692.8000      9.7549      2.0602      0.2160     35.7444    117.1778     30.5280
   692.9000      9.7549      2.1341      0.2388     31.2655    119.1449     30.8853
   693.0000     10.4594      2.2025      0.1846     27.1192    118.6269     30.9325
   693.1000     10.4594      2.2771      0.1953     22.6006    118.3155     30.5598
   693.2000     10.4594      2.3538      0.1613     17.9533    117.7580     29.8063
   693.3000     11.0960      2.4134      0.1019     14.3422    114.2615     29.2295
   693.4000     11.0960      2.4472      0.1034     12.2903    109.3904     29.0130
   693.5000     11.1417      2.4640      0.1121     11.2709    105.7620     28.5368
   693.6000     11.1417      2.4844      0.0627     10.0348    104.3130     27.6127
   693.7000     11.1417      2.5212      0.1399      7.8078    105.1406     26.8832
   693.8000     11.3183      2.5604      0.1613      5.4311    106.5008     26.5400
   693.9000     11.3183      2.5784      0.1076      4.3407    105.5989     26.2686
   694.0000     11.3751      2.5656      0.0620      5.1153    101.3024     26.2529
   694.1000     11.3751      2.5366     -0.0142      6.8700     96.1805     26.3064
   694.2000     11.3751      2.5205      0.0073      7.8494     93.9230     25.6954
   694.3000     11.4073      2.5290      0.0021      7.3344     94.4020     24.5408
   694.4000     11.4073      2.5504      0.0267      6.0389     95.2869     23.6762
   694.5000     11.4381      2.5679      0.0450      4.9729     93.7758     23.5873
   694.6000     11.4381      2.5766      0.0044      4.4476     89.7476     23.9265
   694.7000     11.4381      2.5847      0.0102      3.9554     86.6560     24.1961
   694.8000     11.5117      2.5954      0.0431      3.3115     85.2299     24.3175
   694.9000     11.5117      2.6049      0.0268      2.7327     82.5362     24.1938
   695.0000     11.5188      2.6118      0.0428      2.3159     79.1899     23.4904
   695.1000     11.5188      2.6095      0.0548      2.4566     78.7795     22.0130
   695.2000     11.5188      2.5980      0.0140      3.1501     81.9565     20.3559
   695.3000     11.5086      2.5903      0.0140      3.6161     86.1865     19.5568
   695.4000     11.5086      2.5893      0.0113      3.6787     89.8788     19.8321
   695.5000     11.5152      2.5845      0.0172      3.9715     94.5207     20.8120
   695.6000     11.5152      2.5676      0.0336      4.9924    101.3447     22.0281
   695.7000     11.5152      2.5345      0.0118      6.9994    109.4863     22.8008
   695.8000     11.5022      2.4933     -0.0317      9.4968    117.5009     22.8802
   695.9000     11.5022      2.4695     -0.0240     10.9407    122.2124     22.7456
   696.0000     11.4542      2.4681      0.0156     11.0246    122.2855     23.1212
   696.1000     11.4542      2.4603      0.0609     11.4954    122.0027     24.2562
   696.2000     11.4542      2.4358      0.0016     12.9808    124.3373     25.8193
   696.3000     11.4300      2.4233      0.0059     13.7407    128.8186     27.0720
   696.4000     11.4300      2.4447      0.0332     12.4454    135.0798     27.4484
   696.5000     11.4242      2.4939      0.0699      9.4611    141.2731     27.2039
   696.6000     11.4242      2.5532      0.1421      5.8661    144.2454     26.7233
   696.7000     11.4242      2.6025      0.1956      2.8777    144.4779     26.2040
   696.8000     11.4330      2.6244      0.1997      1.5494    143.1711     25.9896
   696.9000     11.4330      2.6221      0.1146      1.6925    142.3588     26.1668
   697.0000     11.2603      2.6157      0.1361      2.0772    144.5195     26.3168
   697.1000     11.2603      2.6118      0.1134      2.3154    147.5988     26.1785
   697.2000     11.2603      2.6030      0.1205      2.8484    147.0219     26.0818
   697.3000      9.5919      2.5800      0.1289      4.2422    142.3661     26.2180
   697.4000      9.5919      2.5432      0.0294      6.4735    138.4982     26.2933
   697.5000      8.3855      2.5161     -0.0426      8.1169    139.5178     25.8676
   697.6000      8.3855      2.5149      0.0001      8.1878    143.3237     24.6523
   697.7000      8.3855      2.5360      0.0194      6.9079    145.4780     22.9804
   697.8000      8.1806      2.5797      0.0397      4.2617    145.0907     22.1090
   697.9000      8.1806      2.6444      0.0706      0.3378    143.3120     22.7241
   698.0000      8.1552      2.7204      0.1062     -4.2669    141.3579     23.8598
   698.1000      8.1552      2.7941      0.1461     -8.7332    140.4372     24.6976
   698.2000      8.1552      2.8497      0.1990    -12.1010    142.0763     25.1066
   698.3000      8.1557      2.8814      0.1904    -14.0248    145.5929     24.8436
   698.4000      8.1557      2.8942      0.1139    -14.8025    147.8024     24.1889
   698.5000      8.1388      2.8829      0.1087    -14.1168    146.7969     23.8944
   698.6000      8.1388      2.8402     -0.0011    -11.5251    143.9423     23.9564
   698.7000      8.1388      2.7808     -0.0940     -7.9256    140.4855     23.7378
   698.8000      8.1389      2.7250     -0.0916     -4.5456    135.9014     23.1512
   698.9000      8.1389      2.6789     -0.0560     -1.7510    131.2174     22.4687
   699.0000      8.1580      2.6323     -0.0011      1.0699    129.0812     22.0165
   699.1000      8.1580      2.5730      0.0207      4.6668    131.5565     22.0254
   699.2000      8.1580      2.5147      0.0008      8.2028    138.1333     22.1736
   699.3000      8.1649      2.4833     -0.0264     10.1022    146.0458     22.2321
   699.4000      8.1649      2.4830     -0.0109     10.1219    153.5342     22.4158
   699.5000      8.1818      2.4930      0.0505      9.5133    159.9739     22.8609
   699.6000      8.1818      2.4921      0.0581      9.5702    163.3531     23.5878
   699.7000      8.1818      2.4756      0.0576     10.5700    163.6162     24.3358
   699.8000      8.2375      2.4486      0.0774     12.2085    164.1976     24.8179
   699.9000      8.2375      2.4220      0.0325     13.8161    163.8782     25.3099
   700.0000      8.2573      2.4129      0.0062     14.3702    160.0300     25.8676
   700.1000      8.2573      2.4298      0.0327     13.3449    156.1430     26.0095
   700.2000      8.2573      2.4621      0.0844     11.3887    156.4097     25.5890
   700.3000      8.2616      2.4901      0.0878      9.6894    158.9706     25.0830
   700.4000      8.2616      2.5089      0.1013      8.5527    159.4724     24.9038
   700.5000      8.2642      2.5254      0.1212      7.5533    156.7680     24.9175
   700.6000      8.2642      2.5378      0.1525      6.8025    154.0026     25.0551
   700.7000      8.2642      2.5389      0.1542      6.7308    156.8747     25.4156
   700.8000      8.2431      2.5316      0.1150      7.1782    166.2578     25.8179
   700.9000      8.2431      2.5246      0.1233      7.6006    175.9875     26.1200
   701.0000      8.1819      2.5176      0.1043      8.0261    179.7372     26.3175
   701.1000      8.1819      2.5039      0.0725      8.8541    177.8135     26.3410
   701.2000      8.1819      2.4855      0.0192      9.9705    173.7402     26.2475
   701.3000      8.1866      2.4680      0.0777     11.0295    170.6478     26.1055
   701.4000      8.1866      2.4514      0.0329     12.0346    171.0503     25.7801
   701.5000      8.1930      2.4407      0.0064     12.6822    172.9623     25.2482
   701.6000      8.1930      2.4410      0.0338     12.6674    171.5352     24.8906
   701.7000      8.1930      2.4455      0.0285     12.3913    167.0540     25.0170
   701.8000      8.1970      2.4448      0.0456     12.4374    164.3844     24.9913
   701.9000      8.1970      2.4350      0.0314     13.0289    165.9573     24.1533
   702.0000      8.1922      2.4254      0.0050     13.6117    168.0250     23.2019
   702.1000      8.1922      2.4273      0.0388     13.4946    165.9814     23.0075
   702.2000      8.1922      2.4328      0.0604     13.1654    162.7128     23.1941
   702.3000      8.1913      2.4224      0.0559     13.7964    163.7472     23.4869
