~Version Information
VERS.                      2.0: CWLS Log ASCII Standard - VERSION 2.0
WRAP.                       NO: One line per depth step
~Well Information Block
STRT.FT               506.1000: 
STOP.FT              2140.0000: 
STEP.FT                 0.1000: 
NULL.                -999.2500: 
COMP.          Petrogulf Corporation: COMPANY
WELL.            Montoya 1-44R: WELL
FLD.           Purgatorie River: FIELD
LOC.           658' FSL & 1052' FWL: LOCATION
CNTY.               Las Animas: COUNTY
SRVC.                         : SERVICE COMPANY
DATE.          Tue Nov 16 04:33:40 2004: LOG DATE
UWI.           05 071 08239 00: UNIQUE WELL ID
STAT.                 Colorado: STATE
~Curve Information Block
DEPT.FT            0 000 00 00: Depth
DCAL.in                       : CDL Caliper
RHOB.g/cc                     : CDL Bulk Density
RHOC.g/cc                     : CDL Density Correction
DPOR.pu                       : CDL Density Porosity
GR.GAPI                       : Gamma Ray
NPOR.pu                       : Neutron Porosity
~Parameter Information Block
~A  Depth       DCAL        RHOB        RHOC        DPOR         GR         NPOR    
# ...
  1302.9000      8.1000      2.5538      0.0061      5.8325    147.9557     24.3884
  1303.0000      8.1027      2.5655      0.0278      5.1210    135.0686     24.4889
  1303.1000      8.1027      2.5821      0.0440      4.1169    130.1906     24.2958
  1303.2000      8.1027      2.5933      0.0673      3.4349    135.3562     23.9820
  1303.3000      8.1052      2.5988      0.0356      3.1029    144.1177     23.7337
  1303.4000      8.1052      2.6019      0.0397      2.9181    153.4203     23.8174
  1303.5000      8.1027      2.5960      0.0605      3.2707    160.7493     23.9566
  1303.6000      8.1027      2.5733      0.0528      4.6503    160.2097     23.7952
  1303.7000      8.1027      2.5498      0.0009      6.0752    152.0775     23.7817
  1303.8000      8.1030      2.5479      0.0304      6.1907    144.3535     24.0806
  1303.9000      8.1030      2.5588      0.0669      5.5280    142.1183     24.4586
  1304.0000      8.1147      2.5691      0.0395      4.9053    147.0128     24.6496
  1304.1000      8.1147      2.5825      0.0852      4.0900    156.5821     24.4874
  1304.2000      8.1147      2.6015      0.0584      2.9394    160.1698     24.3003
  1304.3000      8.1303      2.6214      0.1089      1.7353    153.0450     24.3273
  1304.4000      8.1303      2.6306      0.0921      1.1748    143.2831     24.5004
  1304.5000      8.1203      2.6244      0.0470      1.5506    137.4821     24.5751
  1304.6000      8.1203      2.6084      0.0997      2.5209    136.8366     24.4288
  1304.7000      8.1203      2.5889      0.0524      3.7039    139.4592     24.4670
  1304.8000      8.0878      2.5762      0.0297      4.4746    143.2294     24.6897
  1304.9000      8.0878      2.5732      0.0563      4.6543    149.8120     24.8065
  1305.0000      8.0690      2.5716      0.0135      4.7535    156.3297     24.7562
  1305.1000      8.0690      2.5728     -0.0071      4.6795    155.6574     24.6324
  1305.2000      8.0690      2.5828      0.0623      4.0727    148.9941     24.6168
  1305.3000      8.0645      2.5968      0.0615      3.2224    143.9148     24.5304
  1305.4000      8.0645      2.6048      0.0802      2.7421    142.3141     23.8317
  1305.5000      8.0623      2.5959      0.0874      3.2818    142.1423     22.5381
  1305.6000      8.0623      2.5738      0.0222      4.6169    143.8925     21.7020
  1305.7000      8.0623      2.5551      0.0722      5.7530    145.8865     22.0200
  1305.8000      8.0617      2.5395      0.0693      6.6948    146.4503     22.8961
  1305.9000      8.0617      2.5264     -0.0128      7.4902    148.7625     23.2838
  1306.0000      8.0635      2.5286      0.0021      7.3568    153.9143     22.8585
  1306.1000      8.0635      2.5427      0.0455      6.5007    157.6473     22.3422
  1306.2000      8.0635      2.5528      0.0472      5.8930    155.4848     22.3135
  1306.3000      8.0615      2.5577      0.0403      5.5946    149.0012     22.8674
  1306.4000      8.0615      2.5678      0.0530      4.9831    144.5733     23.8994
  1306.5000      8.0489      2.5878      0.0557      3.7676    144.4297     25.0323
  1306.6000      8.0489      2.6056      0.0799      2.6906    145.0703     25.4837
  1306.7000      8.0489      2.6064      0.0631      2.6453    142.2791     24.9791
  1306.8000      8.0365      2.5947      0.0806      3.3498    135.4817     24.4997
  1306.9000      8.0365      2.5855      0.0305      3.9081    128.8658     24.7850
  1307.0000      8.0318      2.5877      0.0373      3.7776    125.7413     25.3997
  1307.1000      8.0318      2.5923      0.0891      3.4997    125.1889     25.7591
  1307.2000      8.0318      2.5921      0.0270      3.5088    123.8108     25.6577
  1307.3000      8.0323      2.5974      0.0572      3.1888    121.5384     25.1328
  1307.4000      8.0323      2.6072      0.0498      2.5934    121.7605     24.4679
  1307.5000      8.0299      2.6097      0.0621      2.4439    125.2281     23.9207
  1307.6000      8.0299      2.6014      0.0437      2.9445    128.1118     23.4258
  1307.7000      8.0299      2.5936      0.0340      3.4179    127.9259     22.8983
  1307.8000      8.0199      2.5965      0.0568      3.2397    128.9630     22.2926
  1307.9000      8.0199      2.6013      0.0578      2.9513    132.8584     21.1943
  1308.0000      8.0116      2.6037      0.0392      2.8051    136.0095     19.4799
  1308.1000      8.0116      2.6139      0.0397      2.1882    138.0425     17.9822
  1308.2000      8.0116      2.6310      0.0768      1.1493    138.6284     17.5573
  1308.3000      8.0093      2.6399      0.0812      0.6141    138.0728     18.4344
  1308.4000      8.0093      2.6294      0.0557      1.2464    138.2000     20.1581
  1308.5000      8.0152      2.6100      0.0405      2.4258    141.3351     21.8105
  1308.6000      8.0152      2.6034      0.0297      2.8265    148.5620     23.0804
  1308.7000      8.0152      2.6098      0.0664      2.4365    153.9183     23.9873
  1308.8000      8.0221      2.6096      0.0381      2.4463    151.9639     24.3212
  1308.9000      8.0221      2.6000      0.0325      3.0278    145.1745     24.3365
  1309.0000      8.0222      2.5918      0.0439      3.5279    139.1363     24.1604
  1309.1000      8.0222      2.5853      0.0657      3.9183    139.2453     23.5414
  1309.2000      8.0222      2.5744      0.0289      4.5846    141.5140     22.4506
  1309.3000      8.0164      2.5658      0.0074      5.1024    137.3391     21.5040
  1309.4000      8.0164      2.5695      0.0225      4.8814    131.4856     21.4999
  1309.5000      8.0083      2.5741      0.0405      4.6009    131.6226     22.0205
  1309.6000      8.0083      2.5650      0.0236      5.1527    132.5584     21.9933
  1309.7000      8.0083      2.5496      0.0119      6.0870    129.6183     21.6898
  1309.8000      7.9999      2.5426      0.0307      6.5081    125.0606     21.4553
  1309.9000      7.9999      2.5445      0.0076      6.3918    121.5218     20.6982
  1310.0000      7.9932      2.5508     -0.0093      6.0091    121.2431     19.6128
  1310.1000      7.9932      2.5622      0.0189      5.3202    124.3962     19.3078
  1310.2000      7.9932      2.5778      0.0444      4.3729    127.3197     19.6516
  1310.3000      7.9856      2.5935      0.0448      3.4262    124.2085     19.4646
  1310.4000      7.9856      2.6033      0.0438      2.8328    117.1961     18.7901
  1310.5000      7.9858      2.6013      0.0561      2.9499    112.8932     18.7408
  1310.6000      7.9858      2.5887      0.0625      3.7136    112.7841     19.8227
  1310.7000      7.9858      2.5763      0.0283      4.4689    118.6731     21.2661
  1310.8000      7.9892      2.5691      0.0316      4.9038    128.3209     21.9420
  1310.9000      7.9892      2.5587      0.0273      5.5308    134.6936     21.4953
  1311.0000      7.9856      2.5453      0.0077      6.3428    134.0347     20.7945
  1311.1000      7.9856      2.5416      0.0242      6.5674    125.2098     20.5789
  1311.2000      7.9856      2.5534      0.0630      5.8572    112.7763     20.3393
  1311.3000      7.9801      2.5768      0.0593      4.4392    105.3895     19.8325
  1311.4000      7.9801      2.5974      0.0773      3.1868    108.2452     19.6626
  1311.5000      7.9649      2.5946      0.0738      3.3581    119.4594     19.8596
  1311.6000      7.9649      2.5726      0.0335      4.6903    131.5375     20.2176
  1311.7000      7.9649      2.5568      0.0218      5.6484    137.6492     20.9183
  1311.8000      7.9499      2.5515      0.0517      5.9694    135.7983     21.6131
  1311.9000      7.9499      2.5431      0.0544      6.4771    130.5517     21.6683
  1312.0000      7.9489      2.5330      0.0391      7.0897    128.9304     21.5551
  1312.1000      7.9489      2.5282      0.0731      7.3816    130.9707     21.8581
  1312.2000      7.9489      2.5273      0.0502      7.4369    131.6482     21.8616
  1312.3000      7.9530      2.5338      0.0376      7.0428    129.9177     21.2539
  1312.4000      7.9530      2.5473      0.0704      6.2263    125.9744     20.3726
