~Version Information
VERS.                      2.0: CWLS Log ASCII Standard - VERSION 2.0
WRAP.                       NO: One line per depth step
~Well Information Block
STRT.FT               -12.2500: 
STOP.FT              1948.2500: 
STEP.FT                 0.2500: 
NULL.                -999.2500: 
COMP.          Petrogulf Corporation: COMPANY
WELL.            Torcom 17-33R: WELL
FLD.           Purgatorie River: FIELD
LOC.           1483' FSL & 1804' FEL--: LOCATION
PROV.                       CO: PROVINCE
CNTY.               Las Animas: COUNTRY
SRVC.          Patterson Wireline: SERVICE COMPANY
DATE.          Fri Sep 30 10:11:43 2005: LOG DATE
UWI.           05 071 08096 00: UNIQUE WELL ID
~Curve Information Block
DEPT.FT            0 000 00 00: Depth
CCL.                          : Casing Collar Locator
TT3.usec                      : CBL 3' Travel Time
AMP3.mV                       : CBL 3' Amplitude
GR.GAPI                       : Gamma Ray
~Parameter Information Block
~A  Depth       CCL         TT3         AMP3         GR     
# ...
  1160.2500      0.0000    596.4267      7.4966    130.1797
  1160.5000      0.0000    579.5238      7.5406    133.6315
  1160.7500      0.0000    567.1699      7.6739    138.9879
  1161.0000      0.0000    564.5944      7.8806    144.1852
  1161.2500      0.0000    575.5376      8.1411    147.2446
  1161.5000      0.0000    598.7426      8.4362    147.4652
  1161.7500      0.0000    627.6420      8.7556    145.2582
  1162.0000      0.0000    653.8555      9.0947    141.3016
  1162.2500      0.0000    672.0074      9.4385    136.0596
  1162.5000      0.0000    681.6720      9.7473    129.8818
  1162.7500      0.0000    685.2218      9.9644    123.1839
  1163.0000      0.0000    684.4772     10.0466    116.5416
  1163.2500      0.0000    679.1477      9.9954    110.8728
  1163.5000      0.0000    668.0452      9.8554    107.3522
  1163.7500      0.0000    652.3859      9.6735    106.6444
  1164.0000      0.0000    638.0637      9.4545    108.3288
  1164.2500      0.0000    632.8415      9.1551    111.4573
  1164.5000      0.0000    639.6616      8.7190    115.2930
  1164.7500      0.0000    653.7809      8.1201    118.9355
  1165.0000      0.0000    667.6528      7.3871    120.7921
  1165.2500      0.0000    677.6022      6.5973    119.3370
  1165.5000      0.0000    685.4769      5.8482    114.2528
  1165.7500      0.0000    695.6153      5.2243    106.3597
  1166.0000      0.0000    710.9001      4.7754     96.9757
  1166.2500      0.0000    729.9446      4.5099     87.9435
  1166.5000      0.0000    746.6698      4.3977     81.7337
  1166.7500      0.0000    753.4511      4.3834     80.7981
  1167.0000      0.0000    746.5237      4.4141     86.4569
  1167.2500      0.0000    729.1238      4.4669     97.8142
  1167.5000      0.0000    709.0178      4.5571    111.3457
  1167.7500      0.0000    692.7617      4.7214    122.2605
  1168.0000      0.0000    682.6599      4.9917    127.2533
  1168.2500      0.0000    678.7158      5.3768    126.1305
  1168.5000      0.0000    681.5931      5.8477    121.0161
  1168.7500      0.0000    692.1867      6.3295    114.3946
  1169.0000      0.0000    708.8278      6.7123    107.6505
  1169.2500      0.0000    726.5682      6.8895    100.7891
  1169.5000      0.0000    740.0447      6.8056     93.2682
  1169.7500      0.0000    746.7996      6.4873     85.0425
  1170.0000      0.0000    748.6711      6.0321     76.7721
  1170.2500      0.0000    750.5406      5.5536     69.1427
  1170.5000      0.0000    755.7962      5.1211     62.1796
  1170.7500      0.0000    761.4426      4.7443     55.3213
  1171.0000      0.0000    760.0170      4.4052     48.1295
  1171.2500      0.0000    748.1897      4.0949     40.9248
  1171.5000      0.0000    730.8903      3.8179     34.7514
  1171.7500      0.0000    715.2896      3.5745     30.7875
  1172.0000      0.0000    703.9705      3.3558     29.6472
  1172.2500      0.0000    696.0071      3.1555     31.0173
  1172.5000      0.0000    691.1317      2.9792     33.9859
  1172.7500      0.0000    689.9525      2.8385     37.8635
  1173.0000      0.0000    692.2308      2.7393     42.6442
  1173.2500      0.0000    697.7822      2.6799     48.5618
  1173.5000      0.0000    708.0449      2.6609     55.3277
  1173.7500      0.0000    723.6696      2.6954     62.0140
  1174.0000      0.0000    740.0693      2.8069     67.7428
  1174.2500      0.0000    748.5225      3.0145     72.5269
  1174.5000      0.0000    744.4785      3.3163     77.4398
  1174.7500      0.0000    732.8473      3.6853     83.7842
  1175.0000      0.0000    722.4913      4.0822     91.8880
  1175.2500      0.0000    717.0859      4.4768    100.7331
  1175.5000      0.0000    713.7789      4.8593    108.8466
  1175.7500      0.0000    709.3483      5.2317    115.4370
  1176.0000      0.0000    704.9758      5.5922    120.7333
  1176.2500      0.0000    704.9780      5.9313    125.6134
  1176.5000      0.0000    712.6097      6.2348    131.0127
  1176.7500      0.0000    727.1935      6.4848    137.0185
  1177.0000      0.0000    744.0977      6.6602    141.9462
  1177.2500      0.0000    757.5025      6.7477    142.9625
  1177.5000      0.0000    764.3433      6.7569    138.5826
  1177.7500      0.0000    766.1953      6.7229    130.2168
  1178.0000      0.0000    767.2866      6.6891    120.7238
  1178.2500      0.0000    770.7283      6.6833    112.2734
  1178.5000      0.0000    776.3552      6.7088    106.1445
  1178.7500      0.0000    781.2399      6.7562    103.3779
  1179.0000      0.0000    781.8357      6.8183    104.2546
  1179.2500      0.0000    776.6402      6.8936    107.3971
  1179.5000      0.0000    768.1801      6.9790    110.5766
  1179.7500      0.0000    761.9443      7.0652    112.7532
  1180.0000      0.0000    761.3962      7.1395    114.7630
  1180.2500      0.0000    763.8211      7.1922    117.8263
  1180.5000      0.0000    762.7346      7.2199    121.8830
  1180.7500      0.0000    754.5211      7.2251    125.5321
  1181.0000      0.0000    741.6624      7.2128    127.2134
  1181.2500      0.0000    730.2622      7.1891    126.2964
  1181.5000      0.0000    726.0371      7.1621    123.4866
  1181.7500      0.0000    731.5079      7.1402    120.5369
  1182.0000      0.0000    743.9403      7.1288    119.3205
  1182.2500      0.0000    755.1566      7.1306    120.8000
  1182.5000      0.0000    755.5629      7.1446    124.7351
  1182.7500      0.0000    740.4867      7.1643    130.2206
  1183.0000      0.0000    713.1794      7.1796    136.3037
  1183.2500      0.0000    681.9965      7.1860    142.0902
  1183.5000      0.0000    655.1516      7.1895    146.4540
  1183.7500      0.0000    637.7816      7.2020    147.9948
  1184.0000      0.0000    632.1188      7.2295    145.7606
  1184.2500      0.0000    637.9236      7.2653    140.3029
  1184.5000      0.0000    651.4349      7.2931    133.7499
  1184.7500      0.0000    665.0806      7.2979    128.4162
  1185.0000      0.0000    671.3607      7.2744    125.2677
  1185.2500      0.0000    668.9175      7.2282    123.7776
  1185.5000      0.0000    663.4910      7.1677    122.9429
  1185.7500      0.0000    661.5214      7.0968    122.2029
  1186.0000      0.0000    664.7601      7.0142    121.7152
  1186.2500      0.0000    673.0736      6.9159    122.1344
  1186.5000      0.0000    689.4290      6.7976    123.9753
  1186.7500      0.0000    717.3464      6.6553    126.7910
  1187.0000      0.0000    753.9324      6.4914    128.9640
  1187.2500      0.0000    789.4880      6.3233    128.5493
  1187.5000      0.0000    814.4962      6.1818    124.4810
  1187.7500      0.0000    824.3881      6.0960    117.3167
  1188.0000      0.0000    818.2270      6.0754    109.3720
  1188.2500      0.0000    796.7923      6.1063    104.0280
  1188.5000      0.0000    763.6910      6.1642    103.9694
  1188.7500      0.0000    726.4370      6.2326    109.3702
  1189.0000      0.0000    694.3791      6.3143    117.9320
  1189.2500      0.0000    674.5068      6.4302    126.7785
  1189.5000      0.0000    668.2604      6.6055    133.9356
  1189.7500      0.0000    671.4589      6.8480    138.4614
  1190.0000      0.0000    677.4253      7.1295    140.4785
  1190.2500      0.0000    680.9763      7.3859    141.2570
  1190.5000      0.0000    680.9974      7.5519    142.1431
  1190.7500      0.0000    681.4162      7.6062    142.9936
  1191.0000      0.0000    690.7023      7.5797    142.4048
  1191.2500      0.0000    718.1942      7.5136    139.6823
  1191.5000      0.0000    766.7078      7.4254    135.8812
  1191.7500      0.0000    826.9271      7.3236    132.4905
  1192.0000      0.0000    881.9472      7.2281    129.6938
  1192.2500      0.0000    920.8094      7.1502    126.5573
  1192.5000      0.0000    946.5078      7.0724    122.5095
  1192.7500     -2.0000    968.5734      6.9693    117.8493
  1193.0000      0.0000    990.1095      6.8384    113.2365
  1193.2500      0.0000   1004.2076      6.7108    109.5615
  1193.5000      0.0000   1000.2893      6.6472    107.8443
