~Version Information
VERS.                      2.0: CWLS Log ASCII Standard - VERSION 2.0
WRAP.                       NO: One line per depth step
~Well Information Block
STRT.FT                -9.5000: 
STOP.FT              1862.5000: 
STEP.FT                 0.2500: 
NULL.                -999.2500: 
COMP.          Petrogulf Corporation: COMPANY
WELL.             State 16-34R: WELL
FLD.           Purgatoire River: FIELD
LOC.           1095' FSL & 1498' FEL--: LOCATION
CNTY.               Las Animas: COUNTY
SRVC.                         : SERVICE COMPANY
DATE.          Mon May 10 14:56:57 2004: LOG DATE
UWI.                          : UNIQUE WELL ID
STAT.                       CO: STATE
~Curve Information Block
DEPT.FT            0 000 00 00: Depth
GR.GAPI                       : Gamma Ray
CCL.                          : Casing Collar Locator
TT3.usec                      : CBL 3' Travel Time
AMP3.mV                       : CBL 3' Amplitude
~Parameter Information Block
~A  Depth        GR         CCL         TT3         AMP3    
# ...
   359.0000    103.9023      0.0000   1048.9897      7.7833
   359.2500     98.2819      0.0000   1040.2941      7.8710
   359.5000     90.8165      0.0000   1042.1096      7.7826
   359.7500     83.6787      0.0000   1103.7983      7.7067
   360.0000     78.9250      0.0000   1215.1488      7.8057
   360.2500     76.8905      0.0000   1303.3396      7.9863
   360.5000     76.3963      0.0000   1320.0797      8.1028
   360.7500     76.3972      0.0000   1270.6299      8.0371
   361.0000     76.9382      0.0000   1184.8700      7.7139
   361.2500     78.3921      0.0000   1104.8770      7.3073
   361.5000     80.0826      0.0000   1062.3818      7.1531
   361.7500     80.0304      0.0000   1050.9657      7.3298
   362.0000     76.4685      0.0000   1032.5974      7.7331
   362.2500     69.7229      0.0000    986.4871      8.4881
   362.5000     62.3129      0.0000    935.8127      9.5558
   362.7500     57.0968      0.0000    898.0718     10.1195
   363.0000     55.3905      0.0000    868.9742      9.5469
   363.2500     56.4607      0.0000    864.6531      8.4575
   363.5000     58.3172      0.0000    910.7833      7.7071
   363.7500     59.1608      0.0000   1001.2197      7.3307
   364.0000     58.5157      0.0000   1096.6196      7.0667
   364.2500     57.2809      0.0000   1157.4629      6.9541
   364.5000     57.0606      0.0000   1182.0349      7.1088
   364.7500     59.5223      0.0000   1190.7451      7.4515
   365.0000     65.6768      0.0000   1167.3037      7.8220
   365.2500     74.9809      0.0000   1081.3850      8.1139
   365.5000     85.2549      0.0000    960.3002      8.2839
   365.7500     93.9594      0.0000    864.7261      8.2920
   366.0000     99.4921      0.0000    818.0525      8.1369
   366.2500    101.3209      0.0000    804.0575      7.9678
   366.5000     99.7328      0.0000    806.1584      7.9474
   366.7500     95.9769      0.0000    829.4046      8.0365
   367.0000     91.8865      0.0000    898.9030      8.0934
   367.2500     88.5083      0.0000   1026.8961      8.0708
   367.5000     85.3900      0.0000   1166.5300      8.0429
   367.7500     81.5378      0.0000   1239.5221      8.1325
   368.0000     76.6631      0.0000   1227.1790      8.4160
   368.2500     71.4289      0.0000   1178.5236      8.9179
   368.5000     67.0373      0.0000   1135.9858      9.5873
   368.7500     64.6586      0.0000   1108.8534     10.1818
   369.0000     64.8255      0.0000   1097.7856     10.3641
   369.2500     67.1375      0.0000   1101.5168     10.0911
   369.5000     70.6201      0.0000   1109.5167      9.7153
   369.7500     74.3859      0.0000   1111.0632      9.5232
   370.0000     77.9272      0.0000   1106.8882      9.4685
   370.2500     80.9128      0.0000   1098.6367      9.4014
   370.5000     83.1171      0.0000   1073.7617      9.2801
   370.7500     84.6425      0.0000   1018.2498      9.1419
   371.0000     85.6809      0.0000    948.8911      8.9508
   371.2500     85.8129      0.0000    913.3148      8.6028
   371.5000     84.1068      0.0000    928.6248      8.1093
   371.7500     80.3273      0.0000    947.3139      7.5968
   372.0000     75.7531      0.0000    937.2234      7.1733
   372.2500     72.5365      0.0000    934.7366      6.8903
   372.5000     72.3454      5.0000    960.9460      6.7323
   372.7500     75.5089      0.0000    982.7811      6.6365
   373.0000     81.1375      0.0000    981.0182      6.5918
   373.2500     87.8873      0.0000    967.0698      6.6997
   373.5000     94.5939      0.0000    947.3882      6.9849
   373.7500    100.1852      0.0000    922.4113      7.3009
   374.0000    103.3198      0.0000    896.0057      7.6399
   374.2500    102.7748      0.0000    868.0327      8.2134
   374.5000     98.6902      0.0000    836.8565      9.0649
   374.7500     93.0611      0.0000    820.0190      9.8846
   375.0000     88.2892      0.0000    843.1370     10.3668
   375.2500     85.3023      0.0000    898.1965     10.5359
   375.5000     83.5220      0.0000    953.2798     10.5318
   375.7500     82.2905      0.0000    998.0797     10.4048
   376.0000     81.6684      0.0000   1034.9652     10.2305
   376.2500     82.0251      0.0000   1044.4813     10.0850
   376.5000     83.5393      0.0000   1007.7652      9.9384
   376.7500     86.1926      0.0000    940.3722      9.7425
   377.0000     89.7537      0.0000    875.8544      9.5051
   377.2500     93.5837      0.0000    838.9985      9.2529
   377.5000     96.8595      0.0000    834.6138      9.0375
   377.7500     99.2163      0.0000    840.8494      8.9220
   378.0000    100.8949      0.0000    826.7154      8.9150
   378.2500    102.0854      0.0000    800.6219      9.0085
   378.5000    102.4023      0.0000    806.8746      9.2107
   378.7500    101.1878      0.0000    850.7140      9.4512
   379.0000     98.2905      0.0000    883.0731      9.5849
   379.2500     94.6766      0.0000    872.0526      9.5704
   379.5000     92.3480      0.0000    839.3124      9.5116
   379.7500     93.2440      0.0000    817.5176      9.4648
   380.0000     97.7185      0.0000    813.9632      9.3776
   380.2500    103.8846      0.0000    823.3350      9.2627
   380.5000    108.5957      0.0000    845.9853      9.2409
   380.7500    109.4515      0.0000    877.4064      9.4402
   381.0000    106.4967      0.0000    892.6021      9.9167
   381.2500    102.3006      0.0000    872.9990     10.4681
   381.5000     99.9932      0.0000    836.7030     10.6410
   381.7500    100.7867      0.0000    811.0778     10.2474
   382.0000    103.3248      0.0000    801.4401      9.5999
   382.2500    105.2283      0.0000    800.1986      9.0349
   382.5000    104.9721      0.0000    803.1782      8.6172
   382.7500    102.4634      0.0000    815.5056      8.3016
   383.0000     98.3705      0.0000    850.4761      8.0719
   383.2500     93.3503      0.0000    911.3478      7.9724
   383.5000     88.0459      0.0000    966.2437      8.0626
   383.7500     83.5314      0.0000    971.0789      8.2990
   384.0000     81.2341      0.0000    929.0117      8.5618
   384.2500     82.1708      0.0000    878.7137      8.8177
   384.5000     86.1778      0.0000    825.1958      9.0855
   384.7500     91.6295      0.0000    750.1005      9.2513
   385.0000     96.0903      0.0000    681.8376      9.2408
   385.2500     98.0025      0.0000    681.7535      9.3142
   385.5000     97.9046      0.0000    762.9883      9.6850
   385.7500     97.5314      0.0000    875.2217     10.0130
   386.0000     97.8501      0.0000    958.3976      9.8345
   386.2500     98.5148      0.0000    987.1885      9.2438
   386.5000     98.8446      0.0000    975.0385      8.6911
   386.7500     98.4351      0.0000    941.6129      8.4434
   387.0000     96.8898      0.0000    902.8415      8.4878
   387.2500     93.7765      0.0000    892.4061      8.6308
   387.5000     89.0094      0.0000    939.7993      8.6660
   387.7500     82.9233      0.0000   1030.0511      8.5646
   388.0000     76.0805      0.0000   1119.2559      8.3747
   388.2500     69.3143      0.0000   1171.3638      8.0581
   388.5000     63.8164      0.0000   1165.2688      7.6163
   388.7500     60.7331      0.0000   1107.7850      7.2369
   389.0000     60.4329      0.0000   1040.7566      7.1091
   389.2500     62.2615      0.0000    998.6477      7.1555
   389.5000     65.1371      0.0000    980.3074      7.1519
   389.7500     68.3159      0.0000    971.9089      7.0142
   390.0000     71.4340      0.0000    968.3721      6.7804
   390.2500     74.0469      0.0000    968.8675      6.3953
   390.5000     75.7315      0.0000    968.3450      5.8139
   390.7500     76.7901      0.0000    961.8292      5.2961
   391.0000     78.1453      0.0000    951.9891      5.1401
   391.2500     80.0395      0.0000    946.1546      5.2793
   391.5000     81.4702      0.0000    945.5710      5.5709
   391.7500     81.4560      0.0000    940.1637      6.0275
   392.0000     80.3023      0.0000    919.2000      6.5108
   392.2500     79.1507      0.0000    887.9703      6.7168
