~Version Information
 VERS.                                  2.0 : CWLS LAS VERSION
 WRAP.                                   NO : WRAPING MODE
 SWARE .                 MController 2.5.0E : SOFTWARE VERSION
~Well Information
 WELL.                        Labrador 34-30: WELL
 COMP.             Pioneer Natural Resources: COMPANY
 FLD.                       Purgatoire River: FIELD
 LOC.                SW/SE Sec 30 T34S R65W : LOCATION
 DATE.                            12/05/2004: DATE(S) LOGGED
 SRVC.       Blanco Geological Services LLC : SERVICE COMPANY
 STAT.                                    CO: STATE
 CNTY.                            Las Animas: COUNTY
 CTRY.                                   USA: COUNTRY
 API.                           05-071-08202: API NUMBER
 STRT.FT                             302.00 : START DEPTH
 STOP.FT                            1765.00 : STOP DEPTH
 STEP.FT                               1.00 : DEPTH INCREMENT
 NULL.                                -9999 : NULL VALUE
~Curve information
 DEPTH.FT                                   :
 ROP.MIN/FT                                 :
 GAS.UNITS                                  :
~ASCII Log data
# ...
      502.00        0.100          3.2 
      503.00        0.133          2.9 
      504.00        0.200          5.0 
      505.00        0.333          7.9 
      506.00        1.883         10.4 
      507.00        0.267          6.2 
      508.00        0.233          6.6 
      509.00        0.233          5.7 
      510.00        0.200          5.9 
      511.00        0.167          5.1 
      512.00        0.133          6.5 
      513.00        0.133          6.6 
      514.00        0.167          5.6 
      515.00        0.133          6.1 
      516.00        0.133          6.5 
      517.00        0.133          5.7 
      518.00        0.167          6.8 
      519.00        0.133          6.4 
      520.00        0.133          6.3 
      521.00        0.100          6.8 
      522.00        0.133          6.7 
      523.00        0.167          7.2 
      524.00        0.183          7.2 
      525.00        0.200          6.7 
      526.00        0.133          6.0 
      527.00        0.133          7.1 
      528.00        0.100          8.8 
      529.00        0.167          9.9 
      530.00        0.167          8.9 
      531.00        0.167          8.5 
      532.00        0.133          9.2 
      533.00        0.133          9.6 
      534.00        0.133          8.1 
      535.00        0.167          7.6 
      536.00        1.950         15.7 
      537.00        0.133          7.5 
      538.00        0.167          7.5 
      539.00        0.133          7.3 
      540.00        0.133          7.9 
      541.00        0.133          8.6 
      542.00        0.133          8.4 
      543.00        0.167          9.0 
      544.00        0.167          8.7 
      545.00        0.133          8.5 
      546.00        0.133          7.9 
      547.00        0.100          8.7 
      548.00        0.133          7.6 
      549.00        0.100          7.9 
      550.00        0.100          7.4 
      551.00        0.100          7.3 
      552.00        0.100          7.7 
      553.00        0.100          7.5 
      554.00        0.100          7.4 
      555.00        0.067          7.0 
      556.00        0.267          6.4 
      557.00        0.283          6.4 
      558.00        0.133          4.8 
      559.00        0.200          4.5 
      560.00        0.167          7.2 
      561.00        0.133         23.6 
      562.00        0.100         43.5 
      563.00        0.133         77.3 
      564.00        0.133        115.3 
      565.00        0.067        132.0 
      566.00        2.200        194.7 
      567.00        0.150         11.2 
      568.00        0.100         13.0 
      569.00        0.333         14.5 
      570.00        0.300         12.6 
      571.00        0.400         11.9 
      572.00        0.133          6.5 
      573.00        0.167          6.3 
      574.00        0.167          6.0 
      575.00        0.233          5.9 
      576.00        0.167          6.4 
      577.00        0.167          6.3 
      578.00        0.167          4.5 
      579.00        0.133          4.4 
      580.00        0.167          4.7 
      581.00        0.167          4.7 
      582.00        0.167          4.3 
      583.00        0.167          4.6 
      584.00        0.150          5.0 
      585.00        0.167          5.0 
      586.00        0.133          4.3 
      587.00        0.133          4.3 
      588.00        0.167          4.3 
      589.00        0.100          3.8 
      590.00        0.133          3.5 
      591.00        0.100          2.9 
      592.00        0.100          2.8 
      593.00        0.133          3.1 
      594.00        0.200          4.0 
      595.00        0.200          6.8 
      596.00        2.850         72.1 
      597.00        0.233         11.0 
      598.00        0.167         10.7 
      599.00        0.200         11.3 
      600.00        0.200         11.4 
      601.00        0.133         11.2 
      602.00        0.100         10.0 
      603.00        0.100         10.4 
      604.00        0.133         10.2 
      605.00        0.133         10.3 
      606.00        0.100         10.2 
      607.00        0.100          9.2 
      608.00        0.067          8.0 
      609.00        0.133          7.1 
      610.00        0.133          6.3 
      611.00        0.183          6.8 
      612.00        0.167          6.4 
      613.00        0.167          7.0 
      614.00        0.200          6.1 
      615.00        0.200          6.8 
      616.00        0.167          6.0 
      617.00        0.200          6.7 
      618.00        0.200          6.2 
      619.00        0.167          5.8 
      620.00        0.200          4.8 
      621.00        0.200          4.3 
      622.00        0.200          4.2 
      623.00        0.200          3.4 
      624.00        0.167         13.6 
      625.00        0.200         29.1 
      626.00        2.417         54.5 
      627.00        0.300          9.9 
      628.00        0.200          9.5 
      629.00        0.167          8.8 
      630.00        0.200          8.8 
      631.00        0.200          8.5 
      632.00        0.167          8.6 
      633.00        0.167          7.5 
      634.00        0.133          7.5 
      635.00        0.183          8.6 
      636.00        0.167          7.6 
      637.00        0.167          6.5 
      638.00        0.167          7.3 
      639.00        0.167          7.0 
      640.00        0.167          7.4 
      641.00        0.167          7.6 
      642.00        0.167          7.4 
      643.00        0.167          7.6 
      644.00        0.167          7.8 
      645.00        0.200          7.7 
      646.00        0.133          6.7 
      647.00        0.200          7.2 
      648.00        0.167          6.6 
      649.00        0.200          6.1 
      650.00        0.200          8.8 
      651.00        0.167         11.3 
      652.00        0.167         15.3 
      653.00        0.167         20.7 
      654.00        0.183         26.8 
      655.00        0.133         33.6 
      656.00        2.800        104.1 
      657.00        0.317         12.8 
      658.00        0.233          7.6 
      659.00        0.233          6.5 
      660.00        0.200          5.7 
      661.00        0.200          6.3 
      662.00        0.167          6.4 
      663.00        0.167          5.9 
      664.00        0.167          5.5 
      665.00        0.167          5.1 
      666.00        0.300          4.2 
      667.00        0.300          5.1 
      668.00        0.233          3.8 
      669.00        0.200          3.7 
      670.00        0.267          3.6 
      671.00        0.167          3.7 
      672.00        0.167          2.9 
      673.00        0.217          2.9 
      674.00        0.167          3.0 
      675.00        0.200          2.9 
      676.00        0.200          3.1 
      677.00        0.167          2.9 
      678.00        0.167          2.3 
      679.00        0.200          2.9 
      680.00        0.167          2.6 
      681.00        0.200          2.9 
      682.00        0.167          3.0 
      683.00        0.200          2.2 
      684.00        0.167          3.0 
      685.00        0.167          2.5 
      686.00        1.150          2.8 
      687.00        0.233          2.7 
      688.00        0.200          2.7 
      689.00        0.333          2.8 
      690.00        0.267          2.6 
      691.00        0.200          2.2 
      692.00        0.233          2.6 
      693.00        0.200          2.4 
      694.00        0.167          2.6 
      695.00        0.200          2.8 
      696.00        0.267          2.6 
      697.00        0.200          2.4 
      698.00        0.333          2.5 
      699.00        0.167          2.2 
      700.00        0.250          2.1 
      701.00        0.167          2.4 
