~Version Information
VERS.                      2.0: CWLS Log ASCII Standard - VERSION 2.0
WRAP.                       NO: One line per depth step
~Well Information Block
STRT.FT                -3.0000: 
STOP.FT              2043.2500: 
STEP.FT                 0.2500: 
NULL.                -999.2500: 
COMP.          Pioneer Natural Resources: COMPANY
WELL.           Galloway 32-13: WELL
FLD.           Purgatorie River: FIELD
LOC.           1809' FNL & 2004' FEL--: LOCATION
PROV.                       CO: PROVINCE
CNTY.               Las Animas: COUNTRY
SRVC.          Patterson Wireline: SERVICE COMPANY
DATE.          Thu Jul 14 13:02:15 2005: LOG DATE
UWI.           05 071 08423 00: UNIQUE WELL ID
~Curve Information Block
DEPT.FT            0 000 00 00: Depth
CCL.                          : Casing Collar Locator
TT3.usec                      : CBL 3' Travel Time
AMP3.mV                       : CBL 3' Amplitude
GR.GAPI                       : Gamma Ray
~Parameter Information Block
~A  Depth       CCL         TT3         AMP3         GR     
# ...
  1069.0000      0.0000    786.9865      4.2144     89.3718
  1069.2500      0.0000    777.3718      4.3009     90.9246
  1069.5000      0.0000    773.8630      4.3296     95.4765
  1069.7500      0.0000    770.0811      4.2765    103.5483
  1070.0000      0.0000    761.8707      4.1622    113.9515
  1070.2500      0.0000    748.8270      4.0463    124.0745
  1070.5000      0.0000    732.2839      3.9923    131.2722
  1070.7500      0.0000    712.7805      4.0378    134.5235
  1071.0000      0.0000    689.8710      4.1888    135.0434
  1071.2500      0.0000    664.1175      4.4274    135.3117
  1071.5000      0.0000    638.9124      4.7195    137.2720
  1071.7500      0.0000    619.8649      5.0207    141.1113
  1072.0000      0.0000    611.5535      5.2787    145.4959
  1072.2500      0.0000    613.9833      5.4416    148.8598
  1072.5000      0.0000    621.7535      5.4750    150.5191
  1072.7500      0.0000    627.3792      5.3777    150.8074
  1073.0000      0.0000    627.1846      5.1834    150.4781
  1073.2500      0.0000    624.2259      4.9543    150.1089
  1073.5000      0.0000    623.9357      4.7623    149.7485
  1073.7500      0.0000    627.9949      4.6533    148.8712
  1074.0000      0.0000    635.7307      4.6214    146.9034
  1074.2500      0.0000    649.6592      4.6279    144.0573
  1074.5000      0.0000    673.5738      4.6542    141.5724
  1074.7500      0.0000    704.7557      4.7237    140.8911
  1075.0000      0.0000    733.4570      4.8627    142.3612
  1075.2500      0.0000    751.2637      5.0528    144.6746
  1075.5000      0.0000    757.1456      5.2335    145.4604
  1075.7500      0.0000    756.2441      5.3442    142.3000
  1076.0000      0.0000    755.8397      5.3580    133.6935
  1076.2500      0.0000    761.3447      5.2870    120.0467
  1076.5000      0.0000    773.1092      5.1632    103.9625
  1076.7500      0.0000    786.6093      5.0103     89.0399
  1077.0000      0.0000    796.4323      4.8363     78.1658
  1077.2500      0.0000    800.0920      4.6617     72.7670
  1077.5000      0.0000    798.1137      4.5411     72.9179
  1077.7500      0.0000    791.3970      4.5353     77.6462
  1078.0000      0.0000    779.6780      4.6617     85.6009
  1078.2500      0.0000    763.4475      4.8822     95.9335
  1078.5000      0.0000    746.7492      5.1312    108.2443
  1078.7500      0.0000    736.1482      5.3475    121.5104
  1079.0000      0.0000    735.7505      5.4887    133.5886
  1079.2500      0.0000    743.9481      5.5303    142.1402
  1079.5000      0.0000    755.5173      5.4643    145.9479
  1079.7500      0.0000    766.2056      5.3095    145.3455
  1080.0000      0.0000    775.2333      5.1212    141.7130
  1080.2500      0.0000    784.4055      4.9689    136.8556
  1080.5000      0.0000    795.4194      4.8938    132.6953
  1080.7500      0.0000    807.6945      4.8839    130.7514
  1081.0000      0.0000    818.5878      4.8904    131.1840
  1081.2500      0.0000    825.9189      4.8679    132.4877
  1081.5000      0.0000    830.2062      4.8092    132.7121
  1081.7500      0.0000    834.1286      4.7463    131.0552
  1082.0000      0.0000    839.5873      4.7140    128.1785
  1082.2500      0.0000    845.4962      4.7196    125.3738
  1082.5000      0.0000    848.5972      4.7477    123.5686
  1082.7500      0.0000    846.1198      4.7764    122.7194
  1083.0000      0.0000    836.3565      4.7777    122.0963
  1083.2500      0.0000    816.3442      4.7223    121.4178
  1083.5000      0.0000    781.5446      4.6097    121.4500
  1083.7500      0.0000    731.1160      4.4864    123.1542
  1084.0000      0.0000    673.1300      4.4156    126.4566
  1084.2500      0.0000    621.5843      4.4211    129.9856
  1084.5000      0.0000    587.4639      4.4667    131.7495
  1084.7500      0.0000    573.6393      4.4944    130.3051
  1085.0000      0.0000    576.9428      4.4835    126.0005
  1085.2500      0.0000    592.2357      4.4704    121.1041
  1085.5000      0.0000    614.6538      4.5097    117.9703
  1085.7500      0.0000    640.8917      4.6184    116.7598
  1086.0000      0.0000    669.7726      4.7577    115.2924
  1086.2500      0.0000    700.7713      4.8639    111.3127
  1086.5000      0.0000    731.6013      4.8887    104.7561
  1086.7500      0.0000    758.2234      4.8270     97.8543
  1087.0000      0.0000    777.4742      4.7213     93.4378
  1087.2500      0.0000    788.9340      4.6362     93.2890
  1087.5000      0.0000    794.2079      4.6115     97.4955
  1087.7500      0.0000    795.3605      4.6354    104.5085
  1088.0000      0.0000    794.3245      4.6608    111.8994
  1088.2500      0.0000    793.2047      4.6460    117.8281
  1088.5000      0.0000    794.5477      4.5890    122.1109
  1088.7500      0.0000    800.1461      4.5322    125.6837
  1089.0000      0.0000    808.3514      4.5310    129.1611
  1089.2500      0.0000    813.2617      4.5978    132.2556
  1089.5000      0.0000    808.3994      4.6750    134.3391
  1089.7500      0.0000    792.0485      4.6775    135.1278
  1090.0000      0.0000    769.2332      4.5651    134.8637
  1090.2500      0.0000    749.0176      4.3669    133.8260
  1090.5000      0.0000    739.9047      4.1447    131.4900
  1090.7500      0.0000    745.9946      3.9589    126.7640
  1091.0000      0.0000    764.4067      3.8513    119.9290
  1091.2500      0.0000    785.3109      3.8212    113.8187
  1091.5000      0.0000    796.8959      3.8151    111.9176
  1091.7500      1.6330    793.2128      3.7706    115.2512
  1092.0000      2.0000    778.0161      3.6813    121.5296
  1092.2500      0.0000    760.7896      3.6177    127.0168
  1092.5000      0.0000    749.0436      3.6731    129.1987
  1092.7500      0.0000    743.4973      3.8758    128.4454
  1093.0000      0.0000    739.0403      4.1500    127.4795
  1093.2500      0.0000    729.5054      4.3711    128.8528
  1093.5000      0.0000    712.2811      4.4723    132.7324
  1093.7500      0.0000    689.2950      4.4898    137.1231
  1094.0000      0.0000    664.3835      4.5038    139.8959
  1094.2500      0.0000    640.9628      4.5544    140.2574
  1094.5000      0.0000    622.9229      4.6176    138.5095
  1094.7500      0.0000    616.1613      4.6439    135.1050
  1095.0000      0.0000    626.5516      4.6179    130.2671
  1095.2500      0.0000    654.6564      4.5877    124.1025
  1095.5000      0.0000    692.6404      4.6298    116.7927
  1095.7500      0.0000    727.3532      4.7781    108.9395
  1096.0000      0.0000    746.9901      4.9861    101.7606
  1096.2500      0.0000    746.7970      5.1627     96.6577
  1096.5000      0.0000    731.6550      5.2443     94.5040
  1096.7500      0.0000    713.1459      5.2431     95.1782
  1097.0000      0.0000    700.7773      5.2327     97.4671
  1097.2500      0.0000    694.7973      5.2758     99.6972
  1097.5000      0.0000    688.6970      5.3549    101.0461
  1097.7500      0.0000    677.6734      5.3824    102.1889
  1098.0000      0.0000    663.1212      5.2905    104.2286
  1098.2500      0.0000    650.0974      5.0979    107.0691
  1098.5000      0.0000    642.5230      4.8792    109.3405
  1098.7500      0.0000    641.1108      4.6900    109.9155
  1099.0000      0.0000    645.0016      4.5453    108.8834
  1099.2500      0.0000    653.9822      4.4505    106.8593
  1099.5000      0.0000    667.9019      4.4147    104.0205
  1099.7500      0.0000    683.9199      4.4289    100.2707
  1100.0000      0.0000    696.1332      4.4535     95.8392
  1100.2500      0.0000    700.0333      4.4366     91.1843
  1100.5000      0.0000    697.3523      4.3478     86.5296
  1100.7500      0.0000    695.1855      4.1953     81.8725
  1101.0000      0.0000    699.8566      4.0087     77.3839
  1101.2500      0.0000    711.6700      3.8098     73.6039
  1101.5000      0.0000    725.1160      3.6080     71.2371
  1101.7500      0.0000    733.8899      3.4145     70.7318
  1102.0000      0.0000    736.1052      3.2492     71.9497
  1102.2500      0.0000    734.8519      3.1398     74.2160
