~Version Information
VERS.                      2.0: CWLS Log ASCII Standard - VERSION 2.0
WRAP.                       NO: One line per depth step
~Well Information Block
STRT.FT               250.0000: 
STOP.FT               894.7500: 
STEP.FT                 0.2500: 
NULL.                -999.2500: 
COMP.          Pioneer Natural Resources: COMPANY
WELL.          Santisteven 13-22: WELL
FLD.           Purgatoire River: FIELD
LOC.           1861' FSL & 992' FWL----: LOCATION
PROV.                 Colorado: PROVINCE
CNTY.               Las Animas: COUNTRY
SRVC.                Patterson: SERVICE COMPANY
DATE.          Sat Apr 02 14:49:07 2005: LOG DATE
UWI.           05 071 08337 00: UNIQUE WELL ID
~Curve Information Block
DEPT.FT            0 000 00 00: Depth
SN.Ohm-m                      : IEL Short Normal
SP.mV                         : IEL Spontaneous Potential
DIR.Ohm-m                     : IEL Induction Resistivity
GR.GAPI                       : Gamma Ray
~Parameter Information Block
~A  Depth        SN          SP         DIR          GR     
# ...
   652.0000    215.2871     26.1529      9.8035    165.8465
   652.2500    208.3816     26.1442      9.7375    166.9320
   652.5000    198.1438     26.1372      9.7000    163.6126
   652.7500    182.6637     26.1323      9.6704    158.2424
   653.0000    163.2471     26.1293      9.6305    147.6047
   653.2500    145.6800     26.1281      9.5708    140.4065
   653.5000    138.3058     26.1283      9.4924    131.5204
   653.7500    145.7563     26.1293      9.4034    127.4465
   654.0000    162.2785     26.1308      9.3127    124.0994
   654.2500    173.1425     26.1326      9.2255    123.3797
   654.5000    165.9212     26.1343      9.1415    124.0748
   654.7500    140.5755     26.1357      9.0570    125.5391
   655.0000    107.6684     26.1367      8.9668    128.6371
   655.2500     78.4796     26.1369      8.8672    130.7825
   655.5000     58.1381     26.1364      8.7583    133.6891
   655.7500     45.9007     26.1354      8.6446    135.5190
   656.0000     38.8270     26.1344      8.5348    137.8567
   656.2500     34.7303     26.1338      8.4406    138.4635
   656.5000     33.2011     26.1342      8.3741    137.0750
   656.7500     34.8874     26.1359      8.3469    135.0622
   657.0000     39.7441     26.1389      8.3683    132.3372
   657.2500     46.1189     26.1427      8.4456    131.5005
   657.5000     52.3934     26.1467      8.5847    131.3569
   657.7500     60.1034     26.1502      8.7907    131.0366
   658.0000     74.4652     26.1524      9.0691    128.4058
   658.2500    100.0172     26.1531      9.4249    124.6310
   658.5000    135.1360     26.1525      9.8633    116.4401
   658.7500    171.3575     26.1511     10.3897    110.4303
   659.0000    198.0287     26.1495     11.0094    102.8924
   659.2500    207.4823     26.1485     11.7255     99.6379
   659.5000    197.6458     26.1483     12.5340     97.1314
   659.7500    172.4600     26.1489     13.4193     96.1805
   660.0000    140.1246     26.1499     14.3517     94.4013
   660.2500    109.2517     26.1505     15.2880     92.8246
   660.5000     85.3258     26.1503     16.1765     90.9063
   660.7500     69.7114     26.1488     16.9651     90.6661
   661.0000     60.6769     26.1463     17.6102     92.0480
   661.2500     55.1313     26.1434     18.0853     93.4819
   661.5000     50.6055     26.1409     18.3822     94.9704
   661.7500     46.6824     26.1395     18.5088     95.1183
   662.0000     44.7728     26.1399     18.4841     94.4603
   662.2500     46.4318     26.1424     18.3345     93.9847
   662.5000     51.6981     26.1469     18.0899     94.0665
   662.7500     58.8534     26.1531     17.7785     94.9654
   663.0000     65.9721     26.1605     17.4239     97.8274
   663.2500     73.4578     26.1686     17.0437    100.7072
   663.5000     85.7894     26.1768     16.6484    106.2183
   663.7500    110.4069     26.1845     16.2407    110.4877
   664.0000    152.7219     26.1915     15.8170    117.2583
   664.2500    210.0380     26.1972     15.3759    121.5259
   664.5000    270.8628     26.2015     14.9281    126.7834
   664.7500    322.0053     26.2043     14.4989    129.3781
   665.0000    355.8450     26.2058     14.1203    132.0061
   665.2500    368.9778     26.2063     13.8181    132.9196
   665.5000    356.6763     26.2063     13.6037    133.0234
   665.7500    315.1930     26.2062     13.4726    132.4955
   666.0000    250.6358     26.2065     13.4082    131.6678
   666.2500    180.3402     26.2074     13.3894    131.5727
   666.5000    122.5500     26.2090     13.3971    132.4398
   666.7500     85.7092     26.2111     13.4181    133.4792
   667.0000     66.9483     26.2136     13.4444    134.8784
   667.2500     58.1625     26.2162     13.4698    135.2896
   667.5000     53.0888     26.2188     13.4873    135.1188
   667.7500     50.7389     26.2212     13.4906    134.7608
   668.0000     53.5352     26.2232     13.4767    134.1534
   668.2500     62.2515     26.2250     13.4468    133.7221
   668.5000     73.0828     26.2265     13.4061    133.3227
   668.7500     80.3882     26.2274     13.3646    133.5947
   669.0000     82.1703     26.2277     13.3380    135.0240
   669.2500     81.7402     26.2270     13.3465    136.1879
   669.5000     84.0967     26.2251     13.4105    137.0961
   669.7500     91.7891     26.2216     13.5468    136.9415
   670.0000    104.2036     26.2162     13.7663    136.0791
   670.2500    119.4883     26.2088     14.0717    135.2710
   670.5000    136.6088     26.1993     14.4545    133.1700
   670.7500    154.9697     26.1877     14.8917    130.6044
   671.0000    171.1275     26.1745     15.3474    124.4438
   671.2500    177.0517     26.1602     15.7806    119.0370
   671.5000    164.9641     26.1458     16.1580    110.4379
   671.7500    135.2686     26.1321     16.4642    105.5396
   672.0000     97.8447     26.1201     16.7024    101.1935
   672.2500     64.5514     26.1105     16.8838    100.8569
   672.5000     41.6610     26.1038     17.0147    104.0272
   672.7500     29.1395     26.1001     17.0893    107.8159
   673.0000     24.4546     26.0994     17.0938    113.9415
   673.2500     25.9398     26.1013     17.0176    117.1795
   673.5000     34.1933     26.1054     16.8644    119.9345
   673.7500     51.5164     26.1110     16.6554    120.6703
   674.0000     78.6053     26.1174     16.4219    121.1935
   674.2500    109.7079     26.1237     16.1921    121.5589
   674.5000    132.3020     26.1291     15.9806    122.1927
   674.7500    135.3967     26.1330     15.7863    122.5711
   675.0000    119.4242     26.1349     15.5984    123.1395
   675.2500     95.6402     26.1345     15.4063    123.7961
   675.5000     75.3452     26.1319     15.2064    125.7846
   675.7500     61.8248     26.1276     15.0018    127.9039
   676.0000     52.2713     26.1223     14.7953    131.8628
   676.2500     43.8933     26.1167     14.5803    134.4706
   676.5000     36.5030     26.1117     14.3380    137.0543
   676.7500     31.2076     26.1078     14.0425    137.1653
   677.0000     28.8688     26.1055     13.6747    134.2794
   677.2500     29.7340     26.1049     13.2357    130.4776
   677.5000     33.2615     26.1058     12.7521    123.1667
   677.7500     37.8760     26.1079     12.2673    118.4199
   678.0000     41.6128     26.1106     11.8265    113.7874
   678.2500     43.7933     26.1137     11.4618    113.1482
   678.5000     46.0093     26.1166     11.1869    115.3738
   678.7500     50.8544     26.1192     10.9988    117.9205
   679.0000     59.2029     26.1213     10.8833    121.5972
   679.2500     68.9504     26.1227     10.8213    123.3939
   679.5000     76.8009     26.1231     10.7931    124.6719
   679.7500     80.9262     26.1224     10.7836    124.4094
   680.0000     81.3348     26.1204     10.7859    122.2346
   680.2500     78.2767     26.1173     10.8025    119.8330
   680.5000     71.6533     26.1134     10.8419    115.8841
   680.7500     62.2004     26.1095     10.9116    113.8443
   681.0000     52.1541     26.1062     11.0115    112.7351
   681.2500     44.1066     26.1042     11.1310    113.6123
   681.5000     39.3824     26.1038     11.2528    117.5472
   681.7500     37.4112     26.1052     11.3602    121.6792
   682.0000     36.4785     26.1079     11.4433    128.5928
   682.2500     35.3441     26.1112     11.5015    132.3017
   682.5000     34.2023     26.1141     11.5412    134.7029
   682.7500     34.0033     26.1157     11.5716    134.1483
   683.0000     35.3137     26.1154     11.6031    131.7918
   683.2500     38.2374     26.1125     11.6459    130.4811
   683.5000     42.7402     26.1069     11.7106    129.7088
   683.7500     48.3598     26.0989     11.8060    129.3430
   684.0000     54.2286     26.0889     11.9373    127.5035
   684.2500     60.9781     26.0776     12.1030    125.3368
   684.5000     73.0064     26.0658     12.2949    122.0684
   684.7500     97.2930     26.0545     12.5005    120.7909
   685.0000    137.4187     26.0445     12.7044    120.9284
   685.2500    186.9663     26.0364     12.8892    122.2820
