~Version Information
VERS.                      2.0: CWLS Log ASCII Standard - VERSION 2.0
WRAP.                       NO: One line per depth step
~Well Information Block
STRT.FT               340.0000: 
STOP.FT              1542.5000: 
STEP.FT                 0.2500: 
NULL.                -999.2500: 
COMP.          Petrogulf Corporation: COMPANY
WELL.            Montoya 7-21R: WELL
FLD.           Purgatorie River: FIELD
LOC.           445' FNL & 1942' FWL: LOCATION
PROV.                 Colorado: PROVINCE
CNTY.               Las Animas: COUNTRY
SRVC.                Patterson: SERVICE COMPANY
DATE.          Thu Sep 15 10:37:42 2005: LOG DATE
UWI.                          : UNIQUE WELL ID
~Curve Information Block
DEPT.FT            0 000 00 00: Depth
SP.mV                         : DIL Spontaneous Potential
RILD.Ohm-m                    : DIL Deep Resistivity
RILM.Ohm-m                    : DIL Medium Resistivity
RLL3.Ohm-m                    : DIL Shallow Resistivity
GR.GAPI                       : Gamma Ray
~Parameter Information Block
~A  Depth        SP         RILD        RILM        RLL3         GR     
# ...
  1516.0000    216.3019     21.7284     20.9763     20.7828    106.4253
  1516.2500    215.7226     22.3937     20.1813     17.0186    118.2076
  1516.5000    215.2069     22.9978     20.3215     17.2999    126.5584
  1516.7500    214.9124     23.3596     21.0569     20.3637    126.8607
  1517.0000    214.5857     23.9683     22.4658     24.7283    146.4728
  1517.2500    214.2074     24.6181     23.6174     29.9469    141.1090
  1517.5000    213.7823     24.6270     24.4396     35.0468    114.9046
  1517.7500    213.4576     24.9375     25.1459     35.3847    104.1624
  1518.0000    213.0591     24.5802     25.3988     31.1830    116.3007
  1518.2500    212.3580     25.0507     25.7617     30.1985    108.9633
  1518.5000    211.5759     25.6786     26.6034     32.7675     95.8061
  1518.7500    210.9177     25.9930     27.1159     34.8276     37.5252
  1519.0000    210.3926     26.9468     28.2008     35.4509      0.2250
  1519.2500    209.8521     27.7784     28.6948     34.2705      0.0000
  1519.5000    209.3493     28.2221     29.1221     32.4588   -999.2500
  1519.7500    208.9775     29.2105     31.0318     31.1736   -999.2500
  1520.0000    208.8353     30.6169     31.6192     29.8535   -999.2500
  1520.2500    208.8846     31.8580     32.4497     30.7884   -999.2500
  1520.5000    209.0156     31.7616     32.8993     34.0443   -999.2500
  1520.7500    209.2030     31.5946     33.2707     36.7454   -999.2500
  1521.0000    209.1983     32.0787     34.2918     39.0789   -999.2500
  1521.2500    208.8541     32.5077     34.2993     40.5059   -999.2500
  1521.5000    208.0719     33.5180     35.3518     41.3888   -999.2500
  1521.7500    207.0022     32.9820     35.2954     42.2228   -999.2500
  1522.0000    205.6665     33.5398     36.9091     43.1583   -999.2500
  1522.2500    204.5007     34.3781     36.7333     44.5052   -999.2500
  1522.5000    203.8235     35.2376     39.0158     47.4203   -999.2500
  1522.7500    203.7787     35.1607     41.4535     51.8295   -999.2500
  1523.0000    204.1514     35.9462     42.0268     56.7403   -999.2500
  1523.2500    204.6176     36.1353     44.1111     61.3678   -999.2500
  1523.5000    205.0828     35.1983     44.2964     65.3417   -999.2500
  1523.7500    205.6303     34.3728     43.6786     71.3275   -999.2500
  1524.0000    206.0959     34.8017     46.8740     79.8852   -999.2500
  1524.2500    206.7318     34.0696     46.9321     85.5080   -999.2500
  1524.5000    207.7231     33.7778     49.2772     85.8545   -999.2500
  1524.7500    208.9156     33.9074     48.6033     81.7970   -999.2500
  1525.0000    209.8129     34.2986     46.8915     75.4040   -999.2500
  1525.2500    210.2094     33.3552     47.1618     68.2655   -999.2500
  1525.5000    210.5494     33.8561     47.8285     62.6197   -999.2500
  1525.7500    211.1666     33.8226     49.0184     61.3816   -999.2500
  1526.0000    211.5989     33.2504     47.9730     62.5141   -999.2500
  1526.2500    211.8606     33.3360     47.9584     60.5756   -999.2500
  1526.5000    212.4502     32.8603     49.4374     57.1469   -999.2500
  1526.7500    213.2791     32.5501     50.3236     55.3890   -999.2500
  1527.0000    213.9316     33.8628     48.9990     54.5451   -999.2500
  1527.2500    214.2083     35.0345     47.5345     54.3357   -999.2500
  1527.5000    214.8270     34.6779     47.4906     54.8902   -999.2500
  1527.7500    215.7734     33.3838     48.1230     56.3273   -999.2500
  1528.0000    216.4070     34.0126     49.5577     59.1733   -999.2500
  1528.2500    216.9186     33.3274     50.4350     63.7512   -999.2500
  1528.5000    218.5958     32.6141     51.6463     69.0824   -999.2500
  1528.7500    220.0453     32.3543     49.4959     74.9131   -999.2500
  1529.0000    220.4312     32.3564     49.4919     81.3724   -999.2500
  1529.2500    221.5345     31.3011     47.9852     85.2800   -999.2500
  1529.5000    221.8966     30.4695     48.7505     79.8641   -999.2500
  1529.7500    196.7940     33.5962     46.1786     68.5392   -999.2500
  1530.0000     23.4819    106.2772     43.7171     57.3023   -999.2500
  1530.2500      0.0581    149.9275     41.8902     46.1212   -999.2500
  1530.5000   -999.2500    620.2731     42.1475     33.9117   -999.2500
  1530.7500   -999.2500    596.0792     43.4208     28.7732   -999.2500
  1531.0000   -999.2500    607.3099     45.3418     33.0274   -999.2500
  1531.2500   -999.2500    595.7342     45.5791     43.2157   -999.2500
  1531.5000   -999.2500    582.0354     48.8362     51.4128   -999.2500
  1531.7500   -999.2500    577.2597     51.0744     54.6912   -999.2500
  1532.0000   -999.2500    577.9511     52.8657     58.2656   -999.2500
  1532.2500   -999.2500    558.4721     53.5178     64.9599   -999.2500
  1532.5000   -999.2500    543.6571     49.7972     73.1084   -999.2500
  1532.7500   -999.2500    601.8767     49.1627     81.8217   -999.2500
  1533.0000   -999.2500   2138.9883     44.5139     88.4635   -999.2500
  1533.2500   -999.2500   3258.5435     39.7352     90.5091   -999.2500
  1533.5000   -999.2500 100000.0000     41.7231     90.3480   -999.2500
  1533.7500   -999.2500 100000.0000    113.2629     82.8018   -999.2500
  1534.0000   -999.2500 100000.0000    147.6295     56.4477   -999.2500
  1534.2500   -999.2500 100000.0000   2408.4561     28.2457   -999.2500
  1534.5000   -999.2500 100000.0000   2444.5549     17.3776   -999.2500
  1534.7500   -999.2500 100000.0000   2312.3965     14.8322   -999.2500
  1535.0000   -999.2500 100000.0000   2189.9680     14.7410   -999.2500
  1535.2500   -999.2500 100000.0000   2095.1968     15.1297   -999.2500
  1535.5000   -999.2500 100000.0000   2107.2021     15.3275   -999.2500
  1535.7500   -999.2500 100000.0000   2174.5691     15.4417   -999.2500
  1536.0000   -999.2500 100000.0000   2288.4036     15.9029   -999.2500
  1536.2500   -999.2500 100000.0000   2286.3894     16.0728   -999.2500
  1536.5000   -999.2500 100000.0000   2456.7456     15.4467   -999.2500
  1536.7500   -999.2500 100000.0000   2562.0315     14.1522   -999.2500
  1537.0000   -999.2500   -999.2500   2655.2380     12.9305   -999.2500
  1537.2500   -999.2500   -999.2500   2690.5029     12.8360   -999.2500
  1537.5000   -999.2500   -999.2500   2500.0898     13.5151   -999.2500
  1537.7500   -999.2500   -999.2500   2466.9988     20.1723   -999.2500
  1538.0000   -999.2500   -999.2500   2228.7471     40.0004   -999.2500
  1538.2500   -999.2500   -999.2500   1985.7783     45.3759   -999.2500
  1538.5000   -999.2500   -999.2500   2085.6418     22.8519   -999.2500
  1538.7500   -999.2500   -999.2500   5823.9175     13.1448   -999.2500
  1539.0000   -999.2500   -999.2500   7700.9004      0.6089   -999.2500
  1539.2500   -999.2500   -999.2500 100000.0000     -0.9960   -999.2500
  1539.5000   -999.2500   -999.2500 100000.0000   -999.2500   -999.2500
  1539.7500   -999.2500   -999.2500 100000.0000   -999.2500   -999.2500
  1540.0000   -999.2500   -999.2500 100000.0000   -999.2500   -999.2500
  1540.2500   -999.2500   -999.2500 100000.0000   -999.2500   -999.2500
  1540.5000   -999.2500   -999.2500 100000.0000   -999.2500   -999.2500
  1540.7500   -999.2500   -999.2500 100000.0000   -999.2500   -999.2500
  1541.0000   -999.2500   -999.2500 100000.0000   -999.2500   -999.2500
  1541.2500   -999.2500   -999.2500 100000.0000   -999.2500   -999.2500
  1541.5000   -999.2500   -999.2500 100000.0000   -999.2500   -999.2500
  1541.7500   -999.2500   -999.2500   -999.2500   -999.2500   -999.2500
  1542.0000   -999.2500   -999.2500   -999.2500   -999.2500   -999.2500
  1542.2500   -999.2500   -999.2500   -999.2500   -999.2500   -999.2500
  1542.5000   -999.2500   -999.2500   -999.2500   -999.2500   -999.2500
