~Version Information
VERS.                      2.0: CWLS Log ASCII Standard - VERSION 2.0
WRAP.                       NO: One line per depth step
~Well Information Block
STRT.FT               -10.3000: 
STOP.FT              1936.7000: 
STEP.FT                 0.1000: 
NULL.                -999.2500: 
COMP.          Petrogulf Corporation: COMPANY
WELL.              Graff 9-31R: WELL
FLD.           Purgatorie River: FIELD
LOC.           707' FNL & 1713' FEL------: LOCATION
CNTY.               Las Animas: COUNTY
SRVC.                         : SERVICE COMPANY
DATE.          Wed Nov 17 13:41:51 2004: LOG DATE
UWI.                          : UNIQUE WELL ID
STAT.                       CO: STATE
~Curve Information Block
DEPT.FT            0 000 00 00: Depth
GR.GAPI                       : Gamma Ray
CCL.                          : Casing Collar Locator
TT3.usec                      : CBL 3' Travel Time
AMP3.mV                       : CBL 3' Amplitude
~Parameter Information Block
~A  Depth        GR         CCL         TT3         AMP3    
# ...
  1664.7000    142.0889      0.0000    749.7360      9.5430
  1664.8000    141.5531      0.0000    740.7288      9.2965
  1664.9000    141.5531      0.0000    740.7288      9.2965
  1665.0000    139.4050      0.0000    725.2131      9.0651
  1665.1000    139.4050      0.0000    725.2131      9.0651
  1665.2000    139.4050      0.0000    725.2131      9.0651
  1665.3000    136.0585      0.0000    704.7316      8.8292
  1665.4000    136.0585      0.0000    704.7316      8.8292
  1665.5000    132.1241      0.0000    686.3515      8.5899
  1665.6000    132.1241      0.0000    686.3515      8.5899
  1665.7000    132.1241      0.0000    686.3515      8.5899
  1665.8000    128.9675      0.0000    678.9743      8.3785
  1665.9000    128.9675      0.0000    678.9743      8.3785
  1666.0000    128.1257      0.0000    686.3044      8.2253
  1666.1000    128.1257      0.0000    686.3044      8.2253
  1666.2000    128.1257      0.0000    686.3044      8.2253
  1666.3000    129.9840      0.0000    703.5366      8.1230
  1666.4000    129.9840      0.0000    703.5366      8.1230
  1666.5000    133.5061      0.0000    721.8788      8.0321
  1666.6000    133.5061      0.0000    721.8788      8.0321
  1666.7000    133.5061      0.0000    721.8788      8.0321
  1666.8000    137.1287      0.0000    735.3828      7.9203
  1666.9000    137.1287      0.0000    735.3828      7.9203
  1667.0000    139.2938      0.0000    742.1586      7.7857
  1667.1000    139.2938      0.0000    742.1586      7.7857
  1667.2000    139.2938      0.0000    742.1586      7.7857
  1667.3000    138.6273      0.0000    741.2210      7.6416
  1667.4000    138.6273      0.0000    741.2210      7.6416
  1667.5000    134.9678      0.0000    731.5086      7.4944
  1667.6000    134.9678      0.0000    731.5086      7.4944
  1667.7000    134.9678      0.0000    731.5086      7.4944
  1667.8000    130.3783      0.0000    713.9020      7.3441
  1667.9000    130.3783      0.0000    713.9020      7.3441
  1668.0000    127.8348      0.0000    691.7836      7.1966
  1668.1000    127.8348      0.0000    691.7836      7.1966
  1668.2000    127.8348      0.0000    691.7836      7.1966
  1668.3000    128.3239      0.0000    669.5143      7.0666
  1668.4000    128.3239      0.0000    669.5143      7.0666
  1668.5000    129.9191      0.0000    651.5272      6.9680
  1668.6000    129.9191      0.0000    651.5272      6.9680
  1668.7000    129.9191      0.0000    651.5272      6.9680
  1668.8000    129.9966      0.0000    641.0525      6.9000
  1668.9000    129.9966      0.0000    641.0525      6.9000
  1669.0000    127.7639      0.0000    636.8460      6.8440
  1669.1000    127.7639      0.0000    636.8460      6.8440
  1669.2000    127.7639      0.0000    636.8460      6.8440
  1669.3000    124.5042      0.0000    632.4883      6.7768
  1669.4000    124.5042      0.0000    632.4883      6.7768
  1669.5000    121.9561      0.0000    622.0140      6.6911
  1669.6000    121.9561      0.0000    622.0140      6.6911
  1669.7000    121.9561      0.0000    622.0140      6.6911
  1669.8000    120.7889      0.0000    605.7010      6.5978
  1669.9000    120.7889      0.0000    605.7010      6.5978
  1670.0000    120.5390      0.0000    589.1595      6.5071
  1670.1000    120.5390      0.0000    589.1595      6.5071
  1670.2000    120.5390      0.0000    589.1595      6.5071
  1670.3000    120.7678      0.0000    578.9292      6.4145
  1670.4000    120.7678      0.0000    578.9292      6.4145
  1670.5000    121.8428      0.0000    580.1180      6.3100
  1670.6000    121.8428      0.0000    580.1180      6.3100
  1670.7000    121.8428      0.0000    580.1180      6.3100
  1670.8000    124.3791      0.0000    595.3521      6.1914
  1670.9000    124.3791      0.0000    595.3521      6.1914
  1671.0000    128.1775      0.0000    623.4822      6.0672
  1671.1000    128.1775      0.0000    623.4822      6.0672
  1671.2000    128.1775      0.0000    623.4822      6.0672
  1671.3000    131.9252      0.0000    659.9215      5.9490
  1671.4000    131.9252      0.0000    659.9215      5.9490
  1671.5000    133.7214      0.0000    698.5118      5.8450
  1671.6000    133.7214      0.0000    698.5118      5.8450
  1671.7000    133.7214      0.0000    698.5118      5.8450
  1671.8000    131.9140      0.0000    732.8134      5.7553
  1671.9000    131.9140      0.0000    732.8134      5.7553
  1672.0000    126.1317      0.0000    757.3011      5.6664
  1672.1000    126.1317      0.0000    757.3011      5.6664
  1672.2000    126.1317      0.0000    757.3011      5.6664
  1672.3000    117.9331      0.0000    769.9414      5.5490
  1672.4000    117.9331      0.0000    769.9414      5.5490
  1672.5000    109.8925      0.0000    774.2787      5.3766
  1672.6000    109.8925      0.0000    774.2787      5.3766
  1672.7000    109.8925      0.0000    774.2787      5.3766
  1672.8000    103.6606      0.0000    777.6807      5.1836
  1672.9000    103.6606      0.0000    777.6807      5.1836
  1673.0000     99.1831      0.0000    785.8701      5.1115
  1673.1000     99.1831      0.0000    785.8701      5.1115
  1673.2000     99.1831      0.0000    785.8701      5.1115
  1673.3000     95.6663      0.0000    798.6660      5.3476
  1673.4000     95.6663      0.0000    798.6660      5.3476
  1673.5000     92.8146      0.0000    811.9389      5.9639
  1673.6000     92.8146      0.0000    811.9389      5.9639
  1673.7000     92.8146      0.0000    811.9389      5.9639
  1673.8000     91.0767      0.0000    823.1049      6.8225
  1673.9000     91.0767      0.0000    823.1049      6.8225
  1674.0000     90.8909      0.0000    832.5057      7.6625
  1674.1000     90.8909     -2.0000    832.5057      7.6625
  1674.2000     90.8909      0.0000    832.5057      7.6625
  1674.3000     91.8845      2.0000    839.9717      8.2709
  1674.4000     91.8845      0.0000    839.9717      8.2709
  1674.5000     93.0649      0.0000    843.4045      8.5758
  1674.6000     93.0649      1.8353    843.4045      8.5758
  1674.7000     93.0649      0.0000    843.4045      8.5758
  1674.8000     93.6949      0.0000    841.3696      8.6211
  1674.9000     93.6949      0.0000    841.3696      8.6211
  1675.0000     93.6165      0.0000    834.5181      8.4855
  1675.1000     93.6165      0.0000    834.5181      8.4855
  1675.2000     93.6165      0.0000    834.5181      8.4855
  1675.3000     92.8446      0.0000    823.9230      8.2087
  1675.4000     92.8446      0.0000    823.9230      8.2087
  1675.5000     91.1798      0.0000    810.1963      7.7890
  1675.6000     91.1798      0.0000    810.1963      7.7890
  1675.7000     91.1798      0.0000    810.1963      7.7890
  1675.8000     88.2571      0.0000    794.9508      7.2587
  1675.9000     88.2571      0.0000    794.9508      7.2587
  1676.0000     83.9599      0.0000    781.0887      6.7219
  1676.1000     83.9599      0.0000    781.0887      6.7219
  1676.2000     83.9599      0.0000    781.0887      6.7219
  1676.3000     78.8296      0.0000    770.0151      6.2854
  1676.4000     78.8296      0.0000    770.0151      6.2854
  1676.5000     73.8311      0.0000    759.6500      5.9836
  1676.6000     73.8311      0.0000    759.6500      5.9836
  1676.7000     73.8311      0.0000    759.6500      5.9836
  1676.8000     69.6293      0.0000    746.9469      5.7910
  1676.9000     69.6293      0.0000    746.9469      5.7910
  1677.0000     66.3256      0.0000    731.9998      5.6708
  1677.1000     66.3256      0.0000    731.9998      5.6708
  1677.2000     66.3256      0.0000    731.9998      5.6708
  1677.3000     63.8216      0.0000    718.1108      5.5954
  1677.4000     63.8216      0.0000    718.1108      5.5954
  1677.5000     62.1542      0.0000    708.8864      5.5504
  1677.6000     62.1542      0.0000    708.8864      5.5504
  1677.7000     62.1542      0.0000    708.8864      5.5504
  1677.8000     61.4665      0.0000    707.4530      5.5339
  1677.9000     61.4665      0.0000    707.4530      5.5339
  1678.0000     61.8277      0.0000    717.0541      5.5479
