~Version Information
VERS.                      2.0: CWLS Log ASCII Standard - VERSION 2.0
WRAP.                       NO: One line per depth step
~Well Information Block
STRT.FT               665.0000: 
STOP.FT              1972.5000: 
STEP.FT                 0.1000: 
NULL.                -999.2500: 
COMP.          Petrogulf Corporation: COMPANY
WELL.          Great Plains 22-21V: WELL
FLD.           Purgatorie River: FIELD
LOC.           63' FNL & 1895' FWL: LOCATION
PROV.                 Colorado: PROVINCE
CNTY.               Las Animas: COUNTRY
SRVC.                Patterson: SERVICE COMPANY
DATE.          Thu Sep 01 07:39:43 2005: LOG DATE
UWI.                          : UNIQUE WELL ID
~Curve Information Block
DEPT.FT            0 000 00 00: Depth
DCAL.in                       : CDL Caliper
RHOB.g/cc                     : CDL Bulk Density
RHOC.g/cc                     : CDL Density Correction
DPOR.pu                       : CDL Density Porosity
GR.GAPI                       : Gamma Ray
NPOR.pu                       : Neutron Porosity
~Parameter Information Block
~A  Depth       DCAL        RHOB        RHOC        DPOR         GR         NPOR    
# ...
  1356.2000      8.2680      2.5957      0.1273      3.2900    159.9055     26.5786
  1356.3000      8.2144      2.5762      0.0438      4.4747    165.8116     26.2779
  1356.4000      8.2144      2.5689      0.0424      4.9134    166.5944     26.1936
  1356.5000      8.1956      2.5742      0.0374      4.5938    162.6936     26.3630
  1356.6000      8.1956      2.5813      0.0320      4.1640    159.4153     26.2924
  1356.7000      8.1956      2.5897      0.0444      3.6564    157.9729     26.0588
  1356.8000      8.1903      2.5988      0.0899      3.1001    157.7598     26.0858
  1356.9000      8.1903      2.6056      0.0885      2.6934    160.0841     26.2788
  1357.0000      8.1583      2.6086      0.0773      2.5096    163.8405     26.3716
  1357.1000      8.1583      2.6035      0.0751      2.8179    168.1092     26.4161
  1357.2000      8.1583      2.5891      0.0455      3.6904    173.2345     26.5577
  1357.3000      8.1752      2.5733      0.0808      4.6480    176.9687     26.7288
  1357.4000      8.1752      2.5626      0.0665      5.2965    177.9690     26.8900
  1357.5000      8.1655      2.5619      0.0325      5.3414    177.2898     27.1527
  1357.6000      8.1655      2.5744      0.0847      4.5802    175.9121     27.5078
  1357.7000      8.1655      2.5924      0.1222      3.4888    172.7371     27.7682
  1357.8000      8.1777      2.6055      0.0934      2.6964    168.3148     27.6805
  1357.9000      8.1777      2.6111      0.0826      2.3559    166.1441     27.2401
  1358.0000      8.1961      2.6083      0.0909      2.5276    168.5093     26.6511
  1358.1000      8.1961      2.5945      0.0921      3.3664    170.9076     26.0423
  1358.2000      8.1961      2.5745      0.0693      4.5730    167.3999     25.7252
  1358.3000      8.1946      2.5605      0.0149      5.4237    159.7593     26.0333
  1358.4000      8.1946      2.5548      0.0643      5.7694    152.5144     26.6956
  1358.5000      8.1761      2.5494      0.0578      6.0992    148.9511     26.9741
  1358.6000      8.1761      2.5409      0.0334      6.6129    150.1561     26.5354
  1358.7000      8.1761      2.5298      0.0519      7.2837    154.5086     25.7701
  1358.8000      8.1726      2.5152      0.0262      8.1703    161.5466     25.2386
  1358.9000      8.1726      2.5009      0.0466      9.0365    169.8718     25.1763
  1359.0000      8.1647      2.4937      0.0383      9.4715    176.5838     25.4488
  1359.1000      8.1647      2.4933      0.0488      9.4988    180.8517     25.8051
  1359.2000      8.1647      2.4979      0.0456      9.2187    183.6076     26.1171
  1359.3000      8.1654      2.5068      0.0761      8.6817    184.7897     26.2574
  1359.4000      8.1654      2.5157      0.0426      8.1385    182.9892     26.2753
  1359.5000      8.1780      2.5272      0.0699      7.4396    178.8823     26.4954
  1359.6000      8.1780      2.5438      0.0909      6.4375    175.8196     26.9621
  1359.7000      8.1780      2.5555      0.1095      5.7244    174.5493     27.3817
  1359.8000      8.1764      2.5557      0.0763      5.7135    173.8742     27.5471
  1359.9000      8.1764      2.5498      0.0774      6.0753    174.8891     27.5233
  1360.0000      8.1815      2.5368      0.0980      6.8634    176.9580     27.4184
  1360.1000      8.1815      2.5134      0.0520      8.2783    175.8894     27.2672
  1360.2000      8.1815      2.4969     -0.0025      9.2770    173.5114     27.1471
  1360.3000      8.1906      2.5022      0.0653      8.9581    175.6769     27.1595
  1360.4000      8.1906      2.5138      0.0661      8.2528    180.4720     27.3819
  1360.5000      8.1582      2.5185      0.0442      7.9707    181.3995     27.7156
  1360.6000      8.1582      2.5326     -0.0078      7.1137    179.0023     27.8432
  1360.7000      8.1582      2.5680      0.0695      4.9707    176.6145     27.6730
  1360.8000      8.1542      2.6009      0.1272      2.9785    174.5628     27.4084
  1360.9000      8.1542      2.6135      0.0535      2.2143    171.1789     27.0984
  1361.0000      8.1563      2.6215      0.0835      1.7281    165.0587     26.8306
  1361.1000      8.1563      2.6363      0.1000      0.8276    157.9785     26.6015
  1361.2000      8.1563      2.6519      0.0863     -0.1135    151.1846     26.2749
  1361.3000      8.1419      2.6603      0.1044     -0.6230    145.0686     26.0888
  1361.4000      8.1419      2.6635      0.0514     -0.8175    140.4517     26.2201
  1361.5000      8.1256      2.6686      0.1057     -1.1243    134.1142     26.3901
  1361.6000      8.1256      2.6742      0.0957     -1.4690    122.4916     26.2204
  1361.7000      8.1256      2.6753      0.1015     -1.5335    111.0654     25.4411
  1361.8000      8.1135      2.6676      0.0966     -1.0672    105.3530     24.2525
  1361.9000      8.1135      2.6496      0.0659      0.0234    102.8658     23.2805
  1362.0000      8.1129      2.6283      0.0095      1.3174    103.1141     22.7616
  1362.1000      8.1129      2.6170      0.0202      2.0026    106.6549     22.5873
  1362.2000      8.1129      2.6189      0.0493      1.8847    108.0079     22.7463
  1362.3000      8.1106      2.6233      0.0283      1.6183    104.8483     23.0291
  1362.4000      8.1106      2.6221      0.0506      1.6918    102.1277     23.0608
  1362.5000      8.1221      2.6197      0.0189      1.8367    103.8920     22.8376
  1362.6000      8.1221      2.6217      0.0566      1.7171    108.0394     22.6905
  1362.7000      8.1221      2.6226      0.0830      1.6631    109.2447     22.7805
  1362.8000      8.1369      2.6190      0.0377      1.8767    105.9707     22.8553
  1362.9000      8.1369      2.6196      0.0466      1.8432     99.9852     22.5660
  1363.0000      8.1473      2.6294      0.0448      1.2494     91.9992     22.0630
  1363.1000      8.1473      2.6375      0.0906      0.7593     83.8705     21.6393
  1363.2000      8.1473      2.6284      0.0503      1.3079     79.6832     21.3257
  1363.3000      8.1268      2.6022      0.0595      2.8980     80.2477     21.1389
  1363.4000      8.1268      2.5754      0.0284      4.5184     81.5303     21.0031
  1363.5000      8.1242      2.5683      0.0294      4.9490     80.1093     20.9021
  1363.6000      8.1242      2.5809      0.0462      4.1904     77.4369     20.8763
  1363.7000      8.1242      2.5972      0.0388      3.2005     76.7485     20.6943
  1363.8000      8.1196      2.6061      0.0807      2.6602     78.7346     20.4076
  1363.9000      8.1196      2.5996      0.0668      3.0557     82.0493     20.2529
  1364.0000      8.1301      2.5822      0.0718      4.1069     86.0981     20.0437
  1364.1000      8.1301      2.5708      0.0036      4.8025     90.4247     19.6587
  1364.2000      8.1301      2.5674      0.0449      5.0061     93.6250     19.1508
  1364.3000      8.1193      2.5600      0.0516      5.4552     94.2112     18.6708
  1364.4000      8.1193      2.5536      0.0385      5.8433     90.8969     18.4837
  1364.5000      8.1225      2.5651      0.0398      5.1471     85.1669     18.5083
  1364.6000      8.1225      2.5886      0.0707      3.7210     79.9770     18.4426
  1364.7000      8.1225      2.6008      0.0845      2.9834     77.7924     18.3256
  1364.8000      8.1296      2.5927      0.0621      3.4710     78.3150     18.5133
  1364.9000      8.1296      2.5792      0.0407      4.2920     79.6001     18.9671
  1365.0000      8.1222      2.5802      0.0383      4.2287     80.9650     19.3968
  1365.1000      8.1222      2.5978      0.0906      3.1628     81.9082     19.6926
  1365.2000      8.1222      2.6135      0.0982      2.2149     81.1020     19.6045
  1365.3000      8.1273      2.6157      0.0573      2.0772     79.1244     19.2702
  1365.4000      8.1273      2.6114      0.0853      2.3378     78.5505     19.2819
  1365.5000      8.1359      2.6119      0.0474      2.3118     79.0696     19.7145
  1365.6000      8.1359      2.6165      0.1148      2.0323     79.7694     20.1120
  1365.7000      8.1359      2.6089      0.0603      2.4928     83.6701     20.2513
