~Version Information
VERS.                      2.0: CWLS Log ASCII Standard - VERSION 2.0
WRAP.                       NO: One line per depth step
~Well Information Block
STRT.FT               845.0000: 
STOP.FT              2308.2000: 
STEP.FT                 0.1000: 
NULL.                -999.2500: 
COMP.          Pioneer Natural Resources: COMPANY
WELL.             Vector 33-23: WELL
FLD.           Purgatoire River: FIELD
LOC.           1560' FEL & 1988' FSL----: LOCATION
PROV.                 Colorado: PROVINCE
CNTY.               Las Animas: COUNTRY
SRVC.                Patterson: SERVICE COMPANY
DATE.          Mon Mar 28 08:17:25 2005: LOG DATE
UWI.           05 071 08336 00: UNIQUE WELL ID
~Curve Information Block
DEPT.FT            0 000 00 00: Depth
DCAL.in                       : CDL Caliper
RHOB.g/cc                     : CDL Bulk Density
RHOC.g/cc                     : CDL Density Correction
DPOR.pu                       : CDL Density Porosity
NPOR.pu                       : Neutron Porosity
GR.GAPI                       : Gamma Ray
~Parameter Information Block
~A  Depth       DCAL        RHOB        RHOC        DPOR        NPOR         GR     
   845.0000      8.1190      2.6137     -0.1682      2.1974     41.7371     80.5686
   845.1000      8.1190      2.6093     -0.1201      2.4692     41.8591     76.7604
   845.2000      8.1190      2.5994     -0.1183      3.0672     42.0475     71.0344
   845.3000      8.1205      2.5887     -0.1435      3.7126     42.1842     70.1043
   845.4000      8.1205      2.5854     -0.1326      3.9158     42.3851     75.3258
   845.5000      8.1219      2.5761     -0.1171      4.4785     42.6303     81.9505
   845.6000      8.1219      2.5613     -0.1604      5.3785     42.7761     85.5052
   845.7000      8.1219      2.5581     -0.1228      5.5727     42.9033     84.9245
   845.8000      8.1224      2.5731     -0.1690      4.6636     42.8591     81.7816
   845.9000      8.1224      2.5996     -0.1053      3.0542     42.5067     80.2402
   846.0000      8.1222      2.6245     -0.1173      1.5474     42.1876     82.4658
   846.1000      8.1222      2.6436     -0.1166      0.3878     42.0999     83.5633
   846.2000      8.1222      2.6547     -0.1131     -0.2851     42.1648     79.9185
   846.3000      8.1213      2.6593     -0.1705     -0.5634     42.3275     73.5925
   846.4000      8.1213      2.6634     -0.1410     -0.8097     42.5616     70.3493
   846.5000      8.1216      2.6603     -0.1680     -0.6229     42.8346     73.4991
   846.6000      8.1216      2.6534     -0.1820     -0.2044     43.0082     78.6139
   846.7000      8.1216      2.6573     -0.1671     -0.4436     42.9753     79.7958
   846.8000      8.1220      2.6632     -0.1567     -0.7970     42.8239     75.7059
   846.9000      8.1220      2.6563     -0.2301     -0.3840     42.8577     69.6201
   847.0000      8.1214      2.6457     -0.2008      0.2577     43.1568     66.6190
   847.1000      8.1214      2.6378     -0.1342      0.7392     43.3823     67.9971
   847.2000      8.1214      2.6286     -0.1686      1.2947     43.2996     69.2742
   847.3000      8.1217      2.6255     -0.2171      1.4847     43.0953     69.5551
   847.4000      8.1217      2.6369     -0.1799      0.7925     43.0844     72.6943
   847.5000      8.1216      2.6620     -0.1873     -0.7281     43.0837     77.5756
   847.6000      8.1216      2.6912     -0.1431     -2.4946     42.8379     79.3447
   847.7000      8.1216      2.6954     -0.0797     -2.7492     42.5374     76.6075
   847.8000      8.1200      2.6646     -0.1446     -0.8844     42.3102     72.3740
   847.9000      8.1200      2.6328     -0.1783      1.0400     42.0569     69.6444
   848.0000      8.1193      2.6175     -0.1786      1.9710     41.9430     68.6509
   848.1000      8.1193      2.6025     -0.1876      2.8815     42.1218     67.7869
   848.2000      8.1193      2.5856     -0.1553      3.9016     42.3161     67.6083
   848.3000      8.1179      2.5804     -0.1563      4.2198     42.2811     69.6642
   848.4000      8.1179      2.5907     -0.1521      3.5970     42.0256     71.7913
   848.5000      8.1157      2.6067     -0.1595      2.6228     41.7415     72.9726
   848.6000      8.1157      2.6179     -0.1606      1.9438     41.6601     73.6178
   848.7000      8.1157      2.6261     -0.1712      1.4495     41.7540     72.8958
   848.8000      8.1164      2.6410     -0.1637      0.5454     41.7622     71.3025
   848.9000      8.1164      2.6640     -0.1542     -0.8485     41.6665     70.8214
   849.0000      8.1195      2.6822     -0.1249     -1.9501     41.6466     72.5632
   849.1000      8.1195      2.6826     -0.1529     -1.9753     41.7050     75.3450
   849.2000      8.1195      2.6690     -0.1649     -1.1514     41.7427     78.2616
   849.3000      8.1210      2.6607     -0.2198     -0.6457     41.7472     79.3687
   849.4000      8.1210      2.6623     -0.1876     -0.7441     41.7015     77.2397
   849.5000      8.1199      2.6533     -0.1855     -0.2018     41.5422     73.7723
   849.6000      8.1199      2.6340     -0.2467      0.9726     41.3853     70.4558
   849.7000      8.1199      2.6245     -0.1958      1.5444     41.3302     67.8740
   849.8000      8.1193      2.6266     -0.1990      1.4192     41.2645     67.2309
   849.9000      8.1193      2.6276     -0.1703      1.3574     41.0398     67.7851
   850.0000      8.1197      2.6219     -0.2167      1.7047     40.8080     68.1680
   850.1000      8.1197      2.6150     -0.1753      2.1217     40.7863     69.2016
   850.2000      8.1197      2.6151     -0.2241      2.1151     40.8703     70.4609
   850.3000      8.1185      2.6267     -0.2222      1.4116     40.8694     70.4208
   850.4000      8.1185      2.6333     -0.1830      1.0102     40.7720     68.0994
   850.5000      8.1201      2.6206     -0.2025      1.7795     40.7696     63.8075
   850.6000      8.1201      2.6091     -0.2054      2.4770     40.8680     62.1051
   850.7000      8.1201      2.6120     -0.1557      2.3024     40.9069     65.8053
   850.8000      8.1271      2.6112     -0.1702      2.3523     40.8339     68.9997
   850.9000      8.1271      2.5947     -0.1593      3.3487     40.6282     66.9221
   851.0000      8.1312      2.5719     -0.2101      4.7363     40.4813     64.1984
   851.1000      8.1312      2.5657     -0.2411      5.1101     40.6442     66.4984
   851.2000      8.1312      2.5952     -0.1912      3.3193     41.0185     70.8157
   851.3000      8.1289      2.6522     -0.1242     -0.1336     41.4774     72.9920
   851.4000      8.1289      2.7087     -0.1091     -3.5547     41.8121     72.9311
   851.5000      8.1263      2.7411     -0.1286     -5.5205     41.7586     70.0404
   851.6000      8.1263      2.7373     -0.0991     -5.2927     41.3905     66.2386
   851.7000      8.1263      2.6972     -0.1139     -2.8581     41.0548     64.4210
   851.8000      8.1240      2.6466     -0.1876      0.2068     40.9464     64.7016
   851.9000      8.1240      2.6142     -0.1738      2.1692     40.8755     67.6546
   852.0000      8.1214      2.5963     -0.2223      3.2553     40.6961     70.4226
   852.1000      8.1214      2.5845     -0.2230      3.9685     40.7378     69.4379
   852.2000      8.1214      2.5775     -0.1701      4.3952     40.9405     67.8641
   852.3000      8.1211      2.5713     -0.1621      4.7697     40.8151     67.5704
   852.4000      8.1211      2.5749     -0.1608      4.5541     40.5043     67.1912
   852.5000      8.1231      2.5970     -0.1412      3.2134     40.4652     67.6462
   852.6000      8.1231      2.6341     -0.1403      0.9637     40.4776     68.7618
   852.7000      8.1231      2.6800     -0.1295     -1.8190     40.1814     69.3293
   852.8000      8.1239      2.7215     -0.1202     -4.3323     39.9263     70.0128
   852.9000      8.1239      2.7413     -0.0916     -5.5307     40.2566     71.3850
   853.0000      8.1233      2.7410     -0.1687     -5.5126     41.0929     71.8828
   853.1000      8.1233      2.7371     -0.1032     -5.2766     41.7239     69.7722
   853.2000      8.1233      2.7372     -0.1362     -5.2865     41.6614     65.5559
   853.3000      8.1235      2.7453     -0.1661     -5.7773     41.2613     63.3282
   853.4000      8.1235      2.7527     -0.1521     -6.2219     41.1182     65.1655
   853.5000      8.1251      2.7384     -0.1157     -5.3606     41.1995     67.9902
   853.6000      8.1251      2.7091     -0.2284     -3.5822     41.3530     69.5473
   853.7000      8.1251      2.6811     -0.1842     -1.8869     41.5933     70.5097
   853.8000      8.1257      2.6463     -0.1979      0.2224     41.7306     71.9876
   853.9000      8.1257      2.6096     -0.2303      2.4511     41.8255     72.6884
   854.0000      8.1243      2.5874     -0.1794      3.7955     42.0629     71.7986
   854.1000      8.1243      2.5765     -0.2130      4.4573     42.3233     72.0226
   854.2000      8.1243      2.5891     -0.2962      3.6933     42.4152     74.2011
   854.3000      8.1250      2.6353     -0.1678      0.8927     42.3657     74.7467
   854.4000      8.1250      2.6796     -0.1599     -1.7913     42.2354     73.4660
   854.5000      8.1273      2.6909     -0.1391     -2.4772     41.9689     74.9351
