~Version Information
VERS.                      2.0: CWLS Log ASCII Standard - VERSION 2.0
WRAP.                       NO: One line per depth step
~Well Information Block
STRT.FT               472.0000: 
STOP.FT              2428.5000: 
STEP.FT                 0.1000: 
NULL.                -999.2500: 
COMP.          Pioneer Natural Resources: COMPANY
WELL.          Flying Horse 12-11: WELL
FLD.           Purgatoire River: FIELD
LOC.           2428' FNL & 308' FWL: LOCATION
PROV.                 Colorado: PROVINCE
CNTY.               Las Animas: COUNTRY
SRVC.                Patterson: SERVICE COMPANY
DATE.          Mon May 30 06:06:20 2005: LOG DATE
UWI.           05 071 08378 00: UNIQUE WELL ID
~Curve Information Block
DEPT.FT            0 000 00 00: Depth
DCAL.in                       : CDL Caliper
RHOB.g/cc                     : CDL Bulk Density
RHOC.g/cc                     : CDL Density Correction
DPOR.pu                       : CDL Density Porosity
GR.GAPI                       : Gamma Ray
NPOR.pu                       : Neutron Porosity
~Parameter Information Block
~A  Depth       DCAL        RHOB        RHOC        DPOR         GR         NPOR    
# ...
  1892.8000      7.9795      2.5785      0.0425      4.3304    130.2043     26.2534
  1892.9000      7.9795      2.6046      0.0888      2.7496    134.1903     26.9145
  1893.0000      7.9692      2.6059      0.0930      2.6712    138.8491     27.4041
  1893.1000      7.9692      2.5929      0.0476      3.4617    141.5240     26.9693
  1893.2000      7.9692      2.5908      0.0728      3.5853    140.1363     25.5918
  1893.3000      8.0061      2.6007      0.0624      2.9871    133.7894     24.1400
  1893.4000      8.0061      2.6040      0.1040      2.7884    126.2765     23.4859
  1893.5000      7.9857      2.5892      0.0377      3.6873    121.5363     24.1632
  1893.6000      7.9857      2.5734     -0.0205      4.6430    121.7033     25.6913
  1893.7000      7.9857      2.5775     -0.0107      4.3917    124.5964     26.6706
  1893.8000      7.9982      2.5915      0.0532      3.5427    124.9879     26.3104
  1893.9000      7.9982      2.5933      0.0815      3.4388    121.7425     25.3317
  1894.0000      7.9907      2.5770      0.0609      4.4252    116.9512     24.7533
  1894.1000      7.9907      2.5591      0.0387      5.5103    115.1784     24.7254
  1894.2000      7.9907      2.5576     -0.0088      5.6007    120.8692     25.0186
  1894.3000      7.9714      2.5639      0.0545      5.2203    132.5133     25.3276
  1894.4000      7.9714      2.5499      0.0375      6.0650    142.1139     25.6864
  1894.5000      7.9916      2.5115      0.0139      8.3941    144.5238     25.7891
  1894.6000      7.9916      2.4687     -0.0181     10.9851    142.3976     25.3006
  1894.7000      7.9916      2.4449     -0.0564     12.4311    140.0852     25.5041
  1894.8000      8.0117      2.4594     -0.0144     11.5517    138.7446     27.1248
  1894.9000      8.0117      2.5107      0.0433      8.4408    138.7211     28.6642
  1895.0000      8.0160      2.5762      0.0655      4.4703    141.8862     28.6723
  1895.1000      8.0160      2.6325      0.1287      1.0633    146.9525     27.5679
  1895.2000      8.0160      2.6667      0.1291     -1.0149    148.5594     27.1779
  1895.3000      8.0283      2.6779      0.1337     -1.6916    144.5547     27.8681
  1895.4000      8.0283      2.6747      0.0905     -1.4967    138.6780     28.0315
  1895.5000      8.0183      2.6693      0.1022     -1.1675    136.3709     27.4014
  1895.6000      8.0183      2.6590      0.1278     -0.5444    141.9049     27.1635
  1895.7000      8.0183      2.6321      0.1195      1.0849    151.7377     27.2329
  1895.8000      8.0226      2.5919      0.0728      3.5224    155.9337     26.9611
  1895.9000      8.0226      2.5580      0.0069      5.5748    151.5411     26.5153
  1896.0000      8.0259      2.5475      0.0219      6.2119    143.4068     26.4346
  1896.1000      8.0259      2.5586      0.0608      5.5399    138.3465     27.1496
  1896.2000      8.0259      2.5707      0.0979      4.8088    136.9093     28.6564
  1896.3000      8.0225      2.5670      0.0650      5.0294    136.6926     30.1456
  1896.4000      8.0225      2.5525      0.0638      5.9100    137.6639     30.2266
  1896.5000      8.0139      2.5450      0.0476      6.3609    138.1012     28.8975
  1896.6000      8.0139      2.5524      0.0896      5.9144    134.5481     27.9289
  1896.7000      8.0139      2.5544      0.1354      5.7944    128.4045     27.8420
  1896.8000      8.0271      2.5416      0.0523      6.5695    127.2787     27.9274
  1896.9000      8.0271      2.5345      0.0952      6.9986    133.1177     28.2646
  1897.0000      8.0300      2.5369      0.0587      6.8561    139.3739     28.6761
  1897.1000      8.0300      2.5392      0.0551      6.7128    140.0722     28.6110
  1897.2000      8.0300      2.5476      0.0601      6.2064    133.4421     28.1899
  1897.3000      8.0299      2.5673      0.0582      5.0105    123.5730     27.6147
  1897.4000      8.0299      2.5839      0.1044      4.0086    115.1557     27.0054
  1897.5000      8.0309      2.5814      0.0916      4.1571    110.7168     26.9211
  1897.6000      8.0309      2.5686      0.0963      4.9308    114.2165     27.8025
  1897.7000      8.0309      2.5650      0.0838      5.1510    126.9371     29.0110
  1897.8000      8.0252      2.5760      0.0826      4.4865    138.3843     29.4812
  1897.9000      8.0252      2.5899      0.1002      3.6410    137.3867     29.2293
  1898.0000      8.0221      2.5894      0.1029      3.6727    129.8882     29.1418
  1898.1000      8.0221      2.5720      0.0733      4.7274    127.5836     29.4477
  1898.2000      8.0221      2.5606      0.0578      5.4152    130.1881     29.2870
  1898.3000      8.0204      2.5628      0.1078      5.2837    131.6185     28.2822
  1898.4000      8.0204      2.5553      0.0744      5.7404    132.1833     27.1145
  1898.5000      8.0113      2.5354      0.0308      6.9438    132.6490     26.5890
  1898.6000      8.0113      2.5233      0.0424      7.6805    128.5494     26.9586
  1898.7000      8.0113      2.5220      0.0633      7.7564    122.7042     27.7495
  1898.8000      8.0222      2.5228      0.0583      7.7084    125.3791     28.2646
  1898.9000      8.0222      2.5195      0.0636      7.9108    135.4134     28.3036
  1899.0000      8.0232      2.5087      0.0158      8.5615    140.3525     28.2060
  1899.1000      8.0232      2.4946      0.0425      9.4188    137.1369     28.3250
  1899.2000      8.0232      2.4834      0.0570     10.0989    133.4135     28.7655
  1899.3000      8.0355      2.4809      0.0246     10.2498    134.0724     29.2509
  1899.4000      8.0355      2.4894      0.0864      9.7309    137.4892     29.1141
  1899.5000      8.0412      2.5038      0.0875      8.8617    138.0662     28.0970
  1899.6000      8.0412      2.5187      0.1029      7.9552    138.4661     26.7292
  1899.7000      8.0412      2.5330      0.0755      7.0908    144.2690     25.9915
  1899.8000      8.0503      2.5412      0.1397      6.5956    148.3715     26.3546
  1899.9000      8.0503      2.5279      0.1334      7.3983    144.7120     26.7793
  1900.0000      8.0456      2.5026     -0.0105      8.9316    138.8183     26.3325
  1900.1000      8.0456      2.5018      0.0703      8.9802    132.9658     25.5264
  1900.2000      8.0456      2.5290      0.1032      7.3328    125.9874     25.4538
  1900.3000      8.0350      2.5562      0.0468      5.6851    121.4665     26.0986
  1900.4000      8.0350      2.5711      0.0975      4.7848    118.9467     26.4281
  1900.5000      8.0240      2.5795      0.0739      4.2753    115.6762     25.9659
  1900.6000      8.0240      2.5879      0.0489      3.7626    115.3716     25.0926
  1900.7000      8.0240      2.5911      0.0387      3.5685    119.7606     24.6782
  1900.8000      7.9858      2.5839      0.0333      4.0059    122.8370     25.2490
  1900.9000      7.9858      2.5731      0.0768      4.6594    118.6280     26.2188
  1901.0000      7.9773      2.5624      0.0617      5.3077    111.2047     26.7292
  1901.1000      7.9773      2.5564      0.0189      5.6712    112.0003     26.7299
  1901.2000      7.9773      2.5629      0.0201      5.2804    121.4439     26.5481
  1901.3000      7.9788      2.5760      0.0155      4.4864    127.3814     26.2289
  1901.4000      7.9788      2.5799      0.0610      4.2494    124.2502     25.9678
  1901.5000      7.9843      2.5716      0.0500      4.7538    118.1672     26.0673
  1901.6000      7.9843      2.5678      0.0081      4.9792    116.6642     26.3095
  1901.7000      7.9843      2.5728      0.0389      4.6784    118.9651     26.3312
  1901.8000      8.0110      2.5671      0.0819      5.0256    119.0968     26.4311
  1901.9000      8.0110      2.5576     -0.0381      5.6001    118.1844     26.9181
  1902.0000      7.9987      2.5695      0.0322      4.8768    119.4308     27.7174
  1902.1000      7.9987      2.5867      0.0603      3.8342    121.4561     28.4537
  1902.2000      7.9987      2.5882      0.0407      3.7437    123.9984     29.2376
  1902.3000      7.9951      2.5869      0.0348      3.8226    126.9540     30.1157
