~Version Information
VERS.                      2.0: CWLS Log ASCII Standard - VERSION 2.0
WRAP.                       NO: One line per depth step
~Well Information Block
STRT.FT                -7.2500: 
STOP.FT              2827.7500: 
STEP.FT                 0.2500: 
NULL.                -999.2500: 
COMP.          Pioneer Natural Resources: COMPANY
WELL.           Ei-ei-oh 31-24: WELL
FLD.           Purgatorie River: FIELD
LOC.           235' FNL & 2001' FEL--: LOCATION
PROV.                       CO: PROVINCE
CNTY.               Las Animas: COUNTRY
SRVC.          Patterson Wireline: SERVICE COMPANY
DATE.          Tue Aug 23 12:06:00 2005: LOG DATE
UWI.           05 071 08403 00: UNIQUE WELL ID
~Curve Information Block
DEPT.FT            0 000 00 00: Depth
CCL.                          : Casing Collar Locator
TT3.usec                      : CBL 3' Travel Time
AMP3.mV                       : CBL 3' Amplitude
GR.GAPI                       : Gamma Ray
~Parameter Information Block
~A  Depth       CCL         TT3         AMP3         GR     
# ...
  1667.7500      0.0000    271.6264     54.9548    137.3808
  1668.0000      0.0000    279.1021     50.8927    139.6174
  1668.2500      0.0000    288.9828     46.3488    141.5290
  1668.5000      0.0000    302.1295     41.5135    141.4279
  1668.7500      0.0000    321.8723     36.6190    138.4619
  1669.0000      0.0000    352.6870     31.8733    133.7999
  1669.2500      0.0000    395.1402     27.4070    129.7271
  1669.5000      0.0000    442.2906     23.2709    127.6411
  1669.7500      0.0000    484.6826     19.5024    127.1618
  1670.0000      0.0000    520.3550     16.1957    126.8884
  1670.2500      0.0000    555.7034     13.4782    125.5713
  1670.5000      0.0000    594.3249     11.4153    122.7869
  1670.7500      0.0000    629.9604      9.9727    119.1772
  1671.0000     -2.0000    653.3777      9.0805    116.0913
  1671.2500      0.0000    662.2794      8.7037    114.6863
  1671.5000      0.0000    662.2126      8.8436    115.3563
  1671.7500      0.0000    660.6673      9.4746    117.6753
  1672.0000      0.0000    661.9366     10.4464    120.3068
  1672.2500      0.0000    666.0803     11.4295    121.3931
  1672.5000      0.0000    671.3398     12.0270    120.0386
  1672.7500      0.0000    677.3094     12.0120    117.3858
  1673.0000      0.0000    685.2137     11.4440    115.6026
  1673.2500      0.0000    695.0818     10.5532    115.8851
  1673.5000      0.0000    704.0821      9.5692    117.7346
  1673.7500      0.0000    708.8968      8.6524    119.8798
  1674.0000      0.0000    709.0093      7.8855    121.4732
  1674.2500      0.0000    706.5093      7.2666    122.3983
  1674.5000      0.0000    703.1976      6.7267    122.6639
  1674.7500      0.0000    699.1016      6.1843    121.9022
  1675.0000      0.0000    693.6180      5.5988    119.7523
  1675.2500      0.0000    686.8251      4.9847    116.6199
  1675.5000      0.0000    679.3159      4.3877    113.7405
  1675.7500      0.0000    671.7717      3.8480    112.2916
  1676.0000      0.0000    665.2231      3.3816    112.3373
  1676.2500      0.0000    660.7179      2.9876    112.6409
  1676.5000      0.0000    657.7773      2.6633    111.6439
  1676.7500      0.0000    654.1097      2.4091    108.6650
  1677.0000      0.0000    648.2571      2.2239    104.2348
  1677.2500      0.0000    641.8692      2.1021     99.7557
  1677.5000      0.0000    637.9437      2.0337     97.0843
  1677.7500      0.0000    637.3998      2.0054     97.8970
  1678.0000      0.0000    639.0048      2.0021    102.8204
  1678.2500      0.0000    642.5634      2.0096    110.8348
  1678.5000      0.0000    650.2496      2.0235    119.1881
  1678.7500      0.0000    663.5993      2.0554    124.2488
  1679.0000      0.0000    680.3198      2.1257    123.4843
  1679.2500      0.0000    695.6583      2.2436    117.0877
  1679.5000      0.0000    706.4474      2.3946    107.6033
  1679.7500      0.0000    712.8358      2.5478     98.1297
  1680.0000      0.0000    717.1180      2.6757     90.9586
  1680.2500      0.0000    722.6354      2.7695     87.3078
  1680.5000      0.0000    732.7217      2.8391     87.3284
  1680.7500      0.0000    747.9663      2.8988     89.9942
  1681.0000      0.0000    763.9595      2.9506     93.7836
  1681.2500      0.0000    773.4636      2.9801     98.2073
  1681.5000      0.0000    772.0294      2.9710    104.0069
  1681.7500      0.0000    761.1552      2.9203    111.2112
  1682.0000      0.0000    745.8832      2.8400    117.9405
  1682.2500      0.0000    730.4417      2.7447    122.0353
  1682.5000      0.0000    716.7342      2.6440    123.1591
  1682.7500      0.0000    705.6194      2.5484    122.8047
  1683.0000      0.0000    697.9836      2.4757    122.8962
  1683.2500      0.0000    694.4400      2.4433    124.5140
  1683.5000      0.0000    694.8778      2.4541    127.2430
  1683.7500      0.0000    698.6503      2.4955    129.6278
  1684.0000      0.0000    704.7188      2.5537    130.8618
  1684.2500      0.0000    711.4562      2.6303    132.0346
  1684.5000      0.0000    716.8740      2.7463    135.1292
  1684.7500      0.0000    719.6331      2.9331    140.4433
  1685.0000      0.0000    719.5550      3.2147    145.2094
  1685.2500      0.0000    717.0206      3.5889    145.4753
  1685.5000      0.0000    712.5767      4.0236    139.6065
  1685.7500      0.0000    707.3821      4.4764    129.5409
  1686.0000      0.0000    702.9741      4.9179    118.7223
  1686.2500      0.0000    699.8104      5.3328    109.5387
  1686.5000      0.0000    696.7499      5.6992    102.8154
  1686.7500      0.0000    692.8787      5.9804     98.9134
  1687.0000      0.0000    689.6322      6.1463     98.3943
  1687.2500      0.0000    690.7498      6.1997    101.3026
  1687.5000      0.0000    700.0360      6.1712    106.2526
  1687.7500      0.0000    718.2435      6.0898    111.1143
  1688.0000      0.0000    741.2607      5.9693    114.9680
  1688.2500      0.0000    761.9279      5.8197    118.7254
  1688.5000      0.0000    774.2726      5.6530    123.5195
  1688.7500      0.0000    775.4233      5.4740    129.1366
  1689.0000      0.0000    764.4759      5.2825    134.2035
  1689.2500      0.0000    742.8274      5.0933    137.3159
  1689.5000      0.0000    716.0902      4.9466    137.9084
  1689.7500      0.0000    692.8226      4.8921    136.5132
  1690.0000      0.0000    679.9297      4.9597    134.2363
  1690.2500      0.0000    679.6028      5.1381    131.7689
  1690.5000      0.0000    689.9890      5.3742    128.7444
  1690.7500      0.0000    707.7451      5.5946    123.9932
  1691.0000      0.0000    729.9983      5.7402    116.7335
  1691.2500      0.0000    754.5122      5.7920    107.9699
  1691.5000      0.0000    778.1756      5.7688    100.5148
  1691.7500      0.0000    795.6255      5.6995     97.1955
  1692.0000      0.0000    800.6050      5.5977     99.0629
  1692.2500      0.0000    790.3256      5.4692    105.0895
  1692.5000      0.0000    769.1054      5.3389    112.8875
  1692.7500      0.0000    746.6038      5.2564    119.7810
  1693.0000      0.0000    731.0631      5.2671    124.1469
  1693.2500      0.0000    723.9471      5.3814    126.1128
  1693.5000      0.0000    721.2557      5.5750    126.7158
  1693.7500      0.0000    719.2782      5.8128    126.6630
  1694.0000      0.0000    717.6216      6.0733    126.1719
  1694.2500      0.0000    716.6868      6.3561    125.2495
  1694.5000      0.0000    714.5825      6.6778    123.4823
  1694.7500      0.0000    708.6249      7.0590    120.2826
  1695.0000      0.0000    699.0952      7.5066    116.2614
  1695.2500      0.0000    689.7816      8.0000    113.9478
  1695.5000      0.0000    684.6664      8.4929    116.0216
  1695.7500      0.0000    684.6925      8.9338    122.6271
  1696.0000      0.0000    687.3566      9.2882    130.9960
  1696.2500      0.0000    688.8676      9.5406    137.8653
  1696.5000      0.0000    687.0191      9.6807    141.7267
  1696.7500      0.0000    682.4481      9.7035    142.6897
  1697.0000      0.0000    677.4304      9.6290    141.2831
  1697.2500      0.0000    674.1528      9.5133    138.1232
  1697.5000      0.0000    674.4471      9.4241    134.0428
  1697.7500      0.0000    680.0760      9.3972    129.9164
  1698.0000      0.0000    691.6284      9.4111    126.8838
  1698.2500      0.0000    706.7806      9.4018    126.7796
  1698.5000      0.0000    720.9370      9.3054    131.0528
  1698.7500      0.0000    730.7727      9.0965    138.6024
  1699.0000      0.0000    737.1539      8.8000    145.5749
  1699.2500      0.0000    744.1887      8.4719    148.1408
  1699.5000      0.0000    755.1539      8.1668    145.2607
  1699.7500      0.0000    769.0774      7.9125    138.4392
  1700.0000      0.0000    780.8765      7.7069    129.3567
  1700.2500      0.0000    784.9131      7.5303    118.5739
  1700.5000      0.0000    779.3430      7.3622    106.3879
  1700.7500      0.0000    768.9870      7.1882     93.9558
  1701.0000      0.0000    764.3484      6.9962     82.9428
