~Version Information
VERS.                      2.0: CWLS Log ASCII Standard - VERSION 2.0
WRAP.                       NO: One line per depth step
~Well Information Block
STRT.FT               -10.8000: 
STOP.FT              2238.7000: 
STEP.FT                 0.1000: 
NULL.                -999.2500: 
COMP.          Petrogulf Corporation: COMPANY
WELL.             McLeod 9-42V: WELL
FLD.           Purgatorie River: FIELD
LOC.           1658' FNL & 415' FEL----: LOCATION
CNTY.               Las Animas: COUNTY
SRVC.                         : SERVICE COMPANY
DATE.          Wed Nov 17 12:01:16 2004: LOG DATE
UWI.                          : UNIQUE WELL ID
STAT.                       CO: STATE
~Curve Information Block
DEPT.FT            0 000 00 00: Depth
GR.GAPI                       : Gamma Ray
CCL.                          : Casing Collar Locator
TT3.usec                      : CBL 3' Travel Time
AMP3.mV                       : CBL 3' Amplitude
~Parameter Information Block
~A  Depth        GR         CCL         TT3         AMP3    
# ...
  1918.8000     85.8909      0.0000    864.5477      5.8547
  1918.9000     85.8909      0.0000    864.5477      5.8547
  1919.0000     87.7829      0.0000    847.5660      6.2676
  1919.1000     87.7829      0.0000    847.5660      6.2676
  1919.2000     87.7829      0.0000    847.5660      6.2676
  1919.3000     89.9112      0.0000    820.7134      6.5865
  1919.4000     89.9112      0.0000    820.7134      6.5865
  1919.5000     91.8880      0.0000    790.3262      6.7865
  1919.6000     91.8880      0.0000    790.3262      6.7865
  1919.7000     91.8880      0.0000    790.3262      6.7865
  1919.8000     93.4198      0.0000    761.1896      6.8660
  1919.9000     93.4198      0.0000    761.1896      6.8660
  1920.0000     94.3998      0.0000    731.9630      6.8510
  1920.1000     94.3998      0.0000    731.9630      6.8510
  1920.2000     94.3998      0.0000    731.9630      6.8510
  1920.3000     95.0181      0.0000    698.3452      6.7857
  1920.4000     95.0181      0.0000    698.3452      6.7857
  1920.5000     95.6362      0.0000    660.0068      6.7124
  1920.6000     95.6362      0.0000    660.0068      6.7124
  1920.7000     95.6362      0.0000    660.0068      6.7124
  1920.8000     96.2703      0.0000    623.5793      6.6577
  1920.9000     96.2703      0.0000    623.5793      6.6577
  1921.0000     96.2652      0.0000    599.5364      6.6296
  1921.1000     96.2652      0.0000    599.5364      6.6296
  1921.2000     96.2652      0.0000    599.5364      6.6296
  1921.3000     94.8603      0.0000    596.7728      6.6192
  1921.4000     94.8603      0.0000    596.7728      6.6192
  1921.5000     91.9857      0.0000    618.1889      6.5997
  1921.6000     91.9857      0.0000    618.1889      6.5997
  1921.7000     91.9857      0.0000    618.1889      6.5997
  1921.8000     88.1878      0.0000    658.3470      6.5300
  1921.9000     88.1878      0.0000    658.3470      6.5300
  1922.0000     84.0103      0.0000    704.9219      6.3709
  1922.1000     84.0103      0.0000    704.9219      6.3709
  1922.2000     84.0103      0.0000    704.9219      6.3709
  1922.3000     79.8651      0.0000    744.3221      6.1010
  1922.4000     79.8651      0.0000    744.3221      6.1010
  1922.5000     76.4236      0.0000    767.8483      5.7224
  1922.6000     76.4236      0.0000    767.8483      5.7224
  1922.7000     76.4236      0.0000    767.8483      5.7224
  1922.8000     74.6537      0.0000    774.3802      5.2595
  1922.9000     74.6537      0.0000    774.3802      5.2595
  1923.0000     75.1571      0.0000    769.0388      4.7544
  1923.1000     75.1571      0.0000    769.0388      4.7544
  1923.2000     75.1571      0.0000    769.0388      4.7544
  1923.3000     77.6407      0.0000    759.5104      4.2586
  1923.4000     77.6407      0.0000    759.5104      4.2586
  1923.5000     81.2380      0.0000    752.0914      3.8180
  1923.6000     81.2380      0.0000    752.0914      3.8180
  1923.7000     81.2380      0.0000    752.0914      3.8180
  1923.8000     85.1640      0.0000    749.4377      3.4569
  1923.9000     85.1640      0.0000    749.4377      3.4569
  1924.0000     88.8035      0.0000    750.6337      3.1724
  1924.1000     88.8035      0.0000    750.6337      3.1724
  1924.2000     88.8035      0.0000    750.6337      3.1724
  1924.3000     91.4564      0.0000    752.5015      2.9463
  1924.4000     91.4564      0.0000    752.5015      2.9463
  1924.5000     92.5606      0.0000    751.1801      2.7632
  1924.6000     92.5606      0.0000    751.1801      2.7632
  1924.7000     92.5606      0.0000    751.1801      2.7632
  1924.8000     92.2523      0.0000    743.9033      2.6177
  1924.9000     92.2523      0.0000    743.9033      2.6177
  1925.0000     91.3415      0.0000    730.6473      2.5059
  1925.1000     91.3415      0.0000    730.6473      2.5059
  1925.2000     91.3415      0.0000    730.6473      2.5059
  1925.3000     90.5406      0.0000    714.4516      2.4163
  1925.4000     90.5406      0.0000    714.4516      2.4163
  1925.5000     89.8005      0.0000    699.5923      2.3321
  1925.6000     89.8005      0.0000    699.5923      2.3321
  1925.7000     89.8005      0.0000    699.5923      2.3321
  1925.8000     88.6353      0.0000    688.9202      2.2435
  1925.9000     88.6353      0.0000    688.9202      2.2435
  1926.0000     87.2519      0.0000    682.7659      2.1562
  1926.1000     87.2519      0.0000    682.7659      2.1562
  1926.2000     87.2519      0.0000    682.7659      2.1562
  1926.3000     87.0448      0.0000    679.9854      2.0853
  1926.4000     87.0448      0.0000    679.9854      2.0853
  1926.5000     89.4119      0.0000    679.5018      2.0398
  1926.6000     89.4119      0.0000    679.5018      2.0398
  1926.7000     89.4119      0.0000    679.5018      2.0398
  1926.8000     94.0499      0.0000    680.8225      2.0145
  1926.9000     94.0499      0.0000    680.8225      2.0145
  1927.0000     98.8497      0.0000    683.4561      1.9972
  1927.1000     98.8497      0.0000    683.4561      1.9972
  1927.2000     98.8497      0.0000    683.4561      1.9972
  1927.3000    101.5971      0.0000    686.2038      1.9804
  1927.4000    101.5971      0.0000    686.2038      1.9804
  1927.5000    101.4829      0.0000    687.4274      1.9676
  1927.6000    101.4829      0.0000    687.4274      1.9676
  1927.7000    101.4829      0.0000    687.4274      1.9676
  1927.8000     98.9772      0.0000    686.2867      1.9715
  1927.9000     98.9772      0.0000    686.2867      1.9715
  1928.0000     94.7930      0.0000    683.4912      2.0039
  1928.1000     94.7930      0.0000    683.4912      2.0039
  1928.2000     94.7930      0.0000    683.4912      2.0039
  1928.3000     89.4830      0.0000    680.5526      2.0638
  1928.4000     89.4830      0.0000    680.5526      2.0638
  1928.5000     83.8453      0.0000    678.5072      2.1340
  1928.6000     83.8453      0.0000    678.5072      2.1340
  1928.7000     83.8453      0.0000    678.5072      2.1340
  1928.8000     79.1039      0.0000    677.4844      2.1882
  1928.9000     79.1039      0.0000    677.4844      2.1882
  1929.0000     76.3151      0.0000    677.1177      2.2081
  1929.1000     76.3151      0.0000    677.1177      2.2081
  1929.2000     76.3151      0.0000    677.1177      2.2081
  1929.3000     75.5687      0.0000    677.0137      2.1977
  1929.4000     75.5687      0.0000    677.0137      2.1977
  1929.5000     75.9176      0.0000    676.9351      2.1792
  1929.6000     75.9176      0.0000    676.9351      2.1792
  1929.7000     75.9176      0.0000    676.9351      2.1792
  1929.8000     76.3568      0.0000    676.8192      2.1692
  1929.9000     76.3568      0.0000    676.8192      2.1692
  1930.0000     76.9528      0.0000    676.9032      2.1605
  1930.1000     76.9528      0.0000    676.9032      2.1605
  1930.2000     76.9528      0.0000    676.9032      2.1605
  1930.3000     78.6252      0.0000    678.0262      2.1296
  1930.4000     78.6252      0.0000    678.0262      2.1296
  1930.5000     81.6662      0.0000    681.9825      2.0622
  1930.6000     81.6662      0.0000    681.9825      2.0622
  1930.7000     81.6662      0.0000    681.9825      2.0622
  1930.8000     84.9267      0.0000    691.0735      1.9701
  1930.9000     84.9267      0.0000    691.0735      1.9701
  1931.0000     86.6862      0.0000    705.9536      1.8839
  1931.1000     86.6862      0.0000    705.9536      1.8839
  1931.2000     86.6862      0.0000    705.9536      1.8839
  1931.3000     85.9780      0.0000    722.9964      1.8295
  1931.4000     85.9780      0.0000    722.9964      1.8295
  1931.5000     82.8991      0.0000    735.0630      1.8105
  1931.6000     82.8991      0.0000    735.0630      1.8105
  1931.7000     82.8991      0.0000    735.0630      1.8105
  1931.8000     78.1736      0.0000    736.9437      1.8102
  1931.9000     78.1736      0.0000    736.9437      1.8102
  1932.0000     73.0027      0.0000    729.8897      1.8099
  1932.1000     73.0027      0.0000    729.8897      1.8099
