~Version Information
VERS.                      2.0: CWLS Log ASCII Standard - VERSION 2.0
WRAP.                       NO: One line per depth step
~Well Information Block
STRT.FT                 5.0000: 
STOP.FT              1874.2500: 
STEP.FT                 0.2500: 
NULL.                -999.2500: 
COMP.          Pioneer Natural Resources: COMPANY
WELL.           Stampede 42-18: WELL
FLD.           Purgatoire River: FIELD
LOC.           2479' FNL & 160' FEL--: LOCATION
CNTY.               Las Animas: COUNTY
SRVC.          Superior Well Services: SERVICE COMPANY
DATE.          Mon Jun 25 12:19:16 2007: LOG DATE
UWI.                          : UNIQUE WELL ID
STAT.                 Colorado: STATE
~Curve Information Block
DEPT.FT            0 000 00 00: Depth
GR.GAPI                       : Gamma Ray
CCL.                          : Casing Collar Locator
TT3.usec                      : CBL 3' Travel Time
AMP3.mV                       : CBL 3' Amplitude
AMP5.mV                       : CBL 5' Amplitude
~Parameter Information Block
~A  Depth        GR         CCL         TT3         AMP3        AMP5    
# ...
   257.0000     67.2503      0.0000    702.2345      4.9615      2.2201
   257.2500     68.4960      0.0000    698.9589      5.0128      2.2065
   257.5000     69.8100      0.0000    694.2488      5.0470      2.2050
   257.7500     72.2293      0.0000    687.6302      5.0494      2.2197
   258.0000     76.2697      0.0000    679.4750      5.0068      2.2487
   258.2500     81.5048      0.0000    670.6785      4.9122      2.2852
   258.5000     86.9761      0.0000    661.9359      4.7759      2.3233
   258.7500     91.7683      0.0000    653.4349      4.6269      2.3594
   259.0000     95.4064      0.0000    645.2100      4.4997      2.3895
   259.2500     98.0262      0.0000    637.7075      4.4155      2.4074
   259.5000    100.2069      0.0000    631.8488      4.3768      2.4077
   259.7500    102.5161      0.0000    628.5084      4.3773      2.3906
   260.0000    105.0338      0.0000    628.1514      4.4116      2.3639
   260.2500    107.1594      0.0000    631.1416      4.4736      2.3386
   260.5000    107.9115      0.0000    637.9206      4.5505      2.3216
   260.7500    106.6807      0.0000    648.1279      4.6226      2.3125
   261.0000    103.8438      0.0000    659.6998      4.6670      2.3056
   261.2500    100.3900      0.0000    669.7064      4.6670      2.2947
   261.5000     96.8791      0.0000    676.2485      4.6227      2.2786
   261.7500     93.2298      0.0000    679.1703      4.5556      2.2647
   262.0000     89.7021      0.0000    679.0933      4.4940      2.2662
   262.2500     87.3475      0.0000    676.3259      4.4547      2.2900
   262.5000     87.0207      0.0000    670.9552      4.4373      2.3285
   262.7500     88.3730      0.0000    663.7404      4.4334      2.3649
   263.0000     90.0783      0.0000    656.3402      4.4375      2.3869
   263.2500     90.6962      0.0000    650.2066      4.4496      2.3955
   263.5000     89.3939      0.0000    645.5577      4.4706      2.3996
   263.7500     86.6325      0.0000    641.9955      4.4974      2.4065
   264.0000     84.3193      0.0000    639.8373      4.5222      2.4162
   264.2500     84.4832      0.0000    640.1918      4.5360      2.4223
   264.5000     87.3059      0.0000    643.7220      4.5383      2.4164
   264.7500     90.8265      0.0000    649.6412      4.5412      2.3955
   265.0000     92.8588      0.0000    656.0659      4.5593      2.3677
   265.2500     92.7999      0.0000    661.4991      4.5946      2.3464
   265.5000     91.3227      0.0000    665.8704      4.6346      2.3397
   265.7500     88.8709      0.0000    669.8966      4.6659      2.3467
   266.0000     85.2056      0.0000    673.8167      4.6860      2.3626
   266.2500     80.4056      0.0000    677.3101      4.7002      2.3836
   266.5000     75.7715      0.0000    680.4171      4.7090      2.4075
   266.7500     73.3116      0.0000    683.9350      4.7041      2.4310
   267.0000     74.1105      0.0000    688.7740      4.6772      2.4492
   267.2500     77.2802      0.0000    695.0059      4.6283      2.4574
   267.5000     80.7922      0.0000    701.5778      4.5638      2.4520
   267.7500     83.3690      0.0000    707.0314      4.4921      2.4316
   268.0000     85.4155      0.0000    710.5411      4.4227      2.4007
   268.2500     88.3149      0.0000    712.2477      4.3679      2.3706
   268.5000     93.1094      0.0000    712.7208      4.3383      2.3538
   268.7500     99.6833      0.0000    712.2376      4.3337      2.3553
   269.0000    106.7328      0.0000    710.4866      4.3435      2.3689
   269.2500    112.3053      0.0000    706.8951      4.3549      2.3842
   269.5000    114.7504      0.0000    701.3868      4.3561      2.3978
   269.7500    113.7515      0.0000    694.8890      4.3349      2.4156
   270.0000    110.6694      0.0000    688.9116      4.2845      2.4430
   270.2500    107.5118      0.0000    684.4886      4.2159      2.4765
   270.5000    105.2146      0.0000    681.5706      4.1547      2.5089
   270.7500    103.2355      0.0000    679.3167      4.1191      2.5385
   271.0000    101.0592      0.0000    676.8190      4.1052      2.5676
   271.2500     99.4202      0.0000    673.7976      4.0936      2.5962
   271.5000     99.3006      0.0000    670.9825      4.0701      2.6182
   271.7500    100.1703      0.0000    669.6758      4.0355      2.6272
   272.0000    100.1556      0.0000    670.5734      3.9977      2.6218
   272.2500     98.0780      0.0000    673.1182      3.9620      2.6050
   272.5000     94.7972      0.0000    676.2338      3.9343      2.5811
   272.7500     92.3914      0.0000    679.3541      3.9244      2.5553
   273.0000     92.3470      0.0000    682.3623      3.9356      2.5356
   273.2500     94.5562      0.0000    684.8082      3.9552      2.5297
   273.5000     97.5268      0.0000    685.8182      3.9646      2.5378
   273.7500     99.2196      0.0000    684.9921      3.9571      2.5536
   274.0000     98.1864      0.0000    683.0227      3.9397      2.5720
   274.2500     94.6285      0.0000    681.1219      3.9222      2.5928
   274.5000     90.4622      0.0000    680.0208      3.9077      2.6153
   274.7500     87.9678      0.0000    679.6758      3.8931      2.6345
   275.0000     88.0711      0.0000    679.6862      3.8777      2.6443
   275.2500     89.9149      0.0000    679.7253      3.8698      2.6453
   275.5000     92.0299      0.0000    679.6736      3.8821      2.6447
   275.7500     93.6914      0.0000    679.5676      3.9201      2.6477
   276.0000     95.0042      0.0000    679.4941      3.9757      2.6515
   276.2500     95.9978      0.0000    679.4283      4.0305      2.6503
   276.5000     96.1812      0.0000    679.0429      4.0616      2.6445
   276.7500     95.1665      0.0000    677.5380      4.0508      2.6386
   277.0000     93.3443      0.0000    673.7664      3.9966      2.6325
   277.2500     91.6247      0.0000    667.0328      3.9164      2.6233
   277.5000     90.7188      0.0000    658.3922      3.8338      2.6153
   277.7500     90.7903      0.0000    651.0056      3.7639      2.6204
   278.0000     91.5147      0.0000    648.0993      3.7105      2.6474
   278.2500     92.1936      0.0000    649.7672      3.6748      2.6927
   278.5000     92.0482      0.0000    652.4121      3.6630      2.7413
   278.7500     90.8155      0.0000    652.2446      3.6840      2.7768
   279.0000     89.1233      0.0000    648.8997      3.7387      2.7939
   279.2500     88.0635      0.0000    644.9902      3.8129      2.7997
   279.5000     88.3981      0.0000    643.1255      3.8848      2.8031
   279.7500     90.2746      0.0000    644.4514      3.9434      2.8053
   280.0000     93.3674      0.0000    648.9876      3.9986      2.8036
   280.2500     96.8437      0.0000    655.7576      4.0678      2.7981
   280.5000     99.3860      0.0000    662.8682      4.1525      2.7916
   280.7500     99.8528      0.0000    668.5020      4.2289      2.7866
   281.0000     98.1062      0.0000    671.9681      4.2655      2.7868
   281.2500     95.0760      0.0000    673.6110      4.2497      2.7982
   281.5000     92.0442      0.0000    673.9361      4.1971      2.8252
   281.7500     89.9579      0.0000    672.9033      4.1366      2.8636
   282.0000     89.2606      0.0000    669.8834      4.0911      2.9023
   282.2500     90.0152      0.0000    664.3612      4.0699      2.9311
   282.5000     92.0704      0.0000    657.0681      4.0682      2.9471
   282.7500     95.1514      0.0000    650.4630      4.0727      2.9533
   283.0000     98.8151      0.0000    647.5386      4.0731      2.9540
   283.2500    102.3507      0.0000    649.6114      4.0726      2.9522
   283.5000    104.8948      0.0000    655.2580      4.0809      2.9514
   283.7500    105.8736      0.0000    661.5600      4.0962      2.9561
   284.0000    105.4255      0.0000    666.2957      4.1034      2.9691
   284.2500    104.2020      0.0000    668.9545      4.0902      2.9875
   284.5000    102.6790      0.0000    670.1514      4.0595      3.0027
   284.7500    100.9244      0.0000    670.6140      4.0229      3.0049
