~Version Information
VERS.                      2.0: CWLS Log ASCII Standard - VERSION 2.0
WRAP.                       NO: One line per depth step
~Well Information Block
STRT.FT               440.0000: 
STOP.FT              2735.2000: 
STEP.FT                 0.1000: 
NULL.                -999.2500: 
COMP.          Pioneer Natural Resources: COMPANY
WELL.              Cluck 21-25: WELL
FLD.           Purgatoire River: FIELD
LOC.           91' FNL & 1834' FWL--: LOCATION
PROV.                 Colorado: PROVINCE
CNTY.               Las Animas: COUNTRY
SRVC.                Patterson: SERVICE COMPANY
DATE.          Tue Jun 07 07:26:19 2005: LOG DATE
UWI.           05 071 08397 00: UNIQUE WELL ID
~Curve Information Block
DEPT.FT            0 000 00 00: Depth
DCAL.in                       : CDL Caliper
RHOB.g/cc                     : CDL Bulk Density
RHOC.g/cc                     : CDL Density Correction
DPOR.pu                       : CDL Density Porosity
NPOR.pu                       : Neutron Porosity
GR.GAPI                       : Gamma Ray
~Parameter Information Block
SNDERRM.mmho-m          0.0000: Medium Sonde Error Correction
~A  Depth       DCAL        RHOB        RHOC        DPOR        NPOR         GR     
# ...
  2552.0000      8.0707      2.5897      0.0077      3.6524     18.3759    106.1175
  2552.1000      8.0707      2.5867      0.0020      3.8388     18.3629    108.5389
  2552.2000      8.0707      2.5889      0.0284      3.7057     18.2756    112.8159
  2552.3000      8.0663      2.6018     -0.0038      2.9212     18.0701    111.5348
  2552.4000      8.0663      2.6268      0.0508      1.4090     18.0494    102.1941
  2552.5000      8.0489      2.6487      0.0679      0.0800     18.2007     89.6411
  2552.6000      8.0489      2.6529      0.0716     -0.1772     18.3615     82.0418
  2552.7000      8.0489      2.6426      0.0212      0.4475     18.4978     85.9142
  2552.8000      8.0261      2.6303      0.0257      1.1911     18.5883     97.0890
  2552.9000      8.0261      2.6120      0.0550      2.3033     18.8341    106.0463
  2553.0000      8.0007      2.5834      0.0049      4.0369     19.2710    109.8018
  2553.1000      8.0007      2.5660     -0.0016      5.0881     19.2858    111.6291
  2553.2000      8.0007      2.5732      0.0351      4.6559     18.8757    111.8670
  2553.3000      7.9797      2.5880      0.0266      3.7569     18.8248    108.8459
  2553.4000      7.9797      2.5949      0.0191      3.3404     18.9271    106.4381
  2553.5000      7.9707      2.5981      0.0297      3.1452     18.6954    110.3733
  2553.6000      7.9707      2.6049      0.0522      2.7353     18.3557    117.5399
  2553.7000      7.9707      2.6156      0.0338      2.0866     18.0336    118.8082
  2553.8000      7.9717      2.6322      0.0395      1.0810     18.0325    113.7730
  2553.9000      7.9717      2.6516      0.0576     -0.0999     18.6810    109.5058
  2554.0000      7.9686      2.6682      0.0718     -1.1011     19.6922    109.7197
  2554.1000      7.9686      2.6807      0.1066     -1.8582     20.7531    109.6388
  2554.2000      7.9686      2.6817      0.0785     -1.9197     21.5049    106.4782
  2554.3000      7.9587      2.6669      0.0370     -1.0229     21.7326    106.7686
  2554.4000      7.9587      2.6408      0.0659      0.5576     21.9469    111.8886
  2554.5000      7.9529      2.6073      0.0323      2.5877     22.6716    113.2432
  2554.6000      7.9529      2.5720      0.0404      4.7260     23.8716    109.8286
  2554.7000      7.9529      2.5356      0.0487      6.9319     25.5570    110.0478
  2554.8000      7.9527      2.4890      0.0650      9.7574     27.5910    118.8665
  2554.9000      7.9527      2.4264      0.0044     13.5535     29.3057    133.2366
  2555.0000      7.9568      2.3509     -0.0143     18.1260     30.6723    143.6651
  2555.1000      7.9568      2.2520     -0.0311     24.1220     32.0460    144.1267
  2555.2000      7.9568      2.1123     -0.0968     32.5903     33.2603    140.1614
  2555.3000      7.9806      1.9513     -0.1246     42.3474     34.0895    134.0437
  2555.4000      7.9806      1.8098     -0.1700     50.9195     34.7415    123.7114
  2555.5000      8.0599      1.7067     -0.1629     57.1717     35.4325    111.5240
  2555.6000      8.0599      1.6399     -0.1944     61.2171     35.9858     99.4256
  2555.7000      8.0599      1.6103     -0.1855     63.0144     35.8958     91.7593
  2555.8000      8.1788      1.6263     -0.1284     62.0422     34.8134     92.9348
  2555.9000      8.1788      1.6870      0.0783     58.3620     33.4695     95.0480
  2556.0000      8.2181      1.7728      0.1670     53.1639     32.9867     89.3013
  2556.1000      8.2181      1.8655      0.2276     47.5442     33.2171     78.3817
  2556.2000      8.2181      1.9608      0.2439     41.7700     33.1663     69.8516
  2556.3000      8.1538      2.0691      0.2750     35.2065     32.6030     69.2107
  2556.4000      8.1538      2.2001      0.3194     27.2675     32.1082     78.0378
  2556.5000      8.0996      2.3313      0.3480     19.3124     31.7431     92.5673
  2556.6000      8.0996      2.4169      0.3403     14.1290     31.1695    105.7470
  2556.7000      8.0996      2.4385      0.2458     12.8183     30.6840    113.4141
  2556.8000      8.0874      2.4252      0.1772     13.6222     30.5235    115.2665
  2556.9000      8.0874      2.4109      0.1165     14.4901     30.3854    115.9340
  2557.0000      8.0835      2.3976      0.1001     15.2942     30.0228    123.3903
  2557.1000      8.0835      2.3760      0.0541     16.6048     29.7678    136.8641
  2557.2000      8.0835      2.3530      0.0410     17.9988     29.8975    143.8021
  2557.3000      8.0800      2.3342      0.0236     19.1366     30.0474    138.5923
  2557.4000      8.0800      2.3156      0.0073     20.2656     30.1913    128.8961
  2557.5000      8.0727      2.3007      0.0270     21.1669     30.2633    122.4709
  2557.6000      8.0727      2.2998      0.0135     21.2244     29.7116    121.9388
  2557.7000      8.0727      2.3193      0.0049     20.0413     28.8058    121.5354
  2557.8000      8.0587      2.3504      0.0941     18.1574     28.5617    115.1542
  2557.9000      8.0587      2.3695      0.1018     17.0003     29.1745    109.0645
  2558.0000      8.0460      2.3696      0.1048     16.9945     29.8241    108.5865
  2558.1000      8.0460      2.3702      0.0865     16.9596     29.9175    109.4203
  2558.2000      8.0460      2.3838      0.1502     16.1360     29.7464    108.6716
  2558.3000      8.0426      2.3997      0.1014     15.1710     29.9051    106.6785
  2558.4000      8.0426      2.4036      0.0921     14.9312     30.2209    107.0628
  2558.5000      8.0437      2.3890      0.0723     15.8185     29.9745    112.2074
  2558.6000      8.0437      2.3631      0.0166     17.3860     29.2526    121.1607
  2558.7000      8.0437      2.3423      0.0173     18.6468     28.8084    131.5091
  2558.8000      8.0441      2.3345      0.0056     19.1234     28.9068    140.0975
  2558.9000      8.0441      2.3341      0.0294     19.1481     29.3055    144.6090
  2559.0000      8.0455      2.3311      0.0480     19.3298     29.7276    141.3165
  2559.1000      8.0455      2.3288     -0.0054     19.4655     29.8470    130.8998
  2559.2000      8.0455      2.3378      0.0437     18.9188     29.7580    120.7284
  2559.3000      8.0479      2.3496      0.0576     18.2061     29.9452    116.2765
  2559.4000      8.0479      2.3528      0.0353     18.0098     30.2974    115.1399
  2559.5000      8.0481      2.3568      0.0425     17.7721     30.4351    112.9409
  2559.6000      8.0481      2.3756      0.0334     16.6298     30.4125    109.0896
  2559.7000      8.0481      2.4103      0.0707     14.5288     30.2733    103.2276
  2559.8000      8.0461      2.4468      0.0683     12.3160     30.0336     94.2369
  2559.9000      8.0461      2.4700      0.0732     10.9073     29.4726     87.6810
  2560.0000      8.0442      2.4765      0.0644     10.5162     28.4898     87.6975
  2560.1000      8.0442      2.4780      0.0303     10.4244     27.6122     94.2311
  2560.2000      8.0442      2.4879      0.0242      9.8245     27.1107    109.2533
  2560.3000      8.0444      2.5047      0.0713      8.8055     26.7195    127.1313
  2560.4000      8.0444      2.5260      0.0612      7.5158     26.4697    136.7947
  2560.5000      8.0446      2.5545      0.0903      5.7881     26.5152    134.9288
  2560.6000      8.0446      2.5808      0.1002      4.1951     26.6760    128.3419
  2560.7000      8.0446      2.5897      0.1070      3.6544     26.7853    121.4090
  2560.8000      8.0403      2.5769      0.0516      4.4317     26.8019    113.1336
  2560.9000      8.0403      2.5541      0.0121      5.8137     26.3173    108.4411
  2561.0000      8.0329      2.5384      0.0420      6.7621     25.1694    109.8159
  2561.1000      8.0329      2.5375      0.0179      6.8178     24.2278    111.9796
  2561.2000      8.0329      2.5494      0.0478      6.0945     24.4640    111.3684
  2561.3000      8.0260      2.5563      0.0765      5.6770     25.7215    110.5090
  2561.4000      8.0260      2.5430      0.0309      6.4822     26.9669    110.5896
  2561.5000      8.0198      2.5257      0.0172      7.5306     27.6574    108.7514
