~Version Information
VERS.                      2.0: CWLS Log ASCII Standard - VERSION 2.0
WRAP.                       NO: One line per depth step
~Well Information Block
STRT.FT                 0.0000: 
STOP.FT              1916.0000: 
STEP.FT                 0.1000: 
NULL.                -999.2500: 
COMP.          Pioneer Natural Resources: COMPANY
WELL.          Blackjack 32-11 Tr: WELL
FLD.           Purgatorie River: FIELD
LOC.           2066' FNL & 1453' FEL: LOCATION
PROV.                 Colorado: PROVINCE
CNTY.               Las Animas: COUNTRY
SRVC.                Patterson: SERVICE COMPANY
DATE.          Tue Aug 16 12:08:23 2005: LOG DATE
UWI.                          : UNIQUE WELL ID
~Curve Information Block
DEPT.FT            0 000 00 00: Depth
DCAL.in                       : CDL Caliper
RHOB.g/cc                     : CDL Bulk Density
RHOC.g/cc                     : CDL Density Correction
DPOR.pu                       : CDL Density Porosity
GR.GAPI                       : Gamma Ray
NPOR.pu                       : Neutron Porosity
~Parameter Information Block
~A  Depth       DCAL        RHOB        RHOC        DPOR         GR         NPOR    
# ...
  1756.8000      7.9976      2.6333      0.1846      1.0121    120.3315     25.0931
  1756.9000      7.9976      2.6682      0.2288     -1.1054    114.7690     25.1342
  1757.0000      7.9303      2.6872      0.1915     -2.2552    113.1906     25.0073
  1757.1000      7.9303      2.6918      0.2021     -2.5306    115.2012     24.5120
  1757.2000      7.9303      2.6770      0.2007     -1.6379    119.5465     23.7759
  1757.3000      7.7062      2.6371      0.1262      0.7830    125.3135     22.9477
  1757.4000      7.7062      2.5838      0.0971      4.0147    130.2131     22.2724
  1757.5000      7.6968      2.5395      0.0572      6.6962    133.9623     21.8804
  1757.6000      7.6968      2.5161      0.0820      8.1159    137.7201     21.8987
  1757.7000      7.6968      2.5114      0.0682      8.4017    140.9659     22.6226
  1757.8000      7.7982      2.5144      0.1117      8.2191    145.3820     23.6817
  1757.9000      7.7982      2.5119      0.1072      8.3668    152.0887     24.2846
  1758.0000      7.8720      2.5048      0.0945      8.7991    155.5462     24.6370
  1758.1000      7.8720      2.5017      0.0967      8.9865    153.7689     25.4114
  1758.2000      7.8720      2.5006      0.1252      9.0547    153.3818     26.3742
  1758.3000      7.9344      2.5002      0.0760      9.0764    157.0175     27.1332
  1758.4000      7.9344      2.5063      0.1214      8.7075    159.2333     27.9145
  1758.5000      7.9398      2.5140      0.1337      8.2438    157.6162     28.7748
  1758.6000      7.9398      2.5168      0.1334      8.0708    155.1521     29.6833
  1758.7000      7.9398      2.5148      0.1287      8.1956    154.9606     30.7847
  1758.8000      7.9327      2.5075      0.1026      8.6338    158.2165     31.7396
  1758.9000      7.9327      2.4936      0.0996      9.4773    163.1308     31.8570
  1759.0000      7.9929      2.4738      0.0655     10.6800    166.1697     31.2150
  1759.1000      7.9929      2.4574      0.0487     11.6731    166.2260     30.6405
  1759.2000      7.9929      2.4473      0.0676     12.2850    162.8683     30.6238
  1759.3000      7.9923      2.4234      0.0725     13.7332    157.1601     30.9380
  1759.4000      7.9923      2.3669      0.0982     17.1555    155.3351     31.1242
  1759.5000      8.0220      2.2982      0.0279     21.3211    158.5600     31.0591
  1759.6000      8.0220      2.2579      0.0622     23.7660    162.6787     31.1146
  1759.7000      8.0220      2.2588      0.0673     23.7076    166.8993     31.7183
  1759.8000      7.9681      2.2966      0.0981     21.4170    168.8189     32.8270
  1759.9000      7.9681      2.3649      0.1515     17.2762    164.9735     33.8446
  1760.0000      7.8829      2.4404      0.2546     12.7021    157.8589     34.2411
  1760.1000      7.8829      2.4949      0.2341      9.4009    150.7514     33.9794
  1760.2000      7.8829      2.5232      0.2243      7.6829    144.9797     33.3097
  1760.3000      7.9455      2.5388      0.2074      6.7417    143.4447     32.5516
  1760.4000      7.9455      2.5576      0.1386      5.5985    147.8902     31.9792
  1760.5000      8.0084      2.5834      0.1095      4.0358    153.7178     31.6613
  1760.6000      8.0084      2.6012      0.0937      2.9548    155.6427     31.5895
  1760.7000      8.0084      2.6051      0.0311      2.7212    155.1794     31.6124
  1760.8000      7.9956      2.6048      0.0615      2.7413    154.6927     31.2329
  1760.9000      7.9956      2.5995      0.0774      3.0581    153.8775     30.5124
  1761.0000      7.9747      2.5825      0.0808      4.0906    153.7325     30.0425
  1761.1000      7.9747      2.5592      0.0419      5.5024    154.8540     29.8990
  1761.2000      7.9747      2.5435      0.0512      6.4547    155.2281     30.0890
  1761.3000      7.9556      2.5363      0.1052      6.8909    154.0388     30.5828
  1761.4000      7.9556      2.5237      0.1051      7.6521    154.1900     30.6669
  1761.5000      7.9769      2.5016      0.1010      8.9953    157.3478     30.1521
  1761.6000      7.9769      2.4767      0.1119     10.5036    162.0235     29.8302
  1761.7000      7.9769      2.4529      0.0917     11.9454    165.3119     29.9117
  1761.8000      8.0232      2.4357      0.0859     12.9908    163.0165     30.0787
  1761.9000      8.0232      2.4338      0.0679     13.1023    156.4948     30.3153
  1762.0000      8.1150      2.4480      0.0882     12.2411    154.0302     30.5034
  1762.1000      8.1150      2.4652      0.1117     11.2027    157.5725     30.6949
  1762.2000      8.1150      2.4777      0.0457     10.4449    161.2338     30.9996
  1762.3000      8.0980      2.4905      0.0582      9.6671    163.5708     30.8818
  1762.4000      8.0980      2.5007      0.0474      9.0492    167.4107     29.8658
  1762.5000      8.0392      2.5029      0.0308      8.9172    171.4315     28.6717
  1762.6000      8.0392      2.4994      0.0937      9.1278    172.3212     28.2949
  1762.7000      8.0392      2.4908      0.0825      9.6506    170.6448     28.4497
  1762.8000      7.9991      2.4804      0.0510     10.2762    168.5287     28.4919
  1762.9000      7.9991      2.4760      0.0628     10.5472    166.6538     28.4676
  1763.0000      7.9921      2.4776      0.0839     10.4501    165.9750     28.2207
  1763.1000      7.9921      2.4790      0.1246     10.3632    168.1040     27.7133
  1763.2000      7.9921      2.4783      0.1521     10.4053    171.9859     27.6490
  1763.3000      7.9161      2.4818      0.1131     10.1929    173.3091     28.0718
  1763.4000      7.9161      2.4951      0.1231      9.3866    170.7397     28.5539
  1763.5000      7.8196      2.5133      0.1612      8.2856    168.2971     29.2708
  1763.6000      7.8196      2.5260      0.1399      7.5150    168.7369     30.1612
  1763.7000      7.8196      2.5301      0.1142      7.2671    169.8251     30.7331
  1763.8000      7.7966      2.5305      0.1250      7.2407    168.4909     30.8708
  1763.9000      7.7966      2.5284      0.1247      7.3716    163.9753     30.7061
  1764.0000      7.9200      2.5162      0.1115      8.1113    158.3210     30.4016
  1764.1000      7.9200      2.4897      0.0677      9.7139    154.4019     30.0718
  1764.2000      7.9200      2.4499      0.0539     12.1277    153.4394     29.6509
  1764.3000      8.0008      2.3944      0.0265     15.4914    155.0320     29.2412
  1764.4000      8.0008      2.3218     -0.0320     19.8932    155.5705     29.0835
  1764.5000      7.9914      2.2209      0.0019     26.0091    150.3539     29.2029
  1764.6000      7.9914      2.0735     -0.0269     34.9398    139.7778     29.6694
  1764.7000      7.9914      1.8976     -0.0611     45.6017    128.7267     30.4842
  1764.8000      7.9650      1.7463     -0.0929     54.7687    120.5962     30.7769
  1764.9000      7.9650      1.6562     -0.0974     60.2281    115.7611     30.2977
  1765.0000      8.0100      1.6292     -0.1044     61.8671    111.4348     30.2625
  1765.1000      8.0100      1.6544     -0.0277     60.3412    105.8772     31.4747
  1765.2000      8.0100      1.7152      0.1388     56.6566    102.1867     33.4974
  1765.3000      8.0768      1.7862      0.2172     52.3511    102.8891     35.4012
  1765.4000      8.0768      1.8476      0.2321     48.6291    105.8009     36.4907
  1765.5000      8.1833      1.9000      0.2307     45.4520    109.0303     36.6239
  1765.6000      8.1833      1.9571      0.2271     41.9929    112.8708     36.1092
  1765.7000      8.1833      2.0229      0.2015     38.0053    117.6280     35.4238
  1765.8000      8.4297      2.0856      0.1389     34.2088    123.8605     35.0542
  1765.9000      8.4297      2.1246      0.1595     31.8429    130.9909     34.9498
  1766.0000      8.1896      2.1171      0.1490     32.2950    135.5988     34.5668
  1766.1000      8.1896      2.0598      0.0852     35.7709    133.7884     33.7918
  1766.2000      8.1896      1.9747      0.0693     40.9246    126.9762     33.0025
  1766.3000      7.8663      1.8872      0.0201     46.2329    119.2103     32.4957
