~Version Information
VERS.                      2.0: CWLS Log ASCII Standard - VERSION 2.0
WRAP.                       NO: One line per depth step
~Well Information Block
STRT.FT               -12.3000: 
STOP.FT              1768.7000: 
STEP.FT                 0.1000: 
NULL.                -999.2500: 
COMP.          Petrogulf Corporation: COMPANY
WELL.          Alexander 9-43R: WELL
FLD.           Purgatorie River: FIELD
LOC.           1652' FSL & 1049' FEL--: LOCATION
CNTY.               Las Animas: COUNTY
SRVC.                         : SERVICE COMPANY
DATE.          Tue Sep 28 14:27:54 2004: LOG DATE
UWI.                          : UNIQUE WELL ID
STAT.                       CO: STATE
~Curve Information Block
DEPT.FT            0 000 00 00: Depth
GR.GAPI                       : Gamma Ray
CCL.                          : Casing Collar Locator
TT3.usec                      : CBL 3' Travel Time
AMP3.mV                       : CBL 3' Amplitude
~Parameter Information Block
~A  Depth        GR         CCL         TT3         AMP3    
# ...
   456.7000     85.2657      0.0000    389.0488      9.0626
   456.8000     86.4994      0.0000    412.6015      9.0888
   456.9000     86.4994      0.0000    412.6015      9.0888
   457.0000     89.3564      0.0000    463.4633      9.0767
   457.1000     89.3564      0.0000    463.4633      9.0767
   457.2000     89.3564      0.0000    463.4633      9.0767
   457.3000     93.7513      0.0000    530.9299      9.0589
   457.4000     93.7513      0.0000    530.9299      9.0589
   457.5000     99.8547      0.0000    600.1568      9.0755
   457.6000     99.8547      0.0000    600.1568      9.0755
   457.7000     99.8547      0.0000    600.1568      9.0755
   457.8000    107.2070      0.0000    657.0983      9.1477
   457.9000    107.2070      0.0000    657.0983      9.1477
   458.0000    113.8173      0.0000    689.7783      9.2585
   458.1000    113.8173      0.0000    689.7783      9.2585
   458.2000    113.8173      0.0000    689.7783      9.2585
   458.3000    117.0846      0.0000    689.1102      9.3590
   458.4000    117.0846      0.0000    689.1102      9.3590
   458.5000    115.9060      0.0000    656.7083      9.3988
   458.6000    115.9060      0.0000    656.7083      9.3988
   458.7000    115.9060      0.0000    656.7083      9.3988
   458.8000    111.2660      0.0000    612.5485      9.3558
   458.9000    111.2660      0.0000    612.5485      9.3558
   459.0000    104.6206      0.0000    586.7354      9.2451
   459.1000    104.6206      0.0000    586.7354      9.2451
   459.2000    104.6206      0.0000    586.7354      9.2451
   459.3000     96.6206      0.0000    597.9371      9.1093
   459.4000     96.6206      0.0000    597.9371      9.1093
   459.5000     87.8742      0.0000    640.0760      8.9992
   459.6000     87.8742      0.0000    640.0760      8.9992
   459.7000     87.8742      0.0000    640.0760      8.9992
   459.8000     80.1739      0.0000    688.9792      8.9576
   459.9000     80.1739      0.0000    688.9792      8.9576
   460.0000     76.0184      0.0000    719.2838      9.0086
   460.1000     76.0184      0.0000    719.2838      9.0086
   460.2000     76.0184      0.0000    719.2838      9.0086
   460.3000     76.7388      0.0000    717.7230      9.1519
   460.4000     76.7388      0.0000    717.7230      9.1519
   460.5000     81.2352      0.0000    687.1116      9.3589
   460.6000     81.2352      0.0000    687.1116      9.3589
   460.7000     81.2352      0.0000    687.1116      9.3589
   460.8000     86.5658      0.0000    640.5407      9.5790
   460.9000     86.5658      0.0000    640.5407      9.5790
   461.0000     89.7870      0.0000    589.8451      9.7561
   461.1000     89.7870      0.0000    589.8451      9.7561
   461.2000     89.7870      0.0000    589.8451      9.7561
   461.3000     89.4106      0.0000    538.7339      9.8477
   461.4000     89.4106      0.0000    538.7339      9.8477
   461.5000     85.4754      0.0000    487.2800      9.8410
   461.6000     85.4754      0.0000    487.2800      9.8410
   461.7000     85.4754      0.0000    487.2800      9.8410
   461.8000     78.9101      0.0000    439.0751      9.7659
   461.9000     78.9101      0.0000    439.0751      9.7659
   462.0000     71.3012      0.0000    400.0614      9.6937
   462.1000     71.3012      0.0000    400.0614      9.6937
   462.2000     71.3012      0.0000    400.0614      9.6937
   462.3000     64.7088      0.0000    372.7842      9.7108
   462.4000     64.7088      0.0000    372.7842      9.7108
   462.5000     60.7275      0.0000    355.3161      9.8776
   462.6000     60.7275      0.0000    355.3161      9.8776
   462.7000     60.7275      0.0000    355.3161      9.8776
   462.8000     59.5057      0.0000    344.5216     10.1984
   462.9000     59.5057      0.0000    344.5216     10.1984
   463.0000     59.9846      0.0000    338.1798     10.6163
   463.1000     59.9846      0.0000    338.1798     10.6163
   463.2000     59.9846      0.0000    338.1798     10.6163
   463.3000     61.1026      0.0000    334.8247     11.0362
   463.4000     61.1026      0.0000    334.8247     11.0362
   463.5000     62.6127      0.0000    333.2785     11.3689
   463.6000     62.6127      0.0000    333.2785     11.3689
   463.7000     62.6127      0.0000    333.2785     11.3689
   463.8000     64.8402      0.0000    332.6566     11.5746
   463.9000     64.8402      0.0000    332.6566     11.5746
   464.0000     67.9640      0.0000    332.4100     11.6755
   464.1000     67.9640      0.0000    332.4100     11.6755
   464.2000     67.9640      0.0000    332.4100     11.6755
   464.3000     71.6592      0.0000    332.2745     11.7321
   464.4000     71.6592      0.0000    332.2745     11.7321
   464.5000     75.3264      0.0000    332.1428     11.8063
   464.6000     75.3264      0.0000    332.1428     11.8063
   464.7000     75.3264      0.0000    332.1428     11.8063
   464.8000     78.5695      0.0000    332.0026     11.9393
   464.9000     78.5695      0.0000    332.0026     11.9393
   465.0000     81.4352      0.0000    331.8923     12.1425
   465.1000     81.4352      0.0000    331.8923     12.1425
   465.2000     81.4352      0.0000    331.8923     12.1425
   465.3000     84.1337      0.0000    331.8515     12.3923
   465.4000     84.1337      0.0000    331.8515     12.3923
   465.5000     86.5761      0.0000    331.8800     12.6346
   465.6000     86.5761      0.0000    331.8800     12.6346
   465.7000     86.5761      0.0000    331.8800     12.6346
   465.8000     88.2999      0.0000    331.9410     12.8060
   465.9000     88.2999      0.0000    331.9410     12.8060
   466.0000     88.8209      0.0000    331.9956     12.8629
   466.1000     88.8209      0.0000    331.9956     12.8629
   466.2000     88.8209      0.0000    331.9956     12.8629
   466.3000     87.9756      0.0000    332.0299     12.8030
   466.4000     87.9756      0.0000    332.0299     12.8030
   466.5000     85.7935      0.0000    332.0524     12.6629
   466.6000     85.7935      0.0000    332.0524     12.6629
   466.7000     85.7935      0.0000    332.0524     12.6629
   466.8000     82.0027      0.0000    332.0757     12.4954
   466.9000     82.0027      0.0000    332.0757     12.4954
   467.0000     76.0269      0.0000    332.1049     12.3467
   467.1000     76.0269      0.0000    332.1049     12.3467
   467.2000     76.0269      0.0000    332.1049     12.3467
   467.3000     67.8286      0.0000    332.1420     12.2467
   467.4000     67.8286      0.0000    332.1420     12.2467
   467.5000     58.6718      0.0000    332.1932     12.2053
   467.6000     58.6718      0.0000    332.1932     12.2053
   467.7000     58.6718      0.0000    332.1932     12.2053
   467.8000     50.8704      0.0000    332.2701     12.2063
   467.9000     50.8704      0.0000    332.2701     12.2063
   468.0000     46.7404      0.0000    332.3887     12.2146
   468.1000     46.7404      0.0000    332.3887     12.2146
   468.2000     46.7404      0.0000    332.3887     12.2146
   468.3000     47.4329      0.0000    332.5711     12.2010
   468.4000     47.4329      0.0000    332.5711     12.2010
   468.5000     52.3160      0.0000    332.8380     12.1611
   468.6000     52.3160      0.0000    332.8380     12.1611
   468.7000     52.3160      0.0000    332.8380     12.1611
   468.8000     59.4676      0.0000    333.1919     12.1094
   468.9000     59.4676      0.0000    333.1919     12.1094
   469.0000     66.9191      0.0000    333.6523     12.0596
   469.1000     66.9191      0.0000    333.6523     12.0596
   469.2000     66.9191      0.0000    333.6523     12.0596
   469.3000     73.1933      0.0000    334.3441     12.0151
   469.4000     73.1933      0.0000    334.3441     12.0151
   469.5000     76.8726      0.0000    335.9529     11.9680
   469.6000     76.8726      0.0000    335.9529     11.9680
   469.7000     76.8726      0.0000    335.9529     11.9680
   469.8000     76.7649      0.0000    340.5633     11.8954
   469.9000     76.7649      0.0000    340.5633     11.8954
   470.0000     73.1632      0.0000    352.4405     11.7545
