~Version Information
VERS.                      2.0: CWLS Log ASCII Standard - VERSION 2.0
WRAP.                       NO: One line per depth step
~Well Information Block
STRT.FT               710.0000: 
STOP.FT              2304.5000: 
STEP.FT                 0.2500: 
NULL.                -999.2500: 
COMP.          Pioneer Natural Resources: COMPANY
WELL.           Ogallela 44-12: WELL
FLD.           Purgatoire River: FIELD
LOC.           610' FSL & 671' FEL: LOCATION
PROV.                 Colorado: PROVINCE
CNTY.               Las Animas: COUNTRY
SRVC.                Patterson: SERVICE COMPANY
DATE.          Wed Feb 23 00:14:59 2005: LOG DATE
UWI.           05 071 08283 00: UNIQUE WELL ID
~Curve Information Block
DEPT.FT            0 000 00 00: Depth
SN.Ohm-m                      : IEL Short Normal
SP.mV                         : IEL Spontaneous Potential
DIR.Ohm-m                     : IEL Induction Resistivity
GR.GAPI                       : Gamma Ray
~Parameter Information Block
~A  Depth        SN          SP         DIR          GR     
# ...
  2284.5000     25.6490     60.5197     22.7217     63.3258
  2284.7500     25.8672     60.3150     23.0925     57.8909
  2285.0000     25.9706     60.1046     23.2436     44.8112
  2285.2500     25.9016     59.9284     23.2192     33.8937
  2285.5000     25.6826     59.8208     23.0655     18.2211
  2285.7500     25.3997     59.8001     22.8200     10.3509
  2286.0000     25.1527     59.8597     22.5109      3.4560
  2286.2500     25.0007     59.9684     22.1612      1.3967
  2286.5000     24.9217     60.0832     21.7943      0.2726
  2286.7500     24.8191     60.1684     21.4375      0.0754
  2287.0000     24.5863     60.2102     21.1172      0.0072
  2287.2500     24.1897     60.2167     20.8484      0.0000
  2287.5000     23.7138     60.1994     20.6237   -999.2500
  2287.7500     23.3085     60.1560     20.4135   -999.2500
  2288.0000     23.0613     60.0741     20.1812   -999.2500
  2288.2500     22.9293     59.9442     19.9023   -999.2500
  2288.5000     22.8064     59.7673     19.5748   -999.2500
  2288.7500     22.6583     59.5552     19.2152   -999.2500
  2289.0000     22.5820     59.3253     18.8480   -999.2500
  2289.2500     22.6888     59.0914     18.4975   -999.2500
  2289.5000     22.9217     58.8568     18.1836   -999.2500
  2289.7500     23.0699     58.6178     17.9201   -999.2500
  2290.0000     22.9714     58.3779     17.7137   -999.2500
  2290.2500     22.6205     58.1829     17.5619   -999.2500
  2290.5000     22.1006     58.1846     17.4507   -999.2500
  2290.7500     21.5307     58.7110     17.3591   -999.2500
  2291.0000     21.0612     60.2392     17.2715   -999.2500
  2291.2500     20.8236     63.1336     17.1951   -999.2500
  2291.5000     20.8658     67.2377     17.0746   -999.2500
  2291.7500     21.1285     71.7302     17.1304   -999.2500
  2292.0000     21.4898     75.5459     17.2975   -999.2500
  2292.2500     21.8631     78.0289     17.5591   -999.2500
  2292.5000     22.2316     79.1895     17.8549   -999.2500
  2292.7500     22.5993     79.4410     18.1010   -999.2500
  2293.0000     22.9785     79.2203     18.2254   -999.2500
  2293.2500     23.4103     78.8157     18.2012   -999.2500
  2293.5000     23.9309     78.3735     18.0614   -999.2500
  2293.7500     24.4947     77.9514     17.8902   -999.2500
  2294.0000     24.9316     77.5589     17.8056   -999.2500
  2294.2500     25.0261     77.1836     17.9571   -999.2500
  2294.5000     24.6719     76.8088     18.5504   -999.2500
  2294.7500     23.9248     76.4298     19.8948   -999.2500
  2295.0000     22.9220     76.0665     22.6593   -999.2500
  2295.2500     21.7916     75.7653     27.3450   -999.2500
  2295.5000     20.6277     75.5850     35.4129   -999.2500
  2295.7500     19.5097     75.5716     48.8383   -999.2500
  2296.0000     18.4835     75.7367     69.7235   -999.2500
  2296.2500     17.5249     76.0533     97.7726   -999.2500
  2296.5000     16.6072     76.4671    126.8092   -999.2500
  2296.7500     15.8001     76.9187    148.0115   -999.2500
  2297.0000     15.2262     77.3664    159.0992   -999.2500
  2297.2500     14.9022     77.7961    164.4286   -999.2500
  2297.5000     14.6919     78.2100    168.9138   -999.2500
  2297.7500     14.4683     78.6059    175.7771   -999.2500
  2298.0000     14.2401     78.9674 100000.0000   -999.2500
  2298.2500     14.0476     79.2720 100000.0000   -999.2500
  2298.5000     13.8556     79.5028 100000.0000   -999.2500
  2298.7500     13.6260     79.6563 100000.0000   -999.2500
  2299.0000     13.4094     79.7445 100000.0000   -999.2500
  2299.2500     13.3357     79.7848 100000.0000   -999.2500
  2299.5000     13.5122     79.7819 100000.0000   -999.2500
  2299.7500     13.8878     79.6834 100000.0000   -999.2500
  2300.0000     14.2377     79.2941 100000.0000   -999.2500
  2300.2500     14.3541     78.1507 100000.0000   -999.2500
  2300.5000     14.2545     75.4983 100000.0000   -999.2500
  2300.7500     14.0858     70.6392 100000.0000   -999.2500
  2301.0000     13.6450     63.6441 100000.0000   -999.2500
  2301.2500     12.0413     55.7612 100000.0000   -999.2500
  2301.5000      8.4843     48.8236 100000.0000   -999.2500
  2301.7500      3.7615     44.0613 100000.0000   -999.2500
  2302.0000     -0.1327     41.5136 100000.0000   -999.2500
  2302.2500     -2.1624     40.4517 100000.0000   -999.2500
  2302.5000     -2.8360     40.1070 100000.0000   -999.2500
  2302.7500     -2.9789     40.0198 100000.0000   -999.2500
  2303.0000     -2.9983     40.0026 100000.0000   -999.2500
  2303.2500   -999.2500   -999.2500 100000.0000   -999.2500
  2303.5000   -999.2500   -999.2500 100000.0000   -999.2500
  2303.7500   -999.2500   -999.2500 100000.0000   -999.2500
  2304.0000   -999.2500   -999.2500 100000.0000   -999.2500
  2304.2500   -999.2500   -999.2500 100000.0000   -999.2500
  2304.5000   -999.2500   -999.2500 100000.0000   -999.2500
