~Version Information
 VERS.                                  2.0 : CWLS LAS VERSION
 WRAP.                                   NO : WRAPING MODE
 SWARE .                 MController 2.5.0J : SOFTWARE VERSION
~Well Information
 WELL.            Rabbit Bush Federal 44-19 : WELL
 COMP.  Pioneer Natural Resources USA, Inc. : COMPANY
 FLD.                      Purgatoire River : FIELD
 LOC.              SE/SE  Sec 19 T32S  R66W : LOCATION
 DATE.                      8/24/06-8/25/06 : DATE(S) LOGGED
 SRVC.       BLANCO Geological Services LLC : SERVICE COMPANY
 STAT.                                   CO : STATE
 CNTY.                            Las Animas: COUNTY
 CTRY.                               U.S.A. : COUNTRY
 API.                       05-071-08149-00 : API NUMBER
 STRT.FT                             539.00 : START DEPTH
 STOP.FT                            2785.00 : STOP DEPTH
 STEP.FT                               1.00 : DEPTH INCREMENT
 NULL.                                -9999 : NULL VALUE
~Curve information
 DEPTH.FT                                   :
 ROP.MIN/FT                                 :
 GAS.UNITS                                  :
~ASCII Log data
       539.0     -9999.00          3.8 
       540.0        13.17          4.4 
       541.0         5.43          4.6 
       542.0         0.27          3.6 
       543.0         0.23          4.2 
       544.0         0.17          4.1 
       545.0         0.30          4.1 
       546.0         0.17          4.4 
       547.0         0.13          4.1 
       548.0         0.13          4.2 
       549.0         0.23          4.5 
       550.0         0.25          4.5 
       551.0         0.57          4.8 
       552.0         0.23          4.8 
       553.0         0.20          4.1 
       554.0         0.13          4.9 
       555.0         0.43          4.9 
       556.0         0.27          4.7 
       557.0         0.10          4.4 
       558.0         0.20          4.8 
       559.0         0.10          4.8 
       560.0         0.27          4.8 
       561.0         0.07          4.8 
       562.0         0.27          5.1 
       563.0         0.10          4.4 
       564.0         0.17          5.3 
       565.0         0.22          5.3 
       566.0         0.07          4.8 
       567.0         0.13          4.9 
       568.0         0.17          5.1 
       569.0         0.10          4.8 
       570.0         0.10          4.8 
       571.0         0.17          5.2 
       572.0         0.17          4.7 
       573.0         0.07          4.9 
       574.0         0.27          4.9 
       575.0         0.13          5.2 
       576.0         0.23          5.2 
       577.0         0.20          4.8 
       578.0         0.37          5.4 
       579.0         0.57          5.2 
       580.0         0.20          5.5 
       581.0         0.42          4.5 
       582.0         0.17          3.6 
       583.0         0.13          4.2 
       584.0         0.07          4.0 
       585.0         0.10          4.1 
       586.0         0.13          3.9 
       587.0         0.10          3.7 
       588.0         0.07          4.0 
       589.0         0.13          3.7 
       590.0         0.13          3.6 
       591.0         0.47          4.2 
       592.0         0.97          4.7 
       593.0         0.30          4.2 
       594.0         0.40          4.5 
       595.0         0.32          3.9 
       596.0         1.80          4.7 
       597.0         0.37          4.9 
       598.0         0.33          5.0 
       599.0         0.33          5.1 
       600.0         0.28          5.2 
       601.0         0.27          5.0 
       602.0         0.30          5.3 
       603.0         0.27          5.5 
       604.0         0.27          5.6 
       605.0         0.23          5.9 
       606.0         0.23          5.7 
       607.0         0.23          5.7 
       608.0         0.23          5.8 
       609.0         0.20          5.5 
       610.0         0.23          5.8 
       611.0         0.23          5.4 
       612.0         0.20          5.8 
       613.0         0.20          5.7 
       614.0         0.25          5.4 
       615.0         0.23          5.4 
       616.0         0.23          5.3 
       617.0         0.27          5.5 
       618.0         0.23          5.2 
       619.0         0.27          4.9 
       620.0         0.23          4.8 
       621.0         0.23          5.2 
       622.0         0.20          4.6 
       623.0         0.23          5.0 
       624.0         0.23          5.7 
       625.0         0.20          5.7 
       626.0         2.22          5.5 
       627.0         0.33          4.7 
       628.0         0.37          4.7 
       629.0         0.30          4.8 
       630.0         0.27          4.9 
       631.0         0.23          5.0 
       632.0         0.23          5.0 
       633.0         0.22          4.4 
       634.0         0.20          4.8 
       635.0         0.20          4.7 
       636.0         0.23          4.9 
       637.0         0.17          5.1 
       638.0         0.20          4.9 
       639.0         0.30          4.6 
       640.0         0.23          3.9 
       641.0         0.27          4.4 
       642.0         0.23          4.0 
       643.0         0.23          4.8 
       644.0         0.23          4.9 
       645.0         0.23          4.6 
       646.0         0.23          5.3 
       647.0         0.27          5.1 
       648.0         0.28          5.0 
       649.0         0.27          5.3 
       650.0         0.30          5.0 
       651.0         0.37          5.1 
       652.0         0.23          4.8 
       653.0         0.20          5.1 
       654.0         0.23          5.3 
       655.0         0.20          5.1 
       656.0         3.48          5.5 
       657.0         0.43          4.8 
       658.0         0.23          4.7 
       659.0         0.23          4.6 
       660.0         0.28          4.9 
       661.0         0.23          4.4 
       662.0         0.30          4.9 
       663.0         0.23          4.4 
       664.0         0.27          4.2 
       665.0         0.33          5.0 
       666.0         0.30          4.7 
       667.0         0.23          5.0 
       668.0         0.20          4.7 
       669.0         0.23          5.1 
       670.0         0.20          5.0 
       671.0         0.27          5.1 
       672.0         0.23          4.8 
       673.0         0.22          4.6 
       674.0         0.23          5.0 
       675.0         0.23          4.4 
       676.0         0.17          4.5 
       677.0         0.23          4.5 
       678.0         0.23          4.4 
       679.0         0.23          4.7 
       680.0         0.20          4.6 
       681.0         0.23          4.8 
       682.0         0.20          4.3 
       683.0         0.23          4.5 
       684.0         0.33          4.8 
       685.0         0.30          4.6 
       686.0         3.28          4.5 
       687.0         0.47          4.1 
       688.0         0.38          4.4 
       689.0         0.37          4.6 
       690.0         0.50          4.8 
       691.0         0.43          4.7 
       692.0         0.33          4.8 
       693.0         0.37          4.7 
       694.0         0.33          4.9 
       695.0         0.33          5.2 
       696.0         0.33          5.1 
       697.0         0.38          5.5 
       698.0         0.33          5.2 
       699.0         0.33          5.2 
       700.0         0.30          5.7 
       701.0         0.30          5.4 
       702.0         0.27          5.4 
       703.0         0.33          5.5 
       704.0         0.30          4.8 
       705.0         0.33          4.8 
       706.0         0.27          4.2 
       707.0         0.28          4.2 
       708.0         0.23          4.0 
       709.0         0.23          4.1 
       710.0         0.27          3.8 
       711.0         0.30          3.4 
       712.0         0.27          3.1 
       713.0         0.37          3.4 
       714.0         0.30          3.3 
       715.0         0.27          3.2 
       716.0         3.78          3.0 
       717.0         0.50          2.4 
       718.0         0.52          2.1 
       719.0         0.40          2.3 
       720.0         0.37          2.0 
       721.0         0.40          2.3 
       722.0         0.40          2.1 
       723.0         0.37          2.1 
       724.0         0.33          2.1 
       725.0         0.30          2.2 
       726.0         0.33          2.2 
       727.0         0.25          1.7 
       728.0         0.23          2.3 
       729.0         0.20          2.1 
       730.0         0.23          2.0 
       731.0         0.20          2.0 
       732.0         0.27          2.0 
       733.0         0.20          2.1 
       734.0         0.23          2.0 
       735.0         0.23          1.8 
       736.0         0.23          1.9 
       737.0         0.23          2.1 
       738.0         0.27          2.0 
