~Version Information
VERS.                      2.0: CWLS Log ASCII Standard - VERSION 2.0
WRAP.                       NO: One line per depth step
~Well Information Block
STRT.FT               811.0000: 
STOP.FT              2507.0000: 
STEP.FT                 0.1000: 
NULL.                -999.2500: 
COMP.          Petrogulf Corporation: COMPANY
WELL.               YWAM 7-32V: WELL
FLD.           Purgatoire River: FIELD
LOC.           2423' FNL & 2412' FEL: LOCATION
PROV.                 Colorado: PROVINCE
CNTY.               Las Animas: COUNTRY
SRVC.                Patterson: SERVICE COMPANY
DATE.          Mon Dec 15 07:18:47 2003: LOG DATE
UWI.                          : UNIQUE WELL ID
~Curve Information Block
DEPT.FT            0 000 00 00: Depth
DCAL.in                       : CDL Caliper
RHOB.g/cc                     : CDL Bulk Density
RHOC.g/cc                     : CDL Density Correction
DPOR.pu                       : CDL Density Porosity
NPOR.pu                       : Neutron Porosity
GR.GAPI                       : Gamma Ray
~Parameter Information Block
~A  Depth       DCAL        RHOB        RHOC        DPOR        NPOR         GR     
# ...
  1041.4000      8.5343      1.8852     -0.0909     46.3495     35.3218     86.8516
  1041.5000      8.5453      1.7754     -0.1112     53.0061     35.4762     79.9262
  1041.6000      8.5453      1.6681     -0.0866     59.5077     36.0113     73.6331
  1041.7000      8.5453      1.5602     -0.0926     66.0472     36.2302     65.5718
  1041.8000      8.5809      1.4672     -0.0706     71.6841     35.4377     56.8128
  1041.9000      8.5809      1.4071     -0.0081     75.3265     34.1951     47.9421
  1042.0000      8.6103      1.3724      0.0582     77.4282     33.8933     40.4247
  1042.1000      8.6103      1.3443      0.0532     79.1316     34.8044     37.2084
  1042.2000      8.6103      1.3158      0.0698     80.8593     35.5584     36.5188
  1042.3000      8.8397      1.2879      0.0291     82.5515     35.2948     34.5283
  1042.4000      8.8397      1.2692     -0.0167     83.6861     34.8342     32.1015
  1042.5000      8.9367      1.2668     -0.0089     83.8317     35.2017     31.6024
  1042.6000      8.9367      1.2734     -0.0050     83.4331     36.1300     31.7757
  1042.7000      8.9367      1.2789      0.0131     83.0975     36.5963     30.8327
  1042.8000      8.5334      1.2883     -0.0044     82.5254     36.5955     29.7952
  1042.9000      8.5334      1.3195      0.0010     80.6367     36.6094     29.7753
  1043.0000      8.4649      1.3776      0.0441     77.1149     36.4666     31.0291
  1043.1000      8.4649      1.4415      0.0672     73.2425     36.1112     33.4003
  1043.2000      8.4649      1.4852      0.0975     70.5925     35.5014     35.3426
  1043.3000      8.4422      1.5022      0.0874     69.5623     34.7094     37.0747
  1043.4000      8.4422      1.4997      0.1123     69.7147     34.3380     42.2334
  1043.5000      8.5033      1.4840      0.0737     70.6660     34.5957     50.0692
  1043.6000      8.5033      1.4641      0.0381     71.8719     34.9386     54.2477
  1043.7000      8.5033      1.4492      0.0216     72.7729     34.8035     51.8904
  1043.8000      8.5164      1.4415     -0.0057     73.2422     34.4480     47.1380
  1043.9000      8.5164      1.4394     -0.0500     73.3679     34.5503     44.2300
  1044.0000      8.5742      1.4369     -0.0259     73.5198     35.0450     42.2375
  1044.1000      8.5742      1.4248      0.0209     74.2569     35.3164     40.1916
  1044.2000      8.5742      1.4063      0.0248     75.3767     35.1517     39.1963
  1044.3000      8.5927      1.3972      0.0341     75.9269     34.8476     40.7434
  1044.4000      8.5927      1.4054      0.0442     75.4309     34.7281     46.7166
  1044.5000      8.6167      1.4273      0.0602     74.1003     34.6587     55.6349
  1044.6000      8.6167      1.4678      0.0496     71.6476     33.9573     61.8997
  1044.7000      8.6167      1.5428      0.0669     67.1002     32.4884     61.9010
  1044.8000      8.6631      1.6572      0.0931     60.1716     31.0131     58.3265
  1044.9000      8.6631      1.7951      0.1563     51.8136     29.6897     56.6308
  1045.0000      8.6811      1.9302      0.2600     43.6246     28.1121     60.1842
  1045.1000      8.6811      2.0437      0.2916     36.7470     26.1258     66.7433
  1045.2000      8.6811      2.1402      0.2637     30.8988     23.8276     71.4812
  1045.3000      8.6913      2.2303      0.2741     25.4381     21.6695     73.5745
  1045.4000      8.6913      2.3158      0.2288     20.2557     19.3537     74.0500
  1045.5000      8.5163      2.4006      0.2024     15.1145     16.4379     74.0454
  1045.6000      8.5163      2.4776      0.1774     10.4483     13.8604     75.0345
  1045.7000      8.5163      2.5211      0.1557      7.8128     12.6024     74.2188
  1045.8000      8.4568      2.5199      0.0969      7.8864     12.5884     70.6795
  1045.9000      8.4568      2.4971      0.0448      9.2675     12.9228     69.1796
  1046.0000      8.3227      2.4823      0.0234     10.1608     13.0580     69.8195
  1046.1000      8.3227      2.4809      0.0352     10.2501     13.1267     68.0508
  1046.2000      8.3227      2.4803      0.0230     10.2837     12.9939     62.6280
  1046.3000      8.3071      2.4731      0.0333     10.7234     12.5453     56.3527
  1046.4000      8.3071      2.4629      0.0323     11.3397     12.0633     53.1110
  1046.5000      8.3089      2.4568      0.0310     11.7083     11.9083     52.5618
  1046.6000      8.3089      2.4583      0.0066     11.6195     12.0857     50.8892
  1046.7000      8.3089      2.4634      0.0585     11.3084     12.3635     46.2853
  1046.8000      8.3097      2.4630      0.0326     11.3354     12.3385     40.7963
  1046.9000      8.3097      2.4532      0.0590     11.9291     11.5483     37.2261
  1047.0000      8.3092      2.4430      0.0081     12.5485     10.6016     35.8759
  1047.1000      8.3092      2.4437      0.0421     12.5022     10.3481     35.6688
  1047.2000      8.3092      2.4537      0.0382     11.8988     10.5659     34.3281
  1047.3000      8.3093      2.4643      0.0464     11.2523     11.1234     31.2519
  1047.4000      8.3093      2.4702      0.0449     10.8968     12.3448     30.4753
  1047.5000      8.3060      2.4707      0.0615     10.8661     13.6172     33.6539
  1047.6000      8.3060      2.4688      0.0416     10.9811     13.7480     36.0579
  1047.7000      8.3060      2.4670      0.0516     11.0927     13.2249     34.5144
  1047.8000      8.3076      2.4649      0.0495     11.2204     13.3654     33.6969
  1047.9000      8.3076      2.4630      0.0380     11.3314     14.0008     38.7144
  1048.0000      8.3124      2.4598      0.0390     11.5272     14.3637     45.7187
  1048.1000      8.3124      2.4527      0.0284     11.9566     14.6828     47.8864
  1048.2000      8.3124      2.4459      0.0475     12.3687     15.0515     46.0332
  1048.3000      8.3098      2.4449      0.0508     12.4317     14.9790     44.6498
  1048.4000      8.3098      2.4489      0.0727     12.1850     14.6532     45.5889
  1048.5000      8.3061      2.4536      0.0267     11.9014     14.5116     47.7893
  1048.6000      8.3061      2.4539      0.0412     11.8864     14.6142     49.2908
  1048.7000      8.3061      2.4460      0.0249     12.3653     14.8901     49.9370
  1048.8000      8.3083      2.4387     -0.0058     12.8073     14.9488     51.3157
  1048.9000      8.3083      2.4388      0.0358     12.8005     14.6223     53.9800
  1049.0000      8.3123      2.4360      0.0455     12.9677     14.5542     54.9052
  1049.1000      8.3123      2.4261      0.0117     13.5714     14.9781     52.7859
  1049.2000      8.3123      2.4188     -0.0112     14.0101     15.3331     49.2111
  1049.3000      8.3136      2.4185      0.0230     14.0331     15.2984     45.6215
  1049.4000      8.3136      2.4212      0.0057     13.8649     14.9546     43.6501
  1049.5000      8.3092      2.4280     -0.0059     13.4567     14.4624     43.7842
  1049.6000      8.3092      2.4379      0.0240     12.8560     13.9339     44.7296
  1049.7000      8.3092      2.4437      0.0269     12.5047     13.8130     44.3844
  1049.8000      8.3066      2.4426      0.0411     12.5713     14.3646     41.9413
  1049.9000      8.3066      2.4416      0.0065     12.6278     15.0936     40.4432
  1050.0000      8.3061      2.4451      0.0512     12.4163     15.5779     43.3953
  1050.1000      8.3061      2.4428      0.0521     12.5573     15.6214     49.7112
  1050.2000      8.3061      2.4339      0.0187     13.0948     15.1709     54.7985
  1050.3000      8.3039      2.4330      0.0587     13.1520     14.7213     55.5348
  1050.4000      8.3039      2.4414      0.0271     12.6422     14.4878     52.4688
  1050.5000      8.2997      2.4544      0.0354     11.8571     14.0809     48.1893
  1050.6000      8.2997      2.4774      0.0243     10.4607     13.1725     43.2173
  1050.7000      8.2997      2.5078      0.0860      8.6201     11.8971     37.1416
  1050.8000      8.3110      2.5207      0.0863      7.8356     10.7909     33.2519
  1050.9000      8.3110      2.5049      0.0432      8.7935     10.1745     35.2497
