~Version Information
VERS.                      2.0: CWLS Log ASCII Standard - VERSION 2.0
WRAP.                       NO: One line per depth step
~Well Information Block
STRT.FT               620.0000: 
STOP.FT              2663.2500: 
STEP.FT                 0.2500: 
NULL.                -999.2500: 
COMP.          Evergreen Operating Corporation: COMPANY
WELL.             Carbon 34-21: WELL
FLD.           Purgatoire River: FIELD
LOC.           56' FSL & 2304' FEL: LOCATION
PROV.                 Colorado: PROVINCE
CNTY.               Las Animas: COUNTRY
SRVC.                Patterson: SERVICE COMPANY
DATE.          Mon Sep 13 11:41:04 2004: LOG DATE
UWI.           05 071 08117 00: UNIQUE WELL ID
~Curve Information Block
DEPT.FT            0 000 00 00: Depth
DIR.Ohm-m                     : IEL Induction Resistivity
SN.Ohm-m                      : IEL Short Normal
SP.mV                         : IEL Spontaneous Potential
GR.GAPI                       : Gamma Ray
~Parameter Information Block
~A  Depth       DIR          SN          SP          GR     
# ...
  2496.0000     11.6155     20.4760     32.2469     92.3757
  2496.2500     11.4899     20.7815     32.3336     95.1225
  2496.5000     11.5209     21.1326     32.2588     98.1450
  2496.7500     11.7191     21.5523     32.0479     99.9917
  2497.0000     12.0848     22.0916     31.7229    103.1565
  2497.2500     12.6029     22.7964     31.3039    105.5108
  2497.5000     13.2429     23.6849     30.8072    108.5683
  2497.7500     13.9676     24.7466     30.2422    109.4612
  2498.0000     14.7451     25.9540     29.6111    107.9926
  2498.2500     15.5549     27.2727     28.9101    105.1429
  2498.5000     16.3819     28.6653     28.1333     99.0827
  2498.7500     17.2061     30.0926     27.2744     94.7778
  2499.0000     17.9997     31.5167     26.3279     89.6585
  2499.2500     18.7353     32.9031     25.2879     87.8063
  2499.5000     19.3998     34.2277     24.1475     86.8290
  2499.7500     20.0013     35.4888     22.9018     86.0884
  2500.0000     20.5625     36.7078     21.5532     82.8836
  2500.2500     21.1080     37.9082     20.1184     79.4375
  2500.5000     21.6502     39.0869     18.6353     74.2383
  2500.7500     22.1846     40.2001     17.1664     71.7920
  2501.0000     22.6941     41.1693     15.7983     69.9060
  2501.2500     23.1581     41.9032     14.6370     69.2361
  2501.5000     23.5572     42.3207     13.7954     67.9430
  2501.7500     23.8676     42.3596     13.3737     66.7151
  2502.0000     24.0518     41.9694     13.4336     65.1214
  2502.2500     24.0606     41.1157     13.9760     64.9406
  2502.5000     23.8462     39.8090     14.9317     66.6820
  2502.7500     23.3846     38.1345     16.1750     68.9518
  2503.0000     22.6894     36.2463     17.5558     72.7324
  2503.2500     21.8106     34.3229     18.9394     74.8375
  2503.5000     20.8222     32.5192     20.2358     77.6245
  2503.7500     19.8102     30.9425     21.4076     80.2201
  2504.0000     18.8625     29.6512     22.4574     86.7682
  2504.2500     18.0554     28.6530     23.4042     92.7921
  2504.5000     17.4336     27.9024     24.2628    102.3449
  2504.7500     16.9986     27.3105     25.0347    107.6181
  2505.0000     16.7149     26.7788     25.7120    112.1493
  2505.2500     16.5359     26.2494     26.2880    112.6257
  2505.5000     16.4306     25.7443     26.7676    110.5106
  2505.7500     16.3922     25.3674     27.1715    108.4961
  2506.0000     16.4213     25.2572     27.5303    106.9201
  2506.2500     16.5040     25.5079     27.8721    107.7433
  2506.5000     16.6031     26.1009     28.2073    112.0124
  2506.7500     16.6732     26.8942     28.5173    116.1048
  2507.0000     16.6869     27.6862     28.7530    121.4871
  2507.2500     16.6487     28.3153     28.8443    123.0180
  2507.5000     16.5859     28.7285     28.7185    121.2090
  2507.7500     16.5270     28.9806     28.3205    117.9226
  2508.0000     16.4906     29.1803     27.6286    112.1332
  2508.2500     16.4862     29.4257     26.6595    108.8971
  2508.5000     16.5214     29.7632     25.4634    105.9975
  2508.7500     16.6029     30.1801     24.1139    105.3514
  2509.0000     16.7330     30.6213     22.6995    105.4931
  2509.2500     16.9065     31.0179     21.3199    105.5798
  2509.5000     17.1135     31.3146     20.0887    104.4626
  2509.7500     17.3438     31.4844     19.1340    102.4387
  2510.0000     17.5861     31.5242     18.5921     97.3273
  2510.2500     17.8205     31.4293     18.5874     92.9610
  2510.5000     18.0089     31.1597     19.2019     87.2302
  2510.7500     18.0935     30.6297     20.4440     86.0516
  2511.0000     18.0079     29.7485     22.2306     91.1899
  2511.2500     17.7021     28.4979     24.3928     99.1792
  2511.5000     17.1687     26.9854     26.7054    114.2910
  2511.7500     16.4524     25.4258     28.9313    123.2349
  2512.0000     15.6331     24.0642     30.8656    130.7200
  2512.2500     14.7942     23.1014     32.3658    131.1353
  2512.5000     13.9980     22.6563     33.3620    126.8468
  2512.7500     13.2804     22.7546     33.8495    122.6324
  2513.0000     12.6584     23.3248     33.8721    117.0926
  2513.2500     12.1406     24.2046     33.5045    114.8587
  2513.5000     11.7340     25.1767     32.8394    114.1002
  2513.7500     11.4468     26.0334     31.9814    114.8761
  2514.0000     11.2884     26.6382     31.0430    116.0783
  2514.2500     11.2679     26.9435     30.1387    115.6918
  2514.5000     11.3907     26.9579     29.3748    112.9416
  2514.7500     11.6560     26.6970     28.8331    110.7588
  2515.0000     12.0527     26.1625     28.5562    108.9109
  2515.2500     12.5579     25.3696     28.5396    108.4032
  2515.5000     13.1372     24.3962     28.7370    106.3591
  2515.7500     13.7488     23.4054     29.0766    103.0211
  2516.0000     14.3500     22.6146     29.4804     95.2441
  2516.2500     14.9016     22.2306     29.8773     89.3458
  2516.5000     15.3666     22.3824     30.2069     81.9975
  2516.7500     15.7045     23.0743     30.4157     79.4911
  2517.0000     15.8704     24.1712     30.4563     80.6256
  2517.2500     15.8260     25.4308     30.2957     84.2094
  2517.5000     15.5653     26.5888     29.9327     91.0792
  2517.7500     15.1351     27.4537     29.4183     94.9270
  2518.0000     14.6279     27.9518     28.8649     98.6104
  2518.2500     14.1451     28.1027     28.4365    100.2541
  2518.5000     13.7602     27.9585     28.3149    102.4902
  2518.7500     13.5067     27.5448     28.6501    103.5929
  2519.0000     13.3829     26.8327     29.5134    103.5377
  2519.2500     13.3599     25.7570     30.8712    102.1611
  2519.5000     13.3819     24.2814     32.5922     98.8713
  2519.7500     13.3725     22.4658     34.4858     96.3833
  2520.0000     13.2599     20.4876     36.3555     92.5861
  2520.2500     13.0119     18.6052     38.0452     90.3058
  2520.5000     12.6473     17.0910     39.4638     88.5098
  2520.7500     12.2130     16.1604     40.5839     89.1820
  2521.0000     11.7511     15.9061     41.4231     93.3131
  2521.2500     11.2836     16.2590     42.0202     97.5773
  2521.5000     10.8164     17.0102     42.4171    104.6516
  2521.7500     10.3526     17.8928     42.6496    109.0832
  2522.0000      9.9014     18.6746     42.7468    114.8358
  2522.2500      9.4803     19.2114     42.7350    118.1191
  2522.5000      9.1096     19.4508     42.6427    122.3139
  2522.7500      8.8066     19.4072     42.5063    124.4765
  2523.0000      8.5814     19.1325     42.3723    126.2576
  2523.2500      8.4378     18.6883     42.2946    126.4288
  2523.5000      8.3750     18.1172     42.3241    125.9996
  2523.7500      8.3901     17.4282     42.4927    125.6897
  2524.0000      8.4787     16.6153     42.7964    124.4709
  2524.2500      8.6332     15.7038     43.1882    122.2213
  2524.5000      8.8419     14.7886     43.5875    115.9959
  2524.7500      9.0902     14.0127     43.9042    110.3866
  2525.0000      9.3652     13.4922     44.0720    101.2105
  2525.2500      9.6592     13.2675     44.0742     95.4009
  2525.5000      9.9698     13.3364     43.9526     88.3901
  2525.7500     10.2976     13.7101     43.7956     85.5076
  2526.0000     10.6417     14.4021     43.7106     84.4481
  2526.2500     10.9946     15.3601     43.7934     85.5191
  2526.5000     11.3354     16.4285     44.1039     87.7696
  2526.7500     11.6274     17.3990     44.6570     88.4132
  2527.0000     11.8284     18.1132     45.4264     87.3176
  2527.2500     11.9128     18.5288     46.3569     86.0166
  2527.5000     11.8888     18.6965     47.3794     86.1135
  2527.7500     11.7928     18.6891     48.4235     89.1259
  2528.0000     11.6668     18.5595     49.4267     98.3861
  2528.2500     11.5392     18.3489     50.3391    106.1528
  2528.5000     11.4209     18.1040     51.1256    116.3102
  2528.7500     11.3144     17.8699     51.7646    120.5532
  2529.0000     11.2220     17.6748     52.2468    122.8822
  2529.2500     11.1489     17.5340     52.5729    122.6629
