~Version Information
 VERS.                                  2.0 : CWLS LAS VERSION
 WRAP.                                   NO : WRAPING MODE
 SWARE .                 MController 2.5.0J : SOFTWARE VERSION
~Well Information
 WELL.                      McDaniel 09-34V : WELL
 COMP.                Petrogulf Corporation : COMPANY
 FLD.                      Purgatoire River : FIELD
 LOC.                SW/SE Sec 09 T33S R67W : LOCATION
 DATE.                             09/27/05 : DATE(S) LOGGED
 SRVC.       BLANCO Geological Services LLC : SERVICE COMPANY
 STAT.                                   CO : STATE
 CNTY.                           Las Animas : COUNTY
 CTRY.                                  USA : COUNTRY
 API.                       05-071-08333-00 : API NUMBER
 STRT.FT                               0.00 : START DEPTH
 STOP.FT                             2433.0 : STOP DEPTH 775.00
 STEP.FT                               1.00 : DEPTH INCREMENT
 NULL.                                -9999 : NULL VALUE
~Curve information
 DEPTH.FT                                   :
 ROP.MIN/FT                                 :
 GAS.UNITS                                  :
~ASCII Log data
         0.0     -9999.00          4.1 
         1.0        28.02          3.6 
         2.0         0.15          3.9 
         3.0         0.10          4.0 
         4.0         0.83          3.5 
         5.0         1.07          3.6 
         6.0         0.47          4.2 
         7.0         0.28          3.7 
         8.0        15.92          2.6 
         9.0         0.33          2.5 
        10.0         0.37          2.6 
        11.0         0.58          2.6 
        12.0         0.40          2.8 
        13.0         0.47          2.4 
        14.0         0.23          2.3 
        15.0         0.30          2.6 
        16.0         0.33          2.4 
        17.0         0.37          2.5 
        18.0         0.40          2.6 
        19.0         0.48          2.4 
        20.0         0.67          2.2 
        21.0         0.50          3.9 
        22.0         0.77          4.2 
        23.0         0.47          4.5 
        24.0         0.40          5.0 
        25.0         0.48          4.5 
        26.0         0.40          4.6 
        27.0         0.47          4.7 
        28.0         0.37          5.1 
        29.0         0.37          4.8 
        30.0         0.30          4.9 
        31.0         0.27          5.4 
        32.0         0.23          5.3 
        33.0         0.20          5.4 
        34.0         0.23          5.6 
        35.0         0.18          5.7 
        36.0         0.30          5.9 
        37.0         0.23          5.7 
        38.0         0.23          5.8 
        39.0         0.23          6.5 
        40.0         0.23          5.7 
        41.0         0.23          5.9 
        42.0         0.23          6.0 
        43.0         0.23          6.9 
        44.0         0.23          5.9 
        45.0         0.27          6.0 
        46.0         0.23          6.2 
        47.0         0.23          6.4 
        48.0         0.32          6.5 
        49.0         0.17          6.4 
        50.0         0.23          6.4 
        51.0         0.23          6.6 
        52.0         0.27          6.9 
        53.0         0.27          6.9 
        54.0         0.33          7.1 
        55.0         0.40          7.4 
        56.0         1.28          7.0 
        57.0         0.37          7.8 
        58.0         0.33          7.7 
        59.0         0.30          7.6 
        60.0         0.30          7.5 
        61.0         0.27          7.6 
        62.0         0.27          7.5 
        63.0         0.23          7.4 
        64.0         0.27          7.3 
        65.0         0.30          7.6 
        66.0         0.30          7.8 
        67.0         0.27          7.4 
        68.0         0.32          7.4 
        69.0         0.30          7.4 
        70.0         0.30          7.8 
        71.0         0.27          7.8 
        72.0         0.30          7.9 
        73.0         0.50          7.9 
        74.0         0.40          8.0 
        75.0         0.33          7.9 
        76.0         0.30          8.8 
        77.0         0.32          8.3 
        78.0         0.30          8.2 
        79.0         0.30          8.7 
        80.0         0.27          8.5 
        81.0         0.30          8.7 
        82.0         0.30          8.2 
        83.0         0.30          8.3 
        84.0         0.33          8.5 
        85.0         0.30          8.3 
        86.0         1.02          8.8 
        87.0         0.30          8.9 
        88.0         0.33          9.2 
        89.0         0.27          8.9 
        90.0         0.30          9.0 
        91.0         0.27          8.9 
        92.0         0.30          8.6 
        93.0         0.27          8.9 
        94.0         0.30          9.4 
        95.0         0.20          9.2 
        96.0         0.30          9.0 
        97.0         0.30          9.6 
        98.0         0.25          9.1 
        99.0         0.23          9.0 
       100.0         0.20          9.6 
       101.0         0.23          9.0 
       102.0         0.23          9.3 
       103.0         0.20          9.6 
       104.0         0.27          9.5 
       105.0         0.27          9.3 
       106.0         0.23          9.2 
       107.0         0.27          9.2 
       108.0         0.27          9.5 
       109.0         0.27         10.0 
       110.0         0.27          9.4 
       111.0         0.25          9.8 
       112.0         0.27          9.4 
       113.0         0.23          9.4 
       114.0         0.27          9.9 
       115.0         0.23          9.7 
       116.0         1.23          9.5 
       117.0         0.30          9.5 
       118.0         0.23          9.6 
       119.0         0.27          9.5 
       120.0         0.28          9.6 
       121.0         0.27          9.4 
       122.0         0.23         52.3 
       123.0         0.27        154.6 
       124.0         0.27        105.4 
       125.0         0.27         48.1 
       126.0         0.27         23.7 
       127.0         0.27         13.7 
       128.0         0.27          9.6 
       129.0         0.27          8.2 
       130.0         0.27          7.5 
       131.0         0.27          7.9 
       132.0         0.25          7.1 
       133.0         0.30          7.2 
       134.0         0.27          7.8 
       135.0         0.30          7.9 
       136.0         0.30          8.1 
       137.0         0.33          8.5 
       138.0         0.27          9.2 
       139.0         0.30          8.9 
       140.0         0.30          8.8 
       141.0         0.30          9.4 
       142.0         0.33          9.4 
       143.0         0.28          9.5 
       144.0         0.37          9.3 
       145.0         0.30          9.2 
       146.0         1.43          9.9 
       147.0         0.23         10.1 
       148.0         0.30          9.9 
       149.0         0.27         10.1 
       150.0         0.20         10.6 
       151.0         0.25         10.0 
       152.0         0.23         10.2 
       153.0         0.23          9.9 
       154.0         0.27          9.9 
       155.0         0.20         10.0 
       156.0         0.23         10.6 
       157.0         0.23         10.1 
       158.0         0.23          9.8 
       159.0         0.27         10.3 
       160.0         0.27         10.1 
       161.0         0.23         10.4 
       162.0         0.27          9.9 
       163.0         0.23         10.1 
       164.0         0.28         10.0 
       165.0         0.23         10.1 
       166.0         0.27         10.1 
       167.0         0.27         10.7 
       168.0         0.30         10.0 
       169.0         0.27          9.9 
       170.0         0.30         10.6 
       171.0         0.30         10.7 
       172.0         0.30         10.4 
       173.0         0.30         10.4 
       174.0         0.32         10.2 
       175.0         0.27         10.7 
       176.0         1.17         10.5 
       177.0         0.40         10.5 
       178.0         0.30         11.2 
       179.0         0.27         11.4 
       180.0         0.27         10.9 
       181.0         0.32         11.5 
       182.0         0.33         10.9 
       183.0         0.23         11.4 
       184.0         0.23         11.7 
       185.0         0.27         11.5 
       186.0         0.27         10.8 
       187.0         0.30         10.5 
       188.0         0.27         11.1 
       189.0         0.27         10.7 
       190.0         0.23         10.4 
       191.0         0.23         10.8 
       192.0         0.28         10.8 
       193.0         0.23         11.2 
       194.0         0.27         11.0 
       195.0         0.30         11.7 
       196.0         0.33         10.7 
       197.0         0.27         11.1 
       198.0         0.27         10.6 
       199.0         0.27         10.5 
