~Version Information
VERS.                      2.0: CWLS Log ASCII Standard - VERSION 2.0
WRAP.                       NO: One line per depth step
~Well Information Block
STRT.FT               970.5000: 
STOP.FT              2720.0000: 
STEP.FT                 0.1000: 
NULL.                -999.2500: 
COMP.          Petrogulf Corporation: COMPANY
WELL.             Burson 8-31V: WELL
FLD.           Purgatorie River: FIELD
LOC.           1113' FNL & 2152' FEL: LOCATION
CNTY.               Las Animas: COUNTY
SRVC.                         : SERVICE COMPANY
DATE.          Wed Nov 12 14:59:14 2003: LOG DATE
UWI.                          : UNIQUE WELL ID
STAT.                 Colorado: STATE
~Curve Information Block
DEPT.FT            0 000 00 00: Depth
DCAL.in                       : CDL Caliper
DPOR.pu                       : CDL Density Porosity
NEU.NAPI                      : Neutron
NPOR.pu                       : Neutron Porosity
RHOB.g/cc                     : CDL Bulk Density
RHOC.g/cc                     : CDL Density Correction
GR.GAPI                       : Gamma Ray
~Parameter Information Block
~A  Depth       DCAL        DPOR        NEU         NPOR        RHOB        RHOC         GR     
# ...
  2591.7000      7.8853      4.5146    197.9978     28.4786      2.5755      0.1207    132.1441
  2591.8000      7.8850      3.6937    200.1768     28.2578      2.5891      0.0787    128.2331
  2591.9000      7.8850      3.9441    203.1408     27.9578      2.5849      0.1080    128.2331
  2592.0000      7.8862      4.3024    203.5457     27.9169      2.5790      0.0595    128.2626
  2592.1000      7.8862      4.0692    199.4328     28.3331      2.5829      0.1256    128.2626
  2592.2000      7.8862      3.2965    195.0569     28.7773      2.5956      0.1413    128.2626
  2592.3000      7.8774      2.5336    192.0596     29.0822      2.6082      0.1030    100.3003
  2592.4000      7.8774      2.1605    189.0635     29.3875      2.6144      0.0824    100.3003
  2592.5000      7.8771      1.7423    186.7075     29.6279      2.6213      0.0828    115.9781
  2592.6000      7.8771      1.3626    187.5566     29.5412      2.6275      0.1780    115.9781
  2592.7000      7.8771      2.3571    192.9050     28.9961      2.6111      0.1626    115.9781
  2592.8000      7.8843      4.3256    198.8697     28.3902      2.5786      0.0451    107.4198
  2592.9000      7.8843      5.3332    199.3363     28.3429      2.5620      0.0836    107.4198
  2593.0000      7.8848      5.7007    197.9972     28.4787      2.5559      0.1202     93.6123
  2593.1000      7.8848      6.7328    202.1824     28.0547      2.5389      0.1147     93.6123
  2593.2000      7.8848      7.5483    206.6079     27.6077      2.5255      0.0135     93.6123
  2593.3000      7.8873      6.7462    204.2978     27.8409      2.5387      0.0517     97.1334
  2593.4000      7.8873      5.2228    202.0519     28.0679      2.5638      0.0883     97.1334
  2593.5000      7.8859      4.6883    205.4244     27.7271      2.5726      0.0739     68.9205
  2593.6000      7.8859      5.3934    208.8606     27.3807      2.5610      0.1139     68.9205
  2593.7000      7.8859      6.4830    210.0867     27.2573      2.5430      0.0989     68.9205
  2593.8000      7.8719      7.2240    209.4836     27.3180      2.5308      0.1193     74.0260
  2593.9000      7.8719      7.3358    205.1289     27.7570      2.5290      0.0959     74.0260
  2594.0000      7.8154      5.9914    199.4498     28.3314      2.5511      0.0356     73.3304
  2594.1000      7.8154      2.7077    199.3580     28.3407      2.6053      0.1081     73.3304
  2594.2000      7.8154     -1.1982    204.9828     27.7717      2.6698      0.1307     73.3304
  2594.3000      7.7978     -3.5616    206.4492     27.6237      2.7088      0.2052     74.6871
  2594.4000      7.7978     -2.9277    202.2504     28.0478      2.6983      0.1458     74.6871
  2594.5000      7.7952     -0.0103    202.2184     28.0511      2.6502      0.0525     80.7532
  2594.6000      7.7952      3.2233    206.1867     27.6502      2.5968      0.0708     80.7532
  2594.7000      7.7952      5.4572    205.6274     27.7066      2.5600      0.0309     80.7532
  2594.8000      7.7939      6.3740    200.6375     28.2111      2.5448      0.0398     93.3393
  2594.9000      7.7939      6.8659    196.0118     28.6802      2.5367      0.0272     93.3393
  2595.0000      7.7992      7.9529    196.7371     28.6066      2.5188      0.0154     94.4911
  2595.1000      7.7992      9.7131    205.0983     27.7600      2.4897      0.0103     94.4911
  2595.2000      7.7992     11.3766    216.2883     26.6350      2.4623     -0.0073     94.4911
  2595.3000      7.8144     11.5440    224.8257     25.7836      2.4595     -0.0385    113.5443
  2595.4000      7.8144      9.6919    229.2823     25.3416      2.4901      0.0749    113.5443
  2595.5000      7.8642      6.9033    233.4912     24.9260      2.5361      0.1146    133.6071
  2595.6000      7.8642      4.4088    242.3797     24.0539      2.5773      0.1782    133.6071
  2595.7000      7.8642      2.7725    253.1167     23.0116      2.6043      0.1631    133.6071
  2595.8000      7.8430      1.4050    261.1295     22.2423      2.6268      0.1740    133.9257
  2595.9000      7.8430     -0.1003    267.4196     21.6439      2.6517      0.2305    133.9257
  2596.0000      7.8792     -0.6746    270.2596     21.3753      2.6611      0.1856    131.0605
  2596.1000      7.8792      0.1720    268.5043     21.5412      2.6472      0.1906    131.0605
  2596.2000      7.8792      1.5463    267.7693     21.6108      2.6245      0.1307    131.0605
  2596.3000      7.8801      2.6300    269.7459     21.4238      2.6066      0.1118    113.1375
  2596.4000      7.8801      3.5827    271.3087     21.2764      2.5909      0.1264    113.1375
  2596.5000      7.8777      4.8564    270.6179     21.3415      2.5699      0.0862    116.9092
  2596.6000      7.8777      5.5909    267.7840     21.6094      2.5578      0.0074    116.9092
  2596.7000      7.8777      4.6553    264.7038     21.9017      2.5732      0.0912    116.9092
  2596.8000      7.8698      2.7643    263.8620     21.9818      2.6044      0.0574     99.8879
  2596.9000      7.8698      1.6113    266.9202     21.6912      2.6234      0.1367     99.8879
  2597.0000      7.8631      2.9355    273.1150     21.1064      2.6016      0.1231     99.4832
  2597.1000      7.8631      6.3794    276.2108     20.8160      2.5447      0.0534     99.4832
  2597.2000      7.8631      8.6816    271.0813     21.2978      2.5068     -0.0111     99.4832
  2597.3000      7.8907      8.0203    261.5822     22.1991      2.5177      0.0687    103.3381
  2597.4000      7.8907      6.1805    255.5674     22.7755      2.5480      0.0598    103.3381
  2597.5000      7.8721      4.8800    255.8913     22.7444      2.5695      0.0696     97.4662
  2597.6000      7.8721      4.0158    258.4604     22.4977      2.5837      0.1071     97.4662
  2597.7000      7.8721      3.0672    256.7257     22.6642      2.5994      0.0397     97.4662
  2597.8000      7.8749      2.4644    251.4312     23.1744      2.6093      0.0877    116.8459
  2597.9000      7.8749      3.2116    249.3752     23.3734      2.5970      0.0593    116.8459
  2598.0000      7.8698      4.8825    249.6066     23.3509      2.5694      0.0895    108.1615
  2598.1000      7.8698      5.9307    246.2805     23.6738      2.5521      0.0534    108.1615
  2598.2000      7.8698      5.6924    243.5341     23.9412      2.5561      0.0934    108.1615
  2598.3000      7.8959      4.9804    246.0122     23.6998      2.5678      0.0920    109.0669
  2598.4000      7.8959      4.7371    248.3052     23.4771      2.5718      0.1125    109.0669
  2598.5000      7.8856      5.0067    249.7469     23.3373      2.5674      0.0636    110.1353
  2598.6000      7.8856      5.2525    253.4401     22.9804      2.5633      0.0768    110.1353
  2598.7000      7.8856      5.2285    257.4305     22.5965      2.5637      0.0832    110.1353
  2598.8000      7.8874      5.1368    259.9060     22.3593      2.5652      0.0663    113.0181
  2598.9000      7.8874      5.2469    261.8613     22.1724      2.5634      0.0660    113.0181
  2599.0000      7.8894      5.6401    263.7422     21.9932      2.5569      0.0808    114.3525
  2599.1000      7.8894      5.7985    263.0821     22.0560      2.5543      0.0766    114.3525
  2599.2000      7.8894      5.1194    260.4517     22.3071      2.5655      0.0993    114.3525
  2599.3000      7.8935      4.3548    260.8574     22.2683      2.5781      0.0759    118.6109
  2599.4000      7.8935      4.6538    263.9691     21.9716      2.5732      0.0955    118.6109
  2599.5000      7.8964      5.5102    266.5052     21.7306      2.5591      0.0691    100.5466
  2599.6000      7.8964      6.0506    268.9971     21.4946      2.5502      0.0739    100.5466
  2599.7000      7.8964      6.5324    272.7729     21.1386      2.5422      0.0691    100.5466
  2599.8000      7.8943      7.0383    278.0175     20.6472      2.5339      0.0481    108.6476
  2599.9000      7.8943      7.4891    282.3872     20.2407      2.5264      0.0958    108.6476
  2600.0000      7.8973      8.2773    283.9730     20.0938      2.5134      0.0688     87.1629
