~Version Information
 VERS.                                  2.0 : CWLS LAS VERSION
 WRAP.                                   NO : WRAPING MODE
 SWARE .                 MController 2.5.0N : SOFTWARE VERSION
~Well Information
 WELL.                          Bobsy 34-11 : WELL
 COMP.    Pioneer Natural Resources USA Inc : COMPANY
 FLD.                      Purgatoire River : FIELD
 LOC.                SW/SE Sec 11 T32S R66W : LOCATION
 DATE.                               4/7/05 : DATE(S) LOGGED
 SRVC.       Blanco Geological Services LLC : SERVICE COMPANY
 STAT.                                   CO : STATE
 CNTY.                           Las Animas : COUNTY
 CTRY.                                  USA : COUNTRY
 API.                       05-071-08330-00 : API NUMBER
 STRT.FT                             842.00 : START DEPTH
 STOP.FT                            2345.00 : STOP DEPTH
 STEP.FT                               1.00 : DEPTH INCREMENT
 NULL.                                -9999 : NULL VALUE
~Curve information
 DEPTH.FT                                   :
 ROP.MIN/FT                                 :
 GAS.UNITS                                  :
~ASCII Log data
# ...
      1442.0         0.17        124.6 
      1443.0         0.20        112.3 
      1444.0         0.27         99.8 
      1445.0         0.33         87.4 
      1446.0         0.30         77.0 
      1447.0         0.30         72.9 
      1448.0         0.33         73.8 
      1449.0         0.37         73.3 
      1450.0         0.32         71.4 
      1451.0         0.27         68.5 
      1452.0         0.20         64.7 
      1453.0         0.20         62.5 
      1454.0         0.17         61.1 
      1455.0         0.20         59.9 
      1456.0         0.20         58.2 
      1457.0         0.20         55.5 
      1458.0         0.27         56.0 
      1459.0         0.27         59.2 
      1460.0         0.20         58.4 
      1461.0         0.20         55.5 
      1462.0         0.20         53.1 
      1463.0         0.23         51.1 
      1464.0         0.20         49.3 
      1465.0         0.28         47.9 
      1466.0         1.57         65.0 
      1467.0         0.33         93.7 
      1468.0         0.33        128.3 
      1469.0         0.30        145.8 
      1470.0         0.20        146.0 
      1471.0         0.17        140.9 
      1472.0         0.13        130.7 
      1473.0         0.20        120.4 
      1474.0         0.22        104.8 
      1475.0         0.30         90.8 
      1476.0         0.23         77.9 
      1477.0         0.27         72.1 
      1478.0         0.30         68.5 
      1479.0         0.33         72.2 
      1480.0         0.27         74.8 
      1481.0         0.27         74.8 
      1482.0         0.20         73.0 
      1483.0         0.23         70.8 
      1484.0         0.23         68.7 
      1485.0         0.20         65.9 
      1486.0         0.23         63.3 
      1487.0         0.25         59.5 
      1488.0         0.23         57.3 
      1489.0         0.27         56.9 
      1490.0         0.23         58.6 
      1491.0         0.30         57.7 
      1492.0         0.23         53.7 
      1493.0         0.23         51.8 
      1494.0         0.23         51.6 
      1495.0         0.37         50.1 
      1496.0         2.15        135.4 
      1497.0         0.57        180.5 
      1498.0         0.50        225.0 
      1499.0         0.33        239.7 
      1500.0         0.30        239.4 
      1501.0         0.30        220.3 
      1502.0         0.27        183.9 
      1503.0         0.28        149.8 
      1504.0         0.27        120.9 
      1505.0         0.30        101.5 
      1506.0         0.30         86.6 
      1507.0         0.27         77.8 
      1508.0         0.27         74.1 
      1509.0         0.23         72.3 
      1510.0         0.27         71.4 
      1511.0         0.20         70.2 
      1512.0         0.23         67.9 
      1513.0         0.27         64.7 
      1514.0         0.23         61.3 
      1515.0         0.23         58.7 
      1516.0         0.22         57.1 
      1517.0         0.23         55.5 
      1518.0         0.23         54.6 
      1519.0         0.20         53.1 
      1520.0         0.27         56.4 
      1521.0         0.23         56.4 
      1522.0         0.20         54.6 
      1523.0         0.17         53.3 
      1524.0         0.13         51.7 
      1525.0         0.23         51.3 
      1526.0         2.25         75.9 
      1527.0         0.43        112.0 
      1528.0         0.37        137.5 
      1529.0         0.27        148.5 
      1530.0         0.23        148.8 
      1531.0         0.23        144.2 
      1532.0         0.23        132.7 
      1533.0         0.23        119.4 
      1534.0         0.27        106.2 
      1535.0         0.32         92.6 
      1536.0         0.27         81.2 
      1537.0         0.20         76.2 
      1538.0         0.10         74.4 
      1539.0         0.10         74.0 
      1540.0         0.30         75.2 
      1541.0         0.33         81.1 
      1542.0         0.30         89.7 
      1543.0         0.20         93.9 
      1544.0         0.27         95.9 
      1545.0         0.37         95.4 
      1546.0         0.27         90.5 
      1547.0         0.23         85.6 
      1548.0         0.28         81.9 
      1549.0         0.27         77.6 
      1550.0         0.23         78.1 
      1551.0         0.20         77.9 
      1552.0         0.27         74.6 
      1553.0         0.27         68.9 
      1554.0         0.23         65.5 
      1555.0         0.23         64.0 
      1556.0         1.98         81.0 
      1557.0         0.43        129.7 
      1558.0         0.33        171.8 
      1559.0         0.33        190.7 
      1560.0         0.33        190.9 
      1561.0         0.37        175.7 
      1562.0         0.30        145.0 
      1563.0         0.37        125.3 
      1564.0         0.33        108.4 
      1565.0         0.32         96.0 
      1566.0         0.30         90.8 
      1567.0         0.27         89.3 
      1568.0         0.27         88.7 
      1569.0         0.23         88.1 
      1570.0         0.23         86.6 
      1571.0         0.40         84.6 
      1572.0         0.27         78.9 
      1573.0         0.33         75.8 
      1574.0         0.17         72.5 
      1575.0         0.17         71.1 
      1576.0         0.20         70.1 
      1577.0         0.13         69.3 
      1578.0         0.25         74.3 
      1579.0         0.27         73.6 
      1580.0         0.27         68.9 
      1581.0         0.20         65.9 
      1582.0         0.20         65.0 
      1583.0         0.13         64.3 
      1584.0         0.17         63.7 
      1585.0         0.23         63.1 
      1586.0         1.88         99.2 
      1587.0         0.50        176.8 
      1588.0         0.40        240.9 
      1589.0         0.33        270.8 
      1590.0         0.33        271.5 
      1591.0         0.33        258.7 
      1592.0         0.30        219.5 
      1593.0         0.30        183.3 
      1594.0         0.27        153.6 
      1595.0         0.30        135.2 
      1596.0         0.25        118.4 
      1597.0         0.27        109.5 
      1598.0         0.20        105.9 
      1599.0         0.13        104.8 
      1600.0         0.23        103.7 
      1601.0         0.13        102.2 
      1602.0         0.17        102.5 
      1603.0         0.30        109.6 
      1604.0         0.30        124.8 
      1605.0         0.27        137.9 
      1606.0         0.27        143.6 
      1607.0         0.37        144.3 
      1608.0         0.23        143.4 
      1609.0         0.20        139.4 
      1610.0         0.28        135.6 
      1611.0         0.40        137.1 
      1612.0         0.40        131.0 
      1613.0         0.37        116.1 
      1614.0         0.47        107.7 
      1615.0         0.33        100.3 
      1616.0         2.18        256.6 
      1617.0         0.37        313.9 
      1618.0         0.37        343.1 
      1619.0         0.30        343.7 
      1620.0         0.20        324.6 
      1621.0         0.13        294.0 
      1622.0         0.27        270.9 
      1623.0         0.23        228.3 
      1624.0         0.30        195.2 
      1625.0         0.33        164.9 
      1626.0         0.28        145.4 
      1627.0         0.27        134.0 
      1628.0         0.27        130.5 
      1629.0         0.33        129.9 
      1630.0         0.27        126.6 
      1631.0         0.33        120.6 
      1632.0         0.20        114.9 
      1633.0         0.23        111.8 
      1634.0         0.23        107.1 
      1635.0         0.23        103.0 
      1636.0         0.20        100.3 
      1637.0         0.23         97.7 
      1638.0         0.17         96.4 
      1639.0         0.18         94.4 
      1640.0         0.23         97.9 
      1641.0         0.23         99.5 
