~Version Information
VERS.                      2.0: CWLS Log ASCII Standard - VERSION 2.0
WRAP.                       NO: One line per depth step
~Well Information Block
STRT.FT               952.6000: 
STOP.FT              2511.5000: 
STEP.FT                 0.1000: 
NULL.                -999.2500: 
COMP.          Petrogulf Corporation: COMPANY
WELL.             Royal 8-33 V: WELL
FLD.           Purgatoire River: FIELD
LOC.           2365' FSL & 2336' FEL: LOCATION
PROV.                 Colorado: PROVINCE
CNTY.               Las Animas: COUNTRY
SRVC.                Patterson: SERVICE COMPANY
DATE.          Fri Dec 05 09:15:49 2003: LOG DATE
UWI.                          : UNIQUE WELL ID
~Curve Information Block
DEPT.FT            0 000 00 00: Depth
DCAL.in                       : CDL Caliper
RHOB.g/cc                     : CDL Bulk Density
RHOC.g/cc                     : CDL Density Correction
DPOR.pu                       : CDL Density Porosity
GR.GAPI                       : Gamma Ray
NPOR.pu                       : Neutron Porosity
~Parameter Information Block
~A  Depth       DCAL        RHOB        RHOC        DPOR         GR         NPOR    
# ...
  2498.2000      7.9361      2.6406      0.2108      0.5724   -999.2500   -999.2500
  2498.3000      7.9251      2.6450      0.1803      0.3010   -999.2500   -999.2500
  2498.4000      7.9251      2.6384      0.2479      0.7002   -999.2500   -999.2500
  2498.5000      7.9421      2.6038      0.1799      2.8013   -999.2500   -999.2500
  2498.6000      7.9421      2.5498      0.1332      6.0750   -999.2500   -999.2500
  2498.7000      7.9421      2.4987      0.0815      9.1688   -999.2500   -999.2500
  2498.8000      7.9265      2.4529      0.0570     11.9463   -999.2500   -999.2500
  2498.9000      7.9265      2.4068      0.0471     14.7398   -999.2500   -999.2500
  2499.0000      7.8998      2.3820     -0.0274     16.2444   -999.2500   -999.2500
  2499.1000      7.8998      2.4001      0.0569     15.1468   -999.2500   -999.2500
  2499.2000      7.8998      2.4347      0.0901     13.0499   -999.2500   -999.2500
  2499.3000      7.9126      2.4548      0.0777     11.8323   -999.2500   -999.2500
  2499.4000      7.9126      2.4756      0.0718     10.5692   -999.2500   -999.2500
  2499.5000      8.0067      2.5292      0.1279      7.3223   -999.2500   -999.2500
  2499.6000      8.0067      2.6093      0.3094      2.4674   -999.2500   -999.2500
  2499.7000      8.0067      2.6784      0.3959     -1.7231   -999.2500   -999.2500
  2499.8000      8.0444      2.7204      0.3787     -4.2663   -999.2500   -999.2500
  2499.9000      8.0444      2.7317      0.3977     -4.9505   -999.2500   -999.2500
  2500.0000      7.9084      2.7013      0.2888     -3.1063   -999.2500   -999.2500
  2500.1000      7.9084      2.6452      0.1496      0.2891   -999.2500   -999.2500
  2500.2000      7.9084      2.5976      0.1442      3.1765   -999.2500   -999.2500
  2500.3000      7.9071      2.5713      0.0520      4.7703   -999.2500   -999.2500
  2500.4000      7.9071      2.5592      0.0930      5.5022   -999.2500   -999.2500
  2500.5000      7.9392      2.5474      0.0736      6.2190   -999.2500   -999.2500
  2500.6000      7.9392      2.5363      0.0528      6.8907   -999.2500   -999.2500
  2500.7000      7.9392      2.5336      0.0924      7.0542   -999.2500   -999.2500
  2500.8000      7.9825      2.5364      0.0884      6.8842   -999.2500   -999.2500
  2500.9000      7.9825      2.5444      0.1293      6.4000   -999.2500   -999.2500
  2501.0000      7.9693      2.5629      0.1432      5.2788   -999.2500   -999.2500
  2501.1000      7.9693      2.5902      0.1360      3.6254   -999.2500   -999.2500
  2501.2000      7.9693      2.6173      0.1810      1.9831   -999.2500   -999.2500
  2501.3000      7.9341      2.6322      0.2209      1.0759   -999.2500   -999.2500
  2501.4000      7.9341      2.6261      0.1763      1.4513   -999.2500   -999.2500
  2501.5000      7.9087      2.6092      0.1867      2.4755   -999.2500   -999.2500
  2501.6000      7.9087      2.6003      0.1464      3.0118   -999.2500   -999.2500
  2501.7000      7.9087      2.6022      0.1120      2.8952   -999.2500   -999.2500
  2501.8000      7.9370      2.6070      0.1124      2.6047   -999.2500   -999.2500
  2501.9000      7.9370      2.6116      0.1131      2.3249   -999.2500   -999.2500
  2502.0000      7.9587      2.6139      0.1405      2.1853   -999.2500   -999.2500
  2502.1000      7.9587      2.6065      0.1296      2.6352   -999.2500   -999.2500
  2502.2000      7.9587      2.5872      0.1416      3.8041   -999.2500   -999.2500
  2502.3000      7.9316      2.5613      0.1254      5.3758   -999.2500   -999.2500
  2502.4000      7.9316      2.5450      0.0363      6.3666   -999.2500   -999.2500
  2502.5000      7.9232      2.5446      0.1311      6.3902   -999.2500   -999.2500
  2502.6000      7.9232      2.5437      0.0759      6.4444   -999.2500   -999.2500
  2502.7000      7.9232      2.5426      0.0752      6.5095   -999.2500   -999.2500
  2502.8000      7.9144      2.5539      0.1499      5.8218   -999.2500   -999.2500
  2502.9000      7.9144      2.5716      0.1393      4.7520   -999.2500   -999.2500
  2503.0000      7.9450      2.5830      0.1262      4.0593   -999.2500   -999.2500
  2503.1000      7.9450      2.5823      0.1349      4.1011   -999.2500   -999.2500
  2503.2000      7.9450      2.5777      0.1005      4.3835   -999.2500   -999.2500
  2503.3000      7.9425      2.5786      0.1250      4.3244   -999.2500   -999.2500
  2503.4000      7.9425      2.5804      0.0613      4.2208   -999.2500   -999.2500
  2503.5000      7.9785      2.5800      0.0950      4.2401   -999.2500   -999.2500
  2503.6000      7.9785      2.5794      0.0682      4.2794   -999.2500   -999.2500
  2503.7000      7.9785      2.5797      0.0858      4.2616   -999.2500   -999.2500
  2503.8000      7.9795      2.5772      0.1231      4.4144   -999.2500   -999.2500
  2503.9000      7.9795      2.5647      0.1320      5.1672   -999.2500   -999.2500
  2504.0000      7.9411      2.5415      0.1295      6.5764   -999.2500   -999.2500
  2504.1000      7.9411      2.5188      0.0621      7.9544   -999.2500   -999.2500
  2504.2000      7.9411      2.5145      0.0841      8.2140   -999.2500   -999.2500
  2504.3000      7.9235      2.5280      0.1020      7.3947   -999.2500   -999.2500
  2504.4000      7.9235      2.5334      0.1495      7.0653   -999.2500   -999.2500
  2504.5000      7.9346      2.5179      0.0708      8.0066   -999.2500   -999.2500
  2504.6000      7.9346      2.5037      0.0569      8.8653   -999.2500   -999.2500
  2504.7000      7.9346      2.5002      0.0864      9.0804   -999.2500   -999.2500
  2504.8000      7.9554      2.4927      0.1148      9.5362   -999.2500   -999.2500
  2504.9000      7.9554      2.4892      0.0545      9.7460   -999.2500   -999.2500
  2505.0000      7.9652      2.5091      0.1222      8.5377   -999.2500   -999.2500
  2505.1000      7.9652      2.5390      0.2459      6.7296   -999.2500   -999.2500
  2505.2000      7.9652      2.5622      0.1824      5.3230   -999.2500   -999.2500
  2505.3000      7.9587      2.5921      0.1895      3.5103   -999.2500   -999.2500
  2505.4000      7.9587      2.6259      0.2802      1.4608   -999.2500   -999.2500
  2505.5000      7.9358      2.6318      0.3080      1.1004   -999.2500   -999.2500
  2505.6000      7.9358      2.6014      0.1549      2.9445   -999.2500   -999.2500
  2505.7000      7.9358      2.5639      0.1390      5.2204   -999.2500   -999.2500
  2505.8000      7.9386      2.5439      0.1097      6.4291   -999.2500   -999.2500
  2505.9000      7.9386      2.5424      0.1207      6.5232   -999.2500   -999.2500
  2506.0000      7.9111      2.5536      0.1524      5.8439   -999.2500   -999.2500
  2506.1000      7.9111      2.5766      0.1590      4.4510   -999.2500   -999.2500
  2506.2000      7.9111      2.6083      0.1322      2.5263   -999.2500   -999.2500
  2506.3000      7.8951      2.6439      0.1575      0.3670   -999.2500   -999.2500
  2506.4000      7.8951      2.6784      0.1797     -1.7217   -999.2500   -999.2500
  2506.5000      7.8872      2.7015      0.1987     -3.1235   -999.2500   -999.2500
  2506.6000      7.8872      2.6985      0.2322     -2.9395   -999.2500   -999.2500
  2506.7000      7.8872      2.6633      0.0952     -0.8085   -999.2500   -999.2500
  2506.8000      7.8515      2.6148      0.0963      2.1332   -999.2500   -999.2500
  2506.9000      7.8515      2.5760      0.0896      4.4872   -999.2500   -999.2500
  2507.0000      7.8768      2.5570      0.0701      5.6352   -999.2500   -999.2500
  2507.1000      7.8768      2.5593      0.1065      5.4947   -999.2500   -999.2500
  2507.2000      7.8768      2.5735      0.1253      4.6363   -999.2500   -999.2500
  2507.3000      7.9069      2.5801      0.0755      4.2344   -999.2500   -999.2500
  2507.4000      7.9069      2.5650      0.0491      5.1524   -999.2500   -999.2500
  2507.5000      7.9150      2.5353      0.0793      6.9507   -999.2500   -999.2500
  2507.6000      7.9150      2.5139      0.0815      8.2491   -999.2500   -999.2500
  2507.7000      7.9150      2.5219      0.0733      7.7607   -999.2500   -999.2500
