~Version Information
VERS.                      2.0: CWLS Log ASCII Standard - VERSION 2.0
WRAP.                       NO: One line per depth step
~Well Information Block
STRT.FT               742.5000: 
STOP.FT              2463.5000: 
STEP.FT                 0.2500: 
NULL.                -999.2500: 
COMP.          Petrogulf Corporation: COMPANY
WELL.           Montoya 12-44V: WELL
FLD.           Purgatorie River: FIELD
LOC.           698' FSL & 599' FEL: LOCATION
CNTY.               Las Animas: COUNTY
SRVC.                         : SERVICE COMPANY
DATE.          Sun Aug 08 06:43:17 2004: LOG DATE
UWI.           05 071 08094 00: UNIQUE WELL ID
STAT.                 Colorado: STATE
~Curve Information Block
DEPT.FT            0 000 00 00: Depth
SN.Ohm-m                      : IEL Short Normal
SP.mV                         : IEL Spontaneous Potential
DIR.Ohm-m                     : IEL Induction Resistivity
GR.GAPI                       : Gamma Ray
~Parameter Information Block
~A  Depth        SN          SP         DIR          GR     
# ...
  1312.0000     32.1801    -30.0162     29.2539     81.0077
  1312.2500     31.9433    -29.8323     28.6588     80.1316
  1312.5000     31.6268    -29.3985     28.1246     79.1023
  1312.7500     31.2661    -28.8659     27.7559     78.7776
  1313.0000     30.8850    -28.3736     27.6459     78.9802
  1313.2500     30.4818    -28.0149     27.8979     79.5919
  1313.5000     30.0349    -27.8158     28.5818     81.2600
  1313.7500     29.5297    -27.7352     29.6607     82.8221
  1314.0000     28.9891    -27.6967     30.9127     85.5159
  1314.2500     28.4791    -27.6206     31.9140     87.2838
  1314.5000     28.0841    -27.4681     32.1792     89.3721
  1314.7500     27.8709    -27.2511     31.4719     89.9755
  1315.0000     27.8603    -27.0236     30.0287     89.0567
  1315.2500     28.0189    -26.8466     28.4079     87.2743
  1315.5000     28.2703    -26.7555     27.1369     83.9313
  1315.7500     28.5194    -26.7407     26.5036     82.1107
  1316.0000     28.6839    -26.7631     26.5457     80.8242
  1316.2500     28.7197    -26.7767     27.1000     80.7814
  1316.5000     28.6296    -26.7684     27.8647     80.8427
  1316.7500     28.4501    -26.7700     28.5036     80.2811
  1317.0000     28.2265    -26.8513     28.7884     78.3390
  1317.2500     27.9905    -27.0871     28.6807     76.9809
  1317.5000     27.7545    -27.5215     28.2947     76.4701
  1317.7500     27.5230    -28.1366     27.8130     77.5459
  1318.0000     27.3120    -28.8557     27.4255     80.3715
  1318.2500     27.1582    -29.5667     27.2801     82.1111
  1318.5000     27.1076    -30.1620     27.4342     83.7522
  1318.7500     27.1897    -30.5808     27.8236     84.5051
  1319.0000     27.3948    -30.8302     28.2682     85.7880
  1319.2500     27.6728    -30.9797     28.5333     86.6870
  1319.5000     27.9559    -31.1329     28.4352     87.6099
  1319.7500     28.1888    -31.3848     27.9591     87.8118
  1320.0000     28.3453    -31.7768     27.3018     87.4295
  1320.2500     28.4216    -32.2794     26.7655     86.5636
  1320.5000     28.4200    -32.7945     26.5844     84.1593
  1320.7500     28.3433    -33.1897     26.7990     82.0481
  1321.0000     28.2031    -33.3415     27.2467     79.0602
  1321.2500     28.0259    -33.1858     27.6705     77.7524
  1321.5000     27.8432    -32.7390     27.9137     77.3559
  1321.7500     27.6719    -32.1018     28.0303     78.1371
  1322.0000     27.5101    -31.4335     28.1826     80.3162
  1322.2500     27.3501    -30.8989     28.4278     81.8173
  1322.5000     27.1965    -30.6228     28.6074     83.1176
  1322.7500     27.0687    -30.6416     28.4578     83.2370
  1323.0000     26.9890    -30.8858     27.8830     83.0163
  1323.2500     26.9692    -31.1914     27.1024     83.0750
  1323.5000     27.0054    -31.3385     26.4766     83.6334
  1323.7500     27.0817    -31.1084     26.2444     84.1214
  1324.0000     27.1760    -30.3482     26.4228     84.6334
  1324.2500     27.2663    -29.0121     26.8805     84.6484
  1324.5000     27.3371    -27.1943     27.4836     84.0785
  1324.7500     27.3853    -25.1076     28.2016     83.4716
  1325.0000     27.4187    -23.0542     29.0823     82.7617
  1325.2500     27.4481    -21.3574     30.1255     82.6035
  1325.5000     27.4789    -20.2970     31.1947     82.6948
  1325.7500     27.5076    -20.0467     32.0531     82.8180
  1326.0000     27.5226    -20.6385     32.5176     83.0669
  1326.2500     27.5080    -21.9543     32.5662     83.3571
  1326.5000     27.4497    -23.7560     32.2903     83.9870
  1326.7500     27.3469    -25.7451     31.7757     84.3889
  1327.0000     27.2179    -27.6351     31.0777     84.6246
  1327.2500     27.0941    -29.2180     30.3027     84.4926
  1327.5000     27.0024    -30.4044     29.6636     84.2564
  1327.7500     26.9526    -31.2278     29.4130     84.3854
  1328.0000     26.9394    -31.8068     29.6983     84.9683
  1328.2500     26.9554    -32.2870     30.4204     85.1406
  1328.5000     26.9979    -32.7787     31.1745     84.2883
  1328.7500     27.0653    -33.3135     31.4148     83.0783
  1329.0000     27.1509    -33.8430     30.8770     81.2842
  1329.2500     27.2449    -34.2616     29.8325     80.5512
  1329.5000     27.3449    -34.4623     28.8091     80.0799
  1329.7500     27.4592    -34.3875     28.1576     79.9299
  1330.0000     27.5974    -34.0573     27.9048     79.7477
  1330.2500     27.7581    -33.5712     27.8613     79.6323
  1330.5000     27.9293    -33.0701     27.8329     79.3283
  1330.7500     28.1034    -32.6905     27.7789     79.0078
  1331.0000     28.2904    -32.5135     27.7975     78.6910
  1331.2500     28.5123    -32.5478     27.9657     78.8762
  1331.5000     28.7824    -32.7312     28.1947     79.7047
  1331.7500     29.0877    -32.9642     28.2384     80.1748
  1332.0000     29.3919    -33.1529     27.8834     79.9169
  1332.2500     29.6564    -33.2388     27.1776     79.0233
  1332.5000     29.8634    -33.2086     26.4295     77.2687
  1332.7500     30.0235    -33.0852     25.9797     76.2994
  1333.0000     30.1661    -32.9021     25.9906     75.4082
  1333.2500     30.3228    -32.6766     26.3988     75.0210
  1333.5000     30.5164    -32.4060     26.9981     74.4426
  1333.7500     30.7589    -32.0719     27.5947     74.0623
  1334.0000     31.0559    -31.6608     28.1364     73.7921
  1334.2500     31.4078    -31.1815     28.7150     74.0133
  1334.5000     31.8070    -30.6776     29.4708     75.0089
  1334.7500     32.2339    -30.2170     30.5074     75.8502
  1335.0000     32.6603    -29.8778     31.8366     76.5927
  1335.2500     33.0628    -29.7293     33.3371     76.3960
  1335.5000     33.4402    -29.8211     34.7374     75.0769
  1335.7500     33.8213    -30.1725     35.6854     73.7858
  1336.0000     34.2482    -30.7714     35.9183     71.6946
  1336.2500     34.7379    -31.5767     35.4138     70.4099
  1336.5000     35.2432    -32.5173     34.3509     69.0899
  1336.7500     35.6386    -33.5037     32.9060     68.8669
  1337.0000     35.7429    -34.4370     31.0955     69.5047
  1337.2500     35.3643    -35.2314     28.8329     70.2036
  1337.5000     34.3488    -35.8328     26.1404     70.7663
  1337.7500     32.6214    -36.2226     23.2726     70.5547
  1338.0000     30.2177    -36.4164     20.5825     69.8225
  1338.2500     27.2987    -36.4422     18.3120     69.7609
  1338.5000     24.1339    -36.3131     16.5160     71.6496
  1338.7500     21.0416    -36.0147     15.1208     74.7344
  1339.0000     18.3056    -35.5008     14.0109     81.7746
  1339.2500     16.1034    -34.7198     13.0913     87.0744
  1339.5000     14.4801    -33.6366     12.3097     93.9334
  1339.7500     13.3710    -32.2659     11.6468     97.3201
  1340.0000     12.6541    -30.6813     11.0909    101.2221
  1340.2500     12.2008    -29.0110     10.6251    103.4611
  1340.5000     11.9051    -27.4112     10.2319    106.3015
  1340.7500     11.6944    -26.0336      9.9075    107.7900
  1341.0000     11.5317    -24.9966      9.6663    109.9373
  1341.2500     11.4128    -24.3658      9.5307    111.7947
  1341.5000     11.3582    -24.1514      9.5153    115.4630
  1341.7500     11.3982    -24.3137      9.6207    118.0971
  1342.0000     11.5575    -24.7809      9.8404    121.1848
  1342.2500     11.8469    -25.4638     10.1716    122.1768
  1342.5000     12.2597    -26.2708     10.6188    122.0295
  1342.7500     12.7716    -27.1179     11.1819    121.1384
  1343.0000     13.3453    -27.9396     11.8365    118.9926
  1343.2500     13.9437    -28.6940     12.5237    117.0806
  1343.5000     14.5492    -29.3688     13.1677    113.8252
  1343.7500     15.1744    -29.9823     13.7180    111.9354
  1344.0000     15.8489    -30.5811     14.1818    110.6487
  1344.2500     16.5871    -31.2251     14.6154    111.0884
  1344.5000     17.3628    -31.9754     15.0810    112.8807
  1344.7500     18.1138    -32.8694     15.6062    113.8589
  1345.0000     18.7716    -33.9076     16.1695    113.7446
  1345.2500     19.2895    -35.0511     16.7139    112.6243
