~Version Information
VERS.                      2.0: CWLS Log ASCII Standard - VERSION 2.0
WRAP.                       NO: One line per depth step
~Well Information Block
STRT.FT                -7.5000: 
STOP.FT               978.5000: 
STEP.FT                 0.2500: 
NULL.                -999.2500: 
COMP.          Pioneer Natural Resources: COMPANY
WELL.          Piggyback 33-25: WELL
FLD.           Purgatoire River: FIELD
LOC.           1600' FSL & 1800' FEL: LOCATION
PROV.                 Colorado: PROVINCE
CNTY.               Las Animas: COUNTRY
SRVC.                Patterson: SERVICE COMPANY
DATE.          Mon May 09 09:22:28 2005: LOG DATE
UWI.           05 071 08233 00: UNIQUE WELL ID
~Curve Information Block
DEPT.FT            0 000 00 00: Depth
CCL.                          : Casing Collar Locator
TT3.usec                      : CBL 3' Travel Time
AMP3.mV                       : CBL 3' Amplitude
GR.GAPI                       : Gamma Ray
~Parameter Information Block
~A  Depth       CCL         TT3         AMP3         GR     
# ...
   729.5000      0.0000    737.1138      6.6025     90.6461
   729.7500      0.0000    737.0817      6.5856     87.1666
   730.0000      0.0000    736.7766      6.6170     82.0029
   730.2500      0.0000    738.5893      6.7132     77.3374
   730.5000      0.0000    742.9536      6.8457     74.8966
   730.7500      0.0000    747.7001      6.9491     74.8136
   731.0000      0.0000    749.6762      6.9639     75.4024
   731.2500      0.0000    746.9061      6.8781     74.4276
   731.5000      0.0000    739.5953      6.7339     71.0306
   731.7500      0.0000    729.7165      6.5948     66.3254
   732.0000      0.0000    719.6775      6.5026     62.1916
   732.2500      0.0000    711.4078      6.4609     59.8453
   732.5000      0.0000    706.8033      6.4550     59.3735
   732.7500      0.0000    707.7773      6.4763     60.1129
   733.0000      0.0000    714.2994      6.5233     61.3829
   733.2500      0.0000    722.7435      6.5873     62.9165
   733.5000      0.0000    727.6757      6.6468     64.5014
   733.7500      0.0000    725.7026      6.6798     65.5122
   734.0000      0.0000    717.5370      6.6801     65.2708
   734.2500      0.0000    707.2473      6.6614     63.7390
   734.5000      0.0000    700.0011      6.6486     61.4608
   734.7500      0.0000    699.4115      6.6677     58.9938
   735.0000      0.0000    705.7362      6.7398     56.7170
   735.2500      0.0000    716.0994      6.8701     55.0513
   735.5000      0.0000    726.0468      7.0334     54.6086
   735.7500      0.0000    731.0021      7.1785     56.0590
   736.0000      0.0000    727.8953      7.2622     59.6719
   736.2500      0.0000    717.2259      7.2806     64.8412
   736.5000      0.0000    703.3728      7.2664     70.2912
   736.7500      0.0000    691.8477      7.2582     75.0031
   737.0000      0.0000    686.3245      7.2770     78.8434
   737.2500      0.0000    688.1455      7.3251     82.2202
   737.5000      0.0000    697.0723      7.3971     85.3905
   737.7500      0.0000    711.0062      7.4901     88.2877
   738.0000      0.0000    725.6484      7.6035     90.8033
   738.2500      0.0000    736.5740      7.7301     92.8062
   738.5000      0.0000    742.6278      7.8485     93.8342
   738.7500      0.0000    746.4676      7.9262     93.3241
   739.0000      0.0000    751.1752      7.9367     91.5156
   739.2500      0.0000    757.1248      7.8805     89.6543
   739.5000      0.0000    762.5425      7.7880     88.7484
   739.7500      0.0000    765.9932      7.6987     88.4800
   740.0000      0.0000    767.4877      7.6376     87.8774
   740.2500      0.0000    767.8238      7.6114     86.7929
   740.5000      0.0000    767.7014      7.6122     86.2458
   740.7500      0.0000    767.4410      7.6195     87.4375
   741.0000      0.0000    767.1164      7.6055     90.6184
   741.2500      0.0000    766.7272      7.5514     94.7273
   741.5000      0.0000    766.2995      7.4624     97.9723
   741.7500      0.0000    765.8981      7.3665     98.8922
   742.0000      0.0000    765.5980      7.2978     97.0927
   742.2500      0.0000    765.4446      7.2782     93.2617
   742.5000      0.0000    765.4611      7.3111     88.7071
   742.7500      0.0000    765.6937      7.3831     84.6819
   743.0000      0.0000    766.2277      7.4698     81.8353
   743.2500      0.0000    767.0743      7.5428     80.2611
   743.5000      0.0000    767.8911      7.5819     80.0425
   743.7500      0.0000    767.7855      7.5849     81.3894
   744.0000      0.0000    765.5432      7.5649     84.0326
   744.2500      0.0000    760.2560      7.5344     86.8186
   744.5000      0.0000    751.9462      7.4934     88.3094
   744.7500      0.0000    741.7838      7.4340     87.8415
   745.0000      0.0000    731.5267      7.3560     85.9471
   745.2500      0.0000    722.5253      7.2723     83.8584
   745.5000      0.0000    715.6839      7.1967     82.6873
   745.7500      0.0000    712.3817      7.1302     82.8360
   746.0000      0.0000    714.0529      7.0644     83.7536
   746.2500      0.0000    720.1828      6.9981     84.2831
   746.5000      0.0000    727.8646      6.9425     83.6727
   746.7500      0.0000    734.0450      6.9089     82.2877
   747.0000      0.0000    737.6093      6.8953     81.0556
   747.2500      0.0000    739.1837      6.8930     80.4546
   747.5000      0.0000    739.7766      6.8971     80.3681
   747.7500      0.0000    739.9901      6.9048     80.5090
   748.0000      0.0000    740.0298      6.9080     80.5723
   748.2500      0.0000    739.9384      6.8970     80.2883
   748.5000      0.0000    739.6880      6.8704     79.6494
   748.7500      0.0000    739.1440      6.8363     78.9083
   749.0000      0.0000    738.1261      6.8017     78.3133
   749.2500      0.0000    736.7965      6.7687     78.1310
   749.5000      0.0000    736.0461      6.7423     78.8803
   749.7500      0.0000    737.0513      6.7324     81.0005
   750.0000      0.0000    740.0542      6.7398     84.0763
   750.2500      0.0000    743.9481      6.7495     86.7709
   750.5000      0.0000    747.4972      6.7462     87.7316
   750.7500      0.0000    750.5133      6.7309     86.3804
   751.0000      0.0000    753.3344      6.7131     83.0041
   751.2500      0.0000    755.6066      6.6943     78.5167
   751.5000      0.0000    756.1793      6.6633     74.0509
   751.7500      0.0000    754.1088      6.6082     70.3950
   752.0000      0.0000    749.6186      6.5301     67.8141
   752.2500      0.0000    744.3287      6.4503     66.4194
   752.5000      0.0000    740.4030      6.3992     66.4257
   752.7500      0.0000    738.7837      6.3891     67.8832
   753.0000      0.0000    737.9158      6.3909     70.3178
   753.2500      0.0000    734.3299      6.3445     72.7758
   753.5000      0.0000    725.0516      6.2142     74.2622
   753.7500      0.0000    710.6332      6.0493     74.2668
   754.0000      0.0000    696.7233      5.9681     72.9718
   754.2500      0.0000    691.8446      6.0348     70.9038
   754.5000      0.0000    702.1118      6.1688     68.4296
   754.7500      0.0000    727.3055      6.2292     65.7037
   755.0000      0.0000    761.5883      6.1724     62.9878
   755.2500      0.0000    796.7780      6.0669     60.8035
   755.5000     -2.0000    824.7154      5.9790     59.6173
   755.7500     -2.0000    839.1748      5.9131     59.3703
   756.0000      2.0000    839.8235      5.8579     59.5136
   756.2500      0.0000    833.9664      5.8477     59.6547
   756.5000      0.0000    829.3809      5.9582     59.9553
   756.7500      0.0000    824.4307      6.2329     60.5835
   757.0000      0.0000    810.3547      6.6036     61.0457
   757.2500      0.0000    784.6130      6.9150     60.5152
   757.5000      0.0000    756.4014      7.0670     58.6492
   757.7500      0.0000    737.5181      7.1026     55.7468
   758.0000      0.0000    732.5611      7.1253     52.3240
   758.2500      0.0000    738.3130      7.1734     48.8140
   758.5000      0.0000    748.2047      7.2094     45.5414
   758.7500      0.0000    756.5407      7.1912     42.7886
   759.0000      0.0000    760.8783      7.1178     40.8633
   759.2500      0.0000    761.5494      7.0200     40.1302
   759.5000      0.0000    759.5438      6.9301     40.9234
   759.7500      0.0000    755.5743      6.8619     43.2581
   760.0000      0.0000    751.0551      6.8132     46.4539
   760.2500      0.0000    748.3632      6.7807     49.2266
   760.5000      0.0000    749.1261      6.7651     50.5175
   760.7500      0.0000    752.5733      6.7664     50.2575
   761.0000      0.0000    756.3594      6.7796     49.1958
   761.2500      0.0000    758.9291      6.7977     48.1669
   761.5000      0.0000    760.5226      6.8174     47.6763
   761.7500      0.0000    762.1364      6.8334     47.8438
   762.0000      0.0000    764.2680      6.8243     48.3602
   762.2500      0.0000    766.7826      6.7590     48.6290
   762.5000      0.0000    769.3146      6.6308     48.2459
   762.7500      0.0000    771.3636      6.4793     47.3225
