~Version Information
VERS.                      2.0: CWLS Log ASCII Standard - VERSION 2.0
WRAP.                       NO: One line per depth step
~Well Information Block
STRT.FT               890.0000: 
STOP.FT              1589.0000: 
STEP.FT                 0.2500: 
NULL.                -999.2500: 
COMP.          Evergreen Operating Corporation: COMPANY
WELL.            Tomahawk 44-9: WELL
FLD.           Purgatorie River: FIELD
LOC.           434' FSL & 491' FEL: LOCATION
PROV.                 Colorado: PROVINCE
CNTY.               Las Animas: COUNTRY
SRVC.                         : SERVICE COMPANY
DATE.          Sat Sep 11 23:05:26 2004: LOG DATE
UWI.           05 071 08133 00: UNIQUE WELL ID
~Curve Information Block
DEPT.FT            0 000 00 00: Depth
LTEN.lb                       : Surface Line Tension
SN.Ohm-m                      : IEL Short Normal
SP.mV                         : IEL Spontaneous Potential
DIR.Ohm-m                     : IEL Induction Resistivity
GR.GAPI                       : Gamma Ray
~Parameter Information Block
~A  Depth       LTEN         SN          SP         DIR          GR     
# ...
  1282.0000    782.9472     15.8291    -55.1725     15.4270     93.2212
  1282.2500    781.3676     16.7615    -55.9262     15.7048     91.5749
  1282.5000    780.1709     17.6732    -56.2534     15.9215     91.2745
  1282.7500    780.8167     18.5034    -56.2052     16.0959     91.6046
  1283.0000    783.0482     19.1820    -55.9259     16.2283     91.2407
  1283.2500    785.3058     19.6332    -55.5922     16.3304     90.2550
  1283.5000    786.1246     19.7896    -55.3499     16.4394     88.7893
  1283.7500    785.3111     19.6153    -55.2752     16.6013     88.6488
  1284.0000    784.0486     19.1300    -55.3674     16.8346     90.2037
  1284.2500    783.8745     18.4211    -55.5692     17.1023     92.0496
  1284.5000    785.2845     17.6269    -55.7961     17.3188     94.9707
  1284.7500    786.9880     16.8913    -55.9650     17.3914     96.6446
  1285.0000    786.7764     16.3093    -56.0160     17.2780     98.8454
  1285.2500    783.7124     15.8954    -55.9221     17.0175    100.3535
  1285.5000    779.4608     15.5946    -55.6950     16.7031    102.7436
  1285.7500    776.9766     15.3263    -55.3826     16.4191    104.1875
  1286.0000    777.8277     15.0282    -55.0588     16.1885    105.8158
  1286.2500    780.9604     14.6771    -54.8130     15.9639    106.6667
  1286.5000    783.8750     14.2797    -54.7205     15.6626    107.9799
  1286.7500    784.6746     13.8507    -54.8264     15.2212    108.7968
  1287.0000    783.2034     13.3943    -55.1353     14.6349    109.1777
  1287.2500    780.7314     12.8998    -55.6036     13.9542    108.4670
  1287.5000    778.6922     12.3514    -56.1639     13.2540    106.0023
  1287.7500    777.5361     11.7455    -56.7473     12.6008    103.9192
  1288.0000    776.6798     11.1076    -57.3165     12.0328    101.3520
  1288.2500    775.3851     10.4911    -57.8836     11.5579    100.6254
  1288.5000    773.6597      9.9599    -58.5132     11.1614    101.4770
  1288.7500    772.4573      9.5623    -59.2991     10.8186    103.1700
  1289.0000    773.0872      9.3142    -60.3289     10.5022    106.4592
  1289.2500    776.3581      9.1983    -61.6491     10.1858    108.4303
  1289.5000    781.9798      9.1723    -63.2434      9.8477    110.1022
  1289.7500    788.3326      9.1832    -65.0303      9.4806    110.2189
  1290.0000    792.9040      9.1837    -66.8851      9.1000    109.4032
  1290.2500    793.7289      9.1474    -68.6681      8.7415    108.6657
  1290.5000    790.9678      9.0738    -70.2554      8.4459    107.6715
  1290.7500    786.8189      8.9773    -71.5581      8.2421    107.0266
  1291.0000    783.6484      8.8704    -72.5271      8.1396    105.9887
  1291.2500    782.4150      8.7563    -73.1576      8.1315    105.3370
  1291.5000    782.7603      8.6351    -73.4751      8.2052    104.5641
  1291.7500    783.8504      8.5170    -73.5367      8.3528    104.1456
  1292.0000    784.8835      8.4291    -73.4130      8.5744    103.3306
  1292.2500    785.2678      8.4188    -73.1807      8.8710    102.3561
  1292.5000    784.8512      8.5573    -72.9004      9.2324     99.9153
  1292.7500    784.1013      8.9440    -72.6088      9.6334     97.6845
  1293.0000    783.9033      9.6981    -72.3083     10.0448     93.5095
  1293.2500    785.0591     10.9314    -71.9820     10.4550     90.0179
  1293.5000    787.8641     12.7059    -71.6029     10.8808     83.5718
  1293.7500    791.8069     14.9901    -71.1585     11.3598     78.7351
  1294.0000    795.5611     17.6272    -70.6701     11.9272     71.4789
  1294.2500    797.7953     20.3336    -70.1965     12.5886     67.1220
  1294.5000    798.2199     22.7475    -69.8208     13.2999     62.3158
  1294.7500    797.4318     24.5240    -69.6323     13.9731     60.9969
  1295.0000    795.7843     25.4462    -69.6965     14.5246     62.7595
  1295.2500    792.9860     25.4952    -70.0248     14.9336     66.4707
  1295.5000    788.8862     24.8425    -70.5681     15.2462     75.2187
  1295.7500    784.2242     23.7723    -71.2101     15.5123     82.5405
  1296.0000    780.4102     22.5823    -71.7896     15.7265     94.0861
  1296.2500    778.5142     21.5115    -72.1417     15.8282    100.9202
  1296.5000    778.4417     20.7111    -72.1374     15.7608    108.1901
  1296.7500    779.2441     20.2517    -71.7281     15.5291    110.8068
  1297.0000    780.2789     20.1445    -70.9613     15.2033    112.2683
  1297.2500    781.7926     20.3660    -69.9767     14.8775    112.4951
  1297.5000    784.3582     20.8761    -68.9658     14.6316    113.1161
  1297.7500    788.0062     21.6237    -68.1217     14.5199    114.1202
  1298.0000    792.0428     22.5445    -67.5810     14.5707    116.2118
  1298.2500    795.4888     23.5617    -67.3969     14.7857    117.4521
  1298.5000    797.4510     24.5947    -67.5236     15.1367    118.3862
  1298.7500    797.2381     25.5727    -67.8421     15.5692    118.3949
  1299.0000    794.6893     26.4411    -68.1902     16.0138    117.8270
  1299.2500    790.5142     27.1605    -68.4063     16.4044    117.1273
  1299.5000    785.7922     27.7062    -68.3504     16.6976    115.5607
  1299.7500    781.0940     28.0727    -67.9324     16.8913    114.4113
  1300.0000    776.6480     28.2788    -67.1173     17.0331    113.5052
  1300.2500    773.1608     28.3627    -65.9332     17.2136    113.8282
  1300.5000    771.5793     28.3717    -64.4715     17.5388    115.0853
  1300.7500    772.0038     28.3568    -62.8791     18.0951    115.5701
  1301.0000    773.4020     28.3839    -61.3340     18.9187    114.9189
  1301.2500    774.5662     28.5520    -60.0179     19.9763    113.8263
  1301.5000    775.3478     28.9973    -59.0669     21.1709    111.9443
  1301.7500    777.0329     29.8690    -58.5511     22.3738    110.3948
  1302.0000    781.2222     31.2855    -58.4489     23.4741    106.4779
  1302.2500    787.8464     33.2867    -58.6683     24.4080    102.3547
  1302.5000    794.3876     35.7982    -59.0734     25.1545     94.5811
  1302.7500    797.6516     38.6206    -59.5383     25.7236     89.3508
  1303.0000    796.5764     41.4576    -59.9787     26.1670     82.9785
  1303.2500    792.9891     43.9840    -60.3701     26.5903     80.1484
  1303.5000    789.5583     45.9299    -60.7415     27.1224     78.2205
  1303.7500    787.5596     47.1327    -61.1485     27.8351     78.3839
  1304.0000    786.7325     47.5352    -61.6368     28.6596     80.0281
  1304.2500    786.4896     47.1539    -62.2179     29.3675     81.1694
  1304.5000    786.6049     46.0603    -62.8523     29.6835     81.2554
  1304.7500    787.0209     44.3923    -63.4713     29.4851     79.7207
  1305.0000    787.6262     42.3647    -63.9977     28.8902     75.8146
  1305.2500    788.4252     40.2424    -64.3827     28.1321     73.5766
  1305.5000    789.5809     38.2744    -64.6207     27.3759     73.7602
  1305.7500    791.0483     36.6256    -64.7638     26.6550     77.2280
  1306.0000    792.3309     35.3495    -64.8949     25.9229     86.3812
  1306.2500    792.7660     34.4112    -65.1056     25.1305     93.1723
  1306.5000    791.9766     33.7377    -65.4570     24.2689    101.0438
  1306.7500    790.0502     33.2614    -65.9650     23.3624    103.8521
  1307.0000    787.3982     32.9387    -66.5836     22.4408    104.6917
  1307.2500    784.5970     32.7469    -67.2327     21.5261    103.6059
  1307.5000    782.4284     32.6700    -67.8115     20.6428    100.8424
  1307.7500    781.7775     32.6824    -68.2379     19.8347     99.3374
  1308.0000    783.0081     32.7323    -68.4662     19.1636     99.3666
  1308.2500    785.4644     32.7378    -68.4943     18.6865    101.1551
  1308.5000    788.0900     32.6020    -68.3614     18.4304    105.3110
  1308.7500    790.5818     32.2457    -68.1279     18.3839    108.0901
  1309.0000    793.4192     31.6357    -67.8609     18.5007    111.1687
  1309.2500    796.5302     30.7911    -67.6142     18.7083    112.2682
  1309.5000    798.4260     29.7693    -67.4176     18.9163    112.4989
  1309.7500    797.2133     28.6518    -67.2793     19.0396    111.7880
