~Version Information
VERS.                      2.0: CWLS Log ASCII Standard - VERSION 2.0
WRAP.                       NO: One line per depth step
~Well Information Block
STRT.FT                -7.2500: 
STOP.FT               868.2500: 
STEP.FT                 0.2500: 
NULL.                -999.2500: 
COMP.          Pioneer Natural Resources: COMPANY
WELL.              Venom 32-22: WELL
FLD.           Purgatorie River: FIELD
LOC.           2307' FNL & 2024' FWL--: LOCATION
PROV.                       CO: PROVINCE
CNTY.               Las Animas: COUNTRY
SRVC.          Patterson Wireline: SERVICE COMPANY
DATE.          Mon May 16 15:26:38 2005: LOG DATE
UWI.           05 071 08361 00: UNIQUE WELL ID
~Curve Information Block
DEPT.FT            0 000 00 00: Depth
CCL.                          : Casing Collar Locator
TT3.usec                      : CBL 3' Travel Time
AMP3.mV                       : CBL 3' Amplitude
GR.GAPI                       : Gamma Ray
~Parameter Information Block
~A  Depth       CCL         TT3         AMP3         GR     
# ...
   495.2500      0.0000    860.3958      4.8459    106.3940
   495.5000      0.0000    860.7756      4.8576    104.4743
   495.7500      0.0000    861.6574      4.8444    105.1987
   496.0000      0.0000    862.2112      4.8361    107.6627
   496.2500      0.0000    862.0257      4.8469    110.3195
   496.5000      0.0000    861.3875      4.8709    112.1963
   496.7500      0.0000    860.8204      4.8902    113.2432
   497.0000      0.0000    860.5424      4.8863    113.6388
   497.2500      0.0000    860.4680      4.8551    113.2848
   497.5000      0.0000    860.5508      4.8140    112.1322
   497.7500      0.0000    860.8463      4.7898    110.4714
   498.0000      0.0000    861.2410      4.7971    108.4850
   498.2500      0.0000    861.3371      4.8290    105.5556
   498.5000      0.0000    860.7256      4.8694    100.4416
   498.7500      0.0000    859.3495      4.9135     92.5170
   499.0000      0.0000    857.5770      4.9694     82.6735
   499.2500      0.0000    855.9348      5.0338     72.7811
   499.5000      0.0000    854.7392      5.0785     64.6242
   499.7500      0.0000    853.8866      5.0806     59.5250
   500.0000      0.0000    852.8629      5.0575     58.3007
   500.2500      0.0000    850.9214      5.0534     60.9615
   500.5000      0.0000    847.5093      5.0909     66.6194
   500.7500      0.0000    842.7472      5.1553     74.0557
   501.0000      0.0000    837.2513      5.2227     82.2402
   501.2500      0.0000    830.9428      5.2791     90.0576
   501.5000      0.0000    822.1652      5.3034     95.8477
   501.7500      0.0000    808.8541      5.2478     97.9604
   502.0000      0.0000    791.3263      5.0609     96.2516
   502.2500      0.0000    773.9180      4.7426     92.7253
   502.5000      0.0000    763.3928      4.3618     89.9612
   502.7500      0.0000    765.0363      4.0046     88.6486
   503.0000      0.0000    779.5090      3.7214     87.0821
   503.2500      0.0000    802.9023      3.5395     83.3279
   503.5000      0.0000    829.6025      3.4911     77.7186
   503.7500      0.0000    855.6085      3.5849     73.0096
   504.0000      0.0000    879.8213      3.7708     72.0246
   504.2500     -2.0000    902.7912      3.9691     75.2284
   504.5000     -2.0000    924.3474      4.1275     80.8271
   504.7500      0.0000    941.9023      4.2421     87.1866
   505.0000      0.0000    950.5660      4.3387     94.5395
   505.2500      0.0000    945.9393      4.4409    103.8892
   505.5000      0.0000    928.5250      4.5438    114.6645
   505.7500      0.0000    905.0273      4.6158    124.1885
   506.0000      0.0000    883.9012      4.6417    129.6588
   506.2500      0.0000    869.8257      4.6615    130.3063
   506.5000      0.0000    862.6790      4.7411    127.5578
   506.7500      0.0000    860.0557      4.8970    123.6031
   507.0000      0.0000    859.4819      5.0734    120.0442
   507.2500      0.0000    859.2079      5.2060    117.3984
   507.5000      0.0000    858.3289      5.2857    115.2600
   507.7500      0.0000    856.6984      5.3385    112.8084
   508.0000      0.0000    854.6141      5.3614    109.5152
   508.2500      0.0000    852.5073      5.3135    105.6798
   508.5000      0.0000    850.5888      5.1757    102.1001
   508.7500      0.0000    848.6451      5.0011     98.9590
   509.0000      0.0000    846.3003      4.8856     95.4252
   509.2500      0.0000    843.6844      4.8804     90.9200
   509.5000      0.0000    841.7083      4.9461     86.4567
   509.7500      0.0000    841.3615      5.0061     83.8860
   510.0000      0.0000    842.8314      5.0364     83.9031
   510.2500      0.0000    845.5641      5.0750     85.5194
   510.5000      0.0000    848.8895      5.1470     87.4728
   510.7500      0.0000    852.1544      5.2144     89.4626
   511.0000      0.0000    854.5203      5.2169     91.9422
   511.2500      0.0000    855.2783      5.1445     95.1203
   511.5000      0.0000    854.4886      5.0523     98.3081
   511.7500      0.0000    852.9821      5.0120    100.1735
   512.0000      0.0000    851.6147      5.0599     99.6395
   512.2500      0.0000    850.7114      5.1788     96.4631
   512.5000      0.0000    850.2040      5.3156     91.1166
   512.7500      0.0000    850.0146      5.4193     84.5754
   513.0000      0.0000    850.1229      5.4761     78.1739
   513.2500      0.0000    850.3977      5.5129     73.0089
   513.5000      0.0000    850.5715      5.5714     69.2156
   513.7500      0.0000    850.4750      5.6749     66.1574
   514.0000      0.0000    850.2941      5.8090     63.3636
   514.2500      0.0000    850.5993      5.9285     60.8784
   514.5000      0.0000    852.0153      5.9887     58.8280
   514.7500      0.0000    854.5688      5.9808     57.2313
   515.0000      0.0000    857.1124      5.9430     56.2941
   515.2500      0.0000    857.5073      5.9316     56.4081
   515.5000      0.0000    853.5883      5.9765     57.6556
   515.7500      0.0000    844.1008      6.0594     59.4303
   516.0000      0.0000    829.6010      6.1262     60.7361
   516.2500      0.0000    813.6694      6.1091     60.9529
   516.5000      0.0000    802.5477      5.9498     60.3774
   516.7500      0.0000    800.8280      5.6304     60.0535
   517.0000      0.0000    806.4349      5.1958     61.0036
   517.2500      0.0000    811.9649      4.7409     63.3242
   517.5000      0.0000    812.6537      4.3611     65.7019
   517.7500      0.0000    811.5358      4.1071     65.9288
   518.0000      0.0000    814.7897      3.9803     62.4307
   518.2500      0.0000    822.9594      3.9651     55.6358
   518.5000      0.0000    829.5171      4.0561     47.7602
   518.7500      0.0000    828.6484      4.2429     41.1490
   519.0000     -2.0000    822.3771      4.4765     36.8091
   519.2500     -2.0000    818.5347      4.6758     34.3585
   519.5000     -2.0000    822.4750      4.7790     33.0647
   519.7500      0.0000    832.3505      4.7893     32.7024
   520.0000      0.0000    842.3483      4.7682     33.4744
   520.2500      0.0000    848.5366      4.7807     35.4806
   520.5000      0.0000    850.8903      4.8382     38.6203
   520.7500      0.0000    851.3597      4.8972     42.8492
   521.0000      0.0000    851.5397      4.9217     48.1116
   521.2500      0.0000    851.9252      4.9305     53.9385
   521.5000      0.0000    852.3629      4.9679     59.3971
   521.7500      0.0000    852.6408      5.0434     63.5502
   522.0000      0.0000    852.7379      5.1224     65.9610
   522.2500      0.0000    852.7531      5.1670     66.8558
   522.5000      0.0000    852.7814      5.1722     66.8152
   522.7500      0.0000    852.8369      5.1681     66.2311
   523.0000      0.0000    852.8657      5.1994     65.1174
   523.2500      0.0000    852.8108      5.2990     63.6065
   523.5000      0.0000    852.6540      5.4651     62.5129
   523.7500      0.0000    852.3810      5.6566     63.0567
   524.0000      0.0000    851.8965      5.8149     65.7973
   524.2500      0.0000    850.9444      5.8989     69.8713
   524.5000      0.0000    849.2027      5.9007     73.4473
   524.7500      0.0000    846.6989      5.8328     74.9478
   525.0000      0.0000    844.2265      5.7094     73.8476
   525.2500      0.0000    842.9315      5.5441     70.5662
   525.5000      0.0000    843.0181      5.3658     65.9769
   525.7500      0.0000    842.9218      5.2247     61.0963
   526.0000      0.0000    840.3234      5.1683     57.0494
   526.2500      0.0000    834.5333      5.2069     54.8702
   526.5000      0.0000    828.0443      5.3038     55.0177
   526.7500      0.0000    824.9883      5.3991     57.1389
   527.0000      0.0000    827.1625      5.4454     60.3415
   527.2500      0.0000    831.6878      5.4297     63.5253
   527.5000      0.0000    833.2260      5.3651     65.5257
   527.7500      0.0000    828.4557      5.2671     65.4842
   528.0000      0.0000    818.5754      5.1524     63.5147
   528.2500      0.0000    808.1604      5.0582     60.8989
   528.5000      0.0000    801.7468      5.0368     59.1614
