~Version Information
VERS.                      2.0: CWLS Log ASCII Standard - VERSION 2.0
WRAP.                       NO: One line per depth step
~Well Information Block
STRT.FT               392.5000: 
STOP.FT              2252.6000: 
STEP.FT                 0.1000: 
NULL.                -999.2500: 
COMP.          Petrogulf Corporation: COMPANY
WELL.          Alexander 9-43V: WELL
FLD.           Purgatorie River: FIELD
LOC.           1651' FSL & 1081' FEL: LOCATION
CNTY.               Las Animas: COUNTY
SRVC.                         : SERVICE COMPANY
DATE.          Mon Mar 17 08:48:25 2003: LOG DATE
UWI.           05 071 07727 00: UNIQUE WELL ID
STAT.                 Colorado: STATE
~Curve Information Block
DEPT.FT            0 000 00 00: Depth
DCAL.in                       : CDL Caliper
RHOB.g/cc                     : CDL Bulk Density
RHOC.g/cc                     : CDL Density Correction
DPOR.pu                       : CDL Density Porosity
GR.GAPI                       : Gamma Ray
NPOR.pu                       : Neutron Porosity
~Parameter Information Block
~A  Depth       DCAL        RHOB        RHOC        DPOR         GR         NPOR    
# ...
  2120.5000      7.9592      2.2896      0.0235     21.8398    136.6433     25.0822
  2120.6000      7.9592      2.2621      0.0204     23.5099    136.6433     25.3427
  2120.7000      7.9592      2.2360      0.0207     25.0922    136.6433     25.6328
  2120.8000      7.9639      2.2121      0.0248     26.5364    136.7931     25.9423
  2120.9000      7.9639      2.1913      0.0326     27.7970    136.7931     26.2552
  2121.0000      7.9784      2.1742      0.0435     28.8353    134.5076     26.5512
  2121.1000      7.9784      2.1612      0.0566     29.6212    134.5076     26.8066
  2121.2000      7.9784      2.1528      0.0709     30.1344    134.5076     26.9969
  2121.3000      8.0211      2.1490      0.0851     30.3651    130.0793     27.0984
  2121.4000      8.0211      2.1498      0.0981     30.3132    130.0793     27.0905
  2121.5000      8.1099      2.1552      0.1089     29.9885    125.0670     26.9565
  2121.6000      8.1099      2.1647      0.1168     29.4092    125.0670     26.6859
  2121.7000      8.1099      2.1781      0.1215     28.6004    125.0670     26.2735
  2121.8000      8.1764      2.1947      0.1229     27.5935    120.7585     25.7211
  2121.9000      8.1764      2.2140      0.1210     26.4241    120.7585     25.0362
  2122.0000      8.1045      2.2353      0.1165     25.1307    117.4595     24.2324
  2122.1000      8.1045      2.2581      0.1099     23.7533    117.4595     23.3285
  2122.2000      8.1045      2.2815      0.1018     22.3318    117.4595     22.3480
  2122.3000      7.9771      2.3051      0.0930     20.9046    114.8610     21.3179
  2122.4000      7.9771      2.3281      0.0841     19.5071    114.8610     20.2679
  2122.5000      7.9134      2.3502      0.0754     18.1703    112.4807     19.2284
  2122.6000      7.9134      2.3708      0.0672     16.9200    112.4807     18.2292
  2122.7000      7.9134      2.3897      0.0599     15.7758    112.4807     17.2972
  2122.8000      7.8975      2.4066      0.0535     14.7506    109.6009     16.4550
  2122.9000      7.8975      2.4215      0.0479     13.8508    109.6009     15.7187
  2123.0000      7.8915      2.4342      0.0433     13.0767    105.2471     15.0967
  2123.1000      7.8915      2.4450      0.0396     12.4230    105.2471     14.5905
  2123.2000      7.8915      2.4540      0.0367     11.8801    105.2471     14.1937
  2123.3000      7.8848      2.4613      0.0346     11.4349     98.8901     13.8948
  2123.4000      7.8848      2.4673      0.0330     11.0729     98.8901     13.6788
  2123.5000      7.8752      2.4722      0.0320     10.7783     91.3754     13.5293
  2123.6000      7.8752      2.4762      0.0314     10.5359     91.3754     13.4302
  2123.7000      7.8752      2.4795      0.0311     10.3317     91.3754     13.3677
  2123.8000      7.8671      2.4825      0.0312     10.1535     84.7452     13.3312
  2123.9000      7.8671      2.4851      0.0316      9.9914     84.7452     13.3137
  2124.0000      7.8629      2.4877      0.0322      9.8380     80.7593     13.3109
  2124.1000      7.8629      2.4901      0.0331      9.6883     80.7593     13.3200
  2124.2000      7.8629      2.4926      0.0341      9.5394     80.7593     13.3380
  2124.3000      7.8622      2.4951      0.0351      9.3909     79.5844     13.3612
  2124.4000      7.8622      2.4975      0.0362      9.2431     79.5844     13.3844
  2124.5000      7.8625      2.4999      0.0371      9.0979     79.9129     13.4011
  2124.6000      7.8625      2.5022      0.0378      8.9576     79.9129     13.4045
  2124.7000      7.8625      2.5044      0.0383      8.8245     79.9129     13.3888
  2124.8000      7.8630      2.5064      0.0385      8.7008     80.1866     13.3498
  2124.9000      7.8630      2.5083      0.0385      8.5882     80.1866     13.2857
  2125.0000      7.8645      2.5100      0.0384      8.4873     79.6502     13.1980
  2125.1000      7.8645      2.5114      0.0382      8.3983     79.6502     13.0898
  2125.2000      7.8645      2.5127      0.0380      8.3208     79.6502     12.9671
  2125.3000      7.8653      2.5138      0.0378      8.2537     78.4198     12.8364
  2125.4000      7.8653      2.5148      0.0378      8.1959     78.4198     12.7049
  2125.5000      7.8656      2.5156      0.0379      8.1464     76.9141     12.5787
  2125.6000      7.8656      2.5163      0.0381      8.1046     76.9141     12.4634
  2125.7000      7.8656      2.5168      0.0384      8.0704     76.9141     12.3623
  2125.8000      7.8654      2.5173      0.0387      8.0443     75.4801     12.2769
  2125.9000      7.8654      2.5175      0.0389      8.0276     75.4801     12.2068
  2126.0000      7.8639      2.5176      0.0391      8.0219     74.4615     12.1501
  2126.1000      7.8639      2.5175      0.0392      8.0294     74.4615     12.1042
  2126.2000      7.8639      2.5171      0.0392      8.0522     74.4615     12.0660
  2126.3000      7.8625      2.5165      0.0390      8.0920     74.2666     12.0326
  2126.4000      7.8625      2.5155      0.0385      8.1499     74.2666     12.0021
  2126.5000      7.8624      2.5143      0.0378      8.2262     75.1312     11.9731
  2126.6000      7.8624      2.5127      0.0368      8.3198     75.1312     11.9443
  2126.7000      7.8624      2.5109      0.0355      8.4286     75.1312     11.9150
  2126.8000      7.8636      2.5089      0.0339      8.5490     76.8093     11.8841
  2126.9000      7.8636      2.5068      0.0322      8.6764     76.8093     11.8505
  2127.0000      7.8649      2.5047      0.0303      8.8052     78.5849     11.8134
  2127.1000      7.8649      2.5027      0.0284      8.9291     78.5849     11.7725
  2127.2000      7.8649      2.5008      0.0265      9.0414     78.5849     11.7286
  2127.3000      7.8648      2.4993      0.0249      9.1355     79.7296     11.6841
  2127.4000      7.8648      2.4981      0.0237      9.2056     79.7296     11.6428
  2127.5000      7.8626      2.4974      0.0230      9.2464     80.2464     11.6094
  2127.6000      7.8626      2.4973      0.0229      9.2542     80.2464     11.5898
  2127.7000      7.8626      2.4978      0.0235      9.2263     80.2464     11.5889
  2127.8000      7.8601      2.4988      0.0248      9.1623     81.4016     11.6105
  2127.9000      7.8601      2.5005      0.0267      9.0630     81.4016     11.6558
  2128.0000      7.8581      2.5026      0.0293      8.9311     85.3161     11.7232
  2128.1000      7.8581      2.5053      0.0322      8.7707     85.3161     11.8086
  2128.2000      7.8581      2.5083      0.0353      8.5874     85.3161     11.9056
  2128.3000      7.8550      2.5116      0.0385      8.3876     93.4383     12.0076
  2128.4000      7.8550      2.5151      0.0415      8.1782     93.4383     12.1085
  2128.5000      7.8511      2.5186      0.0441      7.9663    104.9272     12.2048
  2128.6000      7.8511      2.5220      0.0462      7.7588    104.9272     12.2959
  2128.7000      7.8511      2.5252      0.0477      7.5620    104.9272     12.3844
  2128.8000      7.8491      2.5282      0.0484      7.3809    116.4799     12.4746
  2128.9000      7.8491      2.5309      0.0484      7.2198    116.4799     12.5717
  2129.0000      7.8514      2.5332      0.0476      7.0808    124.0709     12.6794
  2129.1000      7.8514      2.5351      0.0461      6.9653    124.0709     12.7991
  2129.2000      7.8514      2.5366      0.0440      6.8725    124.0709     12.9295
  2129.3000      7.8557      2.5378      0.0415      6.8006    125.4432     13.0660
  2129.4000      7.8557      2.5387      0.0386      6.7464    125.4432     13.2029
  2129.5000      7.8559      2.5394      0.0356      6.7060    121.5243     13.3335
  2129.6000      7.8559      2.5399      0.0326      6.6748    121.5243     13.4522
  2129.7000      7.8559      2.5403      0.0298      6.6480    121.5243     13.5552
  2129.8000      7.8517      2.5408      0.0275      6.6211    115.7090     13.6406
  2129.9000      7.8517      2.5413      0.0256      6.5905    115.7090     13.7087
  2130.0000      7.8499      2.5419      0.0244      6.5531    111.5725     13.7607
