~Version Information
 VERS.                2.0:  CWLS LOG ASCII STANDARD -VERSION 2.0
 WRAP.                 NO:  ONE LINE PER DEPTH STEP
~WELL INFORMATION BLOCK
#MNEM.UNIT       DATA		            DESCRIPTION OF MNEMONIC
#---------    -------------            ------------------------
 STRT.FT  0.500                          :START DEPTH
 STOP.FT  1808.700                       :STOP DEPTH
 STEP.FT  0.100                          :STEP    UP_HOLE  
 NULL.    -999.25                        :NULL VALUE
 COMP.              EL PASO PRODUCTIONS  :COMPANY
 WELL.                     COREHOLE #38  :WELL
 FLD .                 PURGATOIRE RIVER  :FIELD
 LOC .      15   35S   65W               :LOCATION
 CNTY.                           COLFAX  :COUNTY
 STAT.                     NM            :STATE
 CTRY.                                   :
 SRVC.     O'DRISCOLL                    :SERVICE COMPANY
 DATE.   04/28/05                        :LOG DATE
 API .                                   :API NUMBER
 LIC .                                   :LICENSE NUMBER
~Curve Information Block
#MNEM.UNIT      API CODE     Curve Description
#---------    -------------  ------------------------
 DEPT     .FT        00 001 00 00          :  1  DEPTH   
 GAMMA    .API-GR    00 310 00 00          :  2                GAMMA
 VOLTAGE  .MV        00 000 00 00          :  3              VOLTAGE
 CALIPER  .INCH      00 280 00 00          :  4              CALIPER
 DEN(LS)  .G/CC      00 350 00 00          :  5              DEN(LS)
 DEN(SS)  .G/CC      00 350 00 00          :  6              DEN(SS)
 CURRENT  .UA        00 000 00 00          :  7              CURRENT
 RES(SG)  .OHM-M     00 220 00 00          :  8              RES(SG)
 POR(DEN) .PERCENT   00 890 00 00          :  9             POR(DEN)
 DEN(LS)  .CPS       00 350 00 00          : 10              DEN(LS)
 DEN(SS)  .CPS       00 350 00 00          : 11              DEN(SS)
 COMP     .G/CC      00 356 00 00          : 12                 COMP
 DEN(CDL) .G/CC      00 350 00 00          : 13             DEN(CDL)
 TEMP     .DEG F     00 660 00 00          : 14                 TEMP
 DEL_TEMP .DEG F     00 000 00 00          : 15             DEL_TEMP
 TIME     .MINUTES   00 000 00 00          : 16                 TIME
~Parameter Information Block
#MNEM.UNIT   Information     Description
#---------- ---------------  ------------------------
 FILE.      ORIGINAL           :File Type
 FIID.      9139A              :File Type Identifier
 VERS.      3.58G              :System Version
 SER .      1                  :System Serial Number
 TRUK.      .498775            :Truck Calibration Number
 TOOL.        1245             :Tool Serial Number
 TIME.      1507               :Time    HrHrMinMin
 LAT .       36 59'            :Latitude
 LON .       104 39'           :Longitude
 LMF .            GL           :Log Measured From
 DMF .            GL           :Driller Measured From
 PD  .            GL           :Permanent Data
 PDEV.                         :Elevation Permanent Data
 EKB .M                        :Elevation Kelly Bushing
 ELEV.DF                       :Elevation DF
 EGL .M        7777            :Elevation Ground Level
 DRDP.          1825           :Driller's Depth
 CASD.       10.               :Casing Diameter
 CASB.           300           :Casing Bottom
 CASX.         STEEL           :Casing Type
 CAST.                         :Casing Thickness
 TNOC.                         :Time Circulation Stopped
 LOGU.        108              :Logging Unit
 RECB.           R.SIPES       :Recorded By
 OSR1.          9057           :Other Services
 OSR2.                         :Other Services
 OSR3.                         :Other Services
 BS  .MM         3.5           :Bit Size
 MST .                         :Mean Surface Temperature
 TGRD.                         :Temperature Gradiant
 MAGN.            12           :Magnetic Declination
 MDEN.       2.7               :Density Matrix
 MATR.      SANDSTONE          :Neutron Matrix
 DTMT.            54           :Delta T Matrix
 DTFL.                         :Delta T Fluid
 MUDS.                         :Mud Sample Source
 MRS .                         :Mud Resistivity
 MTP .                         :Mud Temperature
 MFRS.                         :Resistivity Mud Filtrate
 MFTP.                         :Temperature Mud Filtrate
 MCRS.                         :Resistivity Mud Cake
 MCTP.                         :Temperature Mud Cake
 FTYP.                         :Fluid Type
 FD  .K/M3                     :Fluid Density
 DFV .S                        :Fluid Viscosity
 FPH .                         :Fuild PH
 ELCO.       50000             :Electron Cutoff
~Other Information
#MNEM.UNIT  Information      Description
#---------- ---------------  ------------------------
# -------------------------- 
~A DEPTH  GAMMA    VOLTAGE  CALIPER DEN(LS) DEN(SS) CURRENT  RES(SG)  POR(DEN) DEN(LS) DEN(SS) COMP  DEN(CDL) TEMP  DEL_TEMP TIME    
# ...
1685.000     81.3     -5.7   3.0  2.65 2.82   135.2     -3.0  21.0  515.81 4115.19 -0.311 2.31 33.3  0.00 0.20000 
1685.100     76.6     -0.5   3.0  2.60 2.86   137.1     -0.3  38.4  576.00 3971.77 -0.548 2.21 33.3  0.00 0.20000 
1685.200     83.2     -3.7   3.0  2.62 2.86   134.7     -1.9  33.5  550.93 3971.87 -0.488 2.10 33.3  0.00 0.20000 
1685.300     80.3     -0.9   3.0  2.57 2.82   137.1     -0.5  36.9  611.13 4130.58 -0.497 1.98 33.3  0.00 0.20000 
1685.400     71.8      0.5   3.0  2.50 2.78   137.2      0.3  46.2  701.48 4268.98 -0.584 2.01 33.3  0.00 0.20000 
1685.500     66.2      0.7   3.0  2.41 2.73   139.2      0.3  57.8  837.10 4428.06 -0.696 2.10 33.3  0.00 0.20000 
1685.600     75.6      0.2   3.0  2.45 2.58   137.5      0.1  28.8  778.48 5024.94 -0.240 2.17 33.3  0.00 0.30000 
1685.700     77.5      0.4   3.0  2.54 2.49   137.1      0.2   5.5  651.27 5421.79 0.067 2.27 33.3  0.00 0.20000 
1685.800     78.4      1.2   3.0  2.51 2.56   137.1      0.6  16.7  691.45 5117.54 -0.091 2.33 33.3  0.00 0.20000 
1685.900     77.5      0.8   3.0  2.47 2.53   137.1      0.4  18.5  741.65 5266.93 -0.089 2.25 33.3  0.00 0.20000 
1686.000     76.9      0.7   3.0  2.45 2.68   139.0      0.4  40.7  776.81 4654.20 -0.445 2.06 33.3  0.00 0.20000 
1686.100     82.5      0.9   3.0  2.45 2.74   148.9      0.4  50.6  781.85 4417.81 -0.609 1.99 33.3  0.00 0.20000 
1686.200     80.6      0.9   3.0  2.43 2.79   148.0      0.4  62.0  806.98 4243.46 -0.787 1.86 33.3  0.00 0.20000 
1686.300     74.0      1.5   3.0  2.54 2.79   147.5      0.7  38.0  646.26 4233.10 -0.491 1.88 33.3  0.00 0.20000 
1686.400     81.6      1.3   3.0  2.52 2.86   141.1      0.7  54.7  671.35 3961.53 -0.753 1.86 33.3  0.00 0.20000 
1686.500     82.2      1.4   3.0  2.54 2.77   136.7      0.7  35.5  646.26 4294.72 -0.449 1.86 33.3  0.00 0.20000 
1686.600     83.2      1.4   3.0  2.49 2.84   137.9      0.7  58.3  714.87 4043.46 -0.781 1.83 33.3  0.00 0.30000 
1686.700     82.2      1.2   3.0  2.48 2.84   141.6      0.6  61.5  731.63 4028.10 -0.825 1.88 33.3  0.00 0.20000 
1686.800     81.3      1.0   3.0  2.42 2.66   141.1      0.5  44.8  827.05 4719.22 -0.482 1.86 33.3  0.00 0.20000 
1686.900     83.2      1.2   3.0  2.39 2.58   143.0      0.6  40.0  877.31 5029.82 -0.370 1.86 33.3  0.00 0.20000 
1687.000     78.1      1.4   3.0  2.40 2.60   145.5      0.7  41.2  867.27 4957.70 -0.397 1.86 33.3  0.00 0.20000 
1687.100     68.7      1.9   3.0  2.28 2.56   138.5      1.0  58.5  1083.57 5117.39 -0.580 1.85 33.3  0.00 0.20000 
1687.200     63.0      1.1   3.0  2.20 2.47   137.7      0.5  61.7  1279.92 5545.85 -0.549 1.75 33.3  0.00 0.20000 
1687.300     64.9      0.4   3.0  2.20 2.37   139.5      0.2  49.0  1284.94 5975.23 -0.331 1.61 33.3  0.00 0.20000 
1687.400     54.5      0.9   3.0  2.19 2.49   140.7      0.4  67.5  1311.81 5452.86 -0.636 1.53 33.3  0.00 0.30000 
1687.500     61.4      1.6   3.0  2.11 2.48   139.2      0.8  83.5  1521.93 5499.56 -0.829 1.55 33.3  0.00 0.20000 
1687.600     55.8      2.6   3.0  2.13 2.50   137.3      1.4  82.4  1461.41 5395.99 -0.832 1.53 33.3  0.00 0.20000 
1687.700     52.9      2.2   3.0  2.25 2.49   135.9      1.2  55.1  1159.02 5426.98 -0.487 1.44 33.3  0.00 0.20000 
1687.800     44.4      2.1   3.0  2.23 2.46   136.1      1.1  54.6  1214.41 5592.31 -0.455 1.54 33.3  0.00 0.20000 
1687.900     47.3      1.7   3.0  2.20 2.65   136.7      0.9  94.5  1279.93 4746.94 -1.106 1.62 33.3  0.00 0.20000 
1688.000     46.3      1.1   3.0  2.34 2.61   137.0      0.5  54.5  977.86 4931.92 -0.562 1.65 33.3  0.00 0.19900 
1688.100     46.6      2.2   3.0  2.28 2.56   136.4      1.2  59.8  1098.62 5122.53 -0.595 1.77 33.3  0.00 0.20100 
1688.200     43.8      2.9   3.0  2.43 2.66   128.1      1.6  44.2  817.01 4700.36 -0.478 1.99 33.3  0.00 0.20000 
1688.300     48.5      2.4   3.0  2.55 2.67   119.9      1.5  20.9  636.21 4679.81 -0.207 2.00 33.3  0.00 0.20000 
1688.400     49.5      1.2   3.0  2.61 2.82   115.5      0.7  30.8  564.33 4105.11 -0.429 2.05 33.3  0.00 0.30000 
1688.500     44.8      1.9   3.0  2.58 2.93   114.4      1.2  51.4  591.06 3746.69 -0.760 2.10 33.3  0.00 0.20000 
1688.600     42.6      2.1   3.1  2.59 2.88   114.0      1.3  42.6  586.08 3912.07 -0.613 2.10 33.3  0.00 0.19900 
1688.700     54.8      2.0   3.0  2.63 2.85   111.7      1.3  30.3  540.93 3997.41 -0.445 2.11 33.3  0.00 0.20000 
1688.800     52.9      2.2   3.0  2.75 2.96   111.3      1.4  21.2  420.53 3639.32 -0.410 2.12 33.3  0.00 0.20100 
1688.900     45.4      1.8   3.0  2.71 2.96   117.1      1.1  29.0  455.63 3624.09 -0.508 2.08 33.3  0.00 0.20000 
1689.000     48.2      1.2   3.0  2.68 3.02   117.9      0.7  46.2  490.72 3440.15 -0.764 2.14 33.3  0.00 0.19900 
1689.100     49.8      1.5   3.0  2.65 3.04   119.0      0.9  55.9  520.81 3394.41 -0.900 2.06 33.3  0.00 0.20000 
1689.200     46.0      2.2   3.0  2.81 2.97   119.8      1.3  11.6  375.43 3608.76 -0.304 2.05 33.3  0.00 0.20000 
1689.300     49.8      1.6   3.0  2.70 3.06   137.2      0.8  46.5  465.65 3333.00 -0.795 2.11 33.3  0.00 0.20100 
1689.400     53.6      1.6   3.0  2.79 3.09   173.0      0.7  31.8  387.14 3246.34 -0.631 2.22 33.3  0.00 0.29900 
1689.500     50.7      1.9   3.0  2.80 3.08   180.8      0.7  28.6  380.44 3271.81 -0.586 2.20 33.3  0.00 0.20100 
1689.600     55.8      1.0   3.0  2.83 3.08   160.6      0.5  22.1  355.38 3268.57 -0.507 2.25 33.3  0.00 0.20000 
1689.700     54.8      1.4   3.0  2.82 3.04   161.6      0.6  17.1  360.40 3399.38 -0.415 2.27 33.3  0.00 0.19900 
1689.800     53.9      1.8   3.0  2.74 3.02   158.4      0.8  31.7  425.58 3440.14 -0.583 2.30 33.3  0.00 0.20000 
1689.900     50.1      1.1   3.0  2.78 3.05   150.2      0.5  27.6  395.47 3368.99 -0.550 2.30 33.3  0.00 0.20000 
1690.000     54.8      2.0   3.0  2.77 2.98   146.1      1.0  18.9  400.48 3578.01 -0.396 2.24 33.3  0.00 0.20100 
1690.100     51.1      2.2   3.0  2.82 3.06   127.8      1.2  22.3  365.40 3317.74 -0.497 2.31 33.3  0.00 0.19900 
1690.200     44.4      0.7   3.0  2.68 2.96   119.9      0.4  36.2  490.73 3629.09 -0.595 2.33 33.3  0.00 0.20000 
1690.300     47.3      1.3   3.0  2.81 2.96   119.3      0.8  10.6  375.42 3634.20 -0.287 2.25 33.3  0.00 0.20000 
1690.400     51.1      1.8   3.0  2.78 3.00   133.1      0.9  21.0  397.15 3511.63 -0.436 2.23 33.3  0.00 0.30000 
1690.500     48.2      1.8   3.0  2.74 3.08   187.6      0.7  42.5  430.57 3261.62 -0.762 2.28 33.3  0.00 0.20000 
1690.600     43.5      2.1   3.0  2.77 3.03   207.2      0.7  27.1  405.49 3431.68 -0.528 2.31 33.3  0.00 0.20000 
1690.700     42.6      2.0   3.0  2.79 3.03   189.8      0.7  22.2  385.45 3424.83 -0.471 2.38 33.3  0.00 0.20000 
1690.800     42.6      2.1   3.0  2.82 2.90   144.5      1.0   1.1  365.40 3843.91 -0.137 2.56 33.3  0.00 0.20000 
1690.900     45.4      2.1   3.0  2.83 2.92   138.7      1.1   1.8  355.40 3757.06 -0.161 2.56 33.3  0.00 0.20000 
1691.000     44.4      1.6   3.0  2.90 2.89   133.9      0.8  -12.4 310.29 3869.41 0.011 2.59 33.3  0.00 0.20000 
1691.100     54.2      1.4   3.0  2.67 2.89   123.0      0.8  27.0  495.74 3859.22 -0.434 2.56 33.3  0.00 0.20000 
1691.200     54.2      2.0   3.0  2.73 2.88   130.4      1.1  14.0  440.58 3920.58 -0.268 2.58 33.3  0.00 0.20000 
1691.300     55.1      1.8   3.0  2.76 2.88   132.1      1.0   9.5  415.52 3915.50 -0.217 2.50 33.3  0.00 0.20000 
1691.400     47.6      1.6   3.0  2.82 2.86   124.2      0.9  -3.6  363.74 3987.13 -0.059 2.47 33.3  0.00 0.30000 
1691.500     46.6      1.9   3.0  2.73 2.87   123.7      1.1  13.1  440.59 3946.21 -0.252 2.54 33.3  0.00 0.20000 
1691.600     39.7      1.5   3.0  2.68 2.95   115.4      0.9  33.6  490.72 3683.62 -0.551 2.58 33.3  0.00 0.20000 
1691.700     46.3      2.1   3.0  2.77 2.75   117.9      1.3  -6.1  400.49 4356.20 0.029 2.56 33.3  0.00 0.20000 
1691.800     35.9      0.9   3.0  2.84 2.91   131.1      0.5  -1.6  345.36 3797.80 -0.116 2.50 33.3  0.00 0.20000 
1691.900     35.9      0.9   3.0  2.83 2.93   136.6      0.5   2.6  355.38 3731.44 -0.176 2.54 33.3  0.00 0.20000 
