~Version Information
VERS.                      2.0: CWLS Log ASCII Standard - VERSION 2.0
WRAP.                       NO: One line per depth step
~Well Information Block
STRT.FT                -7.5000: 
STOP.FT              2226.0000: 
STEP.FT                 0.2500: 
NULL.                -999.2500: 
COMP.          Pioneer Natural Resources: COMPANY
WELL.              Tonto 42-23: WELL
FLD.           Purgatorie River: FIELD
LOC.           2217' FNL & 423' FEL----: LOCATION
PROV.                       CO: PROVINCE
CNTY.               Las Animas: COUNTRY
SRVC.          Patterson Wireline: SERVICE COMPANY
DATE.          Fri Apr 22 11:40:07 2005: LOG DATE
UWI.           05 071 08335 00: UNIQUE WELL ID
~Curve Information Block
DEPT.FT            0 000 00 00: Depth
CCL.                          : Casing Collar Locator
TT3.usec                      : CBL 3' Travel Time
AMP3.mV                       : CBL 3' Amplitude
GR.GAPI                       : Gamma Ray
~Parameter Information Block
~A  Depth       CCL         TT3         AMP3         GR     
    -7.5000   -999.2500   -999.2500   -999.2500     61.0114
    -7.2500   -999.2500   -999.2500   -999.2500     63.2288
    -7.0000   -999.2500   -999.2500   -999.2500     64.0902
    -6.7500   -999.2500   -999.2500   -999.2500     63.2731
    -6.5000   -999.2500   -999.2500   -999.2500     61.4591
    -6.2500   -999.2500   -999.2500   -999.2500     59.5380
    -6.0000   -999.2500   -999.2500   -999.2500     58.2759
    -5.7500   -999.2500   -999.2500   -999.2500     58.3560
    -5.5000   -999.2500   -999.2500   -999.2500     60.1806
    -5.2500   -999.2500   -999.2500   -999.2500     63.4188
    -5.0000   -999.2500   -999.2500   -999.2500     66.8059
    -4.7500   -999.2500   -999.2500   -999.2500     68.5550
    -4.5000   -999.2500   -999.2500   -999.2500     67.2332
    -4.2500   -999.2500   -999.2500   -999.2500     62.8060
    -4.0000   -999.2500   -999.2500   -999.2500     57.2771
    -3.7500   -999.2500   -999.2500   -999.2500     54.0572
    -3.5000   -999.2500   -999.2500   -999.2500     55.8447
    -3.2500   -999.2500   -999.2500   -999.2500     62.3956
    -3.0000   -999.2500   -999.2500   -999.2500     70.1561
    -2.7500   -999.2500   1167.0000      0.6836     74.5146
    -2.5000   -999.2500   1167.0000      0.6684     73.1621
    -2.2500   -999.2500   1167.0000      0.6567     67.6850
    -2.0000   -999.2500   1167.0000      0.6525     61.8709
    -1.7500   -999.2500   1167.0000      0.6556     58.5092
    -1.5000   -999.2500   1167.0000      0.6630     57.7173
    -1.2500   -999.2500   1167.0000      0.6706     57.7131
    -1.0000   -999.2500   1167.0000      0.6754     56.5569
    -0.7500   -999.2500   1167.0000      0.6754     53.3151
    -0.5000   -999.2500   1167.0000      0.6701     48.2744
    -0.2500   -999.2500   1167.0000      0.6620     42.5163
     0.0000   -999.2500   1167.0000      0.6559     37.2426
     0.2500   -999.2500   1167.0000      0.6564     30.6278
     0.5000   -999.2500   1167.0000      0.6563     28.6873
     0.7500   -999.2500   1167.0000      0.6534     26.4609
     1.0000   -999.2500   1167.0000      0.6531     23.7641
     1.2500   -999.2500   1167.0000      0.6605     21.7058
     1.5000   -999.2500   1167.0000      0.6745     21.7503
     1.7500   -999.2500   1167.0000      0.6868     24.2204
     2.0000   -999.2500   1167.0000      0.6891     27.9291
     2.2500   -999.2500   1167.0000      0.6784     31.2946
     2.5000      0.0000   1167.0000      0.6584     33.6558
     2.7500      0.0000   1167.0000      0.6384     35.4388
     3.0000      0.0000   1167.0000      0.6289     37.2080
     3.2500      0.0000   1167.0000      0.6364     38.8711
     3.5000      0.0000   1167.0000      0.6576     39.8843
     3.7500      0.0000   1167.0000      0.6808     39.9165
     4.0000      0.0000   1167.0000      0.6950     39.0827
     4.2500      0.0000   1167.0000      0.6990     37.6754
     4.5000      0.0000   1167.0000      0.6993     35.9346
     4.7500      0.0000   1167.0000      0.7012     34.2625
     5.0000      0.0000   1167.0000      0.7032     33.4773
     5.2500      0.0000   1167.0000      0.7008     34.4147
     5.5000      0.0000   1167.0000      0.6932     37.1530
     5.7500      0.0000   1167.0000      0.6833     40.8246
     6.0000      0.0000   1167.0000      0.6747     44.2009
     6.2500      0.0000   1167.0000      0.6711     46.4597
     6.5000      0.0000   1167.0000      0.6760     47.6076
     6.7500      0.0000   1167.0000      0.6901     48.3257
     7.0000      0.0000   1167.0000      0.7070     49.4707
     7.2500      0.0000   1167.0000      0.7167     51.8232
     7.5000      0.0000   1167.0000      0.7134     55.9921
     7.7500      0.0000   1167.0000      0.7001     61.8123
     8.0000      0.0000   1167.0000      0.6840     67.7172
     8.2500      0.0000   1167.0000      0.6714     71.4633
     8.5000      0.0000   1166.9685      0.6661     72.0404
     8.7500      0.0000   1166.7341      0.6739     70.7542
     9.0000      0.0000   1165.5013      0.7108     70.1478
     9.2500      0.0000   1160.4105      0.8461     71.7428
     9.5000      0.0000   1143.8804      1.3180     74.6807
     9.7500      0.0000   1101.6091      2.7131     76.4237
    10.0000     -2.0000   1016.3568      6.0052     74.8295
    10.2500      0.0000    880.5826     12.1012     69.7624
    10.5000      0.0000    709.6559     20.9256     62.9745
    10.7500      0.0000    539.4602     30.9124     56.6444
    11.0000      0.0000    405.3996     39.7652     52.0212
    11.2500      0.0000    321.8885     45.9421     49.2130
    11.5000      0.0000    280.7744     49.3739     47.8371
    11.7500      0.0000    264.7914     50.9336     47.4288
    12.0000      0.0000    259.8920     51.5463     47.2348
    12.2500      0.0000    258.7141     51.7721     46.2959
    12.5000      0.0000    258.5023     51.8486     44.1976
    12.7500      0.0000    258.5005     51.8338     41.4843
    13.0000      0.0000    258.5688     51.6605     39.1521
    13.2500      0.0000    258.7570     51.1200     37.9121
    13.5000      0.0000    259.2841     49.8825     37.8198
    13.7500      0.0000    260.6375     47.6452     38.2652
    14.0000      0.0000    263.5916     44.3457     38.4086
    14.2500      0.0000    268.8701     40.2553     37.9031
    14.5000      0.0000    276.5000     35.8492     37.2241
    14.7500      0.0000    285.7752     31.5657     37.3146
    15.0000      0.0000    296.7778     27.6485     38.9366
    15.2500      0.0000    312.9854     24.1502     42.0208
    15.5000      0.0000    342.2666     21.0366     45.3751
    15.7500      0.0000    393.0702     18.2783     47.3361
    16.0000      0.0000    466.6823     15.8693     47.1217
    16.2500      0.0000    552.9211     13.8037     45.5064
    16.5000      0.0000    636.0022     12.0648     43.9915
    16.7500      0.0000    705.7033     10.6393     43.4105
    17.0000      0.0000    761.9732      9.5286     43.5025
    17.2500      0.0000    809.5814      8.7346     43.6581
    17.5000      0.0000    850.4946      8.2310     43.6835
    17.7500      0.0000    881.3997      7.9526     43.7372
    18.0000      0.0000    897.1481      7.8179     43.7826
    18.2500      0.0000    896.1689      7.7597     43.3930
    18.5000      0.0000    882.5649      7.7367     42.2108
    18.7500      0.0000    862.9015      7.7277     40.4608
    19.0000      0.0000    841.7123      7.7256     38.8783
    19.2500      0.0000    821.2139      7.7311     38.3032
    19.5000      0.0000    804.3251      7.7432     39.3153
    19.7500      0.0000    795.4434      7.7536     41.8044
    20.0000      0.0000    797.7019      7.7497     44.7243
    20.2500      0.0000    810.6901      7.7251     46.6258
    20.5000      0.0000    830.8669      7.6874     46.6613
    20.7500      0.0000    853.2524      7.6557     45.1157
    21.0000      0.0000    873.1566      7.6466     43.0963
    21.2500      0.0000    887.6237      7.6619     41.6974
    21.5000      0.0000    896.0110      7.6888     41.2903
    21.7500      0.0000    899.1324      7.7106     41.6179
    22.0000      0.0000    897.5622      7.7170     42.4270
    22.2500      0.0000    891.0134      7.7068     43.6349
    22.5000      0.0000    879.7828      7.6834     45.0222
    22.7500      0.0000    866.0593      7.6508     46.2417
    23.0000      0.0000    851.9548      7.6112     47.1074
    23.2500      0.0000    835.9983      7.5671     47.5476
    23.5000      0.0000    814.1163      7.5238     47.5111
    23.7500      0.0000    785.5826      7.4892     47.3867
    24.0000      0.0000    755.9638      7.4717     48.1625
    24.2500      0.0000    732.7330      7.4778     50.4140
    24.5000      0.0000    719.5673      7.5126     53.1618
    24.7500      0.0000    715.5928      7.5785     54.3680
    25.0000      0.0000    718.0455      7.6686     52.8278
    25.2500      0.0000    724.0187      7.7641     49.4760
    25.5000      0.0000    730.6401      7.8418     46.8111
    25.7500      0.0000    735.7209      7.8862     47.1789
