~Version Information
VERS.                      2.0: CWLS Log ASCII Standard - VERSION 2.0
WRAP.                       NO: One line per depth step
~Well Information Block
STRT.FT                 0.7500: 
STOP.FT              2144.0000: 
STEP.FT                 0.2500: 
NULL.                -999.2500: 
COMP.          Petrogulf Corporation: COMPANY
WELL.            Montoya 1-44R: WELL
FLD.           Purgatorie River: FIELD
LOC.           658' FSL & 1052' FWL: LOCATION
CNTY.               Las Animas: COUNTY
SRVC.                         : SERVICE COMPANY
DATE.          Tue Nov 30 08:31:55 2004: LOG DATE
UWI.           05 071 08239 00: UNIQUE WELL ID
STAT.                 Colorado: STATE
~Curve Information Block
DEPT.FT            0 000 00 00: Depth
TT3.usec                      : CBL 3' Travel Time
AMP3.mV                       : CBL 3' Amplitude
GR.GAPI                       : Gamma Ray
CCL.                          : Casing Collar Locator
~Parameter Information Block
~A  Depth       TT3         AMP3         GR         CCL     
# ...
  1541.7500    547.3403      7.7796    111.3738      0.0000
  1542.0000    552.9385      7.4441    107.3769      0.0000
  1542.2500    567.9296      7.0453    102.9230      0.0000
  1542.5000    594.9531      6.5839     98.8856      0.0000
  1542.7500    632.6480      6.0704     96.0653      0.0000
  1543.0000    675.3195      5.5303     94.8172      0.0000
  1543.2500    714.7582      4.9999     94.9266      0.0000
  1543.5000    744.5153      4.5137     95.7088      0.0000
  1543.7500    762.7704      4.0902     96.2793      0.0000
  1544.0000    770.5386      3.7311     95.8806      0.0000
  1544.2500    768.4757      3.4359     94.1210      0.0000
  1544.5000    756.9987      3.2154     91.0076      0.0000
  1544.7500    738.4614      3.0844     86.8028      0.0000
  1545.0000    717.4741      3.0343     81.8580      0.0000
  1545.2500    699.1118      3.0175     76.5740      0.0000
  1545.5000    687.5286      2.9676     71.4364      0.0000
  1545.7500    684.8306      2.8410     67.0141      0.0000
  1546.0000    689.2629      2.6435     63.8271      0.0000
  1546.2500    695.0662      2.4211     62.1685      0.0000
  1546.5000    696.4197      2.2288     62.0229      0.0000
  1546.7500    691.8981      2.1042     63.1462      0.0000
  1547.0000    684.2633      2.0609     65.2440      0.0000
  1547.2500    676.4657      2.0916     68.1325      0.0000
  1547.5000    668.8237      2.1740     71.7886      0.0000
  1547.7500    659.8296      2.2786     76.2769      0.0000
  1548.0000    649.0960      2.3778     81.6071      0.0000
  1548.2500    639.2460      2.4511     87.5910      0.0000
  1548.5000    634.4183      2.4900     93.7689      0.0000
  1548.7500    636.4184      2.5008     99.4668      0.0000
  1549.0000    643.0084      2.5003    103.9745      0.0000
  1549.2500    650.5061      2.5038    106.7805      0.0000
  1549.5000    657.2537      2.5179    107.7473      0.0000
  1549.7500    664.2528      2.5444    107.1373      0.0000
  1550.0000    673.9882      2.5886    105.4668      0.0000
  1550.2500    689.3198      2.6596    103.2758      0.0000
  1550.5000    711.7203      2.7625    100.9669      0.0000
  1550.7500    738.6957      2.8882     98.8369      0.0000
  1551.0000    763.2493      3.0101     97.2076      0.0000
  1551.2500    777.5590      3.0927     96.4706      0.0000
  1551.5000    778.3389      3.1092     96.9249      0.0000
  1551.7500    768.8372      3.0583     98.5272      0.0000
  1552.0000    755.7960      2.9692    100.7871      0.0000
  1552.2500    744.7044      2.8899    102.9305      0.0000
  1552.5000    737.5338      2.8634    104.2678      0.0000
  1552.7500    733.5767      2.9056    104.5532      0.0000
  1553.0000    731.2005      3.0046    104.0876      0.0000
  1553.2500    728.9666      3.1384    103.4586      0.0000
  1553.5000    726.3527      3.2855    103.0842      0.0000
  1553.7500    724.1462      3.4177    102.9106      0.0000
  1554.0000    723.5596      3.5005    102.4635      0.0000
  1554.2500    724.0512      3.5134    101.1483      0.0000
  1554.5000    722.6740      3.4630     98.5202      0.0000
  1554.7500    717.1276      3.3681     94.4200      0.0000
  1555.0000    709.4940      3.2379     89.0208      0.0000
  1555.2500    705.2768      3.0730     82.8339      0.0000
  1555.5000    707.8817      2.8862     76.5992      0.0000
  1555.7500    715.0380      2.7163     71.0427      0.0000
  1556.0000    720.8582      2.6181     66.6321      0.0000
  1556.2500    720.1285      2.6356     63.4885      0.0000
  1556.5000    710.3942      2.7840     61.5043      0.0000
  1556.7500    692.3898      3.0516     60.5520      0.0000
  1557.0000    670.9744      3.4110     60.6367      0.0000
  1557.2500    655.3264      3.8207     61.9243      0.0000
  1557.5000    655.1420      4.2240     64.6532      0.0000
  1557.7500    673.7685      4.5630     68.9752      0.0000
  1558.0000    705.2797      4.8093     74.7643      0.0000
  1558.2500    739.2633      4.9938     81.5098      0.0000
  1558.5000    767.4961      5.2133     88.4293      0.0000
  1558.7500    785.8344      5.6054     94.7912      0.0000
  1559.0000    792.7650      6.2869    100.2260      0.0000
  1559.2500    788.9688      7.2830    104.8196      0.0000
  1559.5000    777.5172      8.5011    108.9673      0.0000
  1559.7500    762.0063      9.7859    113.1527      0.0000
  1560.0000    742.9655     11.0237    117.7334      0.0000
  1560.2500    716.4649     12.1970    122.7475      0.0000
  1560.5000    678.7411     13.3166    127.8199      0.0000
  1560.7500    635.2742     14.2914    132.2817      0.0000
  1561.0000    603.6973     14.9016    135.5186      0.0000
  1561.2500    601.7558     14.9472    137.3382      0.0000
  1561.5000    630.4658     14.4308    138.0872      0.0000
  1561.7500    672.8433     13.5807    138.3877      0.0000
  1562.0000    709.7583     12.6938    138.6547      0.0000
  1562.2500    733.5758     11.9561    138.7480      0.0000
  1562.5000    747.4911     11.3928    138.0730      0.0000
  1562.7500    757.2319     10.9505    136.0996      0.0000
  1563.0000    765.6573     10.5925    132.8935      0.0000
  1563.2500    772.7949     10.3167    129.2181      0.0000
  1563.5000    778.1159     10.1261    126.1290      0.0000
  1563.7500    782.0421     10.0261    124.3811      0.0000
  1564.0000    785.9221     10.0285    124.0862      0.0000
  1564.2500    791.4329     10.1133    124.7859      0.0000
  1564.5000    800.1100     10.2035    125.8109      0.0000
  1564.7500    812.9997     10.2550    126.6653      0.0000
  1565.0000    830.3351     10.3792    127.1878      0.0000
  1565.2500    850.6197     10.7912    127.4411      0.0000
  1565.5000    868.6945     11.5950    127.5171      0.0000
  1565.7500    875.6996     12.6568    127.5095      0.0000
  1566.0000    864.5712     13.6974    127.6916      3.0000
  1566.2500    836.8307     14.4684    128.6367     -3.0000
  1566.5000    800.9715     14.8601    131.0047      0.0000
  1566.7500    763.9774     14.9152    135.0543      0.0000
  1567.0000    728.5799     14.7613    140.2541      0.0000
  1567.2500    699.1594     14.5016    145.3342      0.0000
  1567.5000    684.0797     14.1702    148.7964      0.0000
  1567.7500    687.9678     13.8075    149.5864      0.0000
  1568.0000    704.9689     13.5017    147.6114      0.0000
  1568.2500    723.5093     13.2980    143.8224      0.0000
  1568.5000    735.9154     13.1359    139.7938      0.0000
  1568.7500    741.4022     12.9307    136.9807      0.0000
  1569.0000    742.2513     12.6580    136.0979      0.0000
  1569.2500    739.9899     12.3255    136.9974      0.0000
  1569.5000    734.8450     11.9269    139.0540      0.0000
  1569.7500    727.1130     11.4594    141.6543      0.0000
  1570.0000    718.0154     10.9550    144.3600      0.0000
  1570.2500    708.7631     10.4670    146.7587      0.0000
  1570.5000    698.7266     10.0344    148.3259      0.0000
  1570.7500    685.6017      9.6669    148.5612      0.0000
  1571.0000    668.7066      9.3592    147.2928      0.0000
  1571.2500    652.1895      9.1138    144.8411      0.0000
  1571.5000    643.3835      8.9447    141.8501      0.0000
  1571.7500    646.7769      8.8646    138.9644      0.0000
  1572.0000    660.0677      8.8732    136.6305      0.0000
  1572.2500    676.7040      8.9560    135.1228      0.0000
  1572.5000    691.5801      9.0876    134.6210      0.0000
  1572.7500    703.6895      9.2410    135.1792      0.0000
  1573.0000    714.2548      9.4025    136.6107      0.0000
  1573.2500    723.8712      9.5703    138.4129      0.0000
  1573.5000    731.8802      9.7303    139.8960      0.0000
  1573.7500    737.6469      9.8410    140.4576      0.0000
  1574.0000    741.6101      9.8547    139.8232      0.0000
  1574.2500    744.9911      9.7541    138.0650      0.0000
  1574.5000    748.7136      9.5672    135.4070      0.0000
  1574.7500    752.6299      9.3533    132.0041      0.0000
  1575.0000    755.8287      9.1748    127.8908      0.0000
