~Version Information
VERS.                      2.0: CWLS Log ASCII Standard - VERSION 2.0
WRAP.                       NO: One line per depth step
~Well Information Block
STRT.FT               870.0000: 
STOP.FT              2517.5000: 
STEP.FT                 0.1000: 
NULL.                -999.2500: 
COMP.          Pioneer Natural Resources: COMPANY
WELL.              Tiaga 23-14: WELL
FLD.           Purgatoire River: FIELD
LOC.           2168' FSL & 2030' FWL: LOCATION
PROV.                 Colorado: PROVINCE
CNTY.               Las Animas: COUNTRY
SRVC.                         : SERVICE COMPANY
DATE.          Sat May 07 09:09:05 2005: LOG DATE
UWI.           05 071 08329 00: UNIQUE WELL ID
~Curve Information Block
DEPT.FT            0 000 00 00: Depth
LTEN.lb                       : Surface Line Tension
DCAL.in                       : CDL Caliper
RHOC.g/cc                     : CDL Density Correction
DPOR.pu                       : CDL Density Porosity
GR.GAPI                       : Gamma Ray
NPOR.pu                       : Neutron Porosity
~Parameter Information Block
~A  Depth       LTEN        DCAL        RHOC        DPOR         GR         NPOR    
# ...
  2281.2000   1145.6259      7.9090      0.0413      6.6322     75.4544     27.8236
  2281.3000   1162.3114      7.9068      0.1145      4.5925     72.9201     26.5451
  2281.4000   1162.3114      7.9068      0.1013      4.0814     70.6076     25.4972
  2281.5000   1157.4742      7.9075      0.0565      4.3985     72.2585     25.4309
  2281.6000   1157.4742      7.9075      0.1011      4.6501     75.3419     25.7415
  2281.7000   1157.4742      7.9075      0.1084      5.4617     76.2684     25.6524
  2281.8000   1150.5297      7.9026      0.0271      6.9632     74.9644     25.7408
  2281.9000   1150.5297      7.9026      0.0284      8.5359     75.9722     26.6196
  2282.0000   1191.9937      7.9053      0.0207      9.8553     80.0097     27.5705
  2282.1000   1191.9937      7.9053      0.0060     10.3740     82.0001     27.8116
  2282.2000   1191.9937      7.9053      0.0017      9.7963     80.6043     27.4979
  2282.3000   1141.4697      7.9085      0.0471      8.6424     82.0857     27.3082
  2282.4000   1141.4697      7.9085      0.0496      7.6191     87.1980     27.6831
  2282.5000   1197.8727      7.9423      0.0546      7.1892     89.2639     28.1999
  2282.6000   1197.8727      7.9423      0.0628      7.4577     89.1719     28.6303
  2282.7000   1197.8727      7.9423      0.0541      7.6472     89.9573     29.0165
  2282.8000   1148.4475      7.9482      0.0627      6.9366     88.3554     28.8320
  2282.9000   1148.4475      7.9482      0.0929      6.3105     84.2001     27.8677
  2283.0000   1209.9939      7.9405      0.0934      7.3303     81.8727     26.9432
  2283.1000   1209.9939      7.9405      0.0439      9.7142     80.9187     26.8659
  2283.2000   1209.9939      7.9405     -0.0031     12.2925     79.8528     27.6169
  2283.3000   1131.3274      7.9098      0.0026     14.1845     80.1258     28.4654
  2283.4000   1131.3274      7.9098      0.0052     14.7359     81.8077     28.9519
  2283.5000   1246.7584      7.8834      0.0149     13.8848     84.4005     29.2890
  2283.6000   1246.7584      7.8834      0.0442     12.0664     85.7241     29.5703
  2283.7000   1246.7584      7.8834      0.0903      9.8294     84.2218     29.4824
  2283.8000   1168.2849      7.8757      0.0888      8.0467     83.4800     28.9459
  2283.9000   1168.2849      7.8757      0.1221      7.3198     86.0981     28.7630
  2284.0000   1232.0494      7.8755      0.0906      7.0011     90.1827     29.7320
  2284.1000   1232.0494      7.8755      0.1065      6.5565     93.2927     30.9509
  2284.2000   1232.0494      7.8755      0.0892      6.6875     92.1377     30.6574
  2284.3000   1155.0339      7.8831      0.0427      7.4628     86.1030     28.9941
  2284.4000   1155.0339      7.8831      0.0035      7.7013     79.7044     27.1959
  2284.5000   1185.8696      7.8888      0.0701      7.2366     76.7548     25.9793
  2284.6000   1185.8696      7.8888      0.0628      7.2570     75.9594     25.6732
  2284.7000   1185.8696      7.8888      0.0273      7.7791     74.2675     25.9846
  2284.8000   1146.3239      7.8912      0.0174      7.2014     71.9573     26.5516
  2284.9000   1146.3239      7.8912      0.1123      5.3074     71.3701     27.3048
  2285.0000   1166.5851      7.9035      0.0960      4.0406     74.2358     27.8452
  2285.1000   1166.5851      7.9035      0.0626      4.1339     77.9951     27.6861
  2285.2000   1166.5851      7.9035      0.0886      4.2964     78.6294     27.0853
  2285.3000   1133.3668      7.8994      0.0938      4.0134     78.1740     26.9099
  2285.4000   1133.3668      7.8994      0.0958      3.9596     79.7240     27.3848
  2285.5000   1120.1472      7.9023      0.0519      4.4540     81.4164     27.7989
  2285.6000   1120.1472      7.9023      0.0565      5.2897     80.8183     27.5791
  2285.7000   1120.1472      7.9023      0.0127      6.0762     77.5230     27.2856
  2285.8000   1164.9438      7.9187      0.0398      6.4450     72.7736     27.6152
  2285.9000   1164.9438      7.9187      0.0887      6.9273     69.4067     28.2449
  2286.0000   1098.4360      7.9365      0.0360      8.2076     67.4492     28.5507
  2286.1000   1098.4360      7.9365      0.0159      9.3034     64.6345     28.4400
  2286.2000   1098.4360      7.9365     -0.0097      8.9386     63.3624     28.2954
  2286.3000   1219.5925      7.9207      0.0859      7.8689     65.8479     28.3234
  2286.4000   1219.5925      7.9207      0.0671      7.6586     68.9167     28.2700
  2286.5000   1147.3110      7.9354      0.0561      8.0052     70.3531     27.8890
  2286.6000   1147.3110      7.9354      0.1008      8.0163     70.5130     27.1254
  2286.7000   1147.3110      7.9354      0.0573      7.5275     69.0090     26.1236
  2286.8000   1188.8336      7.9165      0.0889      6.5680     65.8976     25.6036
  2286.9000   1188.8336      7.9165      0.1082      5.9686     63.5875     25.8868
  2287.0000   1158.2396      7.9188      0.0557      6.0560     63.4017     26.3583
  2287.1000   1158.2396      7.9188      0.0814      5.6729     63.9457     26.7090
  2287.2000   1158.2396      7.9188      0.0964      4.5931     65.5060     27.1126
  2287.3000   1109.0140      7.9193      0.0746      4.0253     67.3231     27.1518
  2287.4000   1109.0140      7.9193      0.0186      4.2321     65.8781     26.8469
  2287.5000   1185.3102      7.9292      0.0323      3.9012     62.7928     27.0441
  2287.6000   1185.3102      7.9292      0.0370      2.4738     63.5208     27.1195
  2287.7000   1185.3102      7.9292      0.1203      1.7495     68.0082     26.2930
  2287.8000   1124.4543      7.9188      0.0446      3.3226     71.7045     25.3537
  2287.9000   1124.4543      7.9188      0.0225      5.7775     74.0547     25.2222
  2288.0000   1214.7147      7.9126      0.0333      7.1831     76.8213     25.6595
  2288.1000   1214.7147      7.9126      0.0489      7.5195     78.4621     25.9907
  2288.2000   1214.7147      7.9126      0.0335      7.3910     76.7779     26.3655
  2288.3000   1146.4501      7.9156      0.0564      7.1721     73.0712     26.8718
  2288.4000   1146.4501      7.9156      0.0790      7.0044     68.1393     26.7617
  2288.5000   1199.3955      7.9188      0.0796      6.8349     64.0626     25.9056
  2288.6000   1199.3955      7.9188      0.0625      6.9656     65.4909     25.1159
  2288.7000   1199.3955      7.9188      0.0344      7.3404     71.1893     25.0094
  2288.8000   1146.1759      7.9175      0.0745      7.6281     75.6505     25.3680
  2288.9000   1146.1759      7.9175      0.0586      8.0271     77.0034     25.7553
  2289.0000   1190.3206      7.9061      0.0339      8.4490     75.8355     26.2987
  2289.1000   1190.3206      7.9061      0.0787      8.3912     72.0586     27.2605
  2289.2000   1190.3206      7.9061      0.0580      7.4235     67.3989     28.1837
  2289.3000   1198.0646      7.8905      0.0985      5.8225     65.6219     28.1737
  2289.4000   1198.0646      7.8905      0.1159      4.7960     67.2781     26.8501
  2289.5000   1194.4475      7.9099      0.1018      5.2999     69.8559     25.3456
  2289.6000   1194.4475      7.9099      0.0203      6.3788     71.4530     25.3270
  2289.7000   1194.4475      7.9099      0.0233      6.4178     72.0201     26.8330
  2289.8000   1197.6759      7.9134      0.1152      6.2508     72.0013     28.3520
  2289.9000   1197.6759      7.9134      0.0085      7.3005     71.0169     28.9448
  2290.0000   1184.7714      7.9076      0.0556      8.9895     66.5281     29.1613
  2290.1000   1184.7714      7.9076     -0.0166     10.2967     58.3611     29.3851
  2290.2000   1184.7714      7.9076     -0.0154     10.2479     51.6209     29.5283
  2290.3000   1179.5398      7.9082      0.0546      8.4600     48.7428     29.8140
  2290.4000   1179.5398      7.9082      0.0460      6.0098     48.1493     29.8473
  2290.5000   1157.0964      7.9153      0.0620      4.0546     49.2951     28.9949
  2290.6000   1157.0964      7.9153      0.0095      2.0063     50.2652     27.7667
  2290.7000   1157.0964      7.9153      0.0358     -2.0861     49.1776     27.0535
