~Version Information
 VERS.                                  2.0 : CWLS LAS VERSION
 WRAP.                                   NO : WRAPING MODE
 SWARE .                 MController 2.5.0N : SOFTWARE VERSION
~Well Information
 WELL.                   Sand Pebbles 13-33 : WELL
 COMP.    Pioneer Natural Resources USA Inc : COMPANY
 FLD.                      Purgatoire River : FIELD
 LOC.                 NW/SW Sec 33 T32S R67W : LOCATION
 DATE.                           3/08-10/05 : DATE(S) LOGGED
 SRVC.         Blanco Geological Services LLC : SERVICE COMPANY
 STAT.                                   CO : STATE
 CNTY.                           Las Animas : COUNTY
 CTRY.                                  USA : COUNTRY
 API.                       05-071-08224-00 : API NUMBER
 STRT.FT                             655.00 : START DEPTH
 STOP.FT                            2730.00 : STOP DEPTH
 STEP.FT                               1.00 : DEPTH INCREMENT
 NULL.                                -9999 : NULL VALUE
~Curve information
 DEPTH.FT                                   :
 ROP.MIN/FT                                 :
 GAS.UNITS                                  :
~ASCII Log data
# ...
      2055.0         0.40        102.3 
      2056.0         0.40        102.5 
      2057.0         0.33         87.0 
      2058.0         0.33         43.4 
      2059.0         0.30         25.8 
      2060.0         0.30         16.6 
      2061.0         0.37          9.4 
      2062.0         0.38          6.5 
      2063.0         0.37          6.2 
      2064.0         0.47          9.0 
      2065.0         0.40         20.9 
      2066.0         0.27         22.7 
      2067.0         0.20         20.7 
      2068.0         0.23         15.8 
      2069.0         0.23         11.4 
      2070.0         0.37          8.6 
      2071.0         9.02         17.4 
      2072.0         0.13         17.5 
      2073.0         0.13         18.1 
      2074.0         0.73         24.0 
      2075.0         0.40         27.7 
      2076.0         0.62         33.7 
      2077.0         0.63          5.4 
      2078.0         0.47          4.8 
      2079.0         0.57          6.4 
      2080.0         0.40         10.4 
      2081.0         0.43         15.4 
      2082.0         0.65         19.4 
      2083.0         0.43         25.9 
      2084.0         0.43         29.3 
      2085.0         0.43         28.2 
      2086.0         0.50         20.0 
      2087.0         0.37         15.1 
      2088.0         0.47         14.5 
      2089.0         0.47         11.5 
      2090.0         0.48         10.4 
      2091.0         0.37          7.7 
      2092.0         0.37          6.4 
      2093.0         0.50          5.5 
      2094.0         0.47          5.1 
      2095.0         0.53          5.3 
      2096.0         0.40          5.1 
      2097.0         0.42          5.3 
      2098.0         0.37          5.7 
      2099.0         0.40          5.4 
      2100.0         0.40          5.2 
      2101.0        21.90          5.7 
      2102.0         6.00         48.3 
      2103.0         0.33         48.6 
      2104.0         0.27         49.6 
      2105.0         0.32         53.6 
      2106.0         0.27         65.2 
      2107.0         0.30         67.1 
      2108.0         0.30         23.9 
      2109.0         0.37          7.9 
      2110.0         0.37          5.4 
      2111.0         0.40          5.8 
      2112.0         0.47          6.8 
      2113.0         0.57         10.6 
      2114.0         0.55         16.6 
      2115.0         0.47         23.9 
      2116.0         0.33         28.5 
      2117.0         0.30         31.3 
      2118.0         0.30         34.3 
      2119.0         0.27         36.4 
      2120.0         0.27         37.6 
      2121.0         0.30         37.5 
      2122.0         0.37         36.1 
      2123.0         0.37         29.3 
      2124.0         0.35         19.5 
      2125.0         0.27         12.2 
      2126.0         0.23          8.9 
      2127.0         0.27          7.1 
      2128.0         0.27          6.1 
      2129.0         0.40          5.9 
      2130.0         0.43          7.0 
      2131.0        10.15         14.9 
      2132.0         0.50         16.2 
      2133.0         0.47         22.8 
      2134.0         0.48         36.3 
      2135.0         0.53          7.0 
      2136.0         0.40          5.3 
      2137.0         0.27          5.4 
      2138.0         0.47          5.3 
      2139.0         0.57          5.4 
      2140.0         0.43          5.8 
      2141.0         0.38          6.8 
      2142.0         0.30          7.3 
      2143.0         0.33          6.9 
      2144.0         0.30          7.5 
      2145.0         0.43         14.8 
      2146.0         0.47         11.5 
      2147.0         0.43          8.7 
      2148.0         0.50          6.4 
      2149.0         0.33          6.4 
      2150.0         0.38          6.7 
      2151.0         0.37          7.2 
      2152.0         0.33          7.0 
      2153.0         0.33          7.2 
      2154.0         0.47         11.0 
      2155.0         0.50          8.8 
      2156.0         0.50          7.1 
      2157.0         0.57          6.3 
      2158.0         0.52          6.0 
      2159.0         0.70          5.7 
      2160.0         0.33          5.7 
      2161.0        11.85          5.6 
      2162.0         0.15          5.7 
      2163.0         0.43          5.8 
      2164.0         0.73          5.9 
      2165.0         0.57          6.0 
      2166.0         0.60          6.1 
      2167.0         0.60          6.3 
      2168.0         0.65          8.9 
      2169.0         0.67         14.5 
      2170.0         0.77         19.9 
      2171.0         1.47         39.1 
      2172.0         0.62         25.6 
      2173.0         0.67         17.4 
      2174.0         0.57         14.6 
      2175.0         0.53          9.9 
      2176.0         0.80          7.5 
      2177.0         0.82          7.0 
      2178.0         0.73         14.2 
      2179.0         0.67         24.6 
      2180.0         0.80         28.5 
      2181.0         1.55         16.1 
      2182.0         1.17         11.8 
      2183.0         1.20          7.7 
      2184.0         1.12          5.8 
      2185.0         0.97          6.1 
      2186.0         0.90         11.4 
      2187.0         0.88         16.2 
      2188.0         0.70         11.9 
      2189.0         0.67          8.1 
      2190.0         0.70          7.0 
      2191.0        14.10         18.8 
      2192.0         0.25         20.4 
      2193.0         0.73         32.2 
      2194.0         0.47         49.7 
      2195.0         0.40         33.6 
      2196.0         0.37         17.5 
      2197.0         0.33         10.1 
      2198.0         0.37          8.1 
      2199.0         0.40          8.5 
      2200.0         0.45         11.3 
      2201.0         0.37         15.1 
      2202.0         0.37         18.3 
      2203.0         0.40         18.7 
      2204.0         0.50         19.0 
      2205.0         0.53         21.2 
      2206.0         0.47         23.3 
      2207.0         0.37         25.2 
      2208.0         1.15         19.8 
      2209.0         0.37         16.8 
      2210.0         0.33         13.5 
      2211.0         0.30         11.2 
      2212.0         0.30          9.6 
      2213.0         0.27          8.3 
      2214.0         0.30          6.9 
      2215.0         0.23          6.3 
      2216.0         0.52          5.9 
      2217.0         0.30          5.7 
      2218.0         0.30          5.5 
      2219.0         0.33          5.5 
      2220.0         0.30          5.6 
      2221.0        14.70         22.4 
      2222.0         0.30         23.9 
      2223.0         0.28         26.2 
      2224.0         0.33         28.8 
      2225.0         0.33         38.3 
      2226.0         0.37         43.0 
      2227.0         0.33         22.1 
      2228.0         0.30         14.5 
      2229.0         0.30          9.2 
      2230.0         0.33          7.0 
      2231.0         0.37          6.6 
      2232.0         0.40          7.9 
      2233.0         0.42          9.5 
      2234.0         0.43         12.1 
      2235.0         0.33         14.4 
      2236.0         0.30         16.3 
      2237.0         0.33         21.7 
      2238.0         0.30         26.2 
      2239.0         0.37         31.9 
      2240.0         0.50         27.5 
      2241.0         0.58         21.0 
      2242.0         0.70         20.0 
      2243.0         0.70         14.9 
      2244.0         0.60         12.7 
      2245.0         0.67         14.5 
      2246.0         0.68         14.1 
      2247.0         0.67         11.8 
      2248.0         0.70          9.1 
      2249.0         0.63         10.6 
      2250.0         0.43         13.3 
      2251.0        13.03         58.6 
      2252.0         0.87         42.0 
      2253.0         0.88          8.7 
      2254.0         0.77          8.6 
