~Version Information
VERS.                      2.0: CWLS Log ASCII Standard - VERSION 2.0
WRAP.                       NO: One line per depth step
~Well Information Block
STRT.FT               954.0000: 
STOP.FT              2517.0000: 
STEP.FT                 0.2500: 
NULL.                -999.2500: 
COMP.          Petrogulf Corporation: COMPANY
WELL.             Royal 8-33 V: WELL
FLD.           Purgatoire River: FIELD
LOC.           2365' FSL & 2336' FEL: LOCATION
PROV.                 Colorado: PROVINCE
CNTY.               Las Animas: COUNTRY
SRVC.                Patterson: SERVICE COMPANY
DATE.          Fri Dec 05 04:39:41 2003: LOG DATE
UWI.                          : UNIQUE WELL ID
~Curve Information Block
DEPT.FT            0 000 00 00: Depth
SP.mV                         : DIL Spontaneous Potential
RILD.Ohm-m                    : DIL Deep Resistivity
RILM.Ohm-m                    : DIL Medium Resistivity
RLL3.Ohm-m                    : DIL Shallow Resistivity
GR.GAPI                       : Gamma Ray
~Parameter Information Block
~A  Depth        SP         RILD        RILM        RLL3         GR     
# ...
  1486.0000   -275.4714     23.0209     27.1917     25.4351    105.8968
  1486.2500   -274.7100     23.5434     28.1747     26.5161    105.9624
  1486.5000   -273.9345     23.9395     29.1237     28.3586    105.4929
  1486.7500   -273.1526     24.2221     29.9091     30.7729    104.3533
  1487.0000   -272.4300     24.4252     30.4215     32.9796    101.4221
  1487.2500   -271.8593     24.5908     30.6339     33.9580     99.4652
  1487.5000   -271.4977     24.7597     30.6198     33.2374     98.2625
  1487.7500   -271.3208     24.9631     30.5103     31.3549     98.9766
  1488.0000   -271.2197     25.2161     30.4289     29.4144    101.5238
  1488.2500   -271.0425     25.5140     30.4458     28.1993    103.4557
  1488.5000   -270.6573     25.8332     30.5689     27.7603    105.8866
  1488.7500   -270.0018     26.1387     30.7603     27.7440    106.9997
  1489.0000   -269.0979     26.3970     30.9668     27.9072    107.5126
  1489.2500   -268.0294     26.5907     31.1502     28.2414    106.7397
  1489.5000   -266.9036     26.7239     31.3052     28.7278    103.8683
  1489.7500   -265.8073     26.8180     31.4563     29.1410    101.5193
  1490.0000   -264.7697     26.8988     31.6410     29.1794     99.3651
  1490.2500   -263.7467     26.9868     31.8913     28.7918     99.6654
  1490.5000   -262.6453     27.0917     32.2204     28.3221    102.2403
  1490.7500   -261.3799     27.2121     32.6143     28.2587    104.0825
  1491.0000   -259.9251     27.3396     33.0269     28.8152    104.6636
  1491.2500   -258.3352     27.4664     33.3863     29.7789    103.0486
  1491.5000   -256.7228     27.5906     33.6148     30.7378     98.5036
  1491.7500   -255.2143     27.7138     33.6602     31.3711     95.0539
  1492.0000   -253.9007     27.8331     33.5207     31.5421     90.5064
  1492.2500   -252.8068     27.9394     33.2484     31.2481     88.1998
  1492.5000   -251.8864     28.0239     32.9248     30.5811     86.1242
  1492.7500   -251.0459     28.0848     32.6211     29.7247     85.8003
  1493.0000   -250.1902     28.1238     32.3628     28.9184     86.6792
  1493.2500   -249.2732     28.1324     32.1149     28.3549     87.7242
  1493.5000   -248.3254     28.0864     31.8028     28.0871     89.2808
  1493.7500   -247.4388     27.9593     31.3678     28.0402     90.2015
  1494.0000   -246.7174     27.7474     30.8295     28.1049     91.3633
  1494.2500   -246.2279     27.4880     30.3029     28.2001     91.7231
  1494.5000   -245.9827     27.2491     29.9412     28.2602     90.8957
  1494.7500   -245.9579     27.0962     29.8435     28.2118     89.2448
  1495.0000   -246.1208     27.0564     29.9953     27.9935     85.5908
  1495.2500   -246.4464     27.1053     30.2762     27.6059     82.8834
  1495.5000   -246.9198     27.1841     30.5335     27.1412     79.4065
  1495.7500   -247.5255     27.2356     30.6720     26.7524     78.2063
  1496.0000   -248.2283     27.2342     30.6932     26.5646     79.3205
  1496.2500   -248.9593     27.1931     30.6587     26.5899     82.1626
  1496.5000   -249.6182     27.1482     30.6273     26.7243     88.1731
  1496.7500   -250.0922     27.1385     30.6209     26.8276     91.9097
  1497.0000   -250.2833     27.1912     30.6339     26.8150     95.1439
  1497.2500   -250.1333     27.3191     30.6603     26.6892     95.5250
  1497.5000   -249.6378     27.5267     30.7113     26.5079     94.7145
  1497.7500   -248.8480     27.8129     30.8093     26.3415     94.2534
  1498.0000   -247.8625     28.1611     30.9704     26.2743     94.3407
  1498.2500   -246.8062     28.5208     31.1940     26.4177     94.4309
  1498.5000   -245.7971     28.8094     31.4703     26.8564     93.1160
  1498.7500   -244.9107     28.9550     31.7931     27.5517     90.6831
  1499.0000   -244.1622     28.9550     32.1637     28.3285     84.7955
  1499.2500   -243.5109     28.8859     32.5793     28.9863     80.0125
  1499.5000   -242.8815     28.8501     33.0177     29.4181     73.1340
  1499.7500   -242.1938     28.9138     33.4351     29.6378     69.5465
  1500.0000   -241.3924     29.0848     33.7834     29.7312     66.0409
  1500.2500   -240.4649     29.3318     34.0346     29.7956     64.5374
  1500.5000   -239.4411     29.6128     34.1929     29.8982     62.5121
  1500.7500   -238.3818     29.8955     34.2869     30.0609     60.9884
  1501.0000   -237.3663     30.1666     34.3485     30.2686     58.4280
  1501.2500   -236.4711     30.4367     34.3981     30.4869     56.6111
  1501.5000   -235.7330     30.7364     34.4446     30.6808     53.8315
  1501.7500   -235.1169     31.1063     34.4966     30.8376     52.1548
  1502.0000   -234.5233     31.5849     34.5769     30.9945     50.5763
  1502.2500   -233.8426     32.2082     34.7373     31.2477     50.4485
  1502.5000   -233.0162     33.0127     35.0664     31.7310     51.5250
  1502.7500   -232.0636     34.0278     35.6770     32.5793     52.7381
  1503.0000   -231.0636     35.2450     36.6624     33.8971     54.6375
  1503.2500   -230.1119     36.5771     38.0443     35.7399     55.6005
  1503.5000   -229.2802     37.8514     39.7501     38.1088     55.9795
  1503.7500   -228.5944     38.8814     41.6506     40.9456     55.2628
  1504.0000   -228.0428     39.5932     43.6415     44.1162     52.8332
  1504.2500   -227.6054     40.0961     45.7015     47.4014     50.7380
  1504.5000   -227.2833     40.6148     47.8849     50.5400     47.7985
  1504.7500   -227.1080     41.3506     50.2703     53.3291     46.3094
  1505.0000   -227.1266     42.3879     52.9170     55.7269     44.8938
  1505.2500   -227.3745     43.6950     55.8523     57.8854     44.4215
  1505.5000   -227.8507     45.1874     59.0820     60.0631     44.2695
  1505.7500   -228.5000     46.7979     62.6141     62.4448     44.4832
  1506.0000   -229.2098     48.5045     66.4664     65.0224     45.2800
  1506.2500   -229.8339     50.3044     70.6438     67.6922     46.0970
  1506.5000   -230.2468     52.1671     75.0781     70.4628     47.4074
  1506.7500   -230.3984     54.0078     79.5700     73.4733     48.0142
  1507.0000   -230.3260     55.6932     83.7467     76.7668     48.1942
  1507.2500   -230.1173     57.0837     87.0536     80.1233     47.9249
  1507.5000   -229.8506     58.0886     88.8686     83.1623     47.3718
  1507.7500   -229.5468     58.7080     88.8461     85.5343     47.0650
  1508.0000   -229.1561     59.0278     87.2627     86.9556     46.6974
  1508.2500   -228.5905     59.1584     84.9304     87.1512     46.4534
  1508.5000   -227.7813     59.1580     82.6808     85.9246     45.9003
  1508.7500   -226.7163     59.0044     80.9462     83.3420     45.2322
  1509.0000   -225.4334     58.6493     79.7219     79.7860     43.8436
  1509.2500   -223.9987     58.1044     78.7729     75.7456     43.2027
  1509.5000   -222.5010     57.4613     77.8516     71.5181     43.9891
  1509.7500   -221.0560     56.8248     76.7970     67.1251     45.9874
  1510.0000   -219.7948     56.2246     75.5332     62.5369     50.2669
  1510.2500   -218.8298     55.5900     74.0633     57.9796     52.9153
  1510.5000   -218.2132     54.7963     72.4774     54.0136     55.0453
  1510.7500   -217.9164     53.7480     70.9265     51.3167     54.9124
  1511.0000   -217.8571     52.4356     69.5345     50.3820     52.8435
  1511.2500   -217.9609     50.9423     68.3217     51.3512     50.8122
  1511.5000   -218.2060     49.3924     67.1946     53.9848     47.7564
  1511.7500   -218.6100     47.8949     66.0004     57.6546     46.0882
  1512.0000   -219.1753     46.4961     64.6012     61.3784     44.5743
  1512.2500   -219.8523     45.1637     62.9358     64.0491     44.3518
  1512.5000   -220.5596     43.8236     61.0523     64.8485     44.8172
  1512.7500   -221.2352     42.4533     59.1029     63.5763     45.0785
  1513.0000   -221.8771     41.1654     57.3025     60.6637     44.6030
  1513.2500   -222.5469     40.1816     55.8690     56.9340     43.7518
  1513.5000   -223.3413     39.6948     54.9621     53.2996     42.2674
  1513.7500   -224.3420     39.7284     54.6386     50.4770     41.3372
