~Version Information
VERS.                      2.0: CWLS Log ASCII Standard - VERSION 2.0
WRAP.                       NO: One line per depth step
~Well Information Block
STRT.FT               -19.5000: 
STOP.FT              2456.0000: 
STEP.FT                 0.2500: 
NULL.                -999.2500: 
COMP.          Petrogulf Corporation: COMPANY
WELL.           Montoya 12-44V: WELL
FLD.           Purgatorie River: FIELD
LOC.           698' FSL & 599' FEL: LOCATION
CNTY.               Las Animas: COUNTY
SRVC.                         : SERVICE COMPANY
DATE.          Mon Sep 13 13:44:10 2004: LOG DATE
UWI.           05-071-08094-00: UNIQUE WELL ID
STAT.                 Colorado: STATE
~Curve Information Block
DEPT.FT            0 000 00 00: Depth
TT3.usec                      : CBL 3' Travel Time
AMP3.mV                       : CBL 3' Amplitude
GR.GAPI                       : Gamma Ray
CCL.                          : Casing Collar Locator
~Parameter Information Block
~A  Depth       TT3         AMP3         GR         CCL     
# ...
   483.0000    337.3916     11.5813    111.2929      0.0000
   483.2500    337.1483     11.7331    110.4923      0.0000
   483.5000    336.8976     11.8784    109.3825      0.0000
   483.7500    336.7351     11.9928    107.4716      0.0000
   484.0000    336.6853     12.0565    104.5449      0.0000
   484.2500    336.6776     12.0727    101.3503      0.0000
   484.5000    336.6894     12.0567     99.3332      0.0000
   484.7500    336.7346     12.0214     99.7462      0.0000
   485.0000    336.7346     11.9854    102.9249      0.0000
   485.2500    336.5892     11.9753    108.1073      0.0000
   485.5000    336.3224     11.9966    113.7067      0.0000
   485.7500    336.0361     12.0348    117.7984      0.0000
   486.0000    335.7957     12.0888    118.8043      0.0000
   486.2500    335.6345     12.1590    116.1820      0.0000
   486.5000    335.5840     12.2170    110.5805      0.0000
   486.7500    335.6705     12.2275    103.4283      0.0000
   487.0000    335.9128     12.1713     96.4674      0.0000
   487.2500    336.2872     12.0338     91.1363      0.0000
   487.5000    336.7140     11.8311     87.7383      0.0000
   487.7500    337.0960     11.6402     85.3846      0.0000
   488.0000    337.3795     11.5304     83.1283      0.0000
   488.2500    337.6313     11.4838     80.8776      0.0000
   488.5000    338.1827     11.4358     79.0772      0.0000
   488.7500    340.0411     11.3565     78.0226      0.0000
   489.0000    345.0154     11.2595     77.6901      0.0000
   489.2500    353.4514     11.1701     77.8866      0.0000
   489.5000    360.8747     11.1112     78.4447      0.0000
   489.7500    360.9774     11.0946     79.5155      0.0000
   490.0000    353.7728     11.1102     81.6705      0.0000
   490.2500    345.5303     11.1362     85.4578      0.0000
   490.5000    340.6383     11.1714     90.8069      0.0000
   490.7500    338.7658     11.2362     96.9042      0.0000
   491.0000    338.2206     11.3306    102.5396      0.0000
   491.2500    338.1207     11.4246    106.6649      0.0000
   491.5000    338.2264     11.4967    109.0382      0.0000
   491.7500    338.4194     11.5590    110.4509      0.0000
   492.0000    338.4950     11.6440    111.8878      0.0000
   492.2500    338.3092     11.7610    113.2545      0.0000
   492.5000    337.9718     11.8699    113.3971      0.0000
   492.7500    337.7121     11.9319    111.6400      0.0000
   493.0000    337.6635     11.9516    108.8322      0.0000
   493.2500    337.8628     11.9365    106.5728      0.0000
   493.5000    338.2655     11.8730    105.8318      0.0000
   493.7500    338.7154     11.7647    106.4236      0.0000
   494.0000    339.0858     11.6383    107.1105      0.0000
   494.2500    339.3589     11.5240    105.8951      0.0000
   494.5000    339.5052     11.4679    100.9593      0.0000
   494.7500    339.5058     11.5067     92.0323      0.0000
   495.0000    339.4059     11.5996     80.7403      0.0000
   495.2500    339.2697     11.6546     69.3407      0.0000
   495.5000    339.2196     11.6290     59.2057      0.0000
   495.7500    339.5928     11.5454     50.6900      0.0000
   496.0000    341.2183     11.4176     44.1393      0.0000
   496.2500    345.1226     11.2308     40.3775      0.0000
   496.5000    350.3979     11.0113     40.0443      0.0000
   496.7500    352.9891     10.8560     42.9630      0.0000
   497.0000    350.2280     10.8544     48.3622      0.0000
   497.2500    345.0846     11.0066     55.3174      0.0000
   497.5000    342.4193     11.2258     62.9618      0.0000
   497.7500    344.2917     11.3877     70.7250      0.0000
   498.0000    349.0760     11.4021     78.3182      0.0000
   498.2500    352.2511     11.2763     85.0517      0.0000
   498.5000    351.5317     11.0832     89.4225      0.0000
   498.7500    351.2550     10.8715     90.1460      0.0000
   499.0000    356.7209     10.6434     87.8344      0.0000
   499.2500    366.6647     10.4032     85.1144      0.0000
   499.5000    375.5023     10.1933     84.6019      0.0000
   499.7500    380.3252     10.0650     86.9363      0.0000
   500.0000    382.2841     10.0106     90.9044      0.0000
   500.2500    383.2371      9.9573     94.8895      0.0000
   500.5000    383.8348      9.8454     97.7729      0.0000
   500.7500    384.0136      9.6860     99.0172      0.0000
   501.0000    383.8019      9.5204     98.6362      0.0000
   501.2500    383.3840      9.3671     97.1187      0.0000
   501.5000    382.8436      9.2308     95.0627      0.0000
   501.7500    382.1855      9.1055     92.8404      0.0000
   502.0000    381.4583      8.9779     90.5673      0.0000
   502.2500    380.7865      8.8659     88.1767      0.0000
   502.5000    380.3177      8.8155     85.4895      0.0000
   502.7500    380.0895      8.8475     82.3807      0.0000
   503.0000    380.0090      8.9296     78.9589      0.0000
   503.2500    379.9597      9.0055     75.6397      0.0000
   503.5000    379.8635      9.0427     73.0974      0.0000
   503.7500    379.7213      9.0476     72.0292      0.0000
   504.0000    379.6662      9.0403     72.8134      0.0000
   504.2500    379.8412      9.0278     75.3697      0.0000
   504.5000    380.1403      8.9972     79.2292      0.0000
   504.7500    380.2530      8.9314     83.5645      0.0000
   505.0000    380.0166      8.8390     87.3840      0.0000
   505.2500    379.5677      8.7531     90.1068      0.0000
   505.5000    379.2068      8.7018     92.0303      0.0000
   505.7500    379.2020      8.6840     94.0739      0.0000
   506.0000    379.6585      8.6686     96.8367      0.0000
   506.2500    380.5111      8.6241     99.6618      0.0000
   506.5000    381.5596      8.5549    100.5798      0.0000
   506.7500    382.5699      8.4885     97.5191      0.0000
   507.0000    383.3924      8.4316     90.0599      0.0000
   507.2500    383.8957      8.3763     80.1328      0.0000
   507.5000    383.9555      8.3300     70.7870      0.0000
   507.7500    383.6880      8.3048     64.0951      0.0000
   508.0000    383.4446      8.3008     60.2223      0.0000
   508.2500    383.4542      8.3148     58.3681      0.0000
   508.5000    383.6464      8.3445     58.1825      0.0000
   508.7500    383.8000      8.3775     60.0186      0.0000
   509.0000    383.5796      8.3940     64.0977      0.0000
   509.2500    382.0602      8.3827     69.9143      0.0000
   509.5000    377.3310      8.3484     76.5921      0.0000
   509.7500    368.0718      8.3096     83.5801      0.0000
   510.0000    356.4520      8.2860     90.7730      0.0000
   510.2500    347.1103      8.2739     97.9832      0.0000
   510.5000    342.3419      8.2560    104.5629      0.0000
   510.7500    340.8766      8.2386    109.7790      0.0000
   511.0000    340.7549      8.2476    113.4526      0.0000
   511.2500    341.0060      8.2901    115.9428      0.0000
   511.5000    341.3095      8.3387    117.6625      0.0000
   511.7500    341.5767      8.3543    118.9200      0.0000
   512.0000    341.8278      8.3296    120.0026      0.0000
   512.2500    342.0142      8.3109    121.0199      0.0000
   512.5000    341.9767      8.3621    121.6724      0.0000
   512.7500    341.7084      8.4829    121.3445      0.0000
   513.0000    341.6836      8.5802    119.4038      0.0000
   513.2500    343.0467      8.5535    115.5609      0.0000
   513.5000    347.4874      8.3846    110.2916      0.0000
   513.7500    355.5967      8.1340    104.8707      0.0000
   514.0000    364.5148      7.8758    100.6191      0.0000
   514.2500    370.3523      7.6061     97.9959      0.0000
   514.5000    373.0535      7.2536     96.5323      0.0000
   514.7500    373.5256      6.9059     95.5583      0.0000
   515.0000    369.6595      6.8196     94.8078      0.0000
   515.2500    361.4575      7.0413     94.3446      0.0000
   515.5000    353.7638      7.3318     94.2376      2.0767
   515.7500    350.8870      7.4974     94.5838      0.0000
   516.0000    354.2298      7.5325     95.7113     -4.7089
   516.2500    364.2870      7.4979     97.9489      0.0000
