~Version Information
VERS.                      2.0: CWLS Log ASCII Standard - VERSION 2.0
WRAP.                       NO: One line per depth step
~Well Information Block
STRT.FT               375.0000: 
STOP.FT              1727.7000: 
STEP.FT                 0.1000: 
NULL.                -999.2500: 
COMP.          Pioneer Natural Resources: COMPANY
WELL.          Warrior 33-1 Tr: WELL
FLD.           Purgatoire River: FIELD
LOC.           2648' FSL & 2341' FEL--: LOCATION
PROV.                 Colorado: PROVINCE
CNTY.               Las Animas: COUNTRY
SRVC.                Patterson: SERVICE COMPANY
DATE.          Sat Jun 18 07:53:12 2005: LOG DATE
UWI.           05 071 08412 00: UNIQUE WELL ID
~Curve Information Block
DEPT.FT            0 000 00 00: Depth
DCAL.in                       : CDL Caliper
RHOB.g/cc                     : CDL Bulk Density
RHOC.g/cc                     : CDL Density Correction
DPOR.pu                       : CDL Density Porosity
NPOR.pu                       : Neutron Porosity
GR.GAPI                       : Gamma Ray
~Parameter Information Block
~A  Depth       DCAL        RHOB        RHOC        DPOR        NPOR         GR     
# ...
   643.8000      8.1791      2.4368      0.0393     12.9197     29.4773    157.1507
   643.9000      8.1791      2.4211      0.0425     13.8735     29.4893    152.0741
   644.0000      8.1780      2.3796      0.0333     16.3867     30.1705    142.4049
   644.1000      8.1780      2.3238     -0.0292     19.7708     30.7340    135.8801
   644.2000      8.1780      2.2788     -0.0384     22.4957     30.9374    136.1488
   644.3000      8.1725      2.2672     -0.0510     23.2027     31.0320    140.7437
   644.4000      8.1725      2.2854      0.0452     22.0945     31.0640    140.2282
   644.5000      8.1656      2.3056      0.0840     20.8747     31.0558    132.4034
   644.6000      8.1656      2.3167      0.0506     20.2021     31.0301    127.4396
   644.7000      8.1656      2.3353      0.0794     19.0738     30.6395    127.7267
   644.8000      8.1627      2.3685      0.1556     17.0598     29.4082    124.5611
   644.9000      8.1627      2.4135      0.1536     14.3355     27.6650    114.3491
   645.0000      8.1624      2.4748      0.1816     10.6181     26.3752    104.0955
   645.1000      8.1624      2.5423      0.2274      6.5260     25.9512    102.6755
   645.2000      8.1624      2.5909      0.1880      3.5830     26.1995    109.3488
   645.3000      8.1620      2.6165      0.1002      2.0284     26.7617    113.5806
   645.4000      8.1620      2.6289      0.1240      1.2804     27.1948    110.4269
   645.5000      8.1624      2.6228      0.1141      1.6487     27.3078    105.7505
   645.6000      8.1624      2.6001      0.0704      3.0268     27.1549    105.4100
   645.7000      8.1624      2.5765      0.1009      4.4556     26.9774    111.0775
   645.8000      8.1627      2.5593      0.0416      5.4972     27.2257    121.0117
   645.9000      8.1627      2.5451      0.0579      6.3593     27.8296    131.2560
   646.0000      8.1622      2.5316      0.0260      7.1751     28.4634    137.6836
   646.1000      8.1622      2.5240      0.0449      7.6364     29.1007    137.4003
   646.2000      8.1622      2.5160      0.0572      8.1223     29.7543    131.6775
   646.3000      8.1601      2.5006      0.0287      9.0567     30.2550    127.0011
   646.4000      8.1601      2.4942      0.0249      9.4430     30.2405    125.6908
   646.5000      8.1590      2.5100      0.0393      8.4851     29.7957    123.6158
   646.6000      8.1590      2.5380      0.0551      6.7903     29.4629    124.4298
   646.7000      8.1590      2.5708      0.0434      4.8015     29.3590    131.1336
   646.8000      8.1629      2.6135      0.0841      2.2093     29.2785    139.2784
   646.9000      8.1629      2.6712      0.1115     -1.2867     29.2800    145.1209
   647.0000      8.1732      2.7385      0.1806     -5.3631     29.4119    145.4155
   647.1000      8.1732      2.7997      0.1863     -9.0735     29.3633    139.6773
   647.2000      8.1732      2.8400      0.2020    -11.5128     29.1691    132.2421
   647.3000      8.1823      2.8504      0.1666    -12.1467     29.4103    125.6836
   647.4000      8.1823      2.8403      0.1376    -11.5321     29.9707    120.2798
   647.5000      8.1763      2.8269      0.1401    -10.7236     30.1384    116.3212
   647.6000      8.1763      2.8114      0.0893     -9.7847     29.8069    113.6842
   647.7000      8.1763      2.7973     -0.0182     -8.9263     29.3203    111.7154
   647.8000      8.1589      2.7916     -0.0307     -8.5798     28.6862    111.1247
   647.9000      8.1589      2.7730      0.0015     -7.4538     27.9162    112.2262
   648.0000      8.1487      2.7301     -0.0375     -4.8556     27.4778    112.8143
   648.1000      8.1487      2.7007     -0.0624     -3.0723     27.5903    113.5188
   648.2000      8.1487      2.7211     -0.0355     -4.3067     27.7637    117.7219
   648.3000      8.1462      2.7760      0.0771     -7.6364     27.8704    124.5095
   648.4000      8.1462      2.8236      0.1205    -10.5197     28.1124    125.9979
   648.5000      8.1412      2.8502      0.1110    -12.1338     28.1409    119.9621
   648.6000      8.1412      2.8616      0.1288    -12.8266     27.9328    115.2855
   648.7000      8.1412      2.8523      0.1074    -12.2597     27.9244    118.5902
   648.8000      8.1354      2.8233      0.0389    -10.5010     28.2340    125.9389
   648.9000      8.1354      2.7800      0.0637     -7.8816     28.7593    130.7614
   649.0000      8.1324      2.7164     -0.0222     -4.0261     29.3597    130.7898
   649.1000      8.1324      2.6367     -0.0228      0.8065     29.9241    127.5009
   649.2000      8.1324      2.5660     -0.0510      5.0903     30.4698    125.5799
   649.3000      8.1293      2.5329     -0.0696      7.0972     30.7938    129.8369
   649.4000      8.1293      2.5382      0.0741      6.7733     30.5559    137.6123
   649.5000      8.1239      2.5565      0.1114      5.6680     30.0860    142.1453
   649.6000      8.1239      2.5659      0.1880      5.0959     29.8963    141.9044
   649.7000      8.1239      2.5612      0.1471      5.3840     30.1199    138.8970
   649.8000      8.1243      2.5551      0.1337      5.7527     30.4948    134.3258
   649.9000      8.1243      2.5574      0.1486      5.6135     30.5531    129.3275
   650.0000      8.1458      2.5588      0.1418      5.5286     30.4367    127.3099
   650.1000      8.1458      2.5570      0.0913      5.6353     30.6637    129.0862
   650.2000      8.1458      2.5607      0.1101      5.4092     31.1561    132.1081
   650.3000      8.1829      2.5591      0.1081      5.5093     31.4900    135.8494
   650.4000      8.1829      2.5360      0.0532      6.9080     31.6569    140.4995
   650.5000      8.2204      2.4938      0.0921      9.4668     31.9572    145.2726
   650.6000      8.2204      2.4421      0.0298     12.6004     32.4273    148.9991
   650.7000      8.2204      2.3862     -0.0130     15.9894     32.8400    150.1600
   650.8000      8.2530      2.3178     -0.0204     20.1337     32.9829    146.1842
   650.9000      8.2530      2.2291     -0.0633     25.5080     33.1685    139.4195
   651.0000      8.2755      2.1254     -0.0786     31.7962     33.7403    136.5773
   651.1000      8.2755      2.0109     -0.0842     38.7319     34.3145    133.5036
   651.2000      8.2755      1.8920     -0.1315     45.9373     34.7465    124.2041
   651.3000      8.2909      1.7830     -0.1488     52.5428     35.1948    115.9574
   651.4000      8.2909      1.6817     -0.0965     58.6860     35.5720    112.6487
   651.5000      8.3088      1.5717     -0.1285     65.3514     35.8348    107.3255
   651.6000      8.3088      1.4606     -0.1190     72.0835     35.8358     95.9653
   651.7000      8.3088      1.3774     -0.1194     77.1287     35.5761     82.9140
   651.8000      8.3469      1.3386     -0.0477     79.4790     35.3816     73.5331
   651.9000      8.3469      1.3330      0.0287     79.8193     35.4940     67.0305
   652.0000      8.3946      1.3402      0.0385     79.3790     35.7787     62.1352
   652.1000      8.3946      1.3529      0.0406     78.6094     35.9890     58.4794
   652.2000      8.3946      1.3698      0.0508     77.5879     36.0629     55.0290
   652.3000      8.4076      1.3846      0.0687     76.6907     35.9068     52.4349
   652.4000      8.4076      1.3962      0.0594     75.9894     35.6080     52.0887
   652.5000      8.3834      1.4162      0.0369     74.7769     35.4979     53.7065
   652.6000      8.3834      1.4569      0.0597     72.3074     35.6400     56.7698
   652.7000      8.3834      1.5238      0.0561     68.2536     35.6968     59.1989
   652.8000      8.3685      1.6158      0.1037     62.6796     35.4420     59.9639
   652.9000      8.3685      1.7220      0.1185     56.2394     35.0012     62.4106
   653.0000      8.3796      1.8306      0.1725     49.6617     34.5866     67.8727
   653.1000      8.3796      1.9402      0.1832     43.0190     34.1520     76.9988
   653.2000      8.3796      2.0581      0.2113     35.8700     33.4410     88.9948
   653.3000      8.3854      2.1786      0.2728     28.5683     32.6199     97.3664
