~Version Information
VERS.                      2.0: CWLS Log ASCII Standard - VERSION 2.0
WRAP.                       NO: One line per depth step
~Well Information Block
STRT.FT               710.0000: 
STOP.FT              2922.5000: 
STEP.FT                 0.2500: 
NULL.                -999.2500: 
COMP.          Petrogulf Corporation: COMPANY
WELL.            Montoya 1-41V: WELL
FLD.           Purgatorie River: FIELD
LOC.           610' FNL & 1205' FEL: LOCATION
PROV.                 Colorado: PROVINCE
CNTY.               Las Animas: COUNTRY
SRVC.                Patterson: SERVICE COMPANY
DATE.          Mon Aug 22 08:00:56 2005: LOG DATE
UWI.                          : UNIQUE WELL ID
~Curve Information Block
DEPT.FT            0 000 00 00: Depth
SP.mV                         : DIL Spontaneous Potential
RILD.Ohm-m                    : DIL Deep Resistivity
RILM.Ohm-m                    : DIL Medium Resistivity
RLL3.Ohm-m                    : DIL Shallow Resistivity
GR.GAPI                       : Gamma Ray
~Parameter Information Block
~A  Depth        SP         RILD        RILM        RLL3         GR     
# ...
   990.0000   2000.0000     15.7306     15.6805   2000.0000    136.2974
   990.2500   2000.0000     14.6553     15.9493   2000.0000    137.8137
   990.5000   2000.0000     14.4373     15.5309   2000.0000    144.8373
   990.7500   2000.0000     13.8751     15.5947   2000.0000    134.9992
   991.0000   2000.0000     13.6818     15.0591   2000.0000    139.8087
   991.2500   2000.0000     14.8639     13.8822   2000.0000    134.3909
   991.5000   2000.0000     14.3614     13.5105   2000.0000    120.8249
   991.7500   2000.0000     15.0428     13.3998   2000.0000    127.4689
   992.0000   2000.0000     15.8814     13.0058   2000.0000    153.0981
   992.2500   2000.0000     16.4677     12.8391   2000.0000    162.0185
   992.5000   2000.0000     15.9858     12.8800   2000.0000    149.1809
   992.7500   2000.0000     16.9805     13.9495   2000.0000    150.4696
   993.0000   2000.0000     18.2358     14.9356   2000.0000    128.4928
   993.2500   2000.0000     18.0131     16.1087   2000.0000    117.0561
   993.5000   2000.0000     19.3444     17.4923   2000.0000    134.1906
   993.7500   2000.0000     19.0366     19.2293   2000.0000    133.5523
   994.0000   2000.0000     19.2125     22.0196   2000.0000    119.3939
   994.2500   2000.0000     19.7221     25.1025   2000.0000    122.1262
   994.5000   2000.0000     20.4639     24.5710   2000.0000     91.8442
   994.7500   2000.0000     20.3167     27.9290   2000.0000     92.3099
   995.0000   2000.0000     21.8362     30.2411   2000.0000    100.2466
   995.2500   2000.0000     23.5307     28.2897   2000.0000     94.6544
   995.5000   2000.0000     25.0373     28.0762   2000.0000    103.7786
   995.7500   2000.0000     25.8699     27.5300   2000.0000    120.2333
   996.0000   2000.0000     26.7704     27.0345   2000.0000    125.7774
   996.2500   2000.0000     29.0217     28.2701   2000.0000    131.7791
   996.5000   2000.0000     27.8721     27.4253   2000.0000    113.3058
   996.7500   2000.0000     25.0367     28.1944   2000.0000    124.3106
   997.0000   2000.0000     23.6303     30.5405   2000.0000    120.3579
   997.2500   2000.0000     22.1764     29.3259   2000.0000    106.1345
   997.5000   2000.0000     20.3722     28.3985   2000.0000    110.8270
   997.7500   2000.0000     19.2385     25.4501   2000.0000    106.0276
   998.0000   2000.0000     17.6985     22.2543   2000.0000    111.9276
   998.2500   2000.0000     16.9921     19.5427   2000.0000    116.9646
   998.5000   2000.0000     16.1267     17.7083   2000.0000    113.5183
   998.7500   2000.0000     15.6330     15.9152   2000.0000    144.8859
   999.0000   2000.0000     16.0126     15.0487   2000.0000    147.4990
   999.2500   2000.0000     16.3584     14.1859   2000.0000    154.2034
   999.5000   2000.0000     16.1936     13.6501   2000.0000    151.4972
   999.7500   2000.0000     16.4679     13.3205   2000.0000    162.3189
  1000.0000   2000.0000     16.2054     13.3394   2000.0000    151.6218
  1000.2500   2000.0000     16.1271     13.4601   2000.0000    157.1263
  1000.5000   2000.0000     15.6312     13.8901   2000.0000    157.1039
  1000.7500   2000.0000     16.0834     14.6199   2000.0000    147.8394
  1001.0000   2000.0000     16.5178     15.5696   2000.0000    140.2173
  1001.2500   2000.0000     16.4902     16.6833   2000.0000    130.5408
  1001.5000   2000.0000     15.9481     17.5975   2000.0000     99.8358
  1001.7500   2000.0000     16.3749     19.2989   2000.0000     89.6267
  1002.0000   2000.0000     16.1598     21.2928   2000.0000     74.3276
  1002.2500   2000.0000     16.4074     21.7253   2000.0000     77.4822
  1002.5000   2000.0000     17.0368     21.6952   2000.0000     81.2562
  1002.7500   2000.0000     18.3940     21.1981   2000.0000     99.2981
  1003.0000   2000.0000     19.2770     19.8463   2000.0000    127.0273
  1003.2500   2000.0000     19.7438     19.4202   2000.0000    144.1461
  1003.5000   2000.0000     20.7896     19.3946   2000.0000    104.3313
  1003.7500   2000.0000     21.2019     19.9860   2000.0000    119.7625
  1004.0000   2000.0000     21.1575     21.1920   2000.0000    124.0651
  1004.2500   2000.0000     20.3336     21.7067   2000.0000    136.3198
  1004.5000   2000.0000     20.9411     22.4022   2000.0000    120.8109
  1004.7500   2000.0000     20.4389     21.4558   2000.0000    108.4574
  1005.0000   2000.0000     20.1328     21.2056   2000.0000    118.6829
  1005.2500   2000.0000     18.9039     21.5763   2000.0000    117.0233
  1005.5000   2000.0000     18.8051     21.1399   2000.0000    107.9497
  1005.7500   2000.0000     19.2335     21.9728   2000.0000    118.2644
  1006.0000   2000.0000     18.7920     21.0803   2000.0000    111.5218
  1006.2500   2000.0000     19.5112     22.0961   2000.0000    115.0036
  1006.5000   2000.0000     19.8774     20.8821   2000.0000    116.5919
  1006.7500   2000.0000     19.5784     20.6767   2000.0000    103.6929
  1007.0000   2000.0000     19.4562     20.7261   2000.0000    115.3346
  1007.2500   2000.0000     19.0818     19.7008   2000.0000    117.8669
  1007.5000   2000.0000     18.6113     19.8001   2000.0000    122.6834
  1007.7500   2000.0000     17.6271     19.7557   2000.0000    120.7151
  1008.0000   2000.0000     18.2091     19.2099   2000.0000    117.9406
  1008.2500   2000.0000     18.2918     18.7809   2000.0000    121.5028
  1008.5000   2000.0000     18.5422     18.3334   2000.0000    115.8286
  1008.7500   2000.0000     17.0616     18.5590   2000.0000    114.8787
  1009.0000   2000.0000     16.6124     19.5481   2000.0000    134.0924
  1009.2500   2000.0000     16.7732     18.8104   2000.0000    108.0766
  1009.5000   2000.0000     16.1549     18.3229   2000.0000    119.3372
  1009.7500   2000.0000     15.9293     17.9225   2000.0000    133.3517
  1010.0000   2000.0000     15.6791     16.9178   2000.0000    144.4245
  1010.2500   2000.0000     15.3705     16.0655   2000.0000    135.9475
  1010.5000   2000.0000     15.3488     15.4477   2000.0000    153.9981
  1010.7500   2000.0000     15.2795     15.3323   2000.0000    162.2004
  1011.0000   2000.0000     15.4749     15.2658   2000.0000    161.9072
  1011.2500   2000.0000     15.5847     15.2414   2000.0000    163.2352
  1011.5000   2000.0000     15.2804     15.3783   2000.0000    162.1822
  1011.7500   2000.0000     15.3239     15.1373   2000.0000    161.9926
  1012.0000   2000.0000     15.8378     14.9814   2000.0000    148.7873
  1012.2500   2000.0000     15.4185     15.1334   2000.0000    140.3456
  1012.5000   2000.0000     15.7697     15.8484   2000.0000    143.8774
  1012.7500   2000.0000     15.7844     15.9707   2000.0000    136.6823
  1013.0000   2000.0000     15.6074     15.6976   2000.0000    148.0668
  1013.2500   2000.0000     15.6197     16.0125   2000.0000    149.9927
  1013.5000   2000.0000     16.6563     16.4639   2000.0000    142.3719
  1013.7500   2000.0000     17.7431     16.3645   2000.0000    147.7458
  1014.0000   2000.0000     18.7138     16.9339   2000.0000    158.5184
  1014.2500   2000.0000     19.6430     18.2030   2000.0000    156.3772
  1014.5000   2000.0000     20.9233     20.1686   2000.0000    126.2801
  1014.7500   2000.0000     21.6208     21.6656   2000.0000    116.1650
  1015.0000   2000.0000     22.6255     23.5313   2000.0000    118.7093
  1015.2500   2000.0000     24.4055     26.9711   2000.0000    109.5193
  1015.5000   2000.0000     26.4328     27.2719   2000.0000    103.2557
  1015.7500   2000.0000     27.6835     28.5926   2000.0000     99.3030
  1016.0000   2000.0000     29.3726     32.6046   2000.0000     95.1489
  1016.2500   2000.0000     29.8898     35.1680   2000.0000     96.3831
  1016.5000   2000.0000     33.3953     38.6200   2000.0000     83.1358
  1016.7500   2000.0000     36.4979     42.7206   2000.0000     79.3411
  1017.0000   2000.0000     39.6667     49.0242   2000.0000     68.2308
  1017.2500   2000.0000     39.3585     47.9897   2000.0000     61.9227
  1017.5000   2000.0000     45.8118     51.8026   2000.0000     73.4701
  1017.7500   2000.0000     47.1038     56.2826   2000.0000     74.3493
