~Version Information
VERS.                      2.0: CWLS Log ASCII Standard - VERSION 2.0
WRAP.                       NO: One line per depth step
~Well Information Block
STRT.FT                -7.2500: 
STOP.FT               862.2500: 
STEP.FT                 0.2500: 
NULL.                -999.2500: 
COMP.          Pioneer Natural Resources: COMPANY
WELL.          Santisteven 13-22: WELL
FLD.           Purgatorie River: FIELD
LOC.           1861' FSL & 992' FWL--: LOCATION
PROV.                       CO: PROVINCE
CNTY.               Las Animas: COUNTRY
SRVC.          Patterson Wireline: SERVICE COMPANY
DATE.          Thu Apr 07 09:08:11 2005: LOG DATE
UWI.           05 071 08337 00: UNIQUE WELL ID
~Curve Information Block
DEPT.FT            0 000 00 00: Depth
CCL.                          : Casing Collar Locator
TT3.usec                      : CBL 3' Travel Time
AMP3.mV                       : CBL 3' Amplitude
GR.GAPI                       : Gamma Ray
~Parameter Information Block
~A  Depth       CCL         TT3         AMP3         GR     
# ...
   562.2500      0.0000    765.2970      4.7856     50.2282
   562.5000      0.0000    762.2708      4.7363     48.7561
   562.7500      0.0000    763.0474      4.6938     48.2571
   563.0000      0.0000    766.3553      4.6738     48.6046
   563.2500      0.0000    770.0781      4.6727     49.8859
   563.5000      0.0000    772.9379      4.6811     52.1280
   563.7500      0.0000    774.6299      4.6989     54.6321
   564.0000      0.0000    775.1359      4.7374     55.9663
   564.2500      0.0000    774.6890      4.8009     55.0872
   564.5000      0.0000    773.9974      4.8731     52.4915
   564.7500      0.0000    773.8378      4.9295     49.9427
   565.0000      0.0000    774.6198      4.9633     48.9158
   565.2500      0.0000    776.4868      4.9865     49.4599
   565.5000      0.0000    779.3188      5.0054     50.5516
   565.7500      0.0000    782.4939      5.0132     51.2399
   566.0000      0.0000    785.0637      5.0067     51.2460
   566.2500      0.0000    786.2245      4.9998     50.7877
   566.5000      0.0000    785.2742      5.0143     50.2911
   566.7500      0.0000    781.3154      5.0612     50.2322
   567.0000      0.0000    773.5795      5.1305     50.8916
   567.2500      0.0000    762.3115      5.1992     52.2519
   567.5000      0.0000    749.0679      5.2498     54.3250
   567.7500      0.0000    736.1459      5.2771     57.3499
   568.0000      0.0000    725.8874      5.2792     61.1983
   568.2500      0.0000    719.7508      5.2492     64.5932
   568.5000      0.0000    716.9379      5.1824     65.5490
   568.7500      0.0000    714.4484      5.0892     63.0920
   569.0000      0.0000    709.7493      4.9922     58.4402
   569.2500      0.0000    703.1431      4.9098     54.0783
   569.5000      0.0000    696.8512      4.8504     51.6580
   569.7500      0.0000    692.4807      4.8213     51.0658
   570.0000      0.0000    690.0779      4.8317     51.2730
   570.2500      0.0000    689.0443      4.8796     51.4066
   570.5000      0.0000    689.2327      4.9429     50.9524
   570.7500      0.0000    691.5020      4.9899     49.7247
   571.0000      0.0000    697.6154      5.0032     48.1384
   571.2500      0.0000    709.1018      4.9914     47.1858
   571.5000      0.0000    725.1906      4.9724     47.7438
   571.7500      0.0000    742.0237      4.9484     49.8490
   572.0000      0.0000    755.3329      4.9088     52.6811
   572.2500      0.0000    764.5864      4.8589     55.3138
   572.5000      0.0000    773.3969      4.8270     57.5887
   572.7500      0.0000    785.0037      4.8314     60.2791
   573.0000      0.0000    798.2147      4.8549     64.4091
   573.2500      0.0000    808.3226      4.8621     70.4428
   573.5000      0.0000    810.9664      4.8366     78.1296
   573.7500      0.0000    804.7579      4.7938     87.0164
   574.0000      0.0000    791.8463      4.7658     96.6861
   574.2500      0.0000    777.0671      4.7832    106.1440
   574.5000      0.0000    765.4052      4.8604    113.4990
   574.7500      0.0000    758.8210      4.9846    117.1910
   575.0000      0.0000    755.4537      5.1152    117.4503
   575.2500      0.0000    752.5514      5.2023    115.7945
   575.5000      0.0000    750.3615      5.2144    113.1923
   575.7500      0.0000    752.7744      5.1547    109.3666
   576.0000      0.0000    763.4368      5.0558    103.7338
   576.2500      0.0000    781.2665      4.9606     96.4270
   576.5000      0.0000    800.4604      4.9015     88.5329
   576.7500      0.0000    814.5721      4.8915     81.7048
   577.0000      0.0000    819.5554      4.9297     77.3706
   577.2500      0.0000    813.6825      5.0094     76.0192
   577.5000      0.0000    797.0245      5.1196     77.2386
   577.7500      0.0000    772.2425      5.2444     80.2954
   578.0000      0.0000    744.9105      5.3664     84.3184
   578.2500      0.0000    721.3582      5.4687     87.9722
   578.5000      0.0000    705.3135      5.5341     89.6924
   578.7500      0.0000    696.5458      5.5466     88.8172
   579.0000      0.0000    692.3612      5.4889     86.1804
   579.2500      0.0000    689.7875      5.3414     83.1798
   579.5000      0.0000    686.5191      5.0979     80.4495
   579.7500      0.0000    681.3416      4.7984     77.6284
   580.0000      0.0000    675.3856      4.5294     74.1759
   580.2500      0.0000    673.1165      4.3670     70.1685
   580.5000      0.0000    679.7008      4.3249     66.3555
   580.7500      0.0000    695.0446      4.3682     63.5700
   581.0000      0.0000    711.6084      4.4579     62.1886
   581.2500      0.0000    721.4941      4.5660     62.0853
   581.5000     -2.0000    726.1415      4.6702     62.8748
   581.7500     -2.0000    735.8611      4.7541     64.0234
   582.0000      0.0000    758.0173      4.8200     64.8393
   582.2500      0.0000    787.4601      4.8971     64.6429
   582.5000      0.0000    810.3502      5.0273     63.2051
   582.7500      0.0000    816.2325      5.2246     61.1055
   583.0000      0.0000    805.1470      5.4491     59.5014
   583.2500      0.0000    784.8225      5.6341     59.4143
   583.5000      0.0000    763.6860      5.7383     61.1467
   583.7500      0.0000    746.5563      5.7596     64.1343
   584.0000      0.0000    734.1384      5.7201     67.2326
   584.2500      0.0000    724.6103      5.6539     69.3685
   584.5000      0.0000    716.3381      5.5918     70.1282
   584.7500      0.0000    710.1307      5.5384     69.8297
   585.0000      0.0000    708.6851      5.4740     69.1775
   585.2500      0.0000    713.4772      5.3857     68.8508
   585.5000      0.0000    722.0900      5.2830     69.1882
   585.7500      0.0000    728.7516      5.1830     70.0884
   586.0000      0.0000    728.3955      5.0968     71.2506
   586.2500      0.0000    720.7358      5.0294     72.4185
   586.5000      0.0000    710.0453      4.9827     73.1797
   586.7500      0.0000    701.0439      4.9550     72.8475
   587.0000      0.0000    695.6757      4.9429     71.0801
   587.2500      0.0000    693.3411      4.9405     68.5498
   587.5000      0.0000    692.7245      4.9334     66.5066
   587.7500      0.0000    692.8967      4.9047     65.6554
   588.0000      0.0000    693.4179      4.8519     65.7663
   588.2500      0.0000    694.1893      4.7923     66.3241
   588.5000      0.0000    695.4731      4.7451     67.2447
   588.7500      0.0000    697.9375      4.7132     68.8628
   589.0000      0.0000    702.4377      4.6866     71.4088
   589.2500      0.0000    709.6371      4.6557     74.6811
   589.5000      0.0000    719.8678      4.6173     78.1199
   589.7500      0.0000    733.0447      4.5747     80.9634
   590.0000      0.0000    748.1407      4.5328     82.4815
   590.2500      0.0000    762.8455      4.4978     82.5267
   590.5000      0.0000    774.5355      4.4801     81.9444
   590.7500      0.0000    781.8878      4.4904     82.0330
   591.0000      0.0000    785.3212      4.5334     83.3129
   591.2500      0.0000    785.9872      4.6090     85.0355
   591.5000      0.0000    784.7783      4.7063     86.1123
   591.7500      0.0000    782.3718      4.7940     86.2812
   592.0000      0.0000    779.7493      4.8370     86.1253
   592.2500      0.0000    777.9884      4.8273     86.2570
   592.5000      0.0000    777.3182      4.7925     86.8331
   592.7500      0.0000    777.0335      4.7675     87.7241
   593.0000      0.0000    776.9721      4.7664     88.7939
   593.2500      0.0000    778.5224      4.7795     89.7426
   593.5000      0.0000    783.1981      4.7862     89.7275
   593.7500      0.0000    790.2529      4.7703     87.5591
   594.0000      0.0000    796.4783      4.7333     82.6189
   594.2500      0.0000    798.6729      4.6959     75.4946
   594.5000      0.0000    796.2690      4.6824     67.6244
   594.7500      0.0000    791.6241      4.6972     60.5240
   595.0000      0.0000    787.8041      4.7179     55.3602
   595.2500      0.0000    786.1663      4.7159     52.8126
   595.5000      0.0000    786.0737      4.6855     53.1195
