~Version Information
VERS.                      2.0: CWLS Log ASCII Standard - VERSION 2.0
WRAP.                       NO: One line per depth step
~Well Information Block
STRT.FT                -8.0000: 
STOP.FT              2410.0000: 
STEP.FT                 0.2500: 
NULL.                -999.2500: 
COMP.          Petrogulf Corporation: COMPANY
WELL.            Torcom 17-33V: WELL
FLD.           Purgatorie River: FIELD
LOC.           1544' FSL & 1746' FEL--: LOCATION
PROV.                       CO: PROVINCE
CNTY.               Las Animas: COUNTRY
SRVC.          Patterson Wireline: SERVICE COMPANY
DATE.          Wed Dec 10 17:24:27 2003: LOG DATE
UWI.                          : UNIQUE WELL ID
~Curve Information Block
DEPT.FT            0 000 00 00: Depth
CCL.                          : Casing Collar Locator
TT3.usec                      : CBL 3' Travel Time
AMP3.mV                       : CBL 3' Amplitude
GR.GAPI                       : Gamma Ray
~Parameter Information Block
~A  Depth       CCL         TT3         AMP3         GR     
# ...
   930.0000      0.0000    797.5197      2.1681    113.9195
   930.2500      0.0000    784.8613      2.1825    109.8439
   930.5000      0.0000    773.1911      2.2248    106.3144
   930.7500      0.0000    763.8799      2.2611    103.1398
   931.0000      0.0000    756.9321      2.2400    100.6225
   931.2500      0.0000    750.7687      2.1424     99.2282
   931.5000      0.0000    743.8163      2.0115     99.2005
   931.7500      0.0000    735.7535      1.9272    100.5695
   932.0000      0.0000    727.1519      1.9423    103.0786
   932.2500      0.0000    718.8168      2.0464    105.9538
   932.5000      0.0000    711.6266      2.1913    108.2296
   932.7500      0.0000    706.1763      2.3372    109.6416
   933.0000      0.0000    702.3425      2.4537    110.9223
   933.2500      0.0000    699.8740      2.4993    112.9069
   933.5000      0.0000    699.3299      2.4386    115.3617
   933.7500      0.0000    701.6664      2.2894    116.7591
   934.0000      0.0000    706.5824      2.1285    115.2359
   934.2500      0.0000    711.6607      2.0363    110.0037
   934.5000      0.0000    713.6685      2.0357    102.1548
   934.7500      0.0000    711.0669      2.0823     94.2866
   935.0000      0.0000    705.3654      2.1060     89.3147
   935.2500      0.0000    700.1253      2.0646     89.2537
   935.5000      0.0000    698.8469      1.9742     94.4362
   935.7500      0.0000    703.5743      1.8974    103.4530
   936.0000      0.0000    714.4932      1.9000    113.9698
   936.2500      0.0000    729.9847      2.0131    123.9248
   936.5000      0.0000    747.2692      2.2256    131.9874
   936.7500      0.0000    763.5090      2.5010    137.1860
   937.0000      0.0000    776.3995      2.7946    139.0934
   937.2500      0.0000    784.0360      3.0661    138.7934
   937.5000      0.0000    785.4536      3.2906    138.5075
   937.7500      0.0000    782.1028      3.4603    139.3415
   938.0000      0.0000    777.8085      3.5773    140.0595
   938.2500      0.0000    775.9385      3.6563    138.7445
   938.5000      0.0000    776.8334      3.7325    134.9152
   938.7500      0.0000    778.7428      3.8440    129.3353
   939.0000      0.0000    780.6006      3.9956    122.6155
   939.2500      0.0000    783.4800      4.1539    115.1239
   939.5000      2.0000    790.2704      4.2804    107.8940
   939.7500      2.0000    803.3497      4.3502    102.4936
   940.0000      0.0000    821.2563      4.3449     99.7329
   940.2500      0.0000    838.5049      4.2663     98.9251
   940.5000      0.0000    849.4748      4.1707     98.5724
   940.7500      0.0000    851.4360      4.1465     97.5724
   941.0000      0.0000    844.4175      4.2223     95.8665
   941.2500      0.0000    830.4604      4.3224     94.4481
   941.5000      0.0000    813.3272      4.3423     94.8738
   941.7500      0.0000    797.2130      4.2443     98.2614
   942.0000      0.0000    785.0909      4.0597    104.4007
   942.2500      0.0000    778.3182      3.8391    111.8656
   942.5000      0.0000    776.7394      3.6246    118.8790
   942.7500      0.0000    778.5473      3.4403    124.0128
   943.0000      0.0000    781.0090      3.2763    126.3827
   943.2500      0.0000    781.9426      3.0938    125.6781
   943.5000      0.0000    780.4042      2.8596    122.3533
   943.7500      0.0000    776.4649      2.5795    117.7452
   944.0000      0.0000    770.9568      2.2996    113.5223
   944.2500      0.0000    765.2130      2.0834    110.7422
   944.5000      0.0000    760.6592      1.9811    109.6222
   944.7500      0.0000    758.2396      2.0080    110.1179
   945.0000      0.0000    757.7451      2.1461    112.2419
   945.2500      0.0000    757.6438      2.3702    115.6405
   945.5000      0.0000    756.0612      2.6717    119.0448
   945.7500      0.0000    752.2374      3.0515    120.3520
   946.0000      0.0000    747.1098      3.4920    117.6166
   946.2500      0.0000    742.8499      3.9435    110.6047
   946.5000      0.0000    741.8197      4.3418    101.7500
   946.7500      0.0000    744.8850      4.6375     95.0777
   947.0000      0.0000    749.8555      4.8030     93.3475
   947.2500      0.0000    752.5941      4.8169     96.0739
   947.5000      0.0000    751.0977      4.6513    100.7304
   947.7500      0.0000    747.9735      4.2918    105.7577
   948.0000      0.0000    747.9374      3.7755    111.5543
   948.2500      0.0000    753.6526      3.2062    118.3470
   948.5000      0.0000    764.5835      2.7128    124.3059
   948.7500      0.0000    778.5427      2.3778    126.7883
   949.0000      0.0000    793.2543      2.2019    124.9828
   949.2500      0.0000    807.3096      2.1297    120.6105
   949.5000      0.0000    820.5980      2.1038    116.3404
   949.7500      0.0000    833.4219      2.0990    113.9817
   950.0000      0.0000    844.9084      2.1235    113.8127
   950.2500      0.0000    852.7267      2.2011    114.9700
   950.5000      0.0000    854.4703      2.3542    116.2298
   950.7500      0.0000    849.2726      2.5933    116.6915
   951.0000      0.0000    838.4569      2.9102    116.3158
   951.2500      0.0000    825.0201      3.2721    115.9715
   951.5000      0.0000    812.3007      3.6268    116.6233
   951.7500      0.0000    802.5648      3.9226    118.2129
   952.0000      0.0000    796.2892      4.1331    119.4338
   952.2500      0.0000    792.8148      4.2667    118.6708
   952.5000      0.0000    792.0519      4.3486    115.2517
   952.7500      0.0000    794.7834      4.3898    110.2079
   953.0000      0.0000    800.0759      4.3771    106.1187
   953.2500      0.0000    803.4777      4.2994    105.6980
   953.5000      0.0000    800.1523      4.1786    109.8522
   953.7500      0.0000    789.7829      4.0567    117.1210
   954.0000      0.0000    776.6557      3.9571    124.9893
   954.2500      0.0000    765.3168      3.8781    131.3743
   954.5000      0.0000    758.0494      3.8150    135.0737
   954.7500      0.0000    756.0284      3.7643    135.7856
   955.0000      0.0000    760.4036      3.7167    134.3615
   955.2500      0.0000    770.9724      3.6777    132.6377
   955.5000      0.0000    784.1990      3.6917    132.2488
   955.7500      0.0000    793.7158      3.8150    133.2533
   956.0000      0.0000    794.3068      4.0544    134.1215
   956.2500      0.0000    786.2737      4.3534    133.2830
   956.5000      0.0000    775.2719      4.6426    130.6677
   956.7500      0.0000    767.0499      4.8789    127.7455
   957.0000      0.0000    762.8557      5.0409    126.2280
   957.2500      0.0000    760.2742      5.1176    126.7730
   957.5000      0.0000    756.9351      5.1134    128.8241
   957.7500      0.0000    752.1858      5.0535    131.4868
   958.0000      0.0000    746.6413      4.9831    134.2529
   958.2500      0.0000    742.1011      4.9571    136.8521
   958.5000      0.0000    741.3398      5.0114    138.7008
   958.7500      0.0000    746.0969      5.1463    138.7168
   959.0000      0.0000    754.7724      5.3556    135.9003
   959.2500      0.0000    763.0880      5.6585    130.3544
   959.5000      0.0000    767.7040      6.0821    123.6763
   959.7500      0.0000    768.5789      6.6175    117.9471
   960.0000      0.0000    767.6298      7.2000    114.2277
   960.2500      0.0000    766.2790      7.7310    112.3233
   960.5000      0.0000    764.2318      8.1281    112.0658
   960.7500      0.0000    758.5488      8.3550    114.2000
   961.0000      0.0000    743.6009      8.4129    119.4908
   961.2500      0.0000    714.7899      8.3415    127.2187
   961.5000      0.0000    675.0621      8.2398    134.9634
   961.7500      0.0000    637.9258      8.2318    139.5977
   962.0000      0.0000    621.5534      8.3826    138.3629
   962.2500      0.0000    635.5478      8.6674    129.9908
   962.5000      0.0000    670.6417      9.0179    116.0362
   962.7500      0.0000    703.1954      9.3624    101.0054
   963.0000      0.0000    712.8442      9.6382     90.0556
   963.2500     -2.0000    696.3660      9.8176     85.7432
