~Version Information
VERS.                      2.0: CWLS Log ASCII Standard - VERSION 2.0
WRAP.                       NO: One line per depth step
~Well Information Block
STRT.FT               920.0000: 
STOP.FT              3300.2000: 
STEP.FT                 0.1000: 
NULL.                -999.2500: 
COMP.          Pioneer Natural Resources: COMPANY
WELL.              Vespar 43-7: WELL
FLD.           Purgatoire River: FIELD
LOC.           2338' FSL & 1141' FEL: LOCATION
PROV.                 Colorado: PROVINCE
CNTY.               Las Animas: COUNTRY
SRVC.                Patterson: SERVICE COMPANY
DATE.          Wed Jan 26 13:38:02 2005: LOG DATE
UWI.           05 071 07955 00: UNIQUE WELL ID
~Curve Information Block
DEPT.FT            0 000 00 00: Depth
DCAL.in                       : CDL Caliper
RHOB.g/cc                     : CDL Bulk Density
RHOC.g/cc                     : CDL Density Correction
DPOR.pu                       : CDL Density Porosity
NPOR.pu                       : Neutron Porosity
GR.GAPI                       : Gamma Ray
~Parameter Information Block
~A  Depth       DCAL        RHOB        RHOC        DPOR        NPOR         GR     
# ...
  2484.8000      8.7871      2.4556      0.5452     11.7792     24.9881    152.4095
  2484.9000      8.7871      2.4166      0.4865     14.1469     25.1944    158.5671
  2485.0000      8.7200      2.3586      0.3736     17.6623     24.5699    162.9796
  2485.1000      8.7200      2.3158      0.3545     20.2573     23.3964    166.6448
  2485.2000      8.7200      2.3044      0.3459     20.9443     22.3280    168.0094
  2485.3000      8.7475      2.3126      0.3668     20.4483     21.7004    163.5617
  2485.4000      8.7475      2.3101      0.3961     20.6012     21.5590    157.2785
  2485.5000      8.9130      2.2684      0.3747     23.1261     21.4741    153.3222
  2485.6000      8.9130      2.1813      0.3529     28.4062     20.9973    149.1033
  2485.7000      8.9130      2.0615      0.3205     35.6675     20.2180    142.5475
  2485.8000      9.2380      1.9283      0.2624     43.7390     19.6063    137.8267
  2485.9000      9.2380      1.7853      0.2974     52.4039     19.4422    138.6056
  2486.0000      9.5793      1.6173      0.3066     62.5854     19.4542    140.8576
  2486.1000      9.5793      1.4452      0.1425     73.0198     19.4723    138.7108
  2486.2000      9.5793      1.3471      0.0885     78.9613     19.7032    133.3103
  2486.3000      9.7680      1.3736      0.2506     77.3563     20.0359    130.5953
  2486.4000      9.7680      1.5001      0.3782     69.6898     20.2273    132.7768
  2486.5000      9.8258      1.6836      0.4859     58.5682     20.3591    137.1352
  2486.6000      9.8258      1.8884      0.6292     46.1554     20.4784    139.0726
  2486.7000      9.8258      2.0712      0.7346     35.0781     20.3683    139.2869
  2486.8000      9.7959      2.1964      0.7688     27.4883     20.0059    141.9942
  2486.9000      9.7959      2.2578      0.7735     23.7716     19.5329    146.7595
  2487.0000      9.6473      2.2775      0.7117     22.5783     18.8050    148.1356
  2487.1000      9.6473      2.2900      0.6436     21.8165     17.8509    142.5934
  2487.2000      9.6473      2.3152      0.6127     20.2909     17.1242    134.0181
  2487.3000      9.4288      2.3436      0.6181     18.5675     16.6825    127.7900
  2487.4000      9.4288      2.3575      0.5605     17.7255     16.4376    124.7998
  2487.5000      9.2258      2.3609      0.4926     17.5240     16.5942    123.9660
  2487.6000      9.2258      2.3738      0.4875     16.7416     17.1955    124.1971
  2487.7000      9.2258      2.3999      0.5123     15.1575     17.9205    124.6737
  2487.8000      9.0783      2.4204      0.4987     13.9146     18.3963    125.8087
  2487.9000      9.0783      2.4104      0.4791     14.5190     18.4698    127.3105
  2488.0000      8.9230      2.3432      0.4254     18.5950     18.0971    126.2915
  2488.1000      8.9230      2.2131      0.2486     26.4780     17.2131    121.4972
  2488.2000      8.9230      2.0558      0.0921     36.0111     15.5471    114.6217
  2488.3000      8.6806      1.9021      0.0383     45.3271     13.1552    107.8953
  2488.4000      8.6806      1.7595     -0.0434     53.9670     10.9921    102.8767
  2488.5000      8.4381      1.6507     -0.0601     60.5636      9.7057     98.4856
  2488.6000      8.4381      1.5938      0.0177     64.0106      9.0153     92.8092
  2488.7000      8.4381      1.5642      0.0152     65.8073      8.4924     86.3759
  2488.8000      8.3016      1.5311     -0.0157     67.8146      8.0101     80.8156
  2488.9000      8.3016      1.5092     -0.0688     69.1385      7.7169     77.9323
  2489.0000      8.2570      1.5451     -0.0060     66.9643      7.8201     80.6450
  2489.1000      8.2570      1.6488      0.2165     60.6760      8.2138     88.5509
  2489.2000      8.2570      1.7698      0.3339     53.3463      8.5583     95.7247
  2489.3000      8.2449      1.8505      0.3866     48.4519      8.8811     98.2255
  2489.4000      8.2449      1.8658      0.3564     47.5271      9.5258     98.1563
  2489.5000      8.2321      1.8100      0.3181     50.9110     10.4508    100.3415
  2489.6000      8.2321      1.7081      0.1467     57.0843     11.0440    107.9731
  2489.7000      8.2321      1.6374      0.0567     61.3723     11.2092    118.9614
  2489.8000      8.2691      1.6608      0.1719     59.9542     11.5643    127.4938
  2489.9000      8.2691      1.7741      0.2877     53.0863     12.2649    130.3647
  2490.0000      8.4058      1.9581      0.4115     41.9320     12.9211    128.6764
  2490.1000      8.4058      2.2020      0.5627     27.1501     13.3396    125.3450
  2490.2000      8.4058      2.4599      0.7139     11.5185     13.6842    121.5044
  2490.3000      8.6600      2.6578      0.8593     -0.4727     14.3396    116.3806
  2490.4000      8.6600      2.7644      0.8182     -6.9352     15.5827    111.6320
  2490.5000      8.9579      2.8093      0.8093     -9.6535     17.0511    108.9905
  2490.6000      8.9579      2.8172      0.7817    -10.1332     18.2514    107.6349
  2490.7000      8.9579      2.7910      0.5782     -8.5425     19.1229    105.8401
  2490.8000      8.9718      2.7476      0.3657     -5.9144     19.8014    101.5372
  2490.9000      8.9718      2.7159      0.2833     -3.9968     20.8440     96.5798
  2491.0000      8.5815      2.7113      0.2268     -3.7179     22.4198     94.8934
  2491.1000      8.5815      2.7219      0.2491     -4.3593     23.5205     95.1655
  2491.2000      8.5815      2.7173      0.1744     -4.0768     23.4682     95.2720
  2491.3000      8.1801      2.6847      0.0729     -2.1055     23.0514     97.1791
  2491.4000      8.1801      2.6362      0.0488      0.8334     23.1202     99.3217
  2491.5000      8.0158      2.5884      0.0105      3.7334     23.4993     97.6256
  2491.6000      8.0158      2.5620     -0.0572      5.3333     23.5799     94.5356
  2491.7000      8.0158      2.5645      0.0150      5.1824     23.1529     92.6408
  2491.8000      7.9874      2.5767      0.0235      4.4405     22.6184     91.7514
  2491.9000      7.9874      2.5860      0.0447      3.8765     22.4542     93.7632
  2492.0000      7.9854      2.5955      0.0498      3.3060     22.6056     98.1452
  2492.1000      7.9854      2.6037      0.0287      2.8049     22.6392    101.6193
  2492.2000      7.9854      2.6073      0.0253      2.5875     22.4312    101.8242
  2492.3000      7.9851      2.6032      0.0456      2.8388     22.2736     99.5123
  2492.4000      7.9851      2.5934      0.0312      3.4286     22.1881     97.5280
  2492.5000      7.9852      2.5873     -0.0011      3.7991     21.8945     98.1327
  2492.6000      7.9852      2.5869      0.0375      3.8260     21.6658    102.3596
  2492.7000      7.9852      2.5866      0.0473      3.8417     21.7858    111.0822
  2492.8000      7.9860      2.5890      0.0343      3.6983     22.1755    120.6805
  2492.9000      7.9860      2.6023      0.0277      2.8882     22.7548    123.9384
  2493.0000      7.9854      2.6231      0.0752      1.6308     23.4063    118.9487
  2493.1000      7.9854      2.6412      0.0411      0.5314     24.0443    108.1618
  2493.2000      7.9854      2.6565      0.0933     -0.3920     24.5066     94.4439
  2493.3000      7.9842      2.6663      0.0613     -0.9900     24.5986     84.9524
  2493.4000      7.9842      2.6594      0.0588     -0.5713     24.4923     85.3271
  2493.5000      7.9845      2.6303      0.0415      1.1930     24.5790     91.2273
  2493.6000      7.9845      2.5993     -0.0207      3.0750     24.9796     95.9873
  2493.7000      7.9845      2.5885      0.0021      3.7287     25.6574     98.1015
  2493.8000      7.9864      2.5732      0.0745      4.6553     26.2675     99.6154
  2493.9000      7.9864      2.5246     -0.0229      7.5970     26.4179    102.3017
  2494.0000      7.9929      2.4773     -0.0682     10.4645     26.1934    106.1287
  2494.1000      7.9929      2.4737     -0.0302     10.6865     25.9233    111.6853
  2494.2000      7.9929      2.4986      0.0321      9.1785     25.8990    118.6891
  2494.3000      8.0027      2.5201      0.0226      7.8706     26.2269    127.3934
