~Version Information
VERS.                      2.0: CWLS Log ASCII Standard - VERSION 2.0
WRAP.                       NO: One line per depth step
~Well Information Block
STRT.FT               500.0000: 
STOP.FT              2760.5000: 
STEP.FT                 0.1000: 
NULL.                -999.2500: 
COMP.          Petrogulf Corporation: COMPANY
WELL.              Silva 1-43V: WELL
FLD.           Purgatorie River: FIELD
LOC.           2010' FSL & 614' FEL: LOCATION
PROV.                 Colorado: PROVINCE
CNTY.               Las Animas: COUNTRY
SRVC.                Patterson: SERVICE COMPANY
DATE.          Mon Aug 29 08:02:37 2005: LOG DATE
UWI.                          : UNIQUE WELL ID
~Curve Information Block
DEPT.FT            0 000 00 00: Depth
DCAL.in                       : CDL Caliper
RHOB.g/cc                     : CDL Bulk Density
RHOC.g/cc                     : CDL Density Correction
DPOR.pu                       : CDL Density Porosity
GR.GAPI                       : Gamma Ray
NPOR.pu                       : Neutron Porosity
~Parameter Information Block
~A  Depth       DCAL        RHOB        RHOC        DPOR         GR         NPOR    
# ...
  1546.4000      8.1759      2.6229      0.0615      1.6406    157.9165     26.0483
  1546.5000      8.1581      2.6247      0.0316      1.5361    157.4108     26.4604
  1546.6000      8.1581      2.6307      0.0528      1.1712    152.0851     27.0169
  1546.7000      8.1581      2.6309      0.0382      1.1589    144.5702     27.0958
  1546.8000      8.1539      2.6210      0.0540      1.7551    142.1844     26.8371
  1546.9000      8.1539      2.5981      0.0728      3.1429    143.8232     26.7909
  1547.0000      8.1670      2.5680      0.0191      4.9681    143.9912     27.0743
  1547.1000      8.1670      2.5493      0.0002      6.1053    144.4314     27.4454
  1547.2000      8.1670      2.5505      0.0254      6.0277    149.1215     27.8216
  1547.3000      8.1782      2.5614      0.0553      5.3711    156.1137     28.2243
  1547.4000      8.1782      2.5677      0.0440      4.9888    161.2761     28.4736
  1547.5000      8.1607      2.5607      0.0537      5.4120    163.3597     28.2455
  1547.6000      8.1607      2.5458      0.0201      6.3177    163.0163     27.6827
  1547.7000      8.1607      2.5421      0.0251      6.5403    160.8111     27.2995
  1547.8000      8.1326      2.5601      0.0251      5.4488    157.8532     27.1314
  1547.9000      8.1326      2.5904      0.0817      3.6091    156.1909     26.6969
  1548.0000      8.1178      2.6178      0.0815      1.9495    154.7262     25.8285
  1548.1000      8.1178      2.6372      0.1064      0.7744    149.3611     24.9480
  1548.2000      8.1178      2.6482      0.0970      0.1110    140.0366     24.4848
  1548.3000      8.0957      2.6567      0.0792     -0.4055    130.4521     24.6201
  1548.4000      8.0957      2.6717      0.0687     -1.3153    122.6514     25.1876
  1548.5000      8.1317      2.6851      0.0800     -2.1301    114.9434     25.6065
  1548.6000      8.1317      2.6806      0.0759     -1.8569    107.0012     25.5639
  1548.7000      8.1317      2.6525      0.0625     -0.1520    101.1585     25.3699
  1548.8000      8.1412      2.6132     -0.0477      2.2299     95.4911     25.2756
  1548.9000      8.1412      2.5820     -0.0148      4.1225     87.5425     24.9567
  1549.0000      8.0872      2.5588      0.0060      5.5245     79.4883     24.0995
  1549.1000      8.0872      2.5371     -0.0195      6.8417     74.5290     23.2337
  1549.2000      8.0872      2.5279     -0.0052      7.4002     73.0940     22.9946
  1549.3000      8.0746      2.5407      0.0245      6.6252     73.2817     22.9665
  1549.4000      8.0746      2.5629      0.0771      5.2814     72.1287     22.4702
  1549.5000      8.0652      2.5779      0.0604      4.3685     70.4812     21.7382
  1549.6000      8.0652      2.5824      0.0895      4.0959     72.5570     21.1737
  1549.7000      8.0652      2.5811      0.0852      4.1758     75.8470     20.7325
  1549.8000      8.0646      2.5878      0.0591      3.7683     74.6693     20.4094
  1549.9000      8.0646      2.6072      0.1126      2.5942     70.0929     20.1767
  1550.0000      8.0507      2.6203      0.1064      1.8026     66.7642     19.9011
  1550.1000      8.0507      2.6167      0.0979      2.0153     65.0934     19.6790
  1550.2000      8.0507      2.6051      0.0895      2.7236     62.7247     19.6834
  1550.3000      8.0496      2.5906      0.0882      3.6019     60.7941     19.6042
  1550.4000      8.0496      2.5768      0.0640      4.4366     61.2574     19.1424
  1550.5000      8.0451      2.5710      0.0560      4.7899     63.4423     18.4121
  1550.6000      8.0451      2.5697      0.0612      4.8691     65.8957     17.7522
  1550.7000      8.0451      2.5583      0.0510      5.5552     68.3870     17.4682
  1550.8000      8.0388      2.5391     -0.0041      6.7239     71.1273     17.4684
  1550.9000      8.0388      2.5301      0.0231      7.2682     73.9911     17.5794
  1551.0000      8.0348      2.5307      0.0434      7.2332     77.5078     17.7423
  1551.1000      8.0348      2.5221      0.0369      7.7506     81.4919     17.8594
  1551.2000      8.0348      2.4994      0.0594      9.1262     84.6610     17.9112
  1551.3000      8.0429      2.4791      0.0264     10.3565     88.0924     18.1102
  1551.4000      8.0429      2.4756     -0.0237     10.5673     94.8106     18.6528
  1551.5000      8.0694      2.4704      0.0435     10.8821    103.6332     19.4625
  1551.6000      8.0694      2.4363     -0.0018     12.9528    109.6951     20.5767
  1551.7000      8.0694      2.3878      0.0185     15.8921    113.9429     22.0099
  1551.8000      8.0783      2.3526      0.0609     18.0253    119.3549     23.2649
  1551.9000      8.0783      2.3352      0.0339     19.0768    122.6249     24.0411
  1552.0000      8.0781      2.3417      0.0356     18.6878    122.1995     24.8199
  1552.1000      8.0781      2.3731      0.1063     16.7837    124.8974     26.1046
  1552.2000      8.0781      2.4027      0.1271     14.9897    134.1807     27.6966
  1552.3000      8.1374      2.4051      0.1489     14.8414    144.6455     29.0166
  1552.4000      8.1374      2.3871      0.1594     15.9344    153.1645     30.0325
  1552.5000      8.2270      2.3802      0.1503     16.3495    160.7025     30.8451
  1552.6000      8.2270      2.4100      0.2321     14.5474    166.2819     31.3372
  1552.7000      8.2270      2.4668      0.3230     11.1018    167.0595     31.5927
  1552.8000      8.2943      2.5164      0.3457      8.0946    164.8407     31.7672
  1552.9000      8.2943      2.5352      0.3368      6.9564    164.2302     31.8509
  1553.0000      8.4142      2.5320      0.2590      7.1542    165.6072     31.8819
  1553.1000      8.4142      2.5258      0.3388      7.5301    165.5755     32.1537
  1553.2000      8.4142      2.5198      0.3227      7.8927    162.8532     32.5044
  1553.3000      8.3851      2.5117      0.3154      8.3840    160.3970     32.5532
  1553.4000      8.3851      2.4973      0.2795      9.2572    158.9570     32.5154
  1553.5000      8.3187      2.4747      0.2105     10.6244    157.5825     32.5727
  1553.6000      8.3187      2.4534      0.2082     11.9128    157.2691     32.6184
  1553.7000      8.3187      2.4469      0.1478     12.3065    157.3049     32.5928
  1553.8000      8.3341      2.4557      0.2063     11.7753    156.8342     32.4857
  1553.9000      8.3341      2.4657      0.2338     11.1680    157.5765     32.4722
  1554.0000      8.4282      2.4774      0.1725     10.4609    160.8787     32.6421
  1554.1000      8.4282      2.4942      0.2124      9.4438    165.4751     32.7525
  1554.2000      8.4282      2.4962      0.2066      9.3227    170.0546     32.7310
  1554.3000      8.3879      2.4771      0.1570     10.4779    174.0315     32.7899
  1554.4000      8.3879      2.4547      0.1690     11.8339    174.7160     33.1384
  1554.5000      8.3715      2.4286      0.1453     13.4174    172.1945     33.6581
  1554.6000      8.3715      2.3817      0.1623     16.2629    171.8033     33.9403
  1554.7000      8.3715      2.3190      0.0660     20.0606    175.9784     33.7146
  1554.8000      8.4430      2.2655      0.1209     23.3060    179.8797     32.9130
  1554.9000      8.4430      2.2279      0.0820     25.5812    175.8806     32.0087
  1555.0000      8.4439      2.2030      0.0308     27.0914    167.2960     31.8724
  1555.1000      8.4439      2.1951      0.0482     27.5706    165.5545     32.5752
  1555.2000      8.4439      2.2010      0.0725     27.2140    171.1947     33.2302
  1555.3000      8.3969      2.2063      0.0978     26.8915    174.9643     33.4033
  1555.4000      8.3969      2.2081      0.0700     26.7801    170.8109     33.5514
  1555.5000      8.3428      2.2217      0.0848     25.9594    163.9656     33.7819
  1555.6000      8.3428      2.2533      0.1698     24.0443    163.2689     33.8439
  1555.7000      8.3428      2.2883      0.2385     21.9234    166.0931     33.8240
  1555.8000      8.3885      2.3106      0.2517     20.5695    165.5996     33.7282
  1555.9000      8.3885      2.3183      0.2359     20.1039    164.5799     33.6012
