~Version Information
VERS.                      2.0: CWLS Log ASCII Standard - VERSION 2.0
WRAP.                       NO: One line per depth step
~Well Information Block
STRT.FT               640.0000: 
STOP.FT               927.0000: 
STEP.FT                 0.1000: 
NULL.                -999.2500: 
COMP.          Pioneer Natural Resources: COMPANY
WELL.          Claim Jumper 41-22: WELL
FLD.           Purgatoire River: FIELD
LOC.           1120' FNL & 977' FEL: LOCATION
PROV.                 Colorado: PROVINCE
CNTY.               Las Animas: COUNTRY
SRVC.                Patterson: SERVICE COMPANY
DATE.          Thu Jun 23 08:35:14 2005: LOG DATE
UWI.           05-071-08405-00: UNIQUE WELL ID
~Curve Information Block
DEPT.FT            0 000 00 00: Depth
DCAL.in                       : CDL Caliper
RHOB.g/cc                     : CDL Bulk Density
RHOC.g/cc                     : CDL Density Correction
DPOR.pu                       : CDL Density Porosity
GR.GAPI                       : Gamma Ray
NPOR.pu                       : Neutron Porosity
~Parameter Information Block
~A  Depth       DCAL        RHOB        RHOC        DPOR         GR         NPOR    
# ...
   697.6000      8.1153      1.7124     -0.1018     56.8233     82.8291     14.3559
   697.7000      8.1153      1.6110     -0.0695     62.9698     80.2792     13.9804
   697.8000      8.1336      1.5327     -0.0679     67.7164     80.0565     14.0775
   697.9000      8.1336      1.5150      0.0247     68.7871     79.9485     14.4226
   698.0000      8.1559      1.5739      0.0904     65.2187     77.6724     14.7763
   698.1000      8.1559      1.6712      0.2375     59.3224     71.4988     15.3160
   698.2000      8.1559      1.7594      0.2920     53.9748     64.8117     16.2146
   698.3000      8.1482      1.8361      0.2578     49.3282     62.1501     17.5171
   698.4000      8.1482      1.9285      0.2479     43.7295     64.3819     19.1186
   698.5000      8.0984      2.0413      0.3058     36.8924     70.9700     20.5803
   698.6000      8.0984      2.1547      0.3345     30.0177     79.5831     21.6930
   698.7000      8.0984      2.2507      0.2976     24.1972     89.6484     22.6167
   698.8000      8.0597      2.3187      0.2401     20.0790    103.1229     23.3375
   698.9000      8.0597      2.3592      0.1602     17.6268    116.0614     23.8936
   699.0000      8.0591      2.3801      0.0912     16.3557    119.9381     24.4185
   699.1000      8.0591      2.3941      0.0649     15.5106    113.5774     24.6935
   699.2000      8.0591      2.4221      0.1005     13.8106    107.1502     24.5803
   699.3000      8.0759      2.4653      0.0913     11.1949    108.2293     24.3122
   699.4000      8.0759      2.4907      0.1854      9.6574    111.9630     24.0900
   699.5000      8.0738      2.4835      0.1016     10.0926    113.4849     23.8485
   699.6000      8.0738      2.4731      0.1073     10.7198    112.7164     23.5216
   699.7000      8.0738      2.4770      0.1478     10.4844    114.5110     23.3528
   699.8000      8.0514      2.4866      0.1425      9.9003    122.2516     23.4833
   699.9000      8.0514      2.4988      0.1802      9.1645    130.4103     23.6400
   700.0000      8.0326      2.5116      0.2098      8.3853    130.2848     23.6116
   700.1000      8.0326      2.5226      0.1779      7.7209    122.1435     23.4668
   700.2000      8.0326      2.5332      0.1662      7.0759    116.6942     23.3019
   700.3000      8.0330      2.5398      0.1760      6.6778    119.3235     23.4461
   700.4000      8.0330      2.5412      0.1562      6.5927    124.4369     24.0348
   700.5000      8.0493      2.5481      0.1608      6.1738    126.1655     24.6435
   700.6000      8.0493      2.5647      0.1600      5.1680    123.5164     24.8028
   700.7000      8.0493      2.5814      0.1166      4.1564    119.3199     24.6414
   700.8000      8.0582      2.5834      0.1813      4.0391    114.8635     24.6289
   700.9000      8.0582      2.5687      0.0837      4.9263    110.3787     24.8255
   701.0000      8.0517      2.5662      0.0615      5.0802    108.8126     24.9865
   701.1000      8.0517      2.5888      0.1115      3.7083    110.6778     25.0751
   701.2000      8.0517      2.6079      0.1095      2.5524    112.6873     25.1010
   701.3000      8.0544      2.5981      0.1183      3.1433    113.7121     25.1261
   701.4000      8.0544      2.5695      0.0449      4.8768    115.5713     25.4199
   701.5000      8.0710      2.5478      0.0502      6.1938    118.1722     25.8316
   701.6000      8.0710      2.5382      0.0168      6.7761    118.3436     25.6861
   701.7000      8.0710      2.5291      0.0428      7.3279    116.1862     24.8909
   701.8000      8.0844      2.5162      0.0243      8.1061    117.6018     24.1399
   701.9000      8.0844      2.5152     -0.0076      8.1672    120.8730     23.9034
   702.0000      8.0981      2.5414      0.0532      6.5791    119.2946     24.0385
   702.1000      8.0981      2.5857      0.1117      3.8976    117.8580     24.1173
   702.2000      8.0981      2.6159      0.1563      2.0689    123.3207     24.0453
   702.3000      8.1146      2.6071      0.0938      2.6015    130.7872     23.9241
   702.4000      8.1146      2.5693      0.1287      4.8925    131.1897     23.6841
   702.5000      8.1227      2.5331      0.0793      7.0844    123.6424     23.2120
   702.6000      8.1227      2.5184      0.1033      7.9729    119.9658     22.5607
   702.7000      8.1227      2.5121      0.1003      8.3595    122.8581     21.9951
   702.8000      8.1243      2.4964      0.0952      9.3106    121.9511     21.8614
   702.9000      8.1243      2.4788      0.0634     10.3741    121.6418     22.1849
   703.0000      8.1271      2.4691      0.0607     10.9657    128.8577     22.4838
   703.1000      8.1271      2.4663      0.0406     11.1347    135.1359     22.6385
   703.2000      8.1271      2.4655      0.0882     11.1802    134.9342     23.0074
   703.3000      8.1306      2.4600      0.0845     11.5140    131.5329     23.4213
   703.4000      8.1306      2.4573      0.0877     11.6766    127.8799     23.5804
   703.5000      8.1235      2.4618      0.1318     11.4035    124.4470     23.6193
   703.6000      8.1235      2.4585      0.1542     11.6077    120.0458     23.6391
   703.7000      8.1235      2.4518      0.0859     12.0139    115.4784     23.6232
   703.8000      8.1075      2.4641      0.1303     11.2693    113.3148     23.2480
   703.9000      8.1075      2.4902      0.1517      9.6840    112.2266     22.3676
   704.0000      8.1009      2.5100      0.1443      8.4840    109.6561     21.5518
   704.1000      8.1009      2.5224      0.1193      7.7359    110.3532     20.8867
   704.2000      8.1009      2.5265      0.1517      7.4870    115.4069     19.8401
   704.3000      8.1041      2.4866      0.2151      9.9048    117.3647     18.5572
   704.4000      8.1041      2.3732      0.1418     16.7754    115.0500     17.4805
   704.5000      8.1066      2.2244      0.0066     25.7965    112.5011     16.5352
   704.6000      8.1066      2.0931      0.0272     33.7497    110.0211     15.6835
   704.7000      8.1066      1.9746      0.0251     40.9307    108.8922     14.8773
   704.8000      8.1084      1.8483     -0.0730     48.5886    110.2411     14.0415
   704.9000      8.1084      1.7246     -0.0869     56.0831    106.7567     13.5461
   705.0000      8.1121      1.6192     -0.0987     62.4743     95.1420     13.5298
   705.1000      8.1121      1.5464     -0.0999     66.8824     82.8380     13.6074
   705.2000      8.1121      1.5230      0.0075     68.3044     74.3946     13.5497
   705.3000      8.1188      1.5387      0.1148     67.3511     71.4993     13.3977
   705.4000      8.1188      1.5575      0.2386     66.2101     74.1576     13.2925
   705.5000      8.1302      1.5530      0.2399     66.4843     74.0034     13.4553
   705.6000      8.1302      1.5298      0.2038     67.8882     67.4858     13.9536
   705.7000      8.1302      1.5140      0.1163     68.8503     63.6279     14.6209
   705.8000      8.1391      1.5281      0.1125     67.9945     65.9375     15.4343
   705.9000      8.1391      1.5780      0.1107     64.9704     67.9958     16.6292
   706.0000      8.1414      1.6551      0.1122     60.2988     68.3800     18.0914
   706.1000      8.1414      1.7464      0.1574     54.7652     71.1747     19.3364
   706.2000      8.1414      1.8493      0.1750     48.5258     74.8552     20.3077
   706.3000      8.1502      1.9653      0.2533     41.4942     74.7146     21.1964
   706.4000      8.1502      2.0859      0.3480     34.1889     73.4088     21.8695
   706.5000      8.1728      2.2093      0.3116     26.7065     78.4139     22.1079
   706.6000      8.1728      2.3345      0.3132     19.1236     90.0250     22.0176
   706.7000      8.1728      2.4367      0.2915     12.9249     98.3200     22.2628
   706.8000      8.1689      2.4987      0.3034      9.1671     99.2072     23.4184
   706.9000      8.1689      2.5280      0.2453      7.3960     99.9765     25.0765
   707.0000      8.1076      2.5398      0.2606      6.6766    103.7084     26.1990
   707.1000      8.1076      2.5527      0.1836      5.8965    106.5437     26.3848
