~Version Information
VERS.                      2.0: CWLS Log ASCII Standard - VERSION 2.0
WRAP.                       NO: One line per depth step
~Well Information Block
STRT.FT               480.0000: 
STOP.FT              1629.0000: 
STEP.FT                 0.2500: 
NULL.                -999.2500: 
COMP.          Pioneer Natural Resources: COMPANY
WELL.          Dude Canyon 22-32 Tr: WELL
FLD.           Purgatoire River: FIELD
LOC.           1741' FNL & 2331' FWL: LOCATION
PROV.                 Colorado: PROVINCE
CNTY.               Las Animas: COUNTRY
SRVC.                Patterson: SERVICE COMPANY
DATE.          Sat Jul 09 01:36:28 2005: LOG DATE
UWI.           05 071 08421 00: UNIQUE WELL ID
~Curve Information Block
DEPT.FT            0 000 00 00: Depth
SN.Ohm-m                      : IEL Short Normal
SP.mV                         : IEL Spontaneous Potential
DIR.Ohm-m                     : IEL Induction Resistivity
GR.GAPI                       : Gamma Ray
~Parameter Information Block
~A  Depth        SN          SP         DIR          GR     
# ...
   915.5000     20.5524    -90.4167     24.2723    127.7568
   915.7500     20.4115    -90.5618     23.6002    123.9678
   916.0000     20.9056    -90.6596     23.0086    115.9368
   916.2500     21.9433    -90.7291     22.5735    109.6005
   916.5000     23.1357    -90.7980     22.3418    101.3269
   916.7500     24.0130    -90.8917     22.3228     98.3395
   917.0000     24.3255    -91.0278     22.4932     98.5103
   917.2500     24.1531    -91.2149     22.8054    100.6599
   917.5000     23.7507    -91.4487     23.1954    104.2169
   917.7500     23.2926    -91.7083     23.5893    105.8593
   918.0000     22.8348    -91.9623     23.9101    106.9016
   918.2500     22.4531    -92.1832     24.0908    106.6167
   918.5000     22.2528    -92.3580     24.0875    104.6184
   918.7500     22.2960    -92.4895     23.8904    102.5332
   919.0000     22.5646    -92.5884     23.5281     99.5543
   919.2500     22.9404    -92.6608     23.0622     98.3055
   919.5000     23.2754    -92.7032     22.5700     97.5271
   919.7500     23.4732    -92.7098     22.1221     97.3902
   920.0000     23.4318    -92.6832     21.7615     97.8131
   920.2500     23.0438    -92.6387     21.4957     99.0440
   920.5000     22.3345    -92.5959     21.3038    103.0507
   920.7500     21.4921    -92.5707     21.1534    107.0342
   921.0000     20.7221    -92.5700     21.0146    114.0066
   921.2500     20.1129    -92.5915     20.8639    118.7936
   921.5000     19.6198    -92.6202     20.6843    125.8081
   921.7500     19.1019    -92.6291     20.4698    130.1433
   922.0000     18.4126    -92.5898     20.2348    134.9827
   922.2500     17.5849    -92.4920     20.0158    136.2973
   922.5000     16.9035    -92.3533     19.8583    135.2612
   922.7500     16.6630    -92.2076     19.7965    133.4276
   923.0000     16.8967    -92.0824     19.8402    130.7945
   923.2500     17.4283    -91.9823     19.9762    129.5737
   923.5000     18.0629    -91.8919     20.1802    127.9391
   923.7500     18.6864    -91.7924     20.4303    126.1857
   924.0000     19.3001    -91.6816     20.7165    121.3015
   924.2500     19.9855    -91.5800     21.0444    116.2613
   924.5000     20.8543    -91.5151     21.4361    106.9837
   924.7500     22.0130    -91.4964     21.9243    101.0205
   925.0000     23.4016    -91.5042     22.5421     94.7224
   925.2500     24.7600    -91.5046     23.3119     92.6618
   925.5000     25.9544    -91.4752     24.2408     91.4624
   925.7500     27.0877    -91.4199     25.3201     90.8137
   926.0000     28.2041    -91.3636     26.5237     89.2332
   926.2500     29.2314    -91.3375     27.8044     88.1257
   926.5000     30.2134    -91.3621     29.0946     87.4481
   926.7500     31.3040    -91.4383     30.3104     87.8641
   927.0000     32.5128    -91.5549     31.3501     89.1407
   927.2500     33.6198    -91.7031     32.0882     89.8155
   927.5000     34.3549    -91.8823     32.3987     89.8801
   927.7500     34.5928    -92.0915     32.2237     89.3189
   928.0000     34.3611    -92.3225     31.6384     88.4331
   928.2500     33.7137    -92.5676     30.8391     88.6333
   928.5000     32.6812    -92.8304     30.0513     91.3610
   928.7500     31.3746    -93.1207     29.4262     95.0272
   929.0000     30.0404    -93.4349     28.9883    102.5864
   929.2500     28.9104    -93.7473     28.6466    108.1076
   929.5000     28.0497    -94.0216     28.2630    115.3641
   929.7500     27.3712    -94.2352     27.7425    118.6808
   930.0000     26.6808    -94.3948     27.0868    120.8426
   930.2500     25.7490    -94.5314     26.3751    120.8611
   930.5000     24.5350    -94.6798     25.7042    120.3602
   930.7500     23.3231    -94.8594     25.1419    120.3156
   931.0000     22.4969    -95.0712     24.7220    120.3163
   931.2500     22.2506    -95.3092     24.4587    119.7188
   931.5000     22.5145    -95.5676     24.3578    117.5364
   931.7500     23.0179    -95.8372     24.4110    115.5431
   932.0000     23.4804    -96.0983     24.5886    112.2451
   932.2500     23.8146    -96.3216     24.8484    109.7798
   932.5000     24.1059    -96.4789     25.1600    105.4674
   932.7500     24.4855    -96.5552     25.5209    102.3895
   933.0000     25.0469    -96.5515     25.9434     98.3814
   933.2500     25.7862    -96.4756     26.4248     96.6510
   933.5000     26.6405    -96.3312     26.9314     95.7237
   933.7500     27.5534    -96.1167     27.4078     95.7671
   934.0000     28.4236    -95.8373     27.7997     95.3424
   934.2500     29.0361    -95.5210     28.0696     94.1055
   934.5000     29.1715    -95.2176     28.1986     91.3265
   934.7500     28.8223    -94.9771     28.1835     89.9536
   935.0000     28.2343    -94.8254     28.0326     90.2335
   935.2500     27.6856    -94.7621     27.7582     91.9943
   935.5000     27.2504    -94.7752     27.3679     95.5887
   935.7500     26.8243    -94.8512     26.8629     97.6770
   936.0000     26.3037    -94.9732     26.2470     99.6601
   936.2500     25.6488    -95.1207     25.5370    100.5159
   936.5000     24.8504    -95.2789     24.7685    102.3682
   936.7500     23.9778    -95.4423     23.9965    104.5936
   937.0000     23.1936    -95.6046     23.2906    109.3430
   937.2500     22.6055    -95.7524     22.7197    112.7962
   937.5000     22.1888    -95.8742     22.3287    117.1115
   937.7500     21.9148    -95.9698     22.1207    118.9543
   938.0000     21.7861    -96.0430     22.0570    120.1611
   938.2500     21.7296    -96.0910     22.0788    120.3205
   938.5000     21.6773    -96.1062     22.1344    120.3912
   938.7500     21.6811    -96.0849     22.1929    120.5221
   939.0000     21.7929    -96.0287     22.2396    120.6976
   939.2500     21.9798    -95.9383     22.2694    120.7571
   939.5000     22.1635    -95.8098     22.2937    121.0690
   939.7500     22.2755    -95.6379     22.3503    121.6525
   940.0000     22.3756    -95.4240     22.5004    123.2011
   940.2500     22.6620    -95.1810     22.8077    124.6155
   940.5000     23.2417    -94.9323     23.3130    127.0859
   940.7500     23.9900    -94.7043     24.0206    128.6171
   941.0000     24.7739    -94.5160     24.9025    129.5682
   941.2500     25.6604    -94.3713     25.9179    128.5425
   941.5000     26.7757    -94.2583     27.0318    123.8576
   941.7500     28.1632    -94.1562     28.2180    118.8900
   942.0000     29.8447    -94.0454     29.4429    110.0837
   942.2500     31.8511    -93.9146     30.6511    104.3106
   942.5000     34.1719    -93.7619     31.7736     96.7354
   942.7500     36.8059    -93.5931     32.7599     92.2695
   943.0000     39.8249    -93.4188     33.6084     85.9027
   943.2500     43.2636    -93.2546     34.3689     82.0047
   943.5000     46.9872    -93.1184     35.1101     77.6799
   943.7500     50.6456    -93.0206     35.8690     76.2980
   944.0000     53.7232    -92.9480     36.6117     76.3271
   944.2500     55.7463    -92.8660     37.2302     77.2084
   944.5000     56.4308    -92.7441     37.5792     78.9380
   944.7500     55.6316    -92.5866     37.5327     80.2290
   945.0000     53.3529    -92.4367     37.0284     83.0602
   945.2500     49.8653    -92.3502     36.0733     86.3385
   945.5000     45.7231    -92.3570     34.7215     94.2668
   945.7500     41.5994    -92.4389     33.0479    100.9949
   946.0000     37.9713    -92.5343     31.1418    110.0931
   946.2500     34.9057    -92.5708     29.1132    113.3900
   946.5000     32.1444    -92.5060     27.0907    112.7031
   946.7500     29.3900    -92.3471     25.1982    109.4498
   947.0000     26.5908    -92.1383     23.5244    104.1697
   947.2500     23.9542    -91.9272     22.1049    102.7353
   947.5000     21.7218    -91.7403     20.9258    105.9258
   947.7500     20.0144    -91.5810     19.9427    111.2668
   948.0000     18.7337    -91.4425     19.1019    121.4525
   948.2500     17.5997    -91.3194     18.3519    128.0598
   948.5000     16.4666    -91.2106     17.6493    136.2306
   948.7500     15.4442    -91.1180     16.9640    140.3642
