~Version Information
VERS.                      2.0: CWLS Log ASCII Standard - VERSION 2.0
WRAP.                       NO: One line per depth step
~Well Information Block
STRT.FT               -16.0000: 
STOP.FT              2454.2500: 
STEP.FT                 0.2500: 
NULL.                -999.2500: 
COMP.                         : COMPANY
WELL.                         : WELL
FLD.                          : FIELD
LOC.                          : LOCATION
CNTY.                         : COUNTY
SRVC.                         : SERVICE COMPANY
DATE.          Tue Aug 31 08:09:44 2004: LOG DATE
UWI.                          : UNIQUE WELL ID
STAT.                         : STATE
~Curve Information Block
DEPT.FT            0 000 00 00: Depth
GR.GAPI                       : Gamma Ray
CCL.                          : Casing Collar Locator
TT3.usec                      : CBL 3' Travel Time
AMP3.mV                       : CBL 3' Amplitude
~Parameter Information Block
~A  Depth        GR         CCL         TT3         AMP3    
# ...
  1927.0000     42.4931      0.0000    695.5818      4.1729
  1927.2500     41.5916      0.0000    719.1700      4.1786
  1927.5000     39.8225      0.0000    726.6985      4.1695
  1927.7500     37.4412      0.0000    717.1681      4.1552
  1928.0000     34.6925      0.0000    717.5706      4.1514
  1928.2500     31.8605      0.0000    744.2203      4.1729
  1928.5000     29.2475      0.0000    779.7715      4.2147
  1928.7500     27.0580      0.0000    802.6039      4.2509
  1929.0000     25.4633      0.0000    811.1436      4.2720
  1929.2500     24.7097      0.0000    813.2124      4.2873
  1929.5000     24.9749      0.0000    813.1469      4.2959
  1929.7500     26.2052      0.0000    810.7018      4.2950
  1930.0000     28.2043      0.0000    804.0868      4.2998
  1930.2500     30.6145      0.0000    794.8289      4.3211
  1930.5000     32.5902      0.0000    790.0528      4.3475
  1930.7500     32.9706      0.0000    794.1761      4.3711
  1931.0000     31.3021      0.0000    801.2279      4.3890
  1931.2500     28.4508      0.0000    802.2242      4.3819
  1931.5000     25.8429      0.0000    794.8788      4.3417
  1931.7500     24.3643      0.0000    784.3625      4.2999
  1932.0000     24.1601      0.0000    778.6334      4.2946
  1932.2500     24.9780      0.0000    781.2747      4.3389
  1932.5000     26.2506      0.0000    787.8126      4.4185
  1932.7500     27.0707      0.0000    791.4043      4.5013
  1933.0000     26.5759      0.0000    790.8323      4.5627
  1933.2500     24.6174      0.0000    789.1877      4.6075
  1933.5000     22.0533      0.0000    788.4861      4.6574
  1933.7500     20.2756      0.0000    789.7278      4.7217
  1934.0000     20.2629      0.0000    794.3383      4.7887
  1934.2500     21.9592      0.0000    802.2614      4.8360
  1934.5000     24.5602      0.0000    810.3734      4.8524
  1934.7500     27.3649      0.0000    815.8084      4.8654
  1935.0000     30.2475      0.0000    818.8459      4.9344
  1935.2500     33.3809      0.0000    821.0455      5.0935
  1935.5000     36.7062      0.0000    823.0797      5.3134
  1935.7500     39.6556      0.0000    824.6723      5.5457
  1936.0000     41.2927      0.0000    824.9988      5.7952
  1936.2500     40.9400      0.0000    822.6340      6.1077
  1936.5000     38.9334      0.0000    816.4487      6.4916
  1936.7500     36.6158      0.0000    807.8246      6.8936
  1937.0000     35.3992      0.0000    800.3326      7.2591
  1937.2500     35.8458      0.0000    796.1091      7.5977
  1937.5000     37.4931      0.0000    794.4367      7.9646
  1937.7500     39.2731      0.0000    793.8104      8.3843
  1938.0000     40.1431      0.0000    793.5444      8.8169
  1938.2500     39.6400      0.0000    793.6516      9.1996
  1938.5000     38.0331      0.0000    794.2188      9.4974
  1938.7500     36.0140      0.0000    795.0006      9.6917
  1939.0000     34.2851      0.0000    795.5320      9.7618
  1939.2500     33.3291      0.0000    795.5610      9.7180
  1939.5000     33.3338      0.0000    794.9562      9.6020
  1939.7500     34.2303      0.0000    792.3180      9.4508
  1940.0000     35.8037      0.0000    781.5546      9.2936
  1940.2500     37.7166      0.0000    750.1890      9.1696
  1940.5000     39.4161      0.0000    693.2582      9.1138
  1940.7500     40.1518      0.0000    637.4080      9.0975
  1941.0000     39.3425      0.0000    624.1472      9.0409
  1941.2500     37.1530      0.0000    652.5294      8.9345
  1941.5000     34.7437      0.0000    682.9650      8.8515
  1941.7500     33.8039      0.0000    701.6750      8.8086
  1942.0000     35.7477      0.0000    717.5751      8.7550
  1942.2500     41.1801      0.0000    712.2662      8.6998
  1942.5000     49.6280      0.0000    658.5470      8.7422
  1942.7500     59.4786      0.0000    570.9227      8.9821
  1943.0000     68.5772      0.0000    494.7756      9.4253
  1943.2500     75.3366      0.0000    455.4971      9.9557
  1943.5000     79.2892      0.0000    445.9822     10.4341
  1943.7500     80.7593      0.0000    452.9302     10.8567
  1944.0000     80.3756      0.0000    473.1167     11.2579
  1944.2500     78.7356      0.0000    502.1559     11.5139
  1944.5000     76.1182      0.0000    516.4512     11.6299
  1944.7500     72.5945      0.0000    494.8503     11.8785
  1945.0000     68.5418      0.0000    451.8770     12.3171
  1945.2500     64.7329      4.3977    414.9951     12.7556
  1945.5000     61.7048     -5.0000    393.6161     13.1121
  1945.7500     59.3024      0.0000    386.5342     13.3491
  1946.0000     57.1073      0.0000    391.5977     13.3207
  1946.2500     55.1880      0.0000    403.0810     12.9648
  1946.5000     54.2394      0.0000    412.5749     12.5352
  1946.7500     54.9444      0.0000    414.9167     12.3875
  1947.0000     57.1690      0.0000    411.3742     12.4720
  1947.2500     59.8269      0.0000    407.8502     12.3792
  1947.5000     61.7031      0.0000    408.5876     11.9727
  1947.7500     62.4578      0.0000    411.9099     11.4663
  1948.0000     62.6969      0.0000    414.7013     10.9781
  1948.2500     63.1067      0.0000    418.2182     10.5115
  1948.5000     63.7463      0.0000    429.5299     10.1205
  1948.7500     64.2022      0.0000    457.7064      9.8466
  1949.0000     64.1474      0.0000    496.9865      9.6865
  1949.2500     63.6302      0.0000    516.7379      9.6483
  1949.5000     63.0289      0.0000    496.3023      9.7088
  1949.7500     62.7844      0.0000    457.0715      9.7405
  1950.0000     62.9063      0.0000    430.2864      9.6204
  1950.2500     62.7498      0.0000    423.3767      9.4323
  1950.5000     61.6234      0.0000    435.1131      9.3927
  1950.7500     59.5368      0.0000    475.9613      9.5543
  1951.0000     57.0537      0.0000    555.5672      9.7559
  1951.2500     54.7499      0.0000    652.8699      9.8567
  1951.5000     53.2716      0.0000    719.4385      9.8876
  1951.7500     53.5523      0.0000    717.7816      9.9957
  1952.0000     56.2203      0.0000    645.5381     10.3085
  1952.2500     60.6357      0.0000    538.4302     10.8157
  1952.5000     64.8131      0.0000    449.4846     11.3360
  1952.7500     66.5422      0.0000    405.7034     11.6716
  1953.0000     64.7655      0.0000    394.1597     11.8237
  1953.2500     60.1633      0.0000    391.1003     11.9435
  1953.5000     54.6759      0.0000    388.2228     12.0666
  1953.7500     50.3160      0.0000    390.0448     12.0488
  1954.0000     48.0340      0.0000    397.9809     11.7839
  1954.2500     47.4912      0.0000    406.6129     11.3478
  1954.5000     47.7992      0.0000    411.8371     10.8950
  1954.7500     48.3569      0.0000    414.1159     10.5524
  1955.0000     49.1000      0.0000    415.1057     10.4177
  1955.2500     50.2826      0.0000    415.5313     10.5170
  1955.5000     52.0474      0.0000    415.5291     10.7553
  1955.7500     53.9638      0.0000    415.1303     11.0104
  1956.0000     54.9759      0.0000    414.1836     11.2525
  1956.2500     54.0548      0.0000    411.8938     11.4999
  1956.5000     51.0987      0.0000    406.3823     11.7612
  1956.7500     47.2963      0.0000    396.1634     12.0857
  1957.0000     44.5318      0.0000    383.3343     12.5335
  1957.2500     44.1782      0.0000    372.7682     13.0660
  1957.5000     46.2530      0.0000    366.9817     13.5955
  1957.7500     49.6044      0.0000    364.6760     14.1134
  1958.0000     52.8604      0.0000    363.7564     14.6575
  1958.2500     55.3475      0.0000    363.2522     15.1579
  1958.5000     57.2850      0.0000    363.0694     15.3999
  1958.7500     59.0852      0.0000    363.2959     15.2260
  1959.0000     60.4282      0.0000    363.8690     14.7183
  1959.2500     60.2343      0.0000    364.6185     14.1111
  1959.5000     57.7668      0.0000    365.3183     13.6177
  1959.7500     53.5385      0.0000    365.7415     13.3267
  1960.0000     48.8254      0.0000    365.8826     13.1776
  1960.2500     44.5206      0.0000    365.9358     13.0881
