~Version Information
VERS.                      2.0: CWLS Log ASCII Standard - VERSION 2.0
WRAP.                       NO: One line per depth step
~Well Information Block
STRT.FT               652.0000: 
STOP.FT              1880.0000: 
STEP.FT                 0.1000: 
NULL.                -999.2500: 
COMP.          Pioneer Natural Resources: COMPANY
WELL.          Corkscrew 33-12 Tr: WELL
FLD.           Purgatoire River: FIELD
LOC.           1870' FSL & 1706' FEL: LOCATION
PROV.                 Colorado: PROVINCE
CNTY.               Las Animas: COUNTRY
SRVC.                Patterson: SERVICE COMPANY
DATE.          Tue Mar 29 09:18:51 2005: LOG DATE
UWI.           05 071 08295 00: UNIQUE WELL ID
~Curve Information Block
DEPT.FT            0 000 00 00: Depth
DCAL.in                       : CDL Caliper
RHOB.g/cc                     : CDL Bulk Density
RHOC.g/cc                     : CDL Density Correction
DPOR.pu                       : CDL Density Porosity
GR.GAPI                       : Gamma Ray
NPOR.pu                       : Neutron Porosity
~Parameter Information Block
~A  Depth       DCAL        RHOB        RHOC        DPOR         GR         NPOR    
# ...
  1381.6000      7.9335      2.4707     -0.0237     10.8678    100.5236     21.7215
  1381.7000      7.9335      2.4862     -0.0354      9.9247    108.2190     23.0238
  1381.8000      7.9205      2.5179      0.0146      8.0089    113.5112     24.5352
  1381.9000      7.9205      2.5475      0.0529      6.2124    116.1630     26.0699
  1382.0000      7.9316      2.5674      0.0564      5.0071    117.8729     27.0477
  1382.1000      7.9316      2.5768      0.0168      4.4389    121.7557     26.7758
  1382.2000      7.9316      2.5765      0.0724      4.4548    129.2075     25.7878
  1382.3000      7.9330      2.5660      0.0553      5.0936    134.7344     24.9507
  1382.4000      7.9330      2.5516      0.0379      5.9641    132.3629     24.7858
  1382.5000      7.9421      2.5433      0.0599      6.4647    124.6963     25.3585
  1382.6000      7.9421      2.5415     -0.0046      6.5768    118.4470     25.7627
  1382.7000      7.9421      2.5372      0.0439      6.8354    116.4463     25.6318
  1382.8000      7.9498      2.5220     -0.0004      7.7566    117.0945     26.0129
  1382.9000      7.9498      2.5006      0.0294      9.0518    123.4292     26.8632
  1383.0000      7.9643      2.4852      0.0070      9.9873    134.0805     27.4192
  1383.1000      7.9643      2.4829      0.0148     10.1292    139.0326     27.6943
  1383.2000      7.9643      2.4965      0.0284      9.3007    137.4976     27.8608
  1383.3000      7.9721      2.5268      0.0252      7.4649    133.5722     28.1399
  1383.4000      7.9721      2.5608      0.1025      5.4088    130.0513     28.5440
  1383.5000      7.9710      2.5739      0.1931      4.6140    130.0763     28.5738
  1383.6000      7.9710      2.5673      0.1427      5.0112    133.7166     28.3268
  1383.7000      7.9710      2.5874      0.1218      3.7961    137.4187     28.4605
  1383.8000      7.9724      2.6576      0.2000     -0.4581    136.4183     28.7988
  1383.9000      7.9724      2.7327      0.2090     -5.0110    128.1452     28.7084
  1384.0000      8.0065      2.7721      0.1753     -7.4020    116.8107     28.4186
  1384.1000      8.0065      2.7874      0.1822     -8.3258    109.7988     28.3875
  1384.2000      8.0065      2.7912      0.1940     -8.5585    106.7894     27.8605
  1384.3000      7.9678      2.7663      0.1961     -7.0478     99.7260     26.0656
  1384.4000      7.9678      2.7106      0.0482     -3.6706     87.5590     23.7058
  1384.5000      7.9438      2.6615      0.0404     -0.6983     79.1937     22.0527
  1384.6000      7.9438      2.6426     -0.0003      0.4481     76.6758     21.4536
  1384.7000      7.9438      2.6334      0.0420      1.0032     73.5285     20.5818
  1384.8000      7.8837      2.6047     -0.0127      2.7459     69.0971     18.6607
  1384.9000      7.8837      2.5633      0.0011      5.2518     65.7930     16.9916
  1385.0000      7.8847      2.5403     -0.0198      6.6490     61.5875     16.2234
  1385.1000      7.8847      2.5537     -0.0795      5.8360     57.0134     15.5408
  1385.2000      7.8847      2.5850      0.0269      3.9384     53.2043     14.8394
  1385.3000      7.8793      2.5985      0.0363      3.1192     48.5406     14.5666
  1385.4000      7.8793      2.5916      0.0266      3.5367     44.2217     14.5865
  1385.5000      7.8776      2.5824      0.0309      4.0972     42.7592     14.3906
  1385.6000      7.8776      2.5765      0.0459      4.4540     42.3199     13.5848
  1385.7000      7.8776      2.5690      0.0318      4.9074     40.8202     12.7003
  1385.8000      7.8753      2.5541      0.0018      5.8129     41.1622     12.4795
  1385.9000      7.8753      2.5405     -0.0343      6.6342     43.8868     12.7431
  1386.0000      7.8728      2.5431     -0.0118      6.4777     43.8799     12.8523
  1386.1000      7.8728      2.5650      0.0058      5.1492     38.4967     12.9124
  1386.2000      7.8728      2.5988     -0.0078      3.1010     32.9624     13.4556
  1386.3000      7.8788      2.6297      0.0394      1.2291     33.1106     14.3844
  1386.4000      7.8788      2.6440      0.0441      0.3629     36.9552     14.9497
  1386.5000      7.8908      2.6369      0.0863      0.7944     41.7550     14.6584
  1386.6000      7.8908      2.6109     -0.0068      2.3719     47.8569     14.1181
  1386.7000      7.8908      2.5797      0.0453      4.2591     52.8009     14.1903
  1386.8000      7.9218      2.5654     -0.0173      5.1244     54.1536     14.7547
  1386.9000      7.9218      2.5809      0.0306      4.1884     53.5905     15.2248
  1387.0000      7.9504      2.6089      0.0096      2.4937     54.3226     15.6344
  1387.1000      7.9504      2.6180      0.0422      1.9379     56.8928     16.6537
  1387.2000      7.9504      2.6034      0.0093      2.8220     60.3130     18.4641
  1387.3000      7.9745      2.5873      0.0174      3.7984     64.1899     20.2634
  1387.4000      7.9745      2.5809     -0.0038      4.1877     68.0095     21.4831
  1387.5000      7.9811      2.5800      0.0120      4.2396     72.9696     22.4298
  1387.6000      7.9811      2.5790      0.0303      4.3039     79.5560     23.2731
  1387.7000      7.9811      2.5762      0.0433      4.4706     83.9401     23.7852
  1387.8000      7.9845      2.5758      0.0113      4.4952     84.2516     24.0533
  1387.9000      7.9845      2.5767      0.0284      4.4448     85.1104     23.9265
  1388.0000      7.9820      2.5742      0.0079      4.5950     88.5646     23.0164
  1388.1000      7.9820      2.5735     -0.0128      4.6383     88.6065     22.0504
  1388.2000      7.9820      2.5828     -0.0584      4.0727     85.4626     22.1919
  1388.3000      7.9819      2.6003     -0.0250      3.0121     83.1997     23.2426
  1388.4000      7.9819      2.6141      0.0369      2.1741     81.0058     24.4113
  1388.5000      7.9919      2.6144      0.1011      2.1598     80.4711     25.1017
  1388.6000      7.9919      2.6062      0.0343      2.6527     81.2925     24.6021
  1388.7000      7.9919      2.6037      0.0486      2.8052     81.3047     23.1142
  1388.8000      8.0012      2.6032      0.0424      2.8378     80.3364     21.9686
  1388.9000      8.0012      2.5957     -0.0121      3.2882     78.5366     21.7358
  1389.0000      8.0358      2.5892      0.0112      3.6856     77.7181     21.9442
  1389.1000      8.0358      2.5886      0.0077      3.7213     77.9051     22.2387
  1389.2000      8.0358      2.5884     -0.0123      3.7322     79.2301     22.1616
  1389.3000      8.0350      2.5846      0.0234      3.9628     83.4791     21.4955
  1389.4000      8.0350      2.5813     -0.0414      4.1612     86.0415     20.7387
  1389.5000      8.0105      2.5862     -0.0339      3.8687     83.0227     20.1235
  1389.6000      8.0105      2.5978     -0.0035      3.1610     81.4092     19.9049
  1389.7000      8.0105      2.6075     -0.0178      2.5788     87.7027     20.5826
  1389.8000      7.9470      2.6073      0.0307      2.5867     97.0643     22.1186
  1389.9000      7.9470      2.5912      0.0621      3.5646    103.2286     24.0828
  1390.0000      7.9324      2.5645     -0.0002      5.1810    107.6286     26.0023
  1390.1000      7.9324      2.5506     -0.0707      6.0257    113.7235     27.3181
  1390.2000      7.9324      2.5546      0.0739      5.7846    121.5317     27.5894
  1390.3000      7.9280      2.5505      0.0765      6.0311    127.3808     27.1790
  1390.4000      7.9280      2.5320      0.0527      7.1521    127.8670     26.7682
  1390.5000      7.9348      2.5170      0.0502      8.0589    126.1853     26.6006
  1390.6000      7.9348      2.5164      0.0767      8.0948    124.0550     26.6908
  1390.7000      7.9348      2.5332      0.0376      7.0773    120.5180     26.7028
  1390.8000      7.9489      2.5647      0.0864      5.1668    119.0274     26.3206
  1390.9000      7.9489      2.5964      0.0860      3.2490    123.9467     26.3886
  1391.0000      7.9407      2.6096      0.1074      2.4508    136.4484     27.4340
  1391.1000      7.9407      2.5984      0.0824      3.1253    150.5706     28.1698
