~Version Information
VERS.                      2.0: CWLS Log ASCII Standard - VERSION 2.0
WRAP.                       NO: One line per depth step
~Well Information Block
STRT.FT               660.8000: 
STOP.FT              2375.1000: 
STEP.FT                 0.1000: 
NULL.                -999.2500: 
COMP.          Petrogulf Corporation: COMPANY
WELL.             State 16-34V: WELL
FLD.           Purgatorie River: FIELD
LOC.           1146' FSL & 1393' FEL: LOCATION
CNTY.               Las Animas: COUNTY
SRVC.                         : SERVICE COMPANY
DATE.          Sat Jun 07 20:51:20 2003: LOG DATE
UWI.           05 071 07724 00: UNIQUE WELL ID
STAT.                 Colorado: STATE
~Curve Information Block
DEPT.FT            0 000 00 00: Depth
DCAL.in                       : Caliper from Density Tool
RHOB.g/cc                     : Bulk Density
RHOC.g/cc                     : Density Correction
DPOR.pu                       : Density Porosity
GR.GAPI                       : Gamma Ray
NPOR.pu                       : Neutron Porosity
~Parameter Information Block
~A  Depth       DCAL        RHOB        RHOC        DPOR         GR         NPOR    
# ...
  1572.8000      7.7960      2.4085      0.0125     14.6346     95.8817     18.7353
  1572.9000      7.7960      2.4085      0.0125     14.6346     95.6497     18.9943
  1573.0000      7.8325      2.4170      0.0144     14.1210     95.3795     19.2498
  1573.1000      7.8325      2.4170      0.0144     14.1210     95.1247     19.4973
  1573.2000      7.8325      2.4170      0.0144     14.1210     94.9364     19.7323
  1573.3000      7.8982      2.4282      0.0179     13.4434     94.8555     19.9519
  1573.4000      7.8982      2.4282      0.0179     13.4434     94.9094     20.1553
  1573.5000      7.9637      2.4354      0.0206     13.0084     95.1090     20.3448
  1573.6000      7.9637      2.4354      0.0206     13.0084     95.4544     20.5256
  1573.7000      7.9637      2.4354      0.0206     13.0084     95.9381     20.7046
  1573.8000      7.9623      2.4476      0.0261     12.2679     96.5503     20.8896
  1573.9000      7.9623      2.4476      0.0261     12.2679     97.2831     21.0874
  1574.0000      7.9125      2.4571      0.0311     11.6915     98.1362     21.3024
  1574.1000      7.9125      2.4571      0.0311     11.6915     99.1158     21.5352
  1574.2000      7.9125      2.4571      0.0311     11.6915    100.2366     21.7826
  1574.3000      7.8990      2.4721      0.0403     10.7810    101.5167     22.0374
  1574.4000      7.8990      2.4721      0.0403     10.7810    102.9713     22.2892
  1574.5000      7.9007      2.4811      0.0466     10.2388    104.6069     22.5257
  1574.6000      7.9007      2.4811      0.0466     10.2388    106.4129     22.7339
  1574.7000      7.9007      2.4811      0.0466     10.2388    108.3566     22.9021
  1574.8000      7.8480      2.4904      0.0544      9.6721    110.3789     23.0208
  1574.9000      7.8480      2.4904      0.0544      9.6721    112.3947     23.0835
  1575.0000      7.8202      2.4934      0.0577      9.4896    114.2976     23.0881
  1575.1000      7.8202      2.4934      0.0577      9.4896    115.9677     23.0357
  1575.2000      7.8202      2.4934      0.0577      9.4896    117.2841     22.9310
  1575.3000      7.8294      2.4942      0.0600      9.4417    118.1364     22.7806
  1575.4000      7.8294      2.4942      0.0600      9.4417    118.4363     22.5928
  1575.5000      7.8514      2.4936      0.0602      9.4789    118.1283     22.3765
  1575.6000      7.8514      2.4936      0.0602      9.4789    117.1936     22.1403
  1575.7000      7.8514      2.4936      0.0602      9.4789    115.6512     21.8926
  1575.8000      7.8839      2.4934      0.0596      9.4908    113.5574     21.6414
  1575.9000      7.8839      2.4934      0.0596      9.4908    110.9982     21.3947
  1576.0000      7.8918      2.4950      0.0594      9.3955    108.0824     21.1600
  1576.1000      7.8918      2.4950      0.0594      9.3955    104.9333     20.9445
  1576.2000      7.8918      2.4950      0.0594      9.3955    101.6782     20.7559
  1576.3000      7.8447      2.5016      0.0611      8.9967     98.4416     20.6005
  1576.4000      7.8447      2.5016      0.0611      8.9967     95.3372     20.4845
  1576.5000      7.8027      2.5093      0.0650      8.5287     92.4630     20.4123
  1576.6000      7.8027      2.5093      0.0650      8.5287     89.9017     20.3869
  1576.7000      7.8027      2.5093      0.0650      8.5287     87.7176     20.4092
  1576.8000      7.8066      2.5250      0.0770      7.5757     85.9585     20.4781
  1576.9000      7.8066      2.5250      0.0770      7.5757     84.6568     20.5903
  1577.0000      7.8065      2.5362      0.0892      6.8988     83.8331     20.7407
  1577.1000      7.8065      2.5362      0.0892      6.8988     83.4981     20.9233
  1577.2000      7.8065      2.5362      0.0892      6.8988     83.6541     21.1314
  1577.3000      7.8291      2.5481      0.1102      6.1783     84.3017     21.3584
  1577.4000      7.8291      2.5481      0.1102      6.1783     85.4396     21.5986
  1577.5000      7.8422      2.5492      0.1226      6.1087     87.0685     21.8476
  1577.6000      7.8422      2.5492      0.1226      6.1087     89.1915     22.1028
  1577.7000      7.8422      2.5492      0.1226      6.1087     91.8092     22.3625
  1577.8000      7.7785      2.5377      0.1329      6.8051     94.9188     22.6269
  1577.9000      7.7785      2.5377      0.1329      6.8051     98.5049     22.8966
  1578.0000      7.7259      2.5223      0.1320      7.7376    102.5362     23.1722
  1578.1000      7.7259      2.5223      0.1320      7.7376    106.9557     23.4538
  1578.2000      7.7259      2.5223      0.1320      7.7376    111.6832     23.7404
  1578.3000      7.7406      2.4941      0.1202      9.4502    116.6175     24.0293
  1578.4000      7.7406      2.4941      0.1202      9.4502    121.6451     24.3161
  1578.5000      7.7408      2.4769      0.1084     10.4928    126.6462     24.5957
  1578.6000      7.7408      2.4769      0.1084     10.4928    131.5092     24.8624
  1578.7000      7.7408      2.4769      0.1084     10.4928    136.1339     25.1115
  1578.8000      7.7532      2.4611      0.0924     11.4456    140.4373     25.3396
  1578.9000      7.7532      2.4611      0.0924     11.4456    144.3535     25.5455
  1579.0000      7.7775      2.4595      0.0870     11.5472    147.8318     25.7299
  1579.1000      7.7775      2.4595      0.0870     11.5472    150.8329     25.8947
  1579.2000      7.7775      2.4595      0.0870     11.5472    153.3302     26.0419
  1579.3000      7.7882      2.4681      0.0899     11.0247    155.3084     26.1729
  1579.4000      7.7882      2.4681      0.0899     11.0247    156.7708     26.2874
  1579.5000      7.8136      2.4773      0.0978     10.4648    157.7413     26.3831
  1579.6000      7.8136      2.4773      0.0978     10.4648    158.2688     26.4557
  1579.7000      7.8136      2.4773      0.0978     10.4648    158.4282     26.5006
  1579.8000      7.8390      2.4885      0.1124      9.7871    158.3136     26.5132
  1579.9000      7.8390      2.4885      0.1124      9.7871    158.0288     26.4908
  1580.0000      7.8746      2.4911      0.1199      9.6330    157.6771     26.4327
  1580.1000      7.8746      2.4911      0.1199      9.6330    157.3474     26.3420
  1580.2000      7.8746      2.4911      0.1199      9.6330    157.1045     26.2248
  1580.3000      7.9206      2.4869      0.1241      9.8839    156.9868     26.0895
  1580.4000      7.9206      2.4869      0.1241      9.8839    157.0049     25.9470
  1580.5000      7.8963      2.4811      0.1224     10.2384    157.1469     25.8089
  1580.6000      7.8963      2.4811      0.1224     10.2384    157.3863     25.6869
  1580.7000      7.8963      2.4811      0.1224     10.2384    157.6899     25.5913
  1580.8000      7.8179      2.4732      0.1164     10.7142    158.0245     25.5313
  1580.9000      7.8179      2.4732      0.1164     10.7142    158.3627     25.5131
  1581.0000      7.8431      2.4711      0.1125     10.8441    158.6830     25.5404
  1581.1000      7.8431      2.4711      0.1125     10.8441    158.9738     25.6140
  1581.2000      7.8431      2.4711      0.1125     10.8441    159.2287     25.7314
  1581.3000      7.9347      2.4733      0.1092     10.7104    159.4534     25.8873
  1581.4000      7.9347      2.4733      0.1092     10.7104    159.6581     26.0742
  1581.5000      7.9930      2.4770      0.1085     10.4873    159.8619     26.2827
  1581.6000      7.9930      2.4770      0.1085     10.4873    160.0915     26.5023
  1581.7000      7.9930      2.4770      0.1085     10.4873    160.3766     26.7227
  1581.8000      8.0051      2.4823      0.1081     10.1627    160.7456     26.9344
  1581.9000      8.0051      2.4823      0.1081     10.1627    161.2179     27.1300
  1582.0000      7.9402      2.4843      0.1073     10.0398    161.7968     27.3040
  1582.1000      7.9402      2.4843      0.1073     10.0398    162.4616     27.4541
  1582.2000      7.9402      2.4843      0.1073     10.0398    163.1684     27.5805
  1582.3000      7.8750      2.4847      0.1049     10.0180    163.8494     27.6856
