~Version Information
VERS.                      2.0: CWLS Log ASCII Standard - VERSION 2.0
WRAP.                       NO: One line per depth step
~Well Information Block
STRT.FT                -8.5000: 
STOP.FT              2286.0000: 
STEP.FT                 0.2500: 
NULL.                -999.2500: 
COMP.          Pioneer Natural Resources: COMPANY
WELL.             Culver 14-12: WELL
FLD.           Purgatorie River: FIELD
LOC.           913' FSL & 1140' FWL--: LOCATION
PROV.                       CO: PROVINCE
CNTY.               Las Animas: COUNTRY
SRVC.          Patterson Wireline: SERVICE COMPANY
DATE.          Wed Jun 15 13:05:36 2005: LOG DATE
UWI.           05 071 08386 00: UNIQUE WELL ID
~Curve Information Block
DEPT.FT            0 000 00 00: Depth
CCL.                          : Casing Collar Locator
TT3.usec                      : CBL 3' Travel Time
AMP3.mV                       : CBL 3' Amplitude
GR.GAPI                       : Gamma Ray
~Parameter Information Block
~A  Depth       CCL         TT3         AMP3         GR     
# ...
  1800.5000      0.0000    825.9438      2.9615     52.0929
  1800.7500      0.0000    822.1178      2.8453     52.5285
  1801.0000      0.0000    822.2721      2.7830     52.7136
  1801.2500      0.0000    823.4193      2.7641     52.5455
  1801.5000      0.0000    817.9196      2.7325     52.2969
  1801.7500      0.0000    803.4233      2.6555     52.2699
  1802.0000      0.0000    784.3367      2.5637     52.4292
  1802.2500      0.0000    766.4698      2.5187     52.5778
  1802.5000      0.0000    753.4538      2.5544     52.7365
  1802.7500      0.0000    746.2664      2.6573     53.0303
  1803.0000      0.0000    743.3531      2.7827     53.3134
  1803.2500      0.0000    741.8045      2.8781     53.2764
  1803.5000      0.0000    739.5559      2.9075     52.9468
  1803.7500      0.0000    736.3736      2.8723     52.7429
  1804.0000      0.0000    732.8680      2.8118     52.9668
  1804.2500      0.0000    729.1151      2.7732     53.4694
  1804.5000      0.0000    724.4056      2.7689     53.8747
  1804.7500      0.0000    718.4123      2.7616     53.9791
  1805.0000      0.0000    712.3506      2.6980     53.9091
  1805.2500      0.0000    708.4390      2.5729     53.9641
  1805.5000      0.0000    708.0789      2.4557     54.2178
  1805.7500      0.0000    711.1401      2.4365     54.2394
  1806.0000      0.0000    717.0690      2.5386     53.3836
  1806.2500      0.0000    726.0141      2.6904     51.5073
  1806.5000      0.0000    738.2180      2.7826     49.2607
  1806.7500      0.0000    752.3462      2.7501     47.4448
  1807.0000      0.0000    765.0093      2.6124     46.1677
  1807.2500      0.0000    772.7850      2.4513     44.8669
  1807.5000      0.0000    775.2822      2.3502     43.0976
  1807.7500      0.0000    775.8963      2.3441     41.1455
  1808.0000      0.0000    778.9499      2.4092     40.0908
  1808.2500      0.0000    786.0820      2.4776     41.4031
  1808.5000      0.0000    795.7294      2.4669     46.1029
  1808.7500      0.0000    805.6567      2.3347     53.9004
  1809.0000      0.0000    815.1288      2.1314     63.1808
  1809.2500      0.0000    824.7629      1.9868     72.0514
  1809.5000      0.0000    835.3216      2.0173     79.5879
  1809.7500      0.0000    846.6809      2.2270     86.3159
  1810.0000      0.0000    857.0139      2.4990     93.6621
  1810.2500      0.0000    863.2376      2.6853    102.7603
  1810.5000      0.0000    863.2870      2.7128    113.3889
  1810.7500      0.0000    857.9092      2.6172    123.9459
  1811.0000      0.0000    849.5753      2.4968    132.6192
  1811.2500      0.0000    840.1100      2.4424    138.7023
  1811.5000      0.0000    830.4379      2.4838    142.7151
  1811.7500      0.0000    822.3827      2.5732    145.2705
  1812.0000      0.0000    818.9402      2.6232    146.0453
  1812.2500      0.0000    821.6296      2.5860    144.1736
  1812.5000      0.0000    828.4786      2.4972    139.6774
  1812.7500      0.0000    835.6783      2.4388    134.0883
  1813.0000      0.0000    840.7092      2.4755    129.5944
  1813.2500      0.0000    843.3336      2.6276    128.0961
  1813.5000      0.0000    844.4576      2.8692    130.7663
  1813.7500      0.0000    844.9362      3.1326    137.2296
  1814.0000      0.0000    845.2276      3.3331    144.8021
  1814.2500      0.0000    845.5079      3.4138    149.6759
  1814.5000      0.0000    845.7748      3.3730    149.6961
  1814.7500      0.0000    845.8853      3.2577    145.9436
  1815.0000      0.0000    845.6438      3.1297    141.7212
  1815.2500      0.0000    845.0098      3.0268    140.2366
  1815.5000      0.0000    844.1863      2.9393    142.5810
  1815.7500      0.0000    843.3475      2.8280    146.9718
  1816.0000      0.0000    842.1663      2.6827    150.0302
  1816.2500      0.0000    839.5233      2.5616    149.5506
  1816.5000      0.0000    833.9151      2.5523    146.2073
  1816.7500      0.0000    824.9635      2.6828    142.4572
  1817.0000      0.0000    815.1592      2.8849    140.0108
  1817.2500      0.0000    809.3363      3.0424    138.6273
  1817.5000      0.0000    810.9715      3.0723    137.1852
  1817.7500      0.0000    818.8633      2.9756    135.3457
  1818.0000      0.0000    828.1978      2.8285    133.6936
  1818.2500      0.0000    834.5324      2.7229    132.4855
  1818.5000      0.0000    836.2778      2.7114    130.8639
  1818.7500      0.0000    834.3851      2.7975    127.6208
  1819.0000      0.0000    830.9617      2.9493    122.6431
  1819.2500      0.0000    827.6968      3.1087    117.4778
  1819.5000      0.0000    824.5032      3.2012    114.3351
  1819.7500      0.0000    819.8437      3.1567    114.5466
  1820.0000      0.0000    812.7189      2.9405    118.0030
  1820.2500      0.0000    803.3046      2.5882    123.6385
  1820.5000      0.0000    791.5667      2.2126    129.7969
  1820.7500      0.0000    777.6443      1.9559    134.3167
  1821.0000      0.0000    764.7914      1.9128    135.3250
  1821.2500      0.0000    759.4534      2.0881    132.5647
  1821.5000      0.0000    766.1426      2.4079    127.5704
  1821.7500      0.0000    782.8882      2.7530    122.3461
  1822.0000      0.0000    802.6895      3.0010    118.3599
  1822.2500      2.0000    818.9131      3.0744    116.8736
  1822.5000      2.0000    829.0123      2.9745    119.1707
  1822.7500      0.0000    834.1382      2.7792    125.4181
  1823.0000      0.0000    836.7733      2.6007    133.4755
  1823.2500      0.0000    838.9329      2.5207    139.6219
  1823.5000      0.0000    841.3263      2.5467    140.9622
  1823.7500      0.0000    843.2927      2.6227    137.3866
  1824.0000      0.0000    843.6865      2.6798    131.4069
  1824.2500      0.0000    842.0309      2.6809    126.1507
  1824.5000      0.0000    838.9663      2.6346    123.1967
  1824.7500      0.0000    835.8517      2.5760    121.9392
  1825.0000      0.0000    833.6874      2.5301    120.8245
  1825.2500      0.0000    831.5786      2.4938    118.9908
  1825.5000      0.0000    826.1077      2.4530    116.6628
  1825.7500      0.0000    813.1788      2.4101    114.4455
  1826.0000      0.0000    791.4445      2.3867    112.8058
  1826.2500      0.0000    764.0531      2.4079    112.1541
  1826.5000      0.0000    736.7395      2.4903    112.9288
  1826.7500      0.0000    714.3085      2.6356    115.3678
  1827.0000      0.0000    698.9023      2.8230    119.1639
  1827.2500      0.0000    690.4070      3.0051    123.3269
  1827.5000      0.0000    687.3046      3.1191    126.5070
  1827.7500      0.0000    687.5996      3.1121    127.6143
  1828.0000      0.0000    689.9625      2.9654    126.3045
  1828.2500      0.0000    693.9923      2.7038    123.1073
  1828.5000      0.0000    699.1887      2.3816    119.3397
  1828.7500      0.0000    704.2808      2.0551    116.8024
  1829.0000      0.0000    707.9678      1.7696    116.9553
  1829.2500      0.0000    709.8223      1.5660    119.9051
  1829.5000      0.0000    710.1552      1.4809    124.3555
  1829.7500      0.0000    709.2464      1.5374    128.7219
  1830.0000      0.0000    706.8168      1.7364    132.0982
  1830.2500      0.0000    701.9426      2.0457    134.2530
  1830.5000      0.0000    693.2401      2.3955    135.2805
  1830.7500      0.0000    679.6158      2.7030    135.4736
  1831.0000      0.0000    662.6544      2.9209    135.2564
  1831.2500      0.0000    649.7916      3.0576    135.0064
  1831.5000      0.0000    653.0749      3.1489    134.7943
  1831.7500      0.0000    680.1646      3.2111    134.2017
  1832.0000      0.0000    725.1998      3.2221    132.5620
  1832.2500      0.0000    771.2070      3.1483    129.6081
  1832.5000      0.0000    802.3069      2.9912    125.8134
  1832.7500      0.0000    812.0380      2.8005    121.8881
  1833.0000      0.0000    801.5411      2.6361    118.0437
  1833.2500      0.0000    774.1482      2.5250    113.9674
  1833.5000      0.0000    733.4464      2.4564    109.5141
  1833.7500      0.0000    684.9620      2.4029    105.1996
