~Version Information
VERS.                      2.0: CWLS Log ASCII Standard - VERSION 2.0
WRAP.                       NO: One line per depth step
~Well Information Block
STRT.FT               -12.5000: 
STOP.FT              1613.0000: 
STEP.FT                 0.2500: 
NULL.                -999.2500: 
COMP.          Pioneer Natural Resources: COMPANY
WELL.          Peregrine 12-20: WELL
FLD.           Purgatorie River: FIELD
LOC.           1722' FNL & 999' FWL--: LOCATION
PROV.                       CO: PROVINCE
CNTY.               Las Animas: COUNTRY
SRVC.          Patterson Wireline: SERVICE COMPANY
DATE.          Fri Jul 22 12:50:00 2005: LOG DATE
UWI.           05 071 08428 00: UNIQUE WELL ID
~Curve Information Block
DEPT.FT            0 000 00 00: Depth
CCL.                          : Casing Collar Locator
TT3.usec                      : CBL 3' Travel Time
AMP3.mV                       : CBL 3' Amplitude
GR.GAPI                       : Gamma Ray
~Parameter Information Block
~A  Depth       CCL         TT3         AMP3         GR     
# ...
   858.5000      0.0000    760.8741      4.6451    146.0473
   858.7500      0.0000    773.6881      4.5273    132.5788
   859.0000      0.0000    790.9092      4.4365    121.4300
   859.2500      0.0000    810.1436      4.3467    112.4938
   859.5000      0.0000    824.9825      4.2531    105.1976
   859.7500      0.0000    829.9561      4.1734     99.9370
   860.0000      0.0000    826.5131      4.1196     97.6686
   860.2500     -2.0000    822.1198      4.0925     98.6575
   860.5000     -1.6562    822.2685      4.0990    101.7495
   860.7500      0.0000    824.7830      4.1645    104.6368
   861.0000      0.0000    823.1587      4.3235    105.0451
   861.2500      0.0000    814.3470      4.5879    102.2079
   861.5000      0.0000    802.0146      4.9126     97.3180
   861.7500      0.0000    792.9788      5.2031     92.2709
   862.0000      0.0000    791.6979      5.3767     87.9750
   862.2500      0.0000    798.0891      5.4169     84.3397
   862.5000      0.0000    808.9932      5.3705     81.7930
   862.7500      0.0000    820.4120      5.3039     81.7837
   863.0000      0.0000    829.0728      5.2643     85.1809
   863.2500      0.0000    833.5916      5.2665     90.8003
   863.5000      0.0000    834.8511      5.2979     96.1622
   863.7500      0.0000    834.8181      5.3294     99.5945
   864.0000      0.0000    834.3423      5.3323    101.2803
   864.2500      0.0000    831.9042      5.2953    102.4918
   864.5000      0.0000    825.2239      5.2314    104.1732
   864.7500      0.0000    814.8986      5.1652    106.2646
   865.0000      0.0000    805.8024      5.1144    108.1168
   865.2500      0.0000    803.5986      5.0876    109.3288
   865.5000      0.0000    809.7557      5.0910    110.0483
   865.7500      0.0000    820.5975      5.1247    110.6585
   866.0000      0.0000    830.7361      5.1768    111.4626
   866.2500      0.0000    836.6263      5.2314    112.5853
   866.5000      0.0000    837.2206      5.2747    113.8509
   866.7500      0.0000    832.4231      5.2963    114.8004
   867.0000      0.0000    821.9810      5.3002    115.0973
   867.2500      0.0000    806.3937      5.3055    114.9574
   867.5000      0.0000    788.3246      5.3263    115.0307
   867.7500      0.0000    771.8099      5.3597    115.8851
   868.0000      0.0000    759.4758      5.3945    117.8278
   868.2500      0.0000    751.0818      5.4171    121.1382
   868.5000      0.0000    744.8730      5.4092    125.7172
   868.7500      0.0000    739.6268      5.3571    130.2003
   869.0000      0.0000    735.3807      5.2686    132.2560
   869.2500      0.0000    732.8880      5.1734    130.5507
   869.5000      0.0000    732.5201      5.1044    126.2347
   869.7500      0.0000    733.4851      5.0815    122.2461
   870.0000      0.0000    734.2527      5.1090    121.2035
   870.2500      0.0000    733.9622      5.1741    123.6958
   870.5000      0.0000    733.1462      5.2443    128.0968
   870.7500      0.0000    732.7915      5.2778    131.7791
   871.0000      0.0000    732.9673      5.2510    132.5601
   871.2500      0.0000    732.8444      5.1824    129.5939
   871.5000      0.0000    732.0311      5.1260    123.7509
   871.7500      0.0000    731.3650      5.1291    117.3844
   872.0000      0.0000    732.0384      5.1927    113.1873
   872.2500      0.0000    734.3727      5.2776    112.7306
   872.5000      0.0000    738.0161      5.3459    115.7234
   872.7500      0.0000    743.2397      5.3888    120.2479
   873.0000      0.0000    751.0805      5.4146    123.6784
   873.2500      0.0000    761.5863      5.4242    124.1657
   873.5000      0.0000    772.3027      5.4093    121.9273
   873.7500      0.0000    779.1420      5.3757    118.7135
   874.0000      0.0000    778.9047      5.3513    115.3709
   874.2500      0.0000    771.2702      5.3594    110.4018
   874.5000      0.0000    759.2150      5.3946    101.7025
   874.7500      0.0000    747.7155      5.4344     89.3807
   875.0000      0.0000    741.1075      5.4668     76.2467
   875.2500      0.0000    740.9140      5.4913     65.8818
   875.5000      0.0000    745.8497      5.5034     60.6645
   875.7500      0.0000    753.1667      5.4919     61.1404
   876.0000      0.0000    759.6820      5.4475     66.3725
   876.2500      0.0000    762.9149      5.3706     74.5667
   876.5000      0.0000    762.9089      5.2772     83.6449
   876.7500      0.0000    762.7210      5.1966     91.8556
   877.0000      0.0000    765.7097      5.1543     98.3502
   877.2500      0.0000    772.3024      5.1569    103.0910
   877.5000      0.0000    780.2316      5.2002    105.9174
   877.7500      0.0000    787.6671      5.2833    106.1190
   878.0000      0.0000    794.8940      5.3990    103.4302
   878.2500      0.0000    802.4772      5.5176     99.0527
   878.5000      0.0000    808.9013      5.6003     95.0655
   878.7500      0.0000    811.5920      5.6274     92.7897
   879.0000      0.0000    810.3769      5.6056     91.9460
   879.2500      0.0000    808.4084      5.5574     91.4228
   879.5000      0.0000    808.8623      5.5062     90.7012
   879.7500      0.0000    811.6038      5.4574     90.1949
   880.0000      0.0000    813.7466      5.3930     90.2509
   880.2500      0.0000    812.7395      5.3055     90.4868
   880.5000      0.0000    808.1164      5.2322     90.6900
   880.7500      0.0000    800.9037      5.2306     92.0114
   881.0000      0.0000    792.5342      5.3181     96.3670
   881.2500      0.0000    784.2210      5.4550    104.2887
   881.5000      0.0000    776.2577      5.5795    113.8691
   881.7500      0.0000    767.8493      5.6496    122.2725
   882.0000      0.0000    758.6704      5.6690    127.8717
   882.2500      0.0000    750.6896      5.6818    130.6584
   882.5000      0.0000    747.3284      5.7291    131.3911
   882.7500      0.0000    750.2314      5.8059    131.1147
   883.0000      0.0000    757.2667      5.8709    131.0850
   883.2500      0.0000    764.1784      5.8849    132.2439
   883.5000      0.0000    768.0677      5.8310    134.5651
   883.7500      0.0000    768.7946      5.7166    137.2917
   884.0000      0.0000    767.2706      5.5760    139.9878
   884.2500      0.0000    763.8060      5.4575    143.0095
   884.5000      0.0000    758.8103      5.3868    146.6667
   884.7500      0.0000    753.7220      5.3515    150.4016
   885.0000      0.0000    749.9152      5.3309    153.3428
   885.2500      0.0000    747.4388      5.3192    155.1899
   885.5000      0.0000    745.7678      5.3132    156.1433
   885.7500      0.0000    745.2891      5.3012    156.4877
   886.0000      0.0000    747.3267      5.2759    156.6085
   886.2500      0.0000    752.5755      5.2411    157.0406
   886.5000      0.0000    759.6509      5.2031    158.1849
   886.7500      0.0000    765.6767      5.1719    160.0223
   887.0000      0.0000    768.6149      5.1650    162.1320
   887.2500      0.0000    768.7442      5.1884    163.7796
   887.5000      0.0000    767.7866      5.2226    164.0052
   887.7500      0.0000    767.2805      5.2460    162.0545
   888.0000      0.0000    768.0149      5.2602    157.9215
   888.2500      0.0000    770.2817      5.2759    152.1350
   888.5000      0.0000    774.0831      5.2920    145.0318
   888.7500      0.0000    779.3231      5.3042    136.8081
   889.0000      0.0000    785.7822      5.3138    128.0077
   889.2500      0.0000    792.3594      5.3171    119.0657
   889.5000      0.0000    796.8420      5.3141    109.6862
   889.7500      0.0000    797.9412      5.3340     99.6343
   890.0000      0.0000    797.3488      5.4139     89.8390
   890.2500      0.0000    797.9420      5.5437     81.8042
   890.5000      0.0000    799.9450      5.6649     76.2108
   890.7500      0.0000    800.5145      5.7307     72.9935
   891.0000      0.0000    797.0532      5.7334     72.5809
   891.2500      0.0000    789.7060      5.6734     75.9445
   891.5000      0.0000    780.8479      5.5444     83.1947
   891.7500      0.0000    773.1324      5.3747     92.8738
