~Version Information
VERS.                      2.0: CWLS Log ASCII Standard - VERSION 2.0
WRAP.                       NO: One line per depth step
~Well Information Block
STRT.FT               250.0000: 
STOP.FT              1017.5000: 
STEP.FT                 0.1000: 
NULL.                -999.2500: 
COMP.          Pioneer Natural Resources: COMPANY
WELL.              Oscar 41-31: WELL
FLD.           Purgatoire River: FIELD
LOC.           412' FNL & 1216' FEL: LOCATION
PROV.                 Colorado: PROVINCE
CNTY.               Las Animas: COUNTRY
SRVC.                Patterson: SERVICE COMPANY
DATE.          Thu Feb 24 15:11:09 2005: LOG DATE
UWI.           05 071 08290 00: UNIQUE WELL ID
~Curve Information Block
DEPT.FT            0 000 00 00: Depth
DCAL.in                       : CDL Caliper
RHOB.g/cc                     : CDL Bulk Density
RHOC.g/cc                     : CDL Density Correction
DPOR.pu                       : CDL Density Porosity
GR.GAPI                       : Gamma Ray
NPOR.pu                       : Neutron Porosity
~Parameter Information Block
~A  Depth       DCAL        RHOB        RHOC        DPOR         GR         NPOR    
# ...
   557.2000      7.8830      2.5898      0.1393      3.6500    126.1375     22.8933
   557.3000      7.8838      2.5899      0.1518      3.6417    131.9872     22.7488
   557.4000      7.8838      2.5878      0.1776      3.7678    136.4354     23.3168
   557.5000      7.8847      2.5896      0.1486      3.6588    138.4829     24.2233
   557.6000      7.8847      2.5981      0.1536      3.1450    139.1831     25.0327
   557.7000      7.8847      2.6039      0.1804      2.7935    138.4409     25.5956
   557.8000      7.8852      2.5986      0.1282      3.1152    134.4750     25.7304
   557.9000      7.8852      2.5992      0.0660      3.0809    129.0479     25.4600
   558.0000      7.8852      2.6241      0.1325      1.5668    126.7199     25.2527
   558.1000      7.8852      2.6572      0.1711     -0.4379    128.9122     25.4532
   558.2000      7.8852      2.6696      0.1662     -1.1896    132.7796     25.5503
   558.3000      7.8851      2.6562      0.1408     -0.3749    134.4882     24.9944
   558.4000      7.8851      2.6336      0.1169      0.9950    133.6947     24.3055
   558.5000      7.8851      2.6170      0.1395      2.0019    130.3420     24.0512
   558.6000      7.8851      2.6095      0.0990      2.4539    122.8658     24.3193
   558.7000      7.8851      2.6095      0.0761      2.4524    115.7005     25.0159
   558.8000      7.8847      2.6123      0.0488      2.2830    115.9779     25.7789
   558.9000      7.8847      2.6114      0.0632      2.3373    123.9321     26.1567
   559.0000      7.8845      2.6027      0.1169      2.8663    132.8013     25.8474
   559.1000      7.8845      2.5914      0.0921      3.5493    135.8126     24.9499
   559.2000      7.8845      2.5891      0.0754      3.6925    131.4011     23.9399
   559.3000      7.8854      2.5917      0.1029      3.5351    124.6700     23.2934
   559.4000      7.8854      2.5957      0.0244      3.2882    123.4030     23.4114
   559.5000      7.8860      2.6164      0.1120      2.0351    127.6751     24.3473
   559.6000      7.8860      2.6525      0.1137     -0.1499    131.6995     25.5090
   559.7000      7.8860      2.6811      0.1288     -1.8839    133.1871     26.1591
   559.8000      7.8858      2.6828      0.1567     -1.9858    130.0337     26.0329
   559.9000      7.8858      2.6603      0.1073     -0.6223    122.5854     25.4900
   560.0000      7.8855      2.6423      0.0759      0.4638    118.8818     25.3094
   560.1000      7.8855      2.6432      0.0746      0.4122    122.2934     25.6308
   560.2000      7.8855      2.6449      0.0551      0.3092    126.0906     25.8435
   560.3000      7.8853      2.6346      0.0408      0.9354    127.5897     25.7340
   560.4000      7.8853      2.6123      0.0527      2.2862    128.8106     25.6847
   560.5000      7.8850      2.5762      0.0475      4.4706    130.6379     25.5983
   560.6000      7.8850      2.5402     -0.0613      6.6555    134.5177     25.1428
   560.7000      7.8850      2.5279      0.0140      7.3978    137.7385     24.8682
   560.8000      7.8847      2.5367      0.0442      6.8680    135.8987     25.0135
   560.9000      7.8847      2.5464      0.0528      6.2790    130.9566     25.0721
   561.0000      7.8840      2.5537      0.0389      5.8392    128.5307     25.0036
   561.1000      7.8840      2.5712      0.0446      4.7747    132.2227     25.1002
   561.2000      7.8840      2.5955      0.0844      3.3038    138.3367     25.4231
   561.3000      7.8829      2.6061      0.0887      2.6625    141.3365     25.9132
   561.4000      7.8829      2.6007      0.0752      2.9870    143.2480     26.1735
   561.5000      7.8833      2.5937      0.0990      3.4131    144.8344     25.6011
   561.6000      7.8833      2.5940      0.0596      3.3945    139.2133     24.5195
   561.7000      7.8833      2.5964      0.1276      3.2497    127.7541     23.9667
   561.8000      7.8840      2.5912      0.0618      3.5621    120.7664     24.2699
   561.9000      7.8840      2.5858      0.0456      3.8896    120.2913     24.9373
   562.0000      7.8839      2.5877      0.0607      3.7728    120.5765     25.4594
   562.1000      7.8839      2.5872      0.0831      3.8055    117.3848     25.6042
   562.2000      7.8839      2.5780      0.0523      4.3645    111.1249     25.4046
   562.3000      7.8833      2.5721      0.0415      4.7196    103.3824     24.8694
   562.4000      7.8833      2.5812      0.0397      4.1668     95.6459     24.0317
   562.5000      7.8831      2.5947      0.0992      3.3514     91.5642     23.2583
   562.6000      7.8831      2.5906      0.0427      3.6016     93.3421     23.1792
   562.7000      7.8831      2.5676      0.0516      4.9964     98.4411     23.7889
   562.8000      7.8835      2.5510     -0.0129      5.9999    102.3010     24.2778
   562.9000      7.8835      2.5652      0.0165      5.1383    102.4862     24.2833
   563.0000      7.8836      2.5998      0.1016      3.0399     99.3943     24.0525
   563.1000      7.8836      2.6232      0.0878      1.6263     95.9671     23.7783
   563.2000      7.8836      2.6287      0.0230      1.2926     93.4792     23.5748
   563.3000      7.8834      2.6272      0.0727      1.3834     92.7532     23.3319
   563.4000      7.8834      2.6188      0.0668      1.8907     93.7276     23.1692
   563.5000      7.8842      2.6116      0.0379      2.3265     92.6153     23.2558
   563.6000      7.8842      2.6191      0.1027      1.8725     88.6940     23.1907
   563.7000      7.8842      2.6322      0.0938      1.0803     86.5376     22.6484
   563.8000      7.8850      2.6343      0.0725      0.9505     88.3695     21.6860
   563.9000      7.8850      2.6206      0.0666      1.7808     92.8578     20.8659
   564.0000      7.8849      2.5968      0.0689      3.2231     97.3530     20.8556
   564.1000      7.8849      2.5759      0.0522      4.4888     98.4808     21.5237
   564.2000      7.8849      2.5636      0.0563      5.2342     96.9042     22.2333
   564.3000      7.8844      2.5542      0.0189      5.8079     96.3575     22.5150
   564.4000      7.8844      2.5461      0.0405      6.2975     98.7186     22.8058
   564.5000      7.8842      2.5401      0.0139      6.6631    102.9289     23.8461
   564.6000      7.8842      2.5297      0.0421      7.2892    106.0044     24.8336
   564.7000      7.8842      2.5109      0.0186      8.4290    107.2385     24.6543
   564.8000      7.8844      2.4920      0.0201      9.5762    107.4431     23.9547
   564.9000      7.8844      2.4870     -0.0066      9.8759    108.4378     23.8624
   565.0000      7.8848      2.5063     -0.0249      8.7084    110.6389     24.5738
   565.1000      7.8848      2.5426      0.0515      6.5096    112.0052     25.3587
   565.2000      7.8848      2.5753      0.0813      4.5300    112.2081     25.7406
   565.3000      7.8849      2.5979      0.1095      3.1606    111.7310     25.9070
   565.4000      7.8849      2.6190      0.1195      1.8771    112.1720     25.5986
   565.5000      7.8847      2.6389      0.1681      0.6745    114.8188     24.6717
   565.6000      7.8847      2.6403      0.1838      0.5883    119.2650     24.1129
   565.7000      7.8847      2.6149      0.1412      2.1263    126.4155     24.5818
   565.8000      7.8847      2.5855      0.0955      3.9088    135.1925     25.3783
   565.9000      7.8847      2.5796      0.0784      4.2649    141.8758     25.5653
   566.0000      7.8847      2.5922      0.1209      3.5059    141.9669     24.8791
   566.1000      7.8847      2.5951      0.0891      3.3276    133.8638     23.8363
   566.2000      7.8847      2.5799      0.0580      4.2456    125.6155     23.2912
   566.3000      7.8848      2.5630      0.0582      5.2702    124.2367     23.4878
   566.4000      7.8848      2.5576      0.0767      5.5971    125.1891     23.9627
   566.5000      7.8848      2.5648      0.0214      5.1622    124.8697     24.2298
   566.6000      7.8848      2.5804      0.0562      4.2198    127.2291     24.4336
   566.7000      7.8848      2.5949      0.0908      3.3420    131.6121     25.0907
