~Version Information
VERS.                      2.0: CWLS Log ASCII Standard - VERSION 2.0
WRAP.                       NO: One line per depth step
~Well Information Block
STRT.FT                -7.5000: 
STOP.FT               978.5000: 
STEP.FT                 0.2500: 
NULL.                -999.2500: 
COMP.          Pioneer Natural Resources: COMPANY
WELL.          Piggyback 33-25: WELL
FLD.           Purgatoire River: FIELD
LOC.           1600' FSL & 1800' FEL: LOCATION
PROV.                 Colorado: PROVINCE
CNTY.               Las Animas: COUNTRY
SRVC.                Patterson: SERVICE COMPANY
DATE.          Mon May 09 09:22:28 2005: LOG DATE
UWI.           05 071 08233 00: UNIQUE WELL ID
~Curve Information Block
DEPT.FT            0 000 00 00: Depth
CCL.                          : Casing Collar Locator
TT3.usec                      : CBL 3' Travel Time
AMP3.mV                       : CBL 3' Amplitude
GR.GAPI                       : Gamma Ray
~Parameter Information Block
~A  Depth       CCL         TT3         AMP3         GR     
# ...
   930.5000      0.0000    642.1601      7.5340     75.5632
   930.7500      0.0000    641.7025      7.5637     73.1577
   931.0000      0.0000    640.2699      7.6226     71.4221
   931.2500      0.0000    636.3210      7.7355     70.7654
   931.5000      0.0000    629.1191      7.8892     71.2478
   931.7500      0.0000    619.9907      8.0066     72.3901
   932.0000      0.0000    613.5090      7.9660     73.4780
   932.2500      0.0000    616.6322      7.6844     74.0522
   932.5000      0.0000    634.2751      7.2249     74.0983
   932.7500      0.0000    663.8782      6.8194     73.7929
   933.0000      0.0000    695.1549      6.7296     73.2179
   933.2500      0.0000    716.9120      7.0441     72.5475
   933.5000      2.0000    724.6544      7.6241     72.4716
   933.7500     -2.0000    722.2493      8.2503     73.9814
   934.0000     -2.0000    718.1260      8.7963     77.3652
   934.2500      0.0000    719.6895      9.2804     81.6111
   934.5000      0.0000    728.3770      9.7899     85.1315
   934.7500      0.0000    739.0594     10.3471     87.0723
   935.0000      0.0000    745.5781     10.8235     87.7683
   935.2500      0.0000    746.3097     11.0211     87.9966
   935.5000      0.0000    743.4574     10.8728     87.9749
   935.7500      0.0000    739.1006     10.5202     87.2938
   936.0000      0.0000    733.3586     10.1608     85.8446
   936.2500      0.0000    724.5987      9.8676     84.4748
   936.5000      0.0000    710.6599      9.5840     84.4026
   936.7500      0.0000    691.1932      9.2393     85.9691
   937.0000      0.0000    669.2047      8.8269     88.0885
   937.2500      0.0000    649.5789      8.3939     89.0232
   937.5000      0.0000    636.2318      7.9945     87.8294
   937.7500      0.0000    630.6711      7.6615     85.1514
   938.0000      0.0000    632.3012      7.4061     82.6850
   938.2500      0.0000    639.0920      7.2282     81.8470
   938.5000      0.0000    648.1027      7.1224     82.9240
   938.7500      0.0000    656.3781      7.0798     85.3600
   939.0000      0.0000    662.1140      7.0876     88.5367
   939.2500      0.0000    665.1271      7.1299     92.0681
   939.5000      0.0000    666.2657      7.1953     95.6332
   939.7500      0.0000    666.4997      7.2843     98.9125
   940.0000      0.0000    666.4396      7.4049    101.6165
   940.2500      0.0000    666.2859      7.5579    103.4765
   940.5000      0.0000    665.9236      7.7225    104.4642
   940.7500      0.0000    665.0034      7.8562    104.9372
   941.0000      0.0000    663.1374      7.9192    105.0675
   941.2500      0.0000    660.3647      7.9103    104.1728
   941.5000      0.0000    657.5990      7.8761    101.1858
   941.7500      0.0000    656.2761      7.8726     95.8514
   942.0000      0.0000    657.1475      7.9212     89.1793
   942.2500      0.0000    659.5408      8.0043     82.7412
   942.5000      0.0000    662.0510      8.0929     77.7488
   942.7500      0.0000    663.7424      8.1701     74.6906
   943.0000      0.0000    664.5243      8.2375     73.3680
   943.2500      0.0000    664.7400      8.3068     72.9336
   943.5000      0.0000    664.7455      8.3797     72.1939
   943.7500      0.0000    664.7599      8.4349     70.5195
   944.0000      0.0000    664.8439      8.4422     68.5936
   944.2500      0.0000    664.9230      8.3878     67.8528
   944.5000      0.0000    664.8864      8.2821     69.1120
   944.7500      0.0000    664.6962      8.1465     72.0670
   945.0000      0.0000    664.5003      8.0020     75.9751
   945.2500      0.0000    664.7384      7.8587     80.1448
   945.5000      0.0000    666.2087      7.7085     83.7220
   945.7500      0.0000    669.7584      7.5354     85.7686
   946.0000      0.0000    675.2985      7.3409     86.0956
   946.2500      0.0000    680.8760      7.1552     85.7052
   946.5000      0.0000    683.4540      7.0190     85.9445
   946.7500      0.0000    681.4574      6.9530     87.1951
   947.0000      0.0000    676.2993      6.9484     88.6944
   947.2500      0.0000    670.9322      6.9802     89.6969
   947.5000      0.0000    667.3429      7.0265     90.4239
   947.7500      0.0000    665.8153      7.0757     91.6930
   948.0000      0.0000    666.0200      7.1238     93.9144
   948.2500      0.0000    668.2515      7.1695     96.5660
   948.5000      0.0000    673.6158      7.2117     98.4355
   948.7500      0.0000    682.7145      7.2477     98.4002
   949.0000      0.0000    693.5817      7.2732     96.3132
   949.2500      0.0000    701.3922      7.2877     93.2750
   949.5000      0.0000    701.7928      7.2975     90.9408
   949.7500      0.0000    695.0757      7.3093     90.4130
   950.0000      0.0000    686.3099      7.3239     91.5445
   950.2500      0.0000    681.0467      7.3428     93.1524
   950.5000      0.0000    681.1039      7.3780     94.1610
   950.7500      0.0000    683.8983      7.4392     94.6856
   951.0000      0.0000    685.1568      7.5124     95.6997
   951.2500      0.0000    682.6632      7.5659     97.5246
   951.5000      0.0000    677.9675      7.5860     99.1497
   951.7500      0.0000    674.8335      7.5931     99.3349
   952.0000      0.0000    676.4127      7.6188     97.9674
   952.2500      0.0000    683.3540      7.6777     96.0508
   952.5000      0.0000    693.1921      7.7608     94.7208
   952.7500      0.0000    701.5400      7.8409     94.5932
   953.0000      0.0000    705.5363      7.8831     95.7590
   953.2500      0.0000    706.5757      7.8641     97.8065
   953.5000      0.0000    708.3475      7.7910     99.6927
   953.7500      0.0000    711.9811      7.6974    100.1753
   954.0000      0.0000    714.8326      7.6180     98.9185
   954.2500      0.0000    714.6089      7.5658     97.0890
   954.5000      0.0000    712.9252      7.5304     96.5158
   954.7500      0.0000    713.2425      7.4932     98.2071
   955.0000      0.0000    716.3071      7.4434    101.6007
   955.2500      0.0000    719.5219      7.3868    104.9803
   955.5000      0.0000    720.6327      7.3442    106.5832
   955.7500      0.0000    720.3237      7.3408    105.6670
   956.0000      0.0000    720.8625      7.3914    102.9559
   956.2500      0.0000    723.5695      7.4920    100.3019
   956.5000      0.0000    728.1323      7.6210     99.6899
   956.7500      0.0000    733.4037      7.7499    102.0708
   957.0000      0.0000    738.1888      7.8593    106.7330
   957.2500      0.0000    741.6579      7.9463    111.6747
   957.5000      0.0000    743.5049      8.0165    114.7722
   957.7500      0.0000    743.9744      8.0687    115.0475
   958.0000      0.0000    743.8054      8.0888    113.0254
   958.2500      0.0000    743.8572      8.0606    109.8649
   958.5000      0.0000    744.3916      7.9849    106.3012
   958.7500      0.0000    744.4393      7.8870    102.5285
   959.0000      0.0000    742.0283      7.8008     98.6833
   959.2500      0.0000    735.5540      7.7436     95.0785
   959.5000      0.0000    725.4638      7.7061     92.2048
   959.7500      0.0000    714.4084      7.6665     90.7218
   960.0000      0.0000    705.1325      7.6103     91.1959
   960.2500      0.0000    698.1542      7.5403     93.5639
   960.5000      0.0000    691.9238      7.4716     96.9041
   960.7500      0.0000    685.1728      7.4179     99.8594
   961.0000      0.0000    678.4556      7.3743    101.4090
   961.2500      0.0000    673.2831      7.3171    101.4714
   961.5000      0.0000    670.3958      7.2285    100.8504
   961.7500      0.0000    669.2516      7.1235    100.3639
   962.0000      0.0000    668.6970      7.0458     99.5170
   962.2500      0.0000    667.7632      7.0339     95.7672
   962.5000      0.0000    666.1688      7.0907     85.7325
   962.7500      0.0000    664.4786      7.1883     68.2679
   963.0000      0.0000    663.6917      7.2998     46.5745
   963.2500      0.0000    664.3059      7.4237     26.4802
   963.5000      0.0000    665.7848      7.5733     12.3067
   963.7500      0.0000    666.9948      7.7458      4.6126
