~Version Information
VERS.                      2.0: CWLS Log ASCII Standard - VERSION 2.0
WRAP.                       NO: One line per depth step
~Well Information Block
STRT.FT               840.0000: 
STOP.FT              2450.0000: 
STEP.FT                 0.1000: 
NULL.                -999.2500: 
COMP.          Petrogulf Corporation: COMPANY
WELL.             Leier 17-42V: WELL
FLD.           Purgatorie River: FIELD
LOC.           2309' FNL & 1062' FEL SENE 17 33S 67W: LOCATION
PROV.                 Colorado: PROVINCE
CNTY.               Las Animas: COUNTRY
SRVC.                Patterson: SERVICE COMPANY
DATE.          Thu Sep 22 09:35:36 2005: LOG DATE
UWI.           071 08409 : UNIQUE WELL ID
~Curve Information Block
DEPT.FT            0 000 00 00: Depth
DCAL.in                       : CDL Caliper
RHOB.g/cc                     : CDL Bulk Density
RHOC.g/cc                     : CDL Density Correction
DPOR.pu                       : CDL Density Porosity
GR.GAPI                       : Gamma Ray
NPOR.pu                       : Neutron Porosity
~Parameter Information Block
~A  Depth       DCAL        RHOB        RHOC        DPOR         GR         NPOR    
# ...
  2011.2000      7.9274      2.5220      0.1037      7.7567     63.1877     17.8241
  2011.3000      7.9210      2.5136      0.1028      8.2654     65.3027     18.1822
  2011.4000      7.9210      2.4992      0.0352      9.1419     70.1231     18.4068
  2011.5000      7.9165      2.4836      0.0501     10.0820     76.3528     18.7706
  2011.6000      7.9165      2.4740      0.0335     10.6648     81.6202     19.1626
  2011.7000      7.9165      2.4851     -0.0007      9.9967     84.7482     19.5653
  2011.8000      7.9191      2.5160      0.0512      8.1190     86.5480     20.2368
  2011.9000      7.9191      2.5413      0.0673      6.5902     88.4422     20.9094
  2012.0000      7.9223      2.5441      0.0881      6.4212     90.0091     21.1973
  2012.1000      7.9223      2.5365      0.0301      6.8811     91.1001     21.3058
  2012.2000      7.9223      2.5361      0.0444      6.9023     94.1797     21.4032
  2012.3000      7.9341      2.5354      0.0944      6.9469    100.1995     21.4538
  2012.4000      7.9341      2.5170      0.0972      8.0632    104.7137     21.6463
  2012.5000      7.9305      2.4884      0.0515      9.7957    104.0829     22.1413
  2012.6000      7.9305      2.4728      0.0148     10.7378    100.5975     22.8124
  2012.7000      7.9305      2.4751      0.0307     10.5989     97.9698     23.3897
  2012.8000      7.9303      2.4759      0.0642     10.5520     97.2661     23.6766
  2012.9000      7.9303      2.4595      0.0546     11.5465     96.6640     23.6952
  2013.0000      7.9420      2.4342      0.0048     13.0764     95.4886     23.6500
  2013.1000      7.9420      2.4166      0.0105     14.1461     95.8105     23.7803
  2013.2000      7.9420      2.4100     -0.0037     14.5454     98.7733     24.1430
  2013.3000      7.9468      2.4062      0.0385     14.7757    104.6448     24.4270
  2013.4000      7.9468      2.3876      0.0508     15.9019    111.1212     24.3633
  2013.5000      7.9492      2.3380      0.0084     18.9093    112.9820     24.2518
  2013.6000      7.9492      2.2553      0.0641     23.9213    108.4578     24.5299
  2013.7000      7.9492      2.1599     -0.0412     29.7006    100.2513     24.9368
  2013.8000      7.9578      2.0844     -0.0319     34.2790     91.0986     25.0993
  2013.9000      7.9578      2.0314     -0.0035     37.4906     83.8137     25.1821
  2014.0000      7.9680      1.9871     -0.0415     40.1742     80.7857     25.3870
  2014.1000      7.9680      1.9586     -0.0074     41.9018     81.2628     25.8954
  2014.2000      7.9680      1.9531      0.0364     42.2368     83.4860     26.8560
  2014.3000      7.9702      1.9667      0.0270     41.4101     85.4538     27.8534
  2014.4000      7.9702      1.9961      0.0972     39.6299     85.6498     28.4517
  2014.5000      7.9856      2.0407      0.0971     36.9262     85.4347     28.8635
  2014.6000      7.9856      2.1006      0.1684     33.3000     86.4996     29.3218
  2014.7000      7.9856      2.1626      0.1668     29.5379     88.5483     29.7782
  2014.8000      7.9957      2.2077      0.1514     26.8052     90.6532     30.1141
  2014.9000      7.9957      2.2274      0.1003     25.6143     92.5526     30.2077
  2015.0000      7.9971      2.2186      0.1147     26.1447     95.1108     30.2119
  2015.1000      7.9971      2.1769      0.0564     28.6744     97.6634     30.2444
  2015.2000      7.9971      2.1089      0.0103     32.7948     99.0506     30.2530
  2015.3000      8.0094      2.0385     -0.0032     37.0612    100.8489     30.3041
  2015.4000      8.0094      1.9898     -0.0268     40.0100    105.6514     30.2678
  2015.5000      8.0342      1.9694      0.0158     41.2479    111.7769     29.8703
  2015.6000      8.0342      1.9699      0.0108     41.2163    112.8320     29.4513
  2015.7000      8.0342      1.9931      0.0017     39.8125    109.6353     29.6279
  2015.8000      8.0390      2.0480      0.0691     36.4840    108.5891     30.3245
  2015.9000      8.0390      2.1250      0.1849     31.8177    112.5423     30.9736
  2016.0000      8.0071      2.2027      0.2054     27.1075    119.6709     31.1711
  2016.1000      8.0071      2.2844      0.2097     22.1589    122.9977     31.0038
  2016.2000      8.0071      2.3801      0.2312     16.3589    121.3795     30.7289
  2016.3000      8.0109      2.4672      0.2415     11.0781    122.6383     30.5235
  2016.4000      8.0109      2.5168      0.2112      8.0752    128.2778     30.4608
  2016.5000      8.0570      2.5362      0.1567      6.8977    132.9790     30.4577
  2016.6000      8.0570      2.5487      0.2121      6.1376    133.7336     30.2649
  2016.7000      8.0570      2.5549      0.2294      5.7618    130.8208     29.8866
  2016.8000      8.0499      2.5491      0.1664      6.1168    126.9883     29.6178
  2016.9000      8.0499      2.5426      0.1394      6.5067    125.4512     29.3676
  2017.0000      7.9885      2.5497      0.1070      6.0759    125.3163     28.9651
  2017.1000      7.9885      2.5718      0.1565      4.7411    123.8278     28.6907
  2017.2000      7.9885      2.5965      0.1515      3.2400    122.7033     28.5601
  2017.3000      7.9793      2.6083      0.1291      2.5289    125.8213     28.3914
  2017.4000      7.9793      2.5994      0.1295      3.0648    129.0637     28.2567
  2017.5000      7.9573      2.5798      0.1328      4.2525    126.9535     28.1880
  2017.6000      7.9573      2.5717      0.0630      4.7464    122.9898     28.1359
  2017.7000      7.9573      2.5829      0.0896      4.0669    121.9612     27.8671
  2017.8000      7.9509      2.5912      0.1081      3.5634    123.0475     27.2513
  2017.9000      7.9509      2.5799      0.0506      4.2465    123.5773     26.6756
  2018.0000      7.9555      2.5654      0.0534      5.1273    121.7928     26.4638
  2018.1000      7.9555      2.5656      0.0479      5.1168    118.3300     26.5647
  2018.2000      7.9555      2.5725      0.0574      4.6996    118.2880     26.6773
  2018.3000      7.9557      2.5683      0.0757      4.9545    123.9533     26.4938
  2018.4000      7.9557      2.5523      0.0755      5.9194    127.9048     26.0725
  2018.5000      7.9520      2.5432      0.0264      6.4753    127.1504     25.7231
  2018.6000      7.9520      2.5477      0.0940      6.1982    127.2671     25.6196
  2018.7000      7.9520      2.5458      0.0767      6.3124    129.0264     25.9736
  2018.8000      7.9544      2.5302      0.0046      7.2595    129.2524     26.8090
  2018.9000      7.9544      2.5169      0.0171      8.0665    128.0727     27.5692
  2019.0000      7.9530      2.5083      0.0118      8.5887    126.9932     27.6525
  2019.1000      7.9530      2.5010      0.0016      9.0304    126.2461     27.1572
  2019.2000      7.9530      2.5013      0.0318      9.0122    125.2800     26.6060
  2019.3000      7.9479      2.5070      0.0481      8.6695    123.4169     26.3488
  2019.4000      7.9479      2.5091      0.0639      8.5382    124.6379     26.4646
  2019.5000      7.9498      2.5039      0.0697      8.8526    132.1514     26.7147
  2019.6000      7.9498      2.4931     -0.0110      9.5109    138.7054     26.7387
  2019.7000      7.9498      2.4826      0.0021     10.1476    139.2261     26.6557
  2019.8000      7.9611      2.4817     -0.0317     10.1971    139.2014     26.8092
  2019.9000      7.9611      2.4997      0.0439      9.1105    141.9937     27.0324
  2020.0000      7.9612      2.5253      0.0675      7.5605    144.3062     27.0497
  2020.1000      7.9612      2.5269      0.0827      7.4608    143.7412     26.8649
  2020.2000      7.9612      2.4923      0.0359      9.5565    140.0563     26.5905
  2020.3000      7.9577      2.4544     -0.0500     11.8557    134.2401     26.4023
  2020.4000      7.9577      2.4484      0.0040     12.2207    131.6341     26.4587
  2020.5000      7.9552      2.4646      0.0434     11.2354    133.4562     26.5698
  2020.6000      7.9552      2.4745      0.0551     10.6356    134.0920     26.3311
  2020.7000      7.9552      2.4736      0.0404     10.6936    131.2787     25.8638
