~Version Information
VERS.                      2.0: CWLS Log ASCII Standard - VERSION 2.0
WRAP.                       NO: One line per depth step
~Well Information Block
STRT.FT                 0.0000: 
STOP.FT              2025.0000: 
STEP.FT                 0.2500: 
NULL.                -999.2500: 
COMP.          Petrogulf Corporation: COMPANY
WELL.          Robinson 15-12V: WELL
FLD.           Purgatorie River: FIELD
LOC.           1788' FNL & 466' FWL: LOCATION
PROV.                 Colorado: PROVINCE
CNTY.               Las Animas: COUNTRY
SRVC.                Patterson: SERVICE COMPANY
DATE.          Tue Oct 04 11:57:31 2005: LOG DATE
UWI.                          : UNIQUE WELL ID
~Curve Information Block
DEPT.FT            0 000 00 00: Depth
GR.GAPI                       : Gamma Ray
CCL.                          : Casing Collar Locator
TT3.usec                      : CBL 3' Travel Time
AMP3.mV                       : CBL 3' Amplitude
~Parameter Information Block
~A  Depth        GR         CCL         TT3         AMP3    
# ...
   670.0000     82.4231      0.0000    264.5490     74.0955
   670.2500     84.0417      0.0000    264.5126     74.1666
   670.5000     85.7406      0.0000    264.4633     74.2347
   670.7500     87.8612      0.0000    264.4163     74.2666
   671.0000     90.5398      0.0000    264.3822     74.1726
   671.2500     93.6749      0.0000    264.4192     73.7489
   671.5000     97.0495      0.0000    264.8962     72.7043
   671.7500    100.7087      0.0000    266.9310     70.8360
   672.0000    105.2113      0.0000    272.2507     68.0739
   672.2500    111.0031      0.0000    280.9416     64.6282
   672.5000    117.1575      0.0000    288.6979     61.5336
   672.7500    121.1691      0.0000    289.8533     60.0556
   673.0000    120.7480      0.0000    284.4810     60.1382
   673.2500    115.8348      0.0000    278.0395     60.6899
   673.5000    108.3009      2.0000    274.3406     61.0148
   673.7500     99.7047      0.0000    273.3058     61.0785
   674.0000     90.0625      0.0000    274.0974     60.9993
   674.2500     79.0724      0.0000    276.9352     60.8527
   674.5000     67.8339      0.0000    281.5385     61.0278
   674.7500     58.6123      0.0000    285.4661     62.1224
   675.0000     53.0676      0.0000    285.9417     63.8910
   675.2500     51.2509      0.0000    282.2226     65.6970
   675.5000     52.3096      0.0000    275.7657     67.8271
   675.7500     55.7102      0.0000    269.6220     70.3870
   676.0000     61.6535      0.0000    266.0343     72.5205
   676.2500     70.5173      0.0000    264.7312     73.7131
   676.5000     81.9738      0.0000    264.4275     74.2598
   676.7500     94.5319      0.0000    264.3666     74.5720
   677.0000    105.9535      0.0000    264.3400     74.7963
   677.2500    114.3531      0.0000    264.3353     74.8871
   677.5000    119.1914      0.0000    264.3643     74.7938
   677.7500    121.4441      0.0000    264.4145     74.5793
   678.0000    122.8306      0.0000    264.4584     74.3746
   678.2500    124.5194      0.0000    264.4819     74.2547
   678.5000    126.2885      0.0000    264.4889     74.2108
   678.7500    127.0686      0.0000    264.4855     74.2190
   679.0000    126.4232      0.0000    264.4707     74.2715
   679.2500    125.0768      0.0000    264.4446     74.3523
   679.5000    123.7799      0.0000    264.4163     74.4257
   679.7500    122.2448      0.0000    264.3984     74.4605
   680.0000    119.7339      0.0000    264.3958     74.4561
   680.2500    116.3074      0.0000    264.4016     74.4340
   680.5000    112.8933      0.0000    264.4073     74.4100
   680.7500    110.1846      0.0000    264.4112     74.3780
   681.0000    107.7998      0.0000    264.4154     74.3252
   681.2500    104.6807      0.0000    264.4166     74.2654
   681.5000    100.3167      0.0000    264.4115     74.2280
   681.7500     95.3628      0.0000    264.4052     74.2160
   682.0000     90.8885      0.0000    264.4007     74.2086
   682.2500     87.3349      0.0000    264.3924     74.1987
   682.5000     84.5166      0.0000    264.3751     74.2028
   682.7500     82.1757      0.0000    264.3522     74.2277
   683.0000     80.0395      0.0000    264.3347     74.2451
   683.2500     77.5917      0.0000    264.3328     74.2194
   683.5000     74.2376      0.0000    264.3470     74.1468
   683.7500     69.7524      0.0000    264.3704     74.0526
   684.0000     64.5495      0.0000    264.3992     73.9672
   684.2500     59.5859      0.0000    264.4294     73.9098
   684.5000     55.9667      0.0000    264.4430     73.8909
   684.7500     54.3876      0.0000    264.4193     73.9162
   685.0000     54.5630      0.0000    264.3691     73.9665
   685.2500     55.1480      0.0000    264.3315     73.9951
   685.5000     54.5452      0.0000    264.3239     73.9824
   685.7500     52.0614      0.0000    264.3266     73.9564
   686.0000     48.3572      0.0000    264.3179     73.9501
   686.2500     44.8510      0.0000    264.2991     73.9729
   686.5000     42.7902      0.0000    264.2834     74.0125
   686.7500     42.6979      0.0000    264.2697     74.0581
   687.0000     44.2449      0.0000    264.2451     74.1132
   687.2500     46.4616      0.0000    264.2133     74.1698
   687.5000     48.3282      0.0000    264.1956     74.1952
   687.7500     49.3242      0.0000    264.2054     74.1661
   688.0000     49.4129      0.0000    264.2372     74.0923
   688.2500     48.7265      0.0000    264.2789     74.0055
   688.5000     47.4877      0.0000    264.3187     73.9434
   688.7500     45.9960      0.0000    264.3379     73.9321
   689.0000     44.3765      0.0000    264.3308     73.9592
   689.2500     42.4439      0.0000    264.3211     73.9865
   689.5000     40.0227      0.0000    264.3287     73.9976
   689.7500     37.2893      0.0000    264.3436     74.0070
   690.0000     34.5927      0.0000    264.3442     74.0353
   690.2500     32.0334      0.0000    264.3255     74.0786
   690.5000     29.4547      0.0000    264.3088     74.0936
   690.7500     26.8675      0.0000    264.3151     74.0447
   691.0000     24.6746      0.0000    264.3370     73.9568
   691.2500     23.3815      0.0000    264.3485     73.8879
   691.5000     23.1872      0.0000    264.3386     73.8592
   691.7500     23.8844      0.0000    264.3241     73.8432
   692.0000     25.0236      0.0000    264.3239     73.8203
   692.2500     26.1212      0.0000    264.3407     73.8042
   692.5000     26.9079      0.0000    264.3701     73.8038
   692.7500     27.6914      0.0000    264.4084     73.7963
   693.0000     29.6364      0.0000    264.4469     73.7601
   693.2500     34.5046      0.0000    264.4716     73.7116
   693.5000     43.6948      0.0000    264.4776     73.6752
   693.7500     57.1428      0.0000    264.4777     73.6453
   694.0000     73.1427      0.0000    264.4862     73.6091
   694.2500     89.4070      0.0000    264.4991     73.5750
   694.5000    104.1795      0.0000    264.5021     73.5615
   694.7500    116.2492      0.0000    264.4930     73.5759
   695.0000    124.5543      0.0000    264.4801     73.6137
   695.2500    128.6447      0.0000    264.4730     73.6650
   695.5000    129.4962      0.0000    264.4815     73.7067
   695.7500    129.1616      0.0000    264.5044     73.7175
   696.0000    129.2482      0.0000    264.5264     73.7068
   696.2500    129.8196      0.0000    264.5390     73.6964
   696.5000    129.8528      0.0000    264.5432     73.6973
   696.7500    128.5974      0.0000    264.5396     73.7126
   697.0000    126.3931      0.0000    264.5347     73.7242
   697.2500    124.4466      0.0000    264.5351     73.7137
   697.5000    124.1035      0.0000    264.5341     73.7032
   697.7500    126.0483      0.0000    264.5252     73.7237
   698.0000    129.7615      0.0000    264.5137     73.7699
   698.2500    133.7189      0.0000    264.5043     73.8113
   698.5000    136.2807      0.0000    264.4965     73.8231
   698.7500    136.5146      0.0000    264.4903     73.8013
   699.0000    134.5487      0.0000    264.4854     73.7665
   699.2500    131.5239      0.0000    264.4792     73.7481
   699.5000    128.9852      0.0000    264.4724     73.7532
   699.7500    127.7881      0.0000    264.4742     73.7580
   700.0000    127.5887      0.0000    264.4920     73.7419
   700.2500    127.5539      0.0000    264.5165     73.7141
   700.5000    127.1856      0.0000    264.5262     73.7049
   700.7500    126.2737      0.0000    264.5113     73.7370
   701.0000    124.7812      0.0000    264.4873     73.7980
   701.2500    123.4838      0.0000    264.4757     73.8427
   701.5000    124.0666      0.0000    264.4809     73.8421
   701.7500    127.4705      0.0000    264.4948     73.8132
   702.0000    132.3437      0.0000    264.5111     73.7825
   702.2500    136.0258      0.0000    264.5287     73.7499
   702.5000    137.0686      0.0000    264.5489     73.7096
   702.7500    136.2950      0.0000    264.5665     73.6823
   703.0000    135.5029      0.0000    264.5714     73.6983
   703.2500    135.5977      0.0000    264.5628     73.7557
