~Version Information
VERS.                      2.0: CWLS Log ASCII Standard - VERSION 2.0
WRAP.                       NO: One line per depth step
~Well Information Block
STRT.FT               440.0000: 
STOP.FT              1001.5000: 
STEP.FT                 0.1000: 
NULL.                -999.2500: 
COMP.          Pioneer Natural Resources: COMPANY
WELL.              Dylan 42-25: WELL
FLD.           Purgatoire River: FIELD
LOC.           2160' FNL & 855' FEL: LOCATION
PROV.                 Colorado: PROVINCE
CNTY.               Las Animas: COUNTRY
SRVC.                Patterson: SERVICE COMPANY
DATE.          Mon Apr 25 09:31:16 2005: LOG DATE
UWI.           05 071 08229 00: UNIQUE WELL ID
~Curve Information Block
DEPT.FT            0 000 00 00: Depth
DCAL.in                       : CDL Caliper
RHOB.g/cc                     : CDL Bulk Density
RHOC.g/cc                     : CDL Density Correction
DPOR.pu                       : CDL Density Porosity
GR.GAPI                       : Gamma Ray
NPOR.pu                       : Neutron Porosity
~Parameter Information Block
~A  Depth       DCAL        RHOB        RHOC        DPOR         GR         NPOR    
# ...
   622.4000      8.0245      2.4645      0.0826     11.2445    130.5890     29.1626
   622.5000      8.0105      2.4763      0.1294     10.5260    132.3457     28.3349
   622.6000      8.0105      2.4768      0.1165     10.4961    134.4391     27.6488
   622.7000      8.0105      2.4777      0.1115     10.4416    136.9134     27.8503
   622.8000      7.9788      2.4874      0.0989      9.8548    139.4910     28.2273
   622.9000      7.9788      2.5008      0.1504      9.0435    137.9204     28.1919
   623.0000      7.9841      2.5060      0.1347      8.7275    130.6476     28.4319
   623.1000      7.9841      2.4971      0.1096      9.2672    123.4626     29.0601
   623.2000      7.9841      2.4823      0.0940     10.1635    121.4579     29.1275
   623.3000      7.9805      2.4797      0.0701     10.3214    121.3435     28.6106
   623.4000      7.9805      2.4915      0.1077      9.6087    119.5213     28.5178
   623.5000      8.0230      2.5008      0.0888      9.0420    121.2998     29.3904
   623.6000      8.0230      2.5041      0.0998      8.8434    129.8753     30.6576
   623.7000      8.0230      2.5090      0.0982      8.5447    135.1137     30.9244
   623.8000      7.9962      2.5116      0.1362      8.3867    130.8785     29.4648
   623.9000      7.9962      2.5036      0.1031      8.8743    125.9387     27.4762
   624.0000      8.0172      2.4933      0.0570      9.4951    128.0938     26.4132
   624.1000      8.0172      2.4948      0.0708      9.4055    134.1006     26.9040
   624.2000      8.0172      2.4977      0.1031      9.2330    135.5823     28.7567
   624.3000      8.1156      2.4790      0.0771     10.3652    130.5739     30.3762
   624.4000      8.1156      2.4471      0.0044     12.2957    128.9008     30.2787
   624.5000      8.1532      2.4273      0.0553     13.4969    135.1113     29.3921
   624.6000      8.1532      2.4237      0.0393     13.7145    139.8108     29.3386
   624.7000      8.1532      2.4333      0.0479     13.1344    138.9165     29.8283
   624.8000      8.1614      2.4531      0.0596     11.9359    137.7837     29.7368
   624.9000      8.1614      2.4740      0.0504     10.6655    137.9961     29.3150
   625.0000      8.1369      2.4847      0.0509     10.0192    136.2556     29.5219
   625.1000      8.1369      2.4833      0.0527     10.1033    131.3107     30.3569
   625.2000      8.1369      2.4831      0.0301     10.1156    130.7091     31.3158
   625.3000      8.1098      2.4924      0.0543      9.5499    138.9587     31.5758
   625.4000      8.1098      2.5111      0.0236      8.4182    149.2499     30.4209
   625.5000      8.0655      2.5390      0.0477      6.7296    152.3834     28.7539
   625.6000      8.0655      2.5619      0.0762      5.3391    145.0235     28.0214
   625.7000      8.0655      2.5585      0.0708      5.5445    134.9872     28.4101
   625.8000      8.0305      2.5299      0.0522      7.2800    132.0777     29.4798
   625.9000      8.0305      2.4986      0.0718      9.1735    135.8678     31.0540
   626.0000      7.9867      2.4799      0.0275     10.3094    137.7802     32.1464
   626.1000      7.9867      2.4725      0.0625     10.7566    135.3201     31.7316
   626.2000      7.9867      2.4723      0.0288     10.7683    138.2379     30.5178
   626.3000      7.9729      2.4764      0.0630     10.5223    148.5190     29.6539
   626.4000      7.9729      2.4777      0.0635     10.4414    153.1428     29.4477
   626.5000      7.9709      2.4732      0.0404     10.7150    148.5878     29.9639
   626.6000      7.9709      2.4709     -0.0083     10.8522    143.8000     30.4550
   626.7000      7.9709      2.4786      0.0275     10.3869    144.0236     29.9393
   626.8000      7.9658      2.4907      0.0664      9.6568    146.5805     29.2102
   626.9000      7.9658      2.5005      0.0502      9.0626    145.9791     29.2960
   627.0000      7.9761      2.5011      0.0826      9.0216    142.3358     29.5968
   627.1000      7.9761      2.4897      0.0299      9.7128    139.8248     29.2766
   627.2000      7.9761      2.4866     -0.0104      9.9042    139.3749     28.5875
   627.3000      7.9988      2.5059      0.0742      8.7311    137.7288     28.2936
   627.4000      7.9988      2.5283      0.0715      7.3773    134.1199     28.5307
   627.5000      7.9656      2.5329      0.0475      7.0967    132.6783     28.8511
   627.6000      7.9656      2.5234      0.0214      7.6726    134.9543     29.1643
   627.7000      7.9656      2.5113      0.0157      8.4036    138.1949     29.4584
   627.8000      7.9676      2.4997      0.0625      9.1119    141.5312     29.6815
   627.9000      7.9676      2.4927      0.0038      9.5360    146.3412     30.0525
   628.0000      7.9809      2.4941      0.1056      9.4514    150.1452     30.2238
   628.1000      7.9809      2.4958      0.0522      9.3439    147.9859     29.8352
   628.2000      7.9809      2.4982      0.0113      9.1998    143.0762     29.4227
   628.3000      7.9728      2.5034      0.0747      8.8831    139.4842     29.3918
   628.4000      7.9728      2.5084      0.0461      8.5847    134.3549     29.4924
   628.5000      7.9738      2.5152      0.0794      8.1694    126.4524     29.1183
   628.6000      7.9738      2.5125      0.0892      8.3351    117.8121     28.2819
   628.7000      7.9738      2.4840      0.0298     10.0578    112.9178     27.9356
   628.8000      7.9767      2.4470     -0.0075     12.3052    113.9839     28.4423
   628.9000      7.9767      2.4276      0.0365     13.4789    117.9970     29.1566
   629.0000      7.9692      2.4265     -0.0157     13.5478    121.8891     29.5186
   629.1000      7.9692      2.4376      0.0102     12.8700    123.2092     29.4296
   629.2000      7.9692      2.4604      0.0088     11.4939    124.5357     29.0286
   629.3000      7.9697      2.4859      0.0656      9.9443    128.2668     28.8350
   629.4000      7.9697      2.4978      0.0898      9.2269    129.7480     29.2466
   629.5000      8.0093      2.4842      0.1362     10.0487    128.5696     29.7468
   629.6000      8.0093      2.4554      0.0474     11.7959    131.6013     29.7144
   629.7000      8.0093      2.4428      0.0085     12.5559    139.4067     29.1539
   629.8000      7.9941      2.4613      0.0579     11.4348    144.3114     28.3724
   629.9000      7.9941      2.4978      0.0379      9.2228    145.1010     27.7796
   630.0000      7.9736      2.5363      0.0789      6.8885    148.4932     27.6265
   630.1000      7.9736      2.5684      0.0716      4.9471    154.0714     28.0590
   630.2000      7.9736      2.5892      0.1056      3.6848    153.8180     28.9045
   630.3000      7.9565      2.5924      0.0987      3.4880    147.7530     29.3854
   630.4000      7.9565      2.5772      0.0899      4.4124    140.5015     29.3372
   630.5000      7.9566      2.5495      0.0883      6.0927    132.3173     29.2526
   630.6000      7.9566      2.5198      0.0485      7.8889    126.3299     29.3080
   630.7000      7.9566      2.4968      0.0814      9.2842    125.5154     29.1902
   630.8000      7.9398      2.4824      0.0218     10.1576    125.9128     28.6584
   630.9000      7.9398      2.4797      0.0707     10.3185    122.9549     28.4024
   631.0000      7.9534      2.4931      0.0737      9.5103    117.4478     29.0436
   631.1000      7.9534      2.5227      0.1001      7.7177    113.0138     29.7622
   631.2000      7.9534      2.5466      0.1106      6.2639    113.0381     29.5118
   631.3000      8.0028      2.5368      0.1053      6.8594    118.6799     28.6652
   631.4000      8.0028      2.5018      0.0618      8.9792    124.3782     28.1970
   631.5000      8.0258      2.4738      0.0218     10.6807    123.6753     28.2957
   631.6000      8.0258      2.4622      0.0526     11.3844    117.7071     28.1131
   631.7000      8.0258      2.4579      0.0177     11.6403    113.6023     27.4532
   631.8000      8.0370      2.4639      0.0163     11.2809    115.2861     27.5463
   631.9000      8.0370      2.4856      0.0394      9.9654    119.5904     28.6763
