~Version Information
VERS.                      2.0: CWLS Log ASCII Standard - VERSION 2.0
WRAP.                       NO: One line per depth step
~Well Information Block
STRT.FT               710.0000: 
STOP.FT              2304.5000: 
STEP.FT                 0.2500: 
NULL.                -999.2500: 
COMP.          Pioneer Natural Resources: COMPANY
WELL.           Ogallela 44-12: WELL
FLD.           Purgatoire River: FIELD
LOC.           610' FSL & 671' FEL: LOCATION
PROV.                 Colorado: PROVINCE
CNTY.               Las Animas: COUNTRY
SRVC.                Patterson: SERVICE COMPANY
DATE.          Wed Feb 23 00:14:59 2005: LOG DATE
UWI.           05 071 08283 00: UNIQUE WELL ID
~Curve Information Block
DEPT.FT            0 000 00 00: Depth
SN.Ohm-m                      : IEL Short Normal
SP.mV                         : IEL Spontaneous Potential
DIR.Ohm-m                     : IEL Induction Resistivity
GR.GAPI                       : Gamma Ray
~Parameter Information Block
~A  Depth        SN          SP         DIR          GR     
# ...
  1547.5000     26.7499    -32.1156     19.6414     97.2410
  1547.7500     30.1223    -32.1894     20.7635     86.9922
  1548.0000     34.2101    -32.3048     21.9908     73.5837
  1548.2500     38.9754    -32.4768     23.2749     66.7135
  1548.5000     44.2371    -32.7017     24.5353     59.9523
  1548.7500     49.5379    -32.9528     25.6673     57.5971
  1549.0000     54.1947    -33.1847     26.5455     56.5592
  1549.2500     57.4880    -33.3457     27.0285     57.1510
  1549.5000     58.8990    -33.3950     26.9777     59.6363
  1549.7500     58.2565    -33.3176     26.3100     62.3148
  1550.0000     55.6658    -33.1281     25.0591     67.9564
  1550.2500     51.3547    -32.8633     23.3930     73.0193
  1550.5000     45.6698    -32.5683     21.5556     83.3655
  1550.7500     39.2231    -32.2801     19.7735     92.5575
  1551.0000     32.9063    -32.0142     18.1921    109.5114
  1551.2500     27.5515    -31.7604     16.8662    121.7569
  1551.5000     23.5181    -31.4920     15.7849    138.3798
  1551.7500     20.6837    -31.1851     14.9057    146.6607
  1552.0000     18.7505    -30.8387     14.1821    153.9395
  1552.2500     17.4494    -30.4846     13.5815    156.0518
  1552.5000     16.5617    -30.1778     13.0912    157.1742
  1552.7500     15.9196    -29.9678     12.7149    157.3970
  1553.0000     15.4446    -29.8708     12.4608    157.2841
  1553.2500     15.1449    -29.8657     12.3310    156.8540
  1553.5000     15.0359    -29.9079     12.3165    155.6074
  1553.7500     15.0919    -29.9506     12.4029    154.0874
  1554.0000     15.3318    -29.9620     12.5804    149.4873
  1554.2500     15.8442    -29.9365     12.8508    144.1088
  1554.5000     16.6290    -29.8972     13.2249    132.6549
  1554.7500     17.5985    -29.8891     13.7123    123.8635
  1555.0000     18.7640    -29.9610     14.3104    111.5181
  1555.2500     20.2350    -30.1403     14.9997    104.8763
  1555.5000     22.0631    -30.4226     15.7490     97.5757
  1555.7500     24.1465    -30.7888     16.5314     94.1151
  1556.0000     26.2321    -31.2291     17.3421     90.4634
  1556.2500     28.0483    -31.7506     18.2031     88.9667
  1556.5000     29.5174    -32.3634     19.1450     88.2650
  1556.7500     30.7783    -33.0637     20.1715     88.9219
  1557.0000     31.9375    -33.8280     21.2311     91.4511
  1557.2500     32.8909    -34.6172     22.2152     93.7870
  1557.5000     33.4358    -35.3867     22.9887     97.3284
  1557.7500     33.4828    -36.1007     23.4368     99.2906
  1558.0000     33.1021    -36.7442     23.5035    101.4584
  1558.2500     32.4252    -37.3203     23.1996    102.5602
  1558.5000     31.5776    -37.8332     22.5841    104.1077
  1558.7500     30.6603    -38.2757     21.7368    105.1633
  1559.0000     29.7025    -38.6289     20.7403    106.6075
  1559.2500     28.6314    -38.8699     19.6754    107.4106
  1559.5000     27.3290    -38.9808     18.6168    108.9947
  1559.7500     25.7546    -38.9563     17.6232    111.1226
  1560.0000     24.0305    -38.8079     16.7269    116.8875
  1560.2500     22.3781    -38.5608     15.9343    121.9893
  1560.5000     20.9506    -38.2424     15.2384    129.4834
  1560.7500     19.7625    -37.8715     14.6317    133.6215
  1561.0000     18.7551    -37.4521     14.1143    138.9446
  1561.2500     17.8662    -36.9766     13.6904    142.3156
  1561.5000     17.0747    -36.4340     13.3635    146.5163
  1561.7500     16.4177    -35.8186     13.1332    147.8680
  1562.0000     15.9419    -35.1360     12.9964    146.8428
  1562.2500     15.6307    -34.4041     12.9497    144.4286
  1562.5000     15.3880    -33.6465     12.9890    139.7085
  1562.7500     15.1246    -32.8833     13.1065    136.6352
  1563.0000     14.8765    -32.1269     13.2909    132.3656
  1563.2500     14.8284    -31.3890     13.5325    129.2275
  1563.5000     15.2487    -30.6897     13.8313    123.1128
  1563.7500     16.3593    -30.0616     14.2018    118.0111
  1564.0000     18.1540    -29.5448     14.6685    109.6007
  1564.2500     20.3696    -29.1767     15.2531    104.2402
  1564.5000     22.7131    -28.9792     15.9560     98.0036
  1564.7500     25.0784    -28.9463     16.7402     95.7301
  1565.0000     27.5431    -29.0401     17.5238     95.2661
  1565.2500     30.1907    -29.2051     18.1922     96.1527
  1565.5000     32.8709    -29.3907     18.6338     97.3699
  1565.7500     35.1601    -29.5685     18.7806     97.4416
  1566.0000     36.6130    -29.7316     18.6258     96.6507
  1566.2500     36.9751    -29.8823     18.2102     96.1412
  1566.5000     36.1686    -30.0175     17.5955     96.7336
  1566.7500     34.2512    -30.1218     16.8457     98.8806
  1567.0000     31.4962    -30.1716     16.0203    105.7921
  1567.2500     28.4290    -30.1467     15.1724    112.6752
  1567.5000     25.5966    -30.0413     14.3470    124.3396
  1567.7500     23.2485    -29.8644     13.5760    131.4317
  1568.0000     21.3024    -29.6299     12.8748    139.4795
  1568.2500     19.5368    -29.3482     12.2437    143.2303
  1568.5000     17.7489    -29.0279     11.6747    147.4650
  1568.7500     15.8631    -28.6809     11.1607    149.6995
  1569.0000     13.9922    -28.3223     10.7020    151.9131
  1569.2500     12.3768    -27.9621     10.3064    152.4684
  1569.5000     11.2415    -27.6013      9.9839    152.6133
  1569.7500     10.6889    -27.2361      9.7409    153.1601
  1570.0000     10.6922    -26.8677      9.5766    155.7463
  1570.2500     11.1296    -26.5049      9.4831    158.3149
  1570.5000     11.7895    -26.1602      9.4496    161.4939
  1570.7500     12.4046    -25.8423      9.4662    162.1348
  1571.0000     12.7466    -25.5543      9.5273    160.4157
  1571.2500     12.6881    -25.2959      9.6301    157.7581
  1571.5000     12.2214    -25.0680      9.7722    152.0986
  1571.7500     11.5017    -24.8761      9.9506    147.5916
  1572.0000     10.8465    -24.7316     10.1631    140.7908
  1572.2500     10.6258    -24.6480     10.4100    136.9880
  1572.5000     11.1158    -24.6339     10.6938    133.0704
  1572.7500     12.3514    -24.6881     11.0169    131.4204
  1573.0000     14.0243    -24.7972     11.3781    129.5788
  1573.2500     15.6132    -24.9349     11.7701    128.6926
  1573.5000     16.7449    -25.0677     12.1782    128.6108
  1573.7500     17.4048    -25.1689     12.5796    129.7843
  1574.0000     17.7853    -25.2335     12.9463    132.8476
  1574.2500     18.0342    -25.2818     13.2507    134.6647
  1574.5000     18.1789    -25.3448     13.4698    135.1532
  1574.7500     18.1899    -25.4424     13.5854    133.6885
  1575.0000     18.0348    -25.5682     13.5858    129.8439
  1575.2500     17.6846    -25.6902     13.4710    127.2179
  1575.5000     17.1291    -25.7688     13.2583    125.2093
  1575.7500     16.4181    -25.7803     12.9777    126.3058
  1576.0000     15.6734    -25.7313     12.6592    132.3620
  1576.2500     15.0261    -25.6514     12.3210    138.4648
  1576.5000     14.5181    -25.5756     11.9690    147.6451
  1576.7500     14.0730    -25.5313     11.6054    152.2938
  1577.0000     13.5798    -25.5339     11.2364    156.6294
  1577.2500     13.0008    -25.5840     10.8728    158.4858
  1577.5000     12.4017    -25.6624     10.5269    160.9350
  1577.7500     11.8784    -25.7313     10.2079    162.4133
  1578.0000     11.4685    -25.7532      9.9207    163.7014
  1578.2500     11.1495    -25.7174      9.6656    163.6811
  1578.5000     10.8940    -25.6477      9.4407    162.8083
  1578.7500     10.6988    -25.5802      9.2439    162.1272
  1579.0000     10.5768    -25.5373      9.0749    160.9234
  1579.2500     10.5398    -25.5216      8.9370    159.4391
  1579.5000     10.5744    -25.5304      8.8366    155.5057
  1579.7500     10.6279    -25.5689      8.7815    152.0734
  1580.0000     10.6358    -25.6503      8.7769    147.1884
  1580.2500     10.5791    -25.7846      8.8229    144.9397
  1580.5000     10.4963    -25.9706      8.9147    143.8787
  1580.7500     10.4368    -26.1975      9.0465    144.7338
