~Version Information
VERS.                      2.0: CWLS Log ASCII Standard - VERSION 2.0
WRAP.                       NO: One line per depth step
~Well Information Block
STRT.FT               875.6000: 
STOP.FT              2510.0000: 
STEP.FT                 0.1000: 
NULL.                -999.2500: 
COMP.          Petrogulf Corporation: COMPANY
WELL.          Collister 17-31 V: WELL
FLD.           Purgatoire River: FIELD
LOC.           910' FNL & 1594' FEL: LOCATION
PROV.                 Colorado: PROVINCE
CNTY.               Las Animas: COUNTRY
SRVC.                Patterson: SERVICE COMPANY
DATE.          Fri Dec 12 13:49:30 2003: LOG DATE
UWI.                          : UNIQUE WELL ID
~Curve Information Block
DEPT.FT            0 000 00 00: Depth
DCAL.in                       : CDL Caliper
DPOR.pu                       : CDL Density Porosity
NPOR.pu                       : Neutron Porosity
RHOB.g/cc                     : CDL Bulk Density
RHOC.g/cc                     : CDL Density Correction
GR.GAPI                       : Gamma Ray
~Parameter Information Block
~A  Depth       DCAL        DPOR        NPOR        RHOB        RHOC         GR     
# ...
  2498.0000      8.1691      6.3611     48.0527      2.5450      0.1159   -999.2500
  2498.1000      8.1691      7.5243     48.6233      2.5258      0.0356   -999.2500
  2498.2000      8.1691      9.0177     48.6838      2.5012      0.0406   -999.2500
  2498.3000      8.1122      9.7500     48.6872      2.4891     -0.0180   -999.2500
  2498.4000      8.1122      9.5845   -999.2500      2.4919      0.0602   -999.2500
  2498.5000      8.1494      9.5607   -999.2500      2.4922      0.0557   -999.2500
  2498.6000      8.1494     10.3357   -999.2500      2.4795      0.0293   -999.2500
  2498.7000      8.1494     11.5317   -999.2500      2.4597      0.0424   -999.2500
  2498.8000      8.1464     12.5074   -999.2500      2.4436      0.0614   -999.2500
  2498.9000      8.1464     12.7818   -999.2500      2.4391      0.0171   -999.2500
  2499.0000      8.1335     12.1364   -999.2500      2.4498      0.0751   -999.2500
  2499.1000      8.1335     10.9892   -999.2500      2.4687      0.1200   -999.2500
  2499.2000      8.1335     10.0164   -999.2500      2.4847      0.1479   -999.2500
  2499.3000      8.1185      9.4952   -999.2500      2.4933      0.1941   -999.2500
  2499.4000      8.1185      9.3271   -999.2500      2.4961      0.2411   -999.2500
  2499.5000      8.0955      9.0974   -999.2500      2.4999      0.2823   -999.2500
  2499.6000      8.0955      8.6824   -999.2500      2.5067      0.2063   -999.2500
  2499.7000      8.0955      8.2657   -999.2500      2.5136      0.1886   -999.2500
  2499.8000      8.1007      7.1792   -999.2500      2.5315      0.0635   -999.2500
  2499.9000      8.1007      4.4130   -999.2500      2.5772      0.1696   -999.2500
  2500.0000      8.1037      0.7705   -999.2500      2.6373      0.2309   -999.2500
  2500.1000      8.1037     -1.8816   -999.2500      2.6810      0.2968   -999.2500
  2500.2000      8.1037     -2.0589   -999.2500      2.6840      0.3354   -999.2500
  2500.3000      8.1386      0.1333   -999.2500      2.6478      0.2412   -999.2500
  2500.4000      8.1386      3.0460   -999.2500      2.5997      0.1949   -999.2500
  2500.5000      8.1217      5.8762   -999.2500      2.5530      0.1336   -999.2500
  2500.6000      8.1217      9.1224   -999.2500      2.4995      0.0994   -999.2500
  2500.7000      8.1217     13.3114   -999.2500      2.4304      0.0535   -999.2500
  2500.8000      8.1636     17.6714   -999.2500      2.3584      0.0049   -999.2500
  2500.9000      8.1636     19.9601   -999.2500      2.3207     -0.0092   -999.2500
  2501.0000      8.1045     18.5649   -999.2500      2.3437      0.0829   -999.2500
  2501.1000      8.1045     14.9088   -999.2500      2.4040      0.2088   -999.2500
  2501.2000      8.1045     11.7515   -999.2500      2.4561      0.2051   -999.2500
  2501.3000      8.1436     10.0418   -999.2500      2.4843      0.1830   -999.2500
  2501.4000      8.1436      9.7617   -999.2500      2.4889      0.2413   -999.2500
  2501.5000      8.1013     10.7328   -999.2500      2.4729      0.2042   -999.2500
  2501.6000      8.1013     11.1192   -999.2500      2.4665      0.1678   -999.2500
  2501.7000      8.1013      8.8462   -999.2500      2.5040      0.2034   -999.2500
  2501.8000      8.1083      4.6696   -999.2500      2.5730      0.3376   -999.2500
  2501.9000      8.1083      1.4167   -999.2500      2.6266      0.2564   -999.2500
  2502.0000      8.2179      0.5541   -999.2500      2.6409      0.1985   -999.2500
  2502.1000      8.2179      1.1398   -999.2500      2.6312      0.1856   -999.2500
  2502.2000      8.2179      1.9360   -999.2500      2.6181      0.1822   -999.2500
  2502.3000      8.2318      3.2521   -999.2500      2.5963      0.1900   -999.2500
  2502.4000      8.2318      5.9940   -999.2500      2.5511      0.1558   -999.2500
  2502.5000      8.1498      9.7261   -999.2500      2.4895      0.1021   -999.2500
  2502.6000      8.1498     12.8098   -999.2500      2.4386      0.0660   -999.2500
  2502.7000      8.1498     14.2143   -999.2500      2.4155      0.0453   -999.2500
  2502.8000      8.1316     14.4057   -999.2500      2.4123      0.0872   -999.2500
  2502.9000      8.1316     13.8790   -999.2500      2.4210      0.0168   -999.2500
  2503.0000      8.0987     11.7379   -999.2500      2.4563      0.0884   -999.2500
  2503.1000      8.0987      7.3801   -999.2500      2.5282      0.1399   -999.2500
  2503.2000      8.0987      2.0872   -999.2500      2.6156      0.3115   -999.2500
  2503.3000      8.0399     -1.6510   -999.2500      2.6772      0.3731   -999.2500
  2503.4000      8.0399     -2.0613   -999.2500      2.6840      0.3426   -999.2500
  2503.5000      8.0114      0.3608   -999.2500      2.6440      0.2641   -999.2500
  2503.6000      8.0114      3.4604   -999.2500      2.5929      0.1733   -999.2500
  2503.7000      8.0114      5.5887   -999.2500      2.5578      0.1147   -999.2500
  2503.8000      8.0172      6.2735   -999.2500      2.5465      0.0942   -999.2500
  2503.9000      8.0172      5.6362   -999.2500      2.5570      0.0785   -999.2500
  2504.0000      8.0598      4.8352   -999.2500      2.5702      0.1476   -999.2500
  2504.1000      8.0598      4.4106   -999.2500      2.5772      0.0805   -999.2500
  2504.2000      8.0598      3.1833   -999.2500      2.5975      0.1850   -999.2500
  2504.3000      8.1013      1.5154   -999.2500      2.6250      0.2393   -999.2500
  2504.4000      8.1013      1.5095   -999.2500      2.6251      0.2441   -999.2500
  2504.5000      8.1780      3.1387   -999.2500      2.5982      0.0983   -999.2500
  2504.6000      8.1780      4.0807   -999.2500      2.5827      0.1055   -999.2500
  2504.7000      8.1780      3.5438   -999.2500      2.5915      0.1303   -999.2500
  2504.8000      8.2206      2.8699   -999.2500      2.6026      0.1552   -999.2500
  2504.9000      8.2206      3.1569   -999.2500      2.5979      0.1712   -999.2500
  2505.0000      8.2059      3.6913   -999.2500      2.5891      0.0989   -999.2500
  2505.1000      8.2059      2.9958   -999.2500      2.6006      0.1515   -999.2500
  2505.2000      8.2059      1.4561   -999.2500      2.6260      0.1976   -999.2500
  2505.3000      8.1877      0.9299   -999.2500      2.6347      0.1909   -999.2500
  2505.4000      8.1877      2.0221   -999.2500      2.6166      0.1096   -999.2500
  2505.5000      8.1854      4.0857   -999.2500      2.5826      0.1346   -999.2500
  2505.6000      8.1854      6.7780   -999.2500      2.5382      0.1251   -999.2500
  2505.7000      8.1854      9.5770   -999.2500      2.4920      0.0759   -999.2500
  2505.8000      8.1850     11.3293   -999.2500      2.4631      0.0462   -999.2500
  2505.9000      8.1850     11.1492   -999.2500      2.4660      0.0214   -999.2500
  2506.0000      8.1470      9.7024   -999.2500      2.4899      0.1070   -999.2500
  2506.1000      8.1470      8.8849   -999.2500      2.5034      0.1455   -999.2500
  2506.2000      8.1470      9.5065   -999.2500      2.4931      0.1179   -999.2500
  2506.3000      8.1610     10.2284   -999.2500      2.4812      0.0959   -999.2500
  2506.4000      8.1610      9.7982   -999.2500      2.4883      0.1066   -999.2500
  2506.5000      8.1807      9.0796   -999.2500      2.5002      0.1702   -999.2500
  2506.6000      8.1807      8.9772   -999.2500      2.5019      0.0980   -999.2500
  2506.7000      8.1807      8.7411   -999.2500      2.5058      0.1458   -999.2500
  2506.8000      8.1959      7.9463   -999.2500      2.5189      0.1049   -999.2500
  2506.9000      8.1959      7.0387   -999.2500      2.5339      0.1436   -999.2500
  2507.0000      8.1975      6.4244   -999.2500      2.5440      0.0910   -999.2500
  2507.1000      8.1975      6.3009   -999.2500      2.5460      0.1624   -999.2500
  2507.2000      8.1975      6.6124   -999.2500      2.5409      0.1278   -999.2500
  2507.3000      8.1077      6.4111   -999.2500      2.5442      0.1228   -999.2500
  2507.4000      8.1077      5.1275   -999.2500      2.5654      0.1649   -999.2500
  2507.5000      8.1116      3.6129   -999.2500      2.5904      0.1761   -999.2500
