~Version Information
VERS.                      2.0: CWLS Log ASCII Standard - VERSION 2.0
WRAP.                       NO: One line per depth step
~Well Information Block
STRT.FT               528.0000: 
STOP.FT              2251.5000: 
STEP.FT                 0.2500: 
NULL.                -999.2500: 
COMP.          Pioneer Natural Resources: COMPANY
WELL.           Parklane 43-34: WELL
FLD.           Purgatorie River: FIELD
LOC.           1704' FSL & 1119' FEL: LOCATION
PROV.                 Colorado: PROVINCE
CNTY.               Las Animas: COUNTRY
SRVC.                         : SERVICE COMPANY
DATE.          Thu Oct 07 01:37:17 2004: LOG DATE
UWI.           05 071 08162 00: UNIQUE WELL ID
~Curve Information Block
DEPT.FT            0 000 00 00: Depth
LTEN.lb                       : Surface Line Tension
SN.Ohm-m                      : IEL Short Normal
SP.mV                         : IEL Spontaneous Potential
DIR.Ohm-m                     : IEL Induction Resistivity
GR.GAPI                       : Gamma Ray
~Parameter Information Block
~A  Depth       LTEN         SN          SP         DIR          GR     
# ...
   752.0000    695.7186   2000.0000   2000.0000      9.8889    138.3663
   752.2500    692.2513   2000.0000   2000.0000      9.7367    137.8963
   752.5000    689.9240   2000.0000   2000.0000      9.5857    136.5550
   752.7500    690.2872   2000.0000   2000.0000      9.4592    134.9728
   753.0000    693.5767   2000.0000   2000.0000      9.3584    132.2277
   753.2500    698.2954   2000.0000   2000.0000      9.2667    130.9667
   753.5000    702.0374   2000.0000   2000.0000      9.1702    131.1135
   753.7500    702.9515   2000.0000   2000.0000      9.0715    132.7299
   754.0000    700.9381   2000.0000   2000.0000      8.9857    136.7183
   754.2500    697.6487   2000.0000   2000.0000      8.9262    139.6666
   754.5000    695.1008   2000.0000   2000.0000      8.8984    143.2761
   754.7500    694.2353   2000.0000   2000.0000      8.9047    144.8339
   755.0000    694.8417   2000.0000   2000.0000      8.9497    146.4610
   755.2500    696.4080   2000.0000   2000.0000      9.0385    147.7368
   755.5000    698.5435   2000.0000   2000.0000      9.1667    150.4799
   755.7500    700.8469   2000.0000   2000.0000      9.3139    152.4484
   756.0000    702.8176   2000.0000   2000.0000      9.4521    154.1236
   756.2500    703.7790   2000.0000   2000.0000      9.5648    153.7410
   756.5000    702.8170   2000.0000   2000.0000      9.6616    151.1041
   756.7500    699.3712   2000.0000   2000.0000      9.7692    148.6804
   757.0000    694.2766   2000.0000   2000.0000      9.9083    145.2630
   757.2500    689.7181   2000.0000   2000.0000     10.0756    143.5099
   757.5000    687.5609   2000.0000   2000.0000     10.2472    141.9026
   757.7500    687.9074   2000.0000   2000.0000     10.3992    141.5128
   758.0000    689.4211   2000.0000   2000.0000     10.5260    141.6396
   758.2500    690.5892   2000.0000   2000.0000     10.6393    141.8705
   758.5000    690.5649   2000.0000   2000.0000     10.7532    141.7919
   758.7500    689.4134   2000.0000   2000.0000     10.8722    140.9895
   759.0000    687.8482   2000.0000   2000.0000     10.9931    137.8481
   759.2500    686.5023   2000.0000   2000.0000     11.1141    134.4283
   759.5000    685.5449   2000.0000   2000.0000     11.2395    128.6313
   759.7500    685.1561   2000.0000   2000.0000     11.3785    125.4986
   760.0000    685.8926   2000.0000   2000.0000     11.5393    123.1008
   760.2500    688.1038   2000.0000   2000.0000     11.7224    122.8651
   760.5000    691.3265   2000.0000   2000.0000     11.9160    123.2042
   760.7500    694.7195   2000.0000   2000.0000     12.0976    123.0074
   761.0000    697.8790   2000.0000   2000.0000     12.2463    121.2930
   761.2500    700.7512   2000.0000   2000.0000     12.3548    119.4889
   761.5000    702.8195   2000.0000   2000.0000     12.4302    117.3270
   761.7500    703.1127   2000.0000   2000.0000     12.4896    117.0655
   762.0000    701.2836   2000.0000   2000.0000     12.5590    118.2576
   762.2500    698.1152   2000.0000   2000.0000     12.6751    119.0498
   762.5000    694.7697   2000.0000   2000.0000     12.8753    118.2971
   762.7500    692.1639   2000.0000   2000.0000     13.1726    116.1232
   763.0000    691.1620   2000.0000   2000.0000     13.5396    111.2160
   763.2500    692.4836   2000.0000   2000.0000     13.9210    107.8428
   763.5000    695.8542   2000.0000   2000.0000     14.2695    104.2248
   763.7500    699.6913   2000.0000   2000.0000     14.5689    103.2494
   764.0000    702.3738   2000.0000   2000.0000     14.8187    104.0026
   764.2500    703.8627   2000.0000   2000.0000     15.0005    105.8462
   764.5000    705.5409   2000.0000   2000.0000     15.0763    110.0926
   764.7500    708.2956   2000.0000   2000.0000     15.0277    113.1926
   765.0000    711.2803   2000.0000   2000.0000     14.8879    116.6649
   765.2500    712.8460   2000.0000   2000.0000     14.7254    117.6533
   765.5000    712.2691   2000.0000   2000.0000     14.5960    117.3437
   765.7500    710.2274   2000.0000   2000.0000     14.5147    116.4043
   766.0000    707.8905   2000.0000   2000.0000     14.4623    114.6403
   766.2500    706.0616   2000.0000   2000.0000     14.4064    113.6182
   766.5000    705.1249   2000.0000   2000.0000     14.3160    113.0258
   766.7500    705.1370   2000.0000   2000.0000     14.1728    113.5401
   767.0000    705.6037   2000.0000   2000.0000     13.9824    115.4834
   767.2500    705.5870   2000.0000   2000.0000     13.7731    117.0348
   767.5000    704.5834   2000.0000   2000.0000     13.5782    118.6908
   767.7500    703.2648   2000.0000   2000.0000     13.4165    118.9995
   768.0000    702.9200   2000.0000   2000.0000     13.2929    118.4090
   768.2500    703.9740   2000.0000   2000.0000     13.2079    117.7579
   768.5000    705.5746   2000.0000   2000.0000     13.1600    117.4533
   768.7500    707.0740   2000.0000   2000.0000     13.1374    118.1751
   769.0000    709.1291   2000.0000   2000.0000     13.1160    120.4247
   769.2500    712.4229   2000.0000   2000.0000     13.0703    121.9242
   769.5000    715.8837   2000.0000   2000.0000     12.9865    122.9157
   769.7500    717.1825   2000.0000   2000.0000     12.8635    122.7071
   770.0000    714.7514   2000.0000   2000.0000     12.7064    122.0933
   770.2500    708.8844   2000.0000   2000.0000     12.5218    122.1112
   770.5000    701.5177   2000.0000   2000.0000     12.3168    123.2000
   770.7500    695.4128   2000.0000   2000.0000     12.0976    124.4360
   771.0000    692.8929   2000.0000   2000.0000     11.8656    126.2782
   771.2500    694.4894   2000.0000   2000.0000     11.6196    127.1284
   771.5000    698.6708   2000.0000   2000.0000     11.3623    127.5820
   771.7500    703.0615   2000.0000   2000.0000     11.1047    127.1160
   772.0000    706.0178   2000.0000   2000.0000     10.8621    124.3401
   772.2500    707.3342   2000.0000   2000.0000     10.6501    120.6199
   772.5000    707.8177   2000.0000   2000.0000     10.4821    112.7468
   772.7500    708.2341   2000.0000   2000.0000     10.3703    107.2672
   773.0000    708.5571   2000.0000   2000.0000     10.3213    101.7398
   773.2500    708.2513   2000.0000   2000.0000     10.3270    101.2337
   773.5000    707.0430   2000.0000   2000.0000     10.3617    105.6739
   773.7500    705.0657   2000.0000   2000.0000     10.3879    111.1954
   774.0000    702.4785   2000.0000   2000.0000     10.3730    120.8798
   774.2500    699.4430   2000.0000   2000.0000     10.3038    126.9396
   774.5000    696.3621   2000.0000   2000.0000     10.1902    133.7220
   774.7500    693.8476   2000.0000   2000.0000     10.0599    136.1396
   775.0000    692.6028   2000.0000   2000.0000      9.9508    136.8517
   775.2500    693.1938   2000.0000   2000.0000      9.9017    136.2340
   775.5000    695.4818   2000.0000   2000.0000      9.9430    135.3620
   775.7500    698.3961   2000.0000   2000.0000     10.0890    135.3849
   776.0000    700.8874   2000.0000   2000.0000     10.3384    136.5746
   776.2500    703.2192   2000.0000   2000.0000     10.6787    138.0905
   776.5000    706.8087   2000.0000   2000.0000     11.0921    140.8870
   776.7500    712.4489   2000.0000   2000.0000     11.5571    142.3729
   777.0000    718.8011   2000.0000   2000.0000     12.0481    142.6964
   777.2500    723.0101   2000.0000   2000.0000     12.5410    141.3917
   777.5000    723.1273   2000.0000   2000.0000     13.0236    138.0869
   777.7500    719.8026   2000.0000   2000.0000     13.5053    135.9704
   778.0000    715.3723   2000.0000   2000.0000     14.0126    134.0994
   778.2500    711.6641   2000.0000   2000.0000     14.5730    133.5899
   778.5000    709.2442   2000.0000   2000.0000     15.1882    132.4240
   778.7500    708.3964   2000.0000   2000.0000     15.8148    130.3093
   779.0000    709.7626   2000.0000   2000.0000     16.3780    123.9791
   779.2500    713.4222   2000.0000   2000.0000     16.8297    117.5023
   779.5000    717.6905   2000.0000   2000.0000     17.2001    104.8373
   779.7500    719.6022   2000.0000   2000.0000     17.5709     95.1361
