~Version Information
VERS.                      2.0: CWLS Log ASCII Standard - VERSION 2.0
WRAP.                       NO: One line per depth step
~Well Information Block
STRT.FT               546.0000: 
STOP.FT              1771.5000: 
STEP.FT                 0.1000: 
NULL.                -999.2500: 
COMP.          Petrogulf Corporation: COMPANY
WELL.             McLeod 9-42R: WELL
FLD.           Purgatorie River: FIELD
LOC.           1748' FNL & 372' FEL: LOCATION
PROV.                 Colorado: PROVINCE
CNTY.               Las Animas: COUNTRY
SRVC.                Patterson: SERVICE COMPANY
DATE.          Tue Aug 16 11:11:38 2005: LOG DATE
UWI.                071 08092 : UNIQUE WELL ID
~Curve Information Block
DEPT.FT            0 000 00 00: Depth
DCAL.in                       : CDL Caliper
RHOB.g/cc                     : CDL Bulk Density
RHOC.g/cc                     : CDL Density Correction
DPOR.pu                       : CDL Density Porosity
GR.GAPI                       : Gamma Ray
NPOR.pu                       : Neutron Porosity
~Parameter Information Block
~A  Depth       DCAL        RHOB        RHOC        DPOR         GR         NPOR    
# ...
  1016.4000      7.9280      2.5546      0.0851      5.7804    123.9635     28.0549
  1016.5000      7.9096      2.5439      0.0487      6.4298    122.6101     28.0606
  1016.6000      7.9096      2.5392      0.0493      6.7176    122.2441     27.7917
  1016.7000      7.9096      2.5366      0.0429      6.8705    122.4823     27.2627
  1016.8000      7.9076      2.5316      0.0640      7.1736    122.2099     26.9954
  1016.9000      7.9076      2.5254      0.0217      7.5508    120.0065     27.1695
  1017.0000      7.9077      2.5254      0.0545      7.5489    116.9609     27.3965
  1017.1000      7.9077      2.5392      0.0152      6.7131    114.9186     27.3977
  1017.2000      7.9077      2.5645      0.0722      5.1821    113.9454     27.4168
  1017.3000      7.8688      2.5836      0.1456      4.0244    115.4628     27.8208
  1017.4000      7.8688      2.5881      0.0919      3.7543    119.7573     28.1829
  1017.5000      7.8534      2.5889      0.1224      3.7027    125.1318     28.0074
  1017.6000      7.8534      2.5914      0.1195      3.5519    130.3886     27.7250
  1017.7000      7.8534      2.5951      0.0997      3.3293    133.7570     27.7171
  1017.8000      7.8649      2.5950      0.1417      3.3359    135.5789     27.7857
  1017.9000      7.8649      2.5770      0.0758      4.4246    137.1998     27.7377
  1018.0000      7.8762      2.5386      0.0732      6.7495    138.0904     27.6620
  1018.1000      7.8762      2.4992      0.0128      9.1366    136.5699     28.0015
  1018.2000      7.8762      2.4761      0.0114     10.5421    133.4203     28.9512
  1018.3000      7.8817      2.4682      0.0014     11.0163    132.0464     29.8912
  1018.4000      7.8817      2.4709      0.0469     10.8564    132.6828     30.1380
  1018.5000      7.8982      2.4766      0.1124     10.5115    132.4214     29.6836
  1018.6000      7.8982      2.4841      0.0609     10.0541    130.5937     29.2339
  1018.7000      7.8982      2.4964      0.1074      9.3085    127.2228     29.2036
  1018.8000      7.9972      2.4991      0.1211      9.1459    122.5803     29.3959
  1018.9000      7.9972      2.4825      0.1267     10.1533    119.8826     29.7674
  1019.0000      8.0007      2.4560      0.1396     11.7589    120.4134     30.3223
  1019.1000      8.0007      2.4228      0.1323     13.7683    121.8772     30.7391
  1019.2000      8.0007      2.3747      0.1437     16.6851    122.6618     30.8906
  1019.3000      7.8946      2.3172      0.0949     20.1673    123.4478     30.9181
  1019.4000      7.8946      2.2837      0.0539     22.1981    123.4081     30.8278
  1019.5000      7.7789      2.3112      0.0465     20.5322    122.3921     30.5817
  1019.6000      7.7789      2.4013      0.1831     15.0713    123.8376     30.3897
  1019.7000      7.7789      2.5129      0.2902      8.3086    126.1528     30.6039
  1019.8000      7.8195      2.5992      0.3395      3.0783    124.9800     31.1483
  1019.9000      7.8195      2.6369      0.3598      0.7939    121.8159     31.4590
  1020.0000      7.9286      2.6341      0.3101      0.9637    119.1424     31.3993
  1020.1000      7.9286      2.6139      0.2759      2.1875    116.6081     31.2449
  1020.2000      7.9286      2.5886      0.1895      3.7194    115.0632     31.1804
  1020.3000      7.9048      2.5629      0.1320      5.2800    114.8570     31.2455
  1020.4000      7.9048      2.5480      0.0640      6.1824    113.4747     30.9884
  1020.5000      7.8954      2.5549      0.0690      5.7627    109.8691     30.2176
  1020.6000      7.8954      2.5765      0.1021      4.4548    107.5719     29.2493
  1020.7000      7.8954      2.5996      0.0878      3.0568    109.6422     28.1511
  1020.8000      7.8944      2.6204      0.0550      1.7911    110.8251     27.3400
  1020.9000      7.8944      2.6377      0.0706      0.7457    105.2102     27.2429
  1021.0000      7.9105      2.6487      0.0687      0.0774     97.2468     27.2374
  1021.1000      7.9105      2.6506      0.0741     -0.0337     92.9713     26.7579
  1021.2000      7.9105      2.6404      0.0644      0.5844     91.2437     26.1522
  1021.3000      7.9175      2.6291      0.0341      1.2643     90.2478     26.0143
  1021.4000      7.9175      2.6320      0.0667      1.0904     91.4158     26.3026
  1021.5000      7.9127      2.6405      0.0697      0.5740     94.6988     26.5729
  1021.6000      7.9127      2.6446      0.0163      0.3297     97.3880     26.5727
  1021.7000      7.9127      2.6477      0.0647      0.1376     99.0140     26.4431
  1021.8000      7.8791      2.6381      0.1421      0.7229    101.1760     26.5761
  1021.9000      7.8791      2.6044      0.1040      2.7651    103.5341     26.8806
  1022.0000      7.7851      2.5635      0.1206      5.2401    105.9888     27.0385
  1022.1000      7.7851      2.5318      0.1407      7.1642    108.6771     27.2574
  1022.2000      7.7851      2.5077      0.1032      8.6222    110.9342     27.8569
  1022.3000      7.7689      2.4883      0.1067      9.8019    115.2319     28.6402
  1022.4000      7.7689      2.4816      0.0654     10.2079    120.2570     29.3430
  1022.5000      7.7894      2.4935      0.0804      9.4860    121.5252     30.0756
  1022.6000      7.7894      2.5118      0.1095      8.3776    120.1065     31.0529
  1022.7000      7.7894      2.5264      0.0796      7.4928    118.3558     31.7376
  1022.8000      7.8880      2.5379      0.1270      6.7916    118.0320     31.3916
  1022.9000      7.8880      2.5433      0.1384      6.4639    120.1513     30.5845
  1023.0000      7.9613      2.5445      0.1008      6.3956    121.8808     30.4564
  1023.1000      7.9613      2.5431      0.1455      6.4774    120.9939     31.0445
  1023.2000      7.9613      2.5277      0.1262      7.4131    118.0925     31.4687
  1023.3000      7.9788      2.5005      0.0290      9.0601    114.9158     31.4735
  1023.4000      7.9788      2.4793      0.0382     10.3443    113.2050     31.3868
  1023.5000      7.9991      2.4651      0.0164     11.2046    114.0574     31.4091
  1023.6000      7.9991      2.4395      0.0666     12.7579    116.3564     31.6583
  1023.7000      7.9991      2.3812      0.0764     16.2891    117.5921     32.0134
  1023.8000      7.9905      2.2910      0.0180     21.7602    116.9323     32.2724
  1023.9000      7.9905      2.1827      0.0093     28.3222    114.8705     32.4508
  1024.0000      7.9942      2.0531      0.0078     36.1786    111.5274     32.6105
  1024.1000      7.9942      1.9052     -0.0834     45.1409    106.8410     32.5887
  1024.2000      7.9942      1.7808     -0.1580     52.6817    102.0871     32.2819
  1024.3000      8.0192      1.7185     -0.0982     56.4529     98.7078     32.1496
  1024.4000      8.0192      1.7190     -0.0972     56.4233     96.7080     32.5994
  1024.5000      8.0668      1.7691     -0.0341     53.3894     96.5128     33.2914
  1024.6000      8.0668      1.8512      0.0998     48.4146     99.5303     33.9286
  1024.7000      8.0668      1.9419      0.1773     42.9158    104.0330     34.7909
  1024.8000      8.1496      2.0306      0.1966     37.5367    106.3406     35.5359
  1024.9000      8.1496      2.1219      0.2019     32.0072    107.7610     35.7821
  1025.0000      8.2624      2.2186      0.1542     26.1472    111.9083     35.8328
  1025.1000      8.2624      2.3120      0.1369     20.4851    117.5250     35.5399
  1025.2000      8.2624      2.3897      0.0951     15.7752    121.7529     34.6485
  1025.3000      8.0895      2.4523      0.0682     11.9795    125.3094     33.8551
  1025.4000      8.0895      2.5042      0.0854      8.8341    128.9851     33.9371
  1025.5000      8.0310      2.5372      0.0970      6.8355    131.7175     34.3032
  1025.6000      8.0310      2.5458      0.0752      6.3127    133.6587     33.7827
  1025.7000      8.0310      2.5426      0.0655      6.5096    135.6290     32.3046
  1025.8000      8.0126      2.5447      0.0454      6.3813    136.1989     30.7877
  1025.9000      8.0126      2.5539      0.1006      5.8265    133.1326     30.0387
