~Version Information
VERS.                      2.0: CWLS Log ASCII Standard - VERSION 2.0
WRAP.                       NO: One line per depth step
~Well Information Block
STRT.FT                -6.7500: 
STOP.FT               983.2500: 
STEP.FT                 0.2500: 
NULL.                -999.2500: 
COMP.          Pioneer Natural Resources: COMPANY
WELL.          Run-Away-Train 43-26: WELL
FLD.           Purgatorie River: FIELD
LOC.           1693' FSL & 1195' FWL------------: LOCATION
PROV.                       CO: PROVINCE
CNTY.               Las Animas: COUNTRY
SRVC.          Patterson Wireline: SERVICE COMPANY
DATE.          Thu Apr 14 12:30:00 2005: LOG DATE
UWI.           05 071 08188 00: UNIQUE WELL ID
~Curve Information Block
DEPT.FT            0 000 00 00: Depth
CCL.                          : Casing Collar Locator
TT3.usec                      : CBL 3' Travel Time
AMP3.mV                       : CBL 3' Amplitude
GR.GAPI                       : Gamma Ray
~Parameter Information Block
~A  Depth       CCL         TT3         AMP3         GR     
# ...
   127.2500      0.0000    935.8373      6.5650     73.1996
   127.5000      0.0000    938.2508      6.5027     75.2744
   127.7500      0.0000    937.4642      6.4381     81.0918
   128.0000      0.0000    933.2125      6.3845     88.5937
   128.2500      0.0000    924.3592      6.3495     93.7043
   128.5000      0.0000    911.6694      6.3219     93.7823
   128.7500      0.0000    898.3047      6.2749     89.6289
   129.0000      0.0000    887.5536      6.1914     84.1807
   129.2500      0.0000    880.5566      6.0843     79.9155
   129.5000      0.0000    876.1528      5.9816     77.5608
   129.7500      0.0000    872.1666      5.8965     76.4561
   130.0000      0.0000    866.7165      5.8196     75.6833
   130.2500      0.0000    859.1664      5.7382     74.9942
   130.5000      0.0000    850.5104      5.6547     74.8352
   130.7500      0.0000    842.7045      5.5852     75.5180
   131.0000      0.0000    837.2335      5.5457     76.6206
   131.2500      0.0000    834.2912      5.5416     77.4042
   131.5000      0.0000    833.1316      5.5658     77.4689
   131.7500      0.0000    832.8876      5.6038     76.7015
   132.0000      0.0000    833.0244      5.6379     75.0970
   132.2500      0.0000    833.3564      5.6534     73.2423
   132.5000      0.0000    833.9363      5.6465     72.7060
   132.7500      0.0000    835.0001      5.6300     75.1550
   133.0000      0.0000    836.8755      5.6278     80.8065
   133.2500      0.0000    839.6968      5.6554     87.9870
   133.5000      0.0000    843.1483      5.7062     94.4211
   133.7500      0.0000    846.7861      5.7577     98.8541
   134.0000      0.0000    850.6950      5.7918    101.2943
   134.2500      0.0000    855.3223      5.8096    101.9271
   134.5000      0.0000    860.3641      5.8300    100.4033
   134.7500      0.0000    864.4128      5.8759     96.3402
   135.0000      0.0000    866.2820      5.9554     90.1240
   135.2500      0.0000    866.4271      6.0551     82.9491
   135.5000      0.0000    866.5769      6.1488     76.0733
   135.7500      0.0000    867.9866      6.2151     70.0572
   136.0000      0.0000    870.3865      6.2511     64.7295
   136.2500      0.0000    872.6439      6.2753     59.7765
   136.5000      0.0000    874.0051      6.3137     55.2465
   136.7500      0.0000    874.5203      6.3794     51.5389
   137.0000      0.0000    874.6290      6.4620     48.9801
   137.2500      0.0000    874.6866      6.5408     47.4025
   137.5000      0.0000    874.8289      6.6032     46.3072
   137.7500      0.0000    875.0501      6.6465     45.4387
   138.0000      0.0000    875.2739      6.6630     44.8413
   138.2500      0.0000    875.3423      6.6349     44.2697
   138.5000      0.0000    874.9475      6.5524     43.0736
   138.7500      0.0000    873.5441      6.4315     40.8473
   139.0000      0.0000    870.3707      6.3093     37.9077
   139.2500      0.0000    864.9089      6.2228     35.1536
   139.5000      0.0000    857.8102      6.1940     33.6775
   139.7500      0.0000    851.4022      6.2254     34.2794
   140.0000      0.0000    848.6575      6.3028     37.0170
   140.2500      0.0000    851.0138      6.4034     41.1821
   140.5000      0.0000    857.0963      6.5070     45.6034
   140.7500      0.0000    863.6761      6.6006     48.8963
   141.0000      0.0000    867.9737      6.6761     49.9612
   141.2500      0.0000    869.4485      6.7300     48.7469
   141.5000      0.0000    870.0895      6.7703     46.3606
   141.7500      0.0000    873.0339      6.8165     44.2160
   142.0000      0.0000    879.9663      6.8844     43.1714
   142.2500      0.0000    889.1006      6.9695     43.3692
   142.5000      0.0000    896.0403      7.0466     44.5687
   142.7500      0.0000    897.3108      7.0860     46.5155
   143.0000      0.0000    893.1447      7.0736     49.1397
   143.2500      0.0000    886.6564      7.0206     52.3724
   143.5000      0.0000    880.7947      6.9575     55.6276
   143.7500      0.0000    876.6605      6.9134     57.7770
   144.0000      0.0000    874.2687      6.8982     58.1129
   144.2500      0.0000    873.8224      6.9031     57.1156
   144.5000      0.0000    875.9628      6.9145     55.8174
   144.7500      0.0000    881.4759      6.9202     54.6594
   145.0000      0.0000    890.9636      6.9096     53.5273
   145.2500      0.0000    903.8481      6.8824     52.5902
   145.5000      0.0000    917.1658      6.8591     52.3583
   145.7500      0.0000    926.3643      6.8676     52.8617
   146.0000      0.0000    928.5181      6.9164     53.3059
   146.2500      0.0000    924.7151      6.9886     52.7895
   146.5000      0.0000    918.8634      7.0645     51.2013
   146.7500      0.0000    914.2919      7.1388     49.1851
   147.0000      0.0000    911.2847      7.2107     47.2714
   147.2500      0.0000    907.3011      7.2671     45.3931
   147.5000      0.0000    899.7124      7.2889     43.4444
   147.7500      0.0000    889.0725      7.2719     41.9595
   148.0000      0.0000    879.8544      7.2355     41.7424
   148.2500      0.0000    877.3195      7.2096     42.9238
   148.5000      0.0000    883.1837      7.2134     44.7512
   148.7500      0.0000    894.3746      7.2432     46.2015
   149.0000      0.0000    905.8067      7.2744     46.6294
   149.2500      0.0000    913.9996      7.2781     46.1245
   149.5000      0.0000    918.3607      7.2368     45.4614
   149.7500      0.0000    920.0743      7.1482     45.3886
   150.0000      0.0000    920.4866      7.0195     45.8978
   150.2500      0.0000    920.2640      6.8678     46.4561
   150.5000      0.0000    919.3745      6.7206     46.8347
   150.7500      0.0000    917.5754      6.6053     47.3615
   151.0000      0.0000    915.0747      6.5316     48.4759
   151.2500      0.0000    912.8791      6.4890     50.2594
   151.5000      0.0000    912.2661      6.4587     52.2446
   151.7500      0.0000    913.6122      6.4243     53.6435
   152.0000      0.0000    915.7632      6.3738     53.9929
   152.2500      0.0000    916.6449      6.3028     53.6180
   152.5000      0.0000    914.4040      6.2166     53.3303
   152.7500      0.0000    908.4016      6.1285     53.7838
   153.0000      0.0000    899.9710      6.0531     55.2749
   153.2500      0.0000    892.2679      5.9999     57.9025
   153.5000      0.0000    888.5020      5.9649     61.4242
   153.7500      0.0000    889.8199      5.9284     64.9707
   154.0000      0.0000    894.9294      5.8678     67.4024
   154.2500      0.0000    901.4188      5.7788     68.1555
   154.5000      0.0000    907.1700      5.6843     67.5072
   154.7500      0.0000    910.9422      5.6195     66.0029
   155.0000      0.0000    912.0652      5.6033     63.9332
   155.2500      0.0000    909.8524      5.6198     61.4628
   155.5000      0.0000    903.7384      5.6341     58.9780
   155.7500      0.0000    894.2026      5.6271     57.0158
   156.0000      0.0000    883.3712      5.6118     55.8850
   156.2500      0.0000    874.3893      5.6172     55.6169
   156.5000      0.0000    869.9026      5.6626     56.2678
   156.7500      0.0000    870.6828      5.7459     57.8758
   157.0000      0.0000    875.2264      5.8472     59.9685
   157.2500      0.0000    880.5543      5.9383     61.5091
   157.5000      0.0000    883.7579      5.9950     61.6279
   157.7500      0.0000    883.4041      6.0014     60.3841
   158.0000      0.0000    880.1981      5.9562     58.8060
   158.2500      0.0000    876.8547      5.8814     58.2932
   158.5000      0.0000    877.0068      5.8141     59.9009
   158.7500      0.0000    883.0603      5.7767     63.8992
   159.0000      0.0000    894.5778      5.7596     69.5716
   159.2500      0.0000    909.2286      5.7358     75.2658
   159.5000      0.0000    925.6057      5.6859     79.1033
   159.7500      0.0000    944.4353      5.6091     80.2754
   160.0000      0.0000    965.5976      5.5235     79.6968
   160.2500      0.0000    983.4043      5.4629     79.0250
   160.5000      0.0000    987.7237      5.4560     79.0537
