~Version Information
VERS.                      2.0: CWLS Log ASCII Standard - VERSION 2.0
WRAP.                       NO: One line per depth step
~Well Information Block
STRT.FT                -9.7500: 
STOP.FT              2374.2500: 
STEP.FT                 0.2500: 
NULL.                -999.2500: 
COMP.          Pioneer Natural Resources: COMPANY
WELL.            Chevron 13-13: WELL
FLD.           Purgatorie River: FIELD
LOC.           1560' FSL & 711' FWL--: LOCATION
CNTY.               Las Animas: COUNTY
SRVC.          Superior Well Services: SERVICE COMPANY
DATE.          Wed Apr 11 08:47:55 2007: LOG DATE
UWI.           05 071 08319 00: UNIQUE WELL ID
STAT.                       CO: STATE
~Curve Information Block
DEPT.FT            0 000 00 00: Depth
CCL.                          : Casing Collar Locator
TT3.usec                      : CBL 3' Travel Time
AMP3.mV                       : CBL 3' Amplitude
GR.GAPI                       : Gamma Ray
~Parameter Information Block
~A  Depth       CCL         TT3         AMP3         GR     
# ...
   928.2500      0.0000    721.6489      4.7123     81.3083
   928.5000      0.0000    725.2700      4.7242     79.5261
   928.7500      0.0000    722.5308      4.7276     78.3022
   929.0000      0.0000    699.2117      4.7311     77.5853
   929.2500      0.0000    652.9021      4.7426     76.4769
   929.5000      0.0000    597.0626      4.7586     74.2534
   929.7500      0.0000    548.2607      4.7665     71.0743
   930.0000      0.0000    514.5370      4.7523     68.0626
   930.2500      0.0000    495.7488      4.7097     66.7150
   930.5000      0.0000    487.5038      4.6515     67.7091
   930.7500      0.0000    482.2549      4.6109     70.1123
   931.0000      0.0000    472.3790      4.6217     72.1287
   931.2500      0.0000    455.9515      4.6915     72.7533
   931.5000      0.0000    437.7242      4.7921     72.5456
   931.7500      0.0000    423.6317      4.8745     72.9844
   932.0000      0.0000    416.0497      4.8975     75.3353
   932.2500      0.0000    414.5962      4.8487     79.7540
   932.5000      0.0000    419.7178      4.7492     84.9138
   932.7500      0.0000    434.4582      4.6414     88.6418
   933.0000      0.0000    461.5820      4.5697     89.4833
   933.2500      0.0000    496.9757      4.5638     87.7334
   933.5000      0.0000    526.3544      4.6328     84.8737
   933.7500      0.0000    533.2878      4.7711     82.2740
   934.0000      0.0000    513.7808      4.9671     80.5513
   934.2500      0.0000    480.7807      5.2046     79.7412
   934.5000      0.0000    452.7648      5.4595     79.6505
   934.7500      0.0000    440.1994      5.7020     79.9885
   935.0000      0.0000    442.8812      5.9043     80.4295
   935.2500      0.0000    456.1009      6.0489     80.9573
   935.5000      0.0000    477.2784      6.1351     82.0817
   935.7500      0.0000    507.7908      6.1808     84.2348
   936.0000      0.0000    547.9050      6.2136     86.9678
   936.2500      0.0000    588.6671      6.2564     89.2436
   936.5000      0.0000    611.4424      6.3198     90.5069
   936.7500      0.0000    600.7556      6.4025     90.9670
   937.0000      0.0000    558.8846      6.4934     90.8765
   937.2500      0.0000    505.1093      6.5728     90.0321
   937.5000      0.0000    460.0502      6.6185     88.0461
   937.7500      0.0000    432.7289      6.6143     84.8932
   938.0000      0.0000    421.2585      6.5601     81.1599
   938.2500      0.0000    421.0647      6.4778     77.7103
   938.5000      0.0000    430.1918      6.4022     74.9264
   938.7500      0.0000    448.1438      6.3594     72.4277
   939.0000      0.0000    471.5336      6.3525     69.7375
   939.2500      0.0000    493.0923      6.3739     66.9760
   939.5000      0.0000    507.3543      6.4246     64.6282
   939.7500      0.0000    516.7642      6.5117     62.9676
   940.0000      0.0000    528.8816      6.6296     62.1192
   940.2500      0.0000    547.4687      6.7560     62.5334
   940.5000      0.0000    569.4321      6.8673     65.0389
   940.7500      0.0000    590.0280      6.9530     70.1394
   941.0000      0.0000    607.0909      7.0177     76.9830
   941.2500      0.0000    619.9496      7.0764     83.0108
   941.5000      0.0000    628.2699      7.1400     85.1969
   941.7500      0.0000    633.9806      7.2010     82.2850
   942.0000      0.0000    642.1714      7.2338     75.9368
   942.2500      0.0000    657.4026      7.2165     69.5321
   942.5000      0.0000    678.6020      7.1495     65.6930
   942.7500      0.0000    698.8137      7.0514     64.7978
   943.0000      0.0000    711.3124      6.9410     65.6291
   943.2500      0.0000    715.5635      6.8255     67.1461
   943.5000      0.0000    716.0664      6.7005     69.3771
   943.7500      0.0000    716.6394      6.5589     72.6412
   944.0000      0.0000    717.9692      6.3990     76.3824
   944.2500      0.0000    719.7527      6.2317     79.3503
   944.5000      0.0000    722.7192      6.0806     81.0372
   944.7500      0.0000    728.1383      5.9683     82.4174
   945.0000      0.0000    736.2214      5.8966     84.8260
   945.2500      0.0000    745.1364      5.8435     88.3271
   945.5000      0.0000    751.2625      5.7794     91.5624
   945.7500      0.0000    750.4434      5.6838     93.0609
   946.0000      0.0000    739.5635      5.5498     92.5082
   946.2500      0.0000    717.7405      5.3844     90.8618
   946.5000      0.0000    686.6577      5.2086     89.3805
   946.7500      0.0000    649.8516      5.0550     88.5368
   947.0000      0.0000    611.1264      4.9576     87.8783
   947.2500      0.0000    572.8957      4.9370     86.8959
   947.5000      0.0000    536.0568      4.9881     85.8392
   947.7500      0.0000    502.2580      5.0798     85.6141
   948.0000      0.0000    476.7441      5.1733     87.0786
   948.2500      0.0000    467.7985      5.2462     90.4689
   948.5000      0.0000    481.1242      5.3106     95.1768
   948.7500      0.0000    513.4897      5.4076     99.8607
   949.0000      0.0000    553.0898      5.5642    102.9603
   949.2500      0.0000    588.4426      5.7352    103.4756
   949.5000      0.0000    617.2087      5.8149    101.4488
   949.7500      0.0000    645.6567      5.7402     97.6903
   950.0000      0.0000    680.5105      5.5639     93.2362
   950.2500      0.0000    721.6760      5.3928     89.3599
   950.5000      2.0000    760.7499      5.2800     87.6196
   950.7500     -2.0000    786.0472      5.2049     88.8520
   951.0000      0.0000    790.8558      5.1299     91.9951
   951.2500      0.0000    777.7203      5.0466     94.7119
   951.5000      0.0000    755.7519      4.9768     95.5459
   951.7500      0.0000    735.1542      4.9381     95.0611
   952.0000      0.0000    722.7342      4.9059     94.7042
   952.2500      0.0000    719.1545      4.8235     94.9411
   952.5000      0.0000    719.9271      4.6653     94.7295
   952.7500      0.0000    720.7575      4.4741     92.6642
   953.0000      0.0000    721.6965      4.3168     88.5382
   953.2500      0.0000    724.9047      4.2273     83.7661
   953.5000      0.0000    729.8102      4.2027     80.2684
   953.7500      0.0000    732.7452      4.2341     79.0007
   954.0000      0.0000    730.8427      4.3214     79.5999
   954.2500      0.0000    724.7662      4.4666     81.2278
   954.5000      0.0000    717.6673      4.6637     83.5234
   954.7500      0.0000    712.8510      4.8969     86.7724
   955.0000      0.0000    712.8035      5.1450     91.2632
   955.2500      0.0000    719.0243      5.3918     96.4718
   955.5000      0.0000    730.7175      5.6311    100.9357
   955.7500      0.0000    743.2748      5.8618    103.1365
   956.0000      0.0000    750.0687      6.0806    102.7386
   956.2500      0.0000    747.5336      6.2781    101.0313
   956.5000      0.0000    738.1163      6.4410     99.8566
   956.7500      0.0000    727.5121      6.5581     99.8674
   957.0000      0.0000    719.7270      6.6292    100.0790
   957.2500      0.0000    715.3047      6.6687     99.2680
   957.5000      0.0000    712.9983      6.7005     97.4862
   957.7500      0.0000    711.6678      6.7449     95.8589
   958.0000      0.0000    710.7567      6.8075     95.1101
   958.2500      0.0000    710.0292      6.8801     94.7741
   958.5000      0.0000    709.3432      6.9507     93.9429
   958.7500      0.0000    708.5632      7.0096     92.4144
   959.0000      0.0000    707.4631      7.0474     90.8222
   959.2500      0.0000    705.7835      7.0558     89.6534
   959.5000      0.0000    703.6011      7.0353     88.3534
   959.7500      0.0000    701.7046      6.9959     85.6642
   960.0000      0.0000    701.1360      6.9473     80.9214
   960.2500      0.0000    701.8238      6.8925     74.9004
   960.5000      0.0000    701.5754      6.8325     69.2720
   960.7500      0.0000    696.7274      6.7726     65.2543
   961.0000      0.0000    684.3445      6.7191     62.7279
   961.2500      0.0000    664.6397      6.6748     60.5784
   961.5000      0.0000    641.6873      6.6410     57.9333
