~Version Information
VERS.                      2.0: CWLS Log ASCII Standard - VERSION 2.0
WRAP.                       NO: One line per depth step
~Well Information Block
STRT.FT               234.0000: 
STOP.FT              1773.2000: 
STEP.FT                 0.1000: 
NULL.                -999.2500: 
COMP.          Pioneer Natural Resources: COMPANY
WELL.             Tami J 23-18: WELL
FLD.           Purgatorie River: FIELD
LOC.           2250' FSL & 2400' FWL: LOCATION
PROV.                 Colorado: PROVINCE
CNTY.               Las Animas: COUNTRY
SRVC.                         : SERVICE COMPANY
DATE.          Mon Dec 13 07:02:50 2004: LOG DATE
UWI.           05 071 08073 00: UNIQUE WELL ID
~Curve Information Block
DEPT.FT            0 000 00 00: Depth
LTEN.lb                       : Surface Line Tension
DCAL.in                       : CDL Caliper
RHOB.g/cc                     : CDL Bulk Density
RHOC.g/cc                     : CDL Density Correction
DPOR.pu                       : CDL Density Porosity
GR.GAPI                       : Gamma Ray
NPOR.pu                       : Neutron Porosity
~Parameter Information Block
~A  Depth       LTEN        DCAL        RHOB        RHOC        DPOR         GR         NPOR    
# ...
  1149.6000   1060.3796      7.9057      2.5362      0.0181      6.8980    123.6596     23.2592
  1149.7000   1060.3796      7.9057      2.5466      0.0685      6.2690    130.7082     23.4541
  1149.8000   1089.2776      7.9058      2.5682      0.0748      4.9583    141.5243     24.0208
  1149.9000   1089.2776      7.9058      2.5857      0.0877      3.8941    152.8273     24.7636
  1150.0000   1084.1304      7.9060      2.5828      0.1147      4.0707    158.0484     25.4067
  1150.1000   1084.1304      7.9060      2.5649      0.0796      5.1588    157.7148     25.7988
  1150.2000   1084.1304      7.9060      2.5559      0.1001      5.7057    154.5426     25.9841
  1150.3000   1057.0255      7.9061      2.5646      0.1070      5.1777    150.9313     26.0370
  1150.4000   1057.0255      7.9061      2.5745      0.0991      4.5745    152.3095     26.1432
  1150.5000   1048.2393      7.9057      2.5715      0.1027      4.7569    158.9285     26.4479
  1150.6000   1048.2393      7.9057      2.5619      0.0790      5.3374    165.3466     26.7252
  1150.7000   1048.2393      7.9057      2.5583      0.0684      5.5551    171.1984     26.8612
  1150.8000   1068.2950      7.9028      2.5598      0.0647      5.4667    176.3907     26.8676
  1150.9000   1068.2950      7.9028      2.5631      0.0307      5.2693    177.0821     26.7052
  1151.0000   1076.4747      7.8980      2.5690      0.0620      4.9119    171.8547     26.4513
  1151.1000   1076.4747      7.8980      2.5759      0.0241      4.4934    162.4339     26.1971
  1151.2000   1076.4747      7.8980      2.5807      0.0662      4.2011    153.8979     26.0199
  1151.3000   1028.1211      7.8956      2.5769      0.0751      4.4305    150.1775     25.9163
  1151.4000   1028.1211      7.8956      2.5597      0.0634      5.4747    149.2114     25.8834
  1151.5000   1040.2795      7.8928      2.5334      0.0484      7.0659    146.3255     25.9820
  1151.6000   1040.2795      7.8928      2.5128      0.0469      8.3122    140.7106     26.1329
  1151.7000   1040.2795      7.8928      2.5088      0.0242      8.5602    138.3247     26.0141
  1151.8000   1067.4303      7.8912      2.5172      0.0421      8.0455    141.2749     25.7835
  1151.9000   1067.4303      7.8912      2.5317      0.0407      7.1687    146.0357     26.0028
  1152.0000   1018.2790      7.8978      2.5522      0.0580      5.9277    151.1981     26.4824
  1152.1000   1018.2790      7.8978      2.5746      0.0866      4.5697    155.7122     26.5360
  1152.2000   1018.2790      7.8978      2.5786      0.1028      4.3289    157.8668     26.0679
  1152.3000    995.1411      7.9082      2.5564      0.0633      5.6709    158.3173     25.4650
  1152.4000    995.1411      7.9082      2.5294      0.0833      7.3071    158.4511     25.0307
  1152.5000   1012.6170      7.9142      2.5150      0.0708      8.1815    159.3714     24.7897
  1152.6000   1012.6170      7.9142      2.5175      0.0932      8.0310    160.7276     24.6031
  1152.7000   1012.6170      7.9142      2.5440      0.0432      6.4253    158.5800     24.4918
  1152.8000   1006.8525      7.9117      2.5918      0.1053      3.5300    153.0004     24.5146
  1152.9000   1006.8525      7.9117      2.6330      0.1476      1.0290    150.0131     24.5570
  1153.0000    928.7410      7.9076      2.6516      0.1299     -0.0985    149.2184     24.4383
  1153.1000    928.7410      7.9076      2.6575      0.1708     -0.4538    145.7116     24.1009
  1153.2000    928.7410      7.9076      2.6583      0.1607     -0.5056    139.8980     23.6961
  1153.3000   1043.2361      7.9058      2.6516      0.1679     -0.0954    136.7828     23.4750
  1153.4000   1043.2361      7.9058      2.6313      0.1058      1.1325    138.5152     23.4638
  1153.5000   1033.4939      7.9052      2.6071      0.0117      2.6000    139.3116     23.5721
  1153.6000   1033.4939      7.9052      2.6015      0.0059      2.9422    134.4650     23.8851
  1153.7000   1033.4939      7.9052      2.6162      0.0560      2.0497    129.8720     24.2844
  1153.8000    926.4871      7.9049      2.6274      0.0719      1.3674    130.2473     24.5621
  1153.9000    926.4871      7.9049      2.6190      0.0355      1.8817    133.3729     24.5747
  1154.0000   1105.2222      7.9048      2.5995      0.0104      3.0599    137.9455     24.2355
  1154.1000   1105.2222      7.9048      2.5847      0.0313      3.9569    141.8279     23.7577
  1154.2000   1105.2222      7.9048      2.5793      0.0058      4.2834    141.3831     23.3873
  1154.3000   1074.0500      7.9051      2.5761      0.0427      4.4796    137.7286     23.3281
  1154.4000   1074.0500      7.9051      2.5642      0.0536      5.1986    136.0882     23.7291
  1154.5000   1020.1757      7.9059      2.5431      0.0567      6.4813    137.2408     24.3597
  1154.6000   1020.1757      7.9059      2.5205      0.0176      7.8463    139.0280     24.7678
  1154.7000   1020.1757      7.9059      2.5088      0.0041      8.5568    142.1082     24.7170
  1154.8000   1054.7450      7.9073      2.5154      0.0344      8.1559    145.5671     24.4437
  1154.9000   1054.7450      7.9073      2.5297      0.0577      7.2907    150.1078     24.3807
  1155.0000   1025.7849      7.9079      2.5382      0.0616      6.7732    155.1515     24.5421
  1155.1000   1025.7849      7.9079      2.5457      0.0594      6.3218    155.1402     24.6326
  1155.2000   1025.7849      7.9079      2.5604      0.0925      5.4287    153.0739     24.5656
  1155.3000   1021.2713      7.9069      2.5738      0.1349      4.6157    156.0702     24.6809
  1155.4000   1021.2713      7.9069      2.5792      0.1209      4.2916    162.7050     25.2623
  1155.5000   1098.1482      7.9062      2.5883      0.0895      3.7386    168.3140     25.9144
  1155.6000   1098.1482      7.9062      2.6019      0.1717      2.9178    172.2106     26.3886
  1155.7000   1098.1482      7.9062      2.6039      0.1392      2.7947    175.9812     27.0695
  1155.8000   1081.5233      7.9062      2.5970      0.0995      3.2143    180.0542     27.7469
  1155.9000   1081.5233      7.9062      2.5965      0.0742      3.2404    181.8696     27.6838
  1156.0000   1006.1071      7.9060      2.6047      0.1046      2.7461    176.7613     27.1516
  1156.1000   1006.1071      7.9060      2.6153      0.1187      2.1019    165.1959     26.9617
  1156.2000   1006.1071      7.9060      2.6256      0.1085      1.4812    153.7418     27.1574
  1156.3000   1030.1542      7.9053      2.6349      0.1273      0.9173    148.1303     27.3309
  1156.4000   1030.1542      7.9053      2.6411      0.0968      0.5422    148.8676     27.2119
  1156.5000   1081.0894      7.9046      2.6337      0.1093      0.9856    151.6328     26.7124
  1156.6000   1081.0894      7.9046      2.6122      0.0415      2.2895    151.8689     26.2138
  1156.7000   1081.0894      7.9046      2.6027      0.0236      2.8637    148.5462     26.1637
  1156.8000    994.9804      7.9047      2.6184      0.0576      1.9148    145.1074     26.2187
  1156.9000    994.9804      7.9047      2.6437      0.0780      0.3789    143.5907     25.9083
  1157.0000    983.7794      7.9051      2.6683      0.0767     -1.1090    140.1558     25.3513
  1157.1000    983.7794      7.9051      2.6817      0.1340     -1.9216    132.1922     24.9054
  1157.2000    983.7794      7.9051      2.6640      0.1001     -0.8471    125.0635     24.8010
  1157.3000   1018.3308      7.9058      2.6169      0.0360      2.0046    124.8076     24.9078
  1157.4000   1018.3308      7.9058      2.5721     -0.0043      4.7242    130.8701     24.9402
  1157.5000   1032.9896      7.9067      2.5511     -0.0003      5.9963    137.7496     24.8331
  1157.6000   1032.9896      7.9067      2.5462     -0.0237      6.2904    142.0222     24.7101
  1157.7000   1032.9896      7.9067      2.5419      0.0048      6.5512    145.5344     24.8357
  1157.8000    965.4006      7.9065      2.5356      0.0299      6.9335    148.4951     25.1401
  1157.9000    965.4006      7.9065      2.5320      0.0395      7.1545    150.1016     25.2089
