~Version Information
VERS.                      2.0: CWLS Log ASCII Standard - VERSION 2.0
WRAP.                       NO: One line per depth step
~Well Information Block
STRT.FT               754.6000: 
STOP.FT              2329.0000: 
STEP.FT                 0.1000: 
NULL.                -999.2500: 
COMP.          Petrogulf Corporation: COMPANY
WELL.           Anderson 18-42: WELL
FLD.           Purgatoire River: FIELD
LOC.           1668' FNL & 1110' FEL: LOCATION
CNTY.               Las Animas: COUNTY
SRVC.                         : SERVICE COMPANY
DATE.          Tue Dec 16 12:18:55 2003: LOG DATE
UWI.                          : UNIQUE WELL ID
STAT.                 Colorado: STATE
~Curve Information Block
DEPT.FT            0 000 00 00: Depth
DCAL.in                       : CDL Caliper
RHOB.g/cc                     : CDL Bulk Density
RHOC.g/cc                     : CDL Density Correction
DPOR.pu                       : CDL Density Porosity
NPOR.pu                       : Neutron Porosity
GR.GAPI                       : Gamma Ray
~Parameter Information Block
~A  Depth       DCAL        RHOB        RHOC        DPOR        NPOR         GR     
# ...
  1503.4000      8.1878      2.4661      0.0695     11.1453     25.5367    209.8193
  1503.5000      8.1877      2.4365      0.0728     12.9376     25.1818    210.6230
  1503.6000      8.1877      2.3667      0.0672     17.1683     24.7190    205.0970
  1503.7000      8.1877      2.2697      0.0514     23.0497     24.4722    191.4463
  1503.8000      8.1788      2.1694      0.0205     29.1290     24.4282    167.8174
  1503.9000      8.1788      2.0833     -0.0125     34.3464     24.2181    145.4355
  1504.0000      8.1656      2.0208     -0.0264     38.1361     23.5786    138.5084
  1504.1000      8.1656      1.9834     -0.0236     40.3996     22.1694    143.8711
  1504.2000      8.1656      1.9666      0.0591     41.4189     19.9408    151.5564
  1504.3000      8.1652      1.9643      0.0749     41.5566     17.8772    157.1024
  1504.4000      8.1652      1.9744      0.1278     40.9469     16.8166    153.1757
  1504.5000      8.1633      1.9932      0.2389     39.8087     16.3037    138.6517
  1504.6000      8.1633      2.0186      0.2788     38.2697     15.7889    127.5559
  1504.7000      8.1633      2.0552      0.2459     36.0455     15.4365    130.1714
  1504.8000      8.1590      2.1052      0.1841     33.0172     15.5679    138.1253
  1504.9000      8.1590      2.1640      0.1225     29.4558     16.0931    142.1796
  1505.0000      8.1651      2.2299      0.0902     25.4596     16.5305    144.0098
  1505.1000      8.1651      2.2997      0.1155     21.2296     16.5876    143.8074
  1505.2000      8.1651      2.3616      0.1051     17.4769     16.4899    142.4255
  1505.3000      8.1625      2.4060      0.1007     14.7871     16.4001    142.2162
  1505.4000      8.1625      2.4358      0.0766     12.9791     16.1042    140.5919
  1505.5000      8.1635      2.4632      0.0849     11.3201     15.8337    137.8666
  1505.6000      8.1635      2.4936      0.0775      9.4815     16.2459    140.1296
  1505.7000      8.1635      2.5205      0.0986      7.8477     17.3295    145.3772
  1505.8000      8.1693      2.5362      0.0364      6.8999     18.3242    147.5817
  1505.9000      8.1693      2.5410      0.0230      6.6064     18.9819    149.0699
  1506.0000      8.1681      2.5424     -0.0098      6.5221     19.6790    153.3359
  1506.1000      8.1681      2.5478      0.0099      6.1943     20.4667    156.4386
  1506.2000      8.1681      2.5538      0.0413      5.8332     21.1454    154.2744
  1506.3000      8.1645      2.5532      0.0057      5.8677     21.6518    150.0995
  1506.4000      8.1645      2.5485      0.0436      6.1516     21.8879    148.7216
  1506.5000      8.1653      2.5395      0.0432      6.6971     21.9962    147.2284
  1506.6000      8.1653      2.5238      0.0163      7.6501     22.3846    141.2368
  1506.7000      8.1653      2.5119     -0.0107      8.3687     22.9513    134.7441
  1506.8000      8.1647      2.5165      0.0319      8.0916     23.0954    131.1098
  1506.9000      8.1647      2.5326      0.0246      7.1142     22.8559    127.2510
  1507.0000      8.1638      2.5447      0.0311      6.3841     22.7973    123.4758
  1507.1000      8.1638      2.5437      0.0499      6.4417     22.9363    121.7522
  1507.2000      8.1638      2.5410     -0.0160      6.6037     22.6534    116.0916
  1507.3000      8.1631      2.5554      0.0451      5.7352     21.7376    102.6953
  1507.4000      8.1631      2.5831      0.0587      4.0561     20.8580     91.5218
  1507.5000      8.1629      2.6012      0.0726      2.9586     20.5941     90.0657
  1507.6000      8.1629      2.5937      0.0540      3.4101     20.6646     89.8039
  1507.7000      8.1629      2.5700     -0.0235      4.8478     20.5318     81.6922
  1507.8000      8.1531      2.5543      0.0253      5.7979     20.0220     71.1859
  1507.9000      8.1531      2.5523      0.0424      5.9220     19.3176     64.6276
  1508.0000      8.1638      2.5473      0.0247      6.2246     18.6607     60.3474
  1508.1000      8.1638      2.5299      0.0157      7.2801     18.1002     57.8729
  1508.2000      8.1638      2.5106     -0.0030      8.4477     17.6817     60.7308
  1508.3000      8.1654      2.5033      0.0063      8.8935     17.3445     66.8020
  1508.4000      8.1654      2.5028      0.0285      8.9197     17.0195     68.0543
  1508.5000      8.1721      2.4995      0.0245      9.1199     16.7134     64.2772
  1508.6000      8.1721      2.4992     -0.0226      9.1405     16.4368     62.2622
  1508.7000      8.1721      2.5066     -0.0075      8.6923     16.1900     60.7177
  1508.8000      8.1881      2.5084      0.0115      8.5836     15.6334     56.7629
  1508.9000      8.1881      2.4932     -0.0004      9.5047     14.7949     52.6572
  1509.0000      8.1699      2.4770     -0.0093     10.4846     14.3584     48.3594
  1509.1000      8.1699      2.4867     -0.0502      9.8964     14.3566     43.9068
  1509.2000      8.1699      2.5168      0.0629      8.0737     14.3089     41.4167
  1509.3000      8.1698      2.5354      0.0223      6.9425     14.2876     40.8232
  1509.4000      8.1698      2.5306      0.0473      7.2341     14.3590     40.3281
  1509.5000      8.1634      2.5108      0.0197      8.4356     14.1411     41.5466
  1509.6000      8.1634      2.4904      0.0074      9.6735     13.7737     44.4021
  1509.7000      8.1634      2.4758      0.0256     10.5558     13.7809     44.1003
  1509.8000      8.1613      2.4609      0.0189     11.4600     14.1802     40.6306
  1509.9000      8.1613      2.4503     -0.0128     12.1011     14.5679     38.6732
  1510.0000      8.1676      2.4582     -0.0038     11.6256     14.6260     40.9506
  1510.1000      8.1676      2.4782      0.0495     10.4103     14.4632     45.3168
  1510.2000      8.1676      2.4891      0.0465      9.7489     14.3808     46.9594
  1510.3000      8.1632      2.4878      0.0123      9.8331     14.4610     44.2225
  1510.4000      8.1632      2.4858      0.0353      9.9532     14.7698     40.7348
  1510.5000      8.1607      2.4855      0.0312      9.9700     15.6513     38.5283
  1510.6000      8.1607      2.4874      0.0083      9.8540     17.1359     35.8492
  1510.7000      8.1607      2.4935      0.0500      9.4869     18.3885     33.6347
  1510.8000      8.1637      2.4903      0.0732      9.6766     18.9207     34.4836
  1510.9000      8.1637      2.4555      0.0538     11.7897     19.0642     36.1328
  1511.0000      8.1658      2.3767      0.0285     16.5610     18.9307     35.9812
  1511.1000      8.1658      2.2640     -0.0497     23.3963     18.2569     35.9974
  1511.2000      8.1658      2.1328     -0.0214     31.3464     16.9694     37.4662
  1511.3000      8.1630      1.9757     -0.0517     40.8664     15.5238     40.1755
  1511.4000      8.1630      1.7943     -0.1669     51.8583     14.0950     42.7519
  1511.5000      8.1608      1.6231     -0.2379     62.2384     12.3434     42.2522
  1511.6000      8.1608      1.4696     -0.1865     71.5366     10.4499     39.9925
  1511.7000      8.1608      1.3072     -0.2172     81.3792      8.7352     38.8227
  1511.8000      8.1577      1.1590     -0.2607     90.3643      6.6144     37.0634
  1511.9000      8.1577      1.0976     -0.0906     94.0820      4.1201     35.2706
  1512.0000      8.1751      1.1565      0.2173     90.5161      2.6982     36.3892
  1512.1000      8.1751      1.3113      0.3110     81.1330      2.6425     40.8736
  1512.2000      8.1751      1.5060      0.4553     69.3338      2.8382     50.6668
  1512.3000      8.3944      1.6681      0.4472     59.5119      2.9857     64.4289
  1512.4000      8.3944      1.7694      0.3967     53.3670      3.4440     74.9857
  1512.5000      9.0859      1.8459      0.4065     48.7317      4.3176     80.0902
  1512.6000      9.0859      1.9331      0.3575     43.4479      5.5082     84.1879
  1512.7000      9.0859      2.0323      0.2858     37.4373      6.9297     88.9657
  1512.8000      9.1536      2.1358      0.2668     31.1625      8.4965     92.9868
  1512.9000      9.1536      2.2458      0.2676     24.4984     10.1683     95.1339
