~Version Information
VERS.                      2.0: CWLS Log ASCII Standard - VERSION 2.0
WRAP.                       NO: One line per depth step
~Well Information Block
STRT.FT               380.0000: 
STOP.FT               899.2000: 
STEP.FT                 0.1000: 
NULL.                -999.2500: 
COMP.          Pioneer Natural Resources: COMPANY
WELL.          Prospector 12-19: WELL
FLD.           Purgatoire River: FIELD
LOC.           2262' FNL & 634' FWL: LOCATION
PROV.                 Colorado: PROVINCE
CNTY.               Las Animas: COUNTRY
SRVC.                Patterson: SERVICE COMPANY
DATE.          Mon Apr 25 09:33:09 2005: LOG DATE
UWI.           05 071 08191 00: UNIQUE WELL ID
~Curve Information Block
DEPT.FT            0 000 00 00: Depth
DCAL.in                       : CDL Caliper
RHOB.g/cc                     : CDL Bulk Density
RHOC.g/cc                     : CDL Density Correction
DPOR.pu                       : CDL Density Porosity
GR.GAPI                       : Gamma Ray
NPOR.pu                       : Neutron Porosity
~Parameter Information Block
~A  Depth       DCAL        RHOB        RHOC        DPOR         GR         NPOR    
# ...
   754.4000      7.8264      2.5281      0.1368      7.3860     66.0505     17.3193
   754.5000      7.8476      2.5385      0.0775      6.7585     68.0638     17.8609
   754.6000      7.8476      2.5528      0.1085      5.8893     68.1145     18.5957
   754.7000      7.8476      2.5634      0.1151      5.2488     65.5212     19.0116
   754.8000      7.8577      2.5571      0.0607      5.6280     62.8327     19.0205
   754.9000      7.8577      2.5375      0.0973      6.8166     63.4112     18.8349
   755.0000      7.8820      2.5109      0.0683      8.4333     65.1936     18.4865
   755.1000      7.8820      2.4887      0.0441      9.7767     65.4379     18.1187
   755.2000      7.8820      2.4822      0.0486     10.1671     66.9579     17.8528
   755.3000      7.8969      2.4947     -0.0090      9.4138     71.3937     17.7781
   755.4000      7.8969      2.5257      0.0141      7.5321     74.0029     18.1202
   755.5000      7.8738      2.5544      0.1321      5.7933     71.3360     18.6622
   755.6000      7.8738      2.5556      0.1299      5.7228     67.9971     18.6856
   755.7000      7.8738      2.5327      0.1281      7.1086     68.8939     18.4910
   755.8000      7.8719      2.4952      0.0959      9.3820     73.1469     18.9070
   755.9000      7.8719      2.4524      0.0568     11.9775     77.7526     19.7469
   756.0000      7.8492      2.4209      0.0794     13.8843     77.4806     20.4786
   756.1000      7.8492      2.4028      0.0559     14.9847     68.9999     21.0053
   756.2000      7.8492      2.3937      0.0220     15.5328     58.9569     21.4457
   756.3000      7.8608      2.4029      0.0065     14.9732     55.6242     21.6812
   756.4000      7.8608      2.4300      0.1216     13.3321     58.4571     21.5655
   756.5000      7.9488      2.4540      0.1375     11.8782     61.4137     21.3371
   756.6000      7.9488      2.4661      0.1374     11.1449     60.5017     21.0553
   756.7000      7.9488      2.4758      0.1327     10.5574     56.3907     20.7462
   756.8000      7.8499      2.4829      0.1909     10.1262     53.4705     20.8390
   756.9000      7.8499      2.4821      0.1631     10.1784     54.4432     21.2411
   757.0000      7.8163      2.4817      0.1758     10.2012     55.3849     21.2308
   757.1000      7.8163      2.4928      0.1568      9.5258     54.8320     20.6857
   757.2000      7.8163      2.5123      0.1455      8.3458     57.3101     20.0637
   757.3000      7.8148      2.5293      0.1286      7.3149     59.6233     19.7206
   757.4000      7.8148      2.5445      0.1137      6.3918     54.9220     19.8756
   757.5000      7.8578      2.5556      0.1708      5.7239     45.8017     20.2213
   757.6000      7.8578      2.5442      0.1258      6.4097     38.9303     20.0607
   757.7000      7.8578      2.5115      0.1139      8.3914     36.4851     19.1888
   757.8000      7.9187      2.4795      0.0540     10.3344     38.3578     18.1543
   757.9000      7.9187      2.4606      0.0710     11.4808     43.8563     17.5165
   758.0000      7.9055      2.4521      0.0274     11.9931     49.8605     17.2227
   758.1000      7.9055      2.4396      0.0658     12.7544     52.1236     17.0326
   758.2000      7.9055      2.4171     -0.0241     14.1123     51.0915     16.8754
   758.3000      7.8683      2.4087     -0.0145     14.6237     50.5674     16.8182
   758.4000      7.8683      2.4236      0.0635     13.7241     51.5835     16.8867
   758.5000      7.8865      2.4458      0.0267     12.3738     51.7693     16.8412
   758.6000      7.8865      2.4613      0.0956     11.4352     49.3062     16.9685
   758.7000      7.8865      2.4580      0.0745     11.6384     46.5807     17.6399
   758.8000      7.8987      2.4404      0.0463     12.7044     46.1010     18.1681
   758.9000      7.8987      2.4169      0.0894     14.1258     46.9329     17.8838
   759.0000      7.8994      2.3960     -0.0227     15.3920     47.4061     17.3346
   759.1000      7.8994      2.3940      0.0277     15.5159     47.4552     17.2678
   759.2000      7.8994      2.3982      0.0305     15.2595     48.9277     17.5670
   759.3000      7.9025      2.3815      0.0646     16.2742     53.2275     17.6915
   759.4000      7.9025      2.3533     -0.0559     17.9838     58.1471     17.2300
   759.5000      7.8841      2.3493     -0.0208     18.2217     59.7403     16.3274
   759.6000      7.8841      2.3710      0.0469     16.9066     57.1857     15.8320
   759.7000      7.8841      2.3843      0.0439     16.1029     54.4554     16.1763
   759.8000      7.9133      2.3800      0.0029     16.3648     56.0095     17.0681
   759.9000      7.9133      2.3841     -0.0033     16.1125     59.3672     18.0464
   760.0000      7.8834      2.4049      0.0700     14.8570     59.0241     18.7271
   760.1000      7.8834      2.4205      0.0991     13.9090     55.7786     19.1086
   760.2000      7.8834      2.4170      0.1248     14.1224     52.9008     19.5632
   760.3000      7.8871      2.4024      0.1025     15.0051     50.2052     20.2040
   760.4000      7.8871      2.3931      0.1061     15.5696     47.5358     20.5540
   760.5000      7.8339      2.4011      0.0770     15.0820     45.8391     20.1591
   760.6000      7.8339      2.4305      0.1229     13.3046     44.9461     19.5554
   760.7000      7.8339      2.4701      0.1428     10.9043     46.6982     19.3244
   760.8000      7.7894      2.4989      0.1704      9.1550     53.3528     19.1969
   760.9000      7.7894      2.5074      0.1585      8.6442     62.1511     19.1324
   761.0000      7.8082      2.5109      0.1139      8.4299     69.1741     19.3660
   761.1000      7.8082      2.5256      0.1839      7.5367     74.8702     19.8846
   761.2000      7.8082      2.5434      0.1023      6.4628     77.3800     20.6252
   761.3000      7.8307      2.5440      0.1601      6.4231     74.1884     21.0612
   761.4000      7.8307      2.5174      0.0754      8.0341     69.8938     20.4145
   761.5000      7.8492      2.4828     -0.0003     10.1326     66.6962     18.8935
   761.6000      7.8492      2.4645      0.0438     11.2444     62.2167     17.3994
   761.7000      7.8492      2.4609      0.0622     11.4596     60.5890     16.9193
   761.8000      7.8576      2.4626      0.0525     11.3603     63.7773     17.7442
   761.9000      7.8576      2.4658      0.0402     11.1626     66.7661     18.5845
   762.0000      7.8661      2.4683      0.0333     11.0117     67.2735     18.1869
   762.1000      7.8661      2.4696      0.0657     10.9325     66.0623     17.0871
   762.2000      7.8661      2.4713      0.0532     10.8323     62.5023     16.6062
   762.3000      7.8322      2.4746      0.0646     10.6291     58.3141     17.0910
   762.4000      7.8322      2.4795      0.0676     10.3350     57.1685     17.7129
   762.5000      7.8309      2.4831      0.0333     10.1140     58.8525     17.9845
   762.6000      7.8309      2.4779      0.1091     10.4290     61.0320     18.2933
   762.7000      7.8309      2.4595      0.0276     11.5460     62.9113     18.7084
   762.8000      7.8341      2.4408     -0.0296     12.6773     64.8476     18.7292
   762.9000      7.8341      2.4323      0.0211     13.1921     65.3913     18.1699
   763.0000      7.8627      2.4287      0.0407     13.4143     65.1668     17.7160
   763.1000      7.8627      2.4275      0.0328     13.4860     66.7052     17.8079
   763.2000      7.8627      2.4305      0.0064     13.3019     68.4111     18.1115
   763.3000      7.8804      2.4355      0.0516     12.9972     69.3392     18.3530
   763.4000      7.8804      2.4452      0.0089     12.4137     70.6903     18.7980
   763.5000      7.8736      2.4644      0.0062     11.2472     70.8904     19.3437
   763.6000      7.8736      2.4750      0.0851     10.6031     68.7759     19.7386
   763.7000      7.8736      2.4589      0.0232     11.5840     66.8668     20.1944
   763.8000      7.8634      2.4356     -0.0189     12.9935     67.1124     20.8351
   763.9000      7.8634      2.4220      0.0596     13.8196     68.9459     21.2865
