~Version Information
VERS.                      2.0: CWLS Log ASCII Standard - VERSION 2.0
WRAP.                       NO: One line per depth step
~Well Information Block
STRT.FT               840.0000: 
STOP.FT              2448.5000: 
STEP.FT                 0.2500: 
NULL.                -999.2500: 
COMP.          Petrogulf Corporation: COMPANY
WELL.             Leier 17-42V: WELL
FLD.           Purgatorie River: FIELD
LOC.           2309' FNL & 1062' FEL SENE 17 33S 67W: LOCATION
PROV.                 Colorado: PROVINCE
CNTY.               Las Animas: COUNTRY
SRVC.                Patterson: SERVICE COMPANY
DATE.          Thu Sep 22 09:40:29 2005: LOG DATE
UWI.                 071 08409: UNIQUE WELL ID
~Curve Information Block
DEPT.FT            0 000 00 00: Depth
SP.mV                         : DIL Spontaneous Potential
RILD.Ohm-m                    : DIL Deep Resistivity
RILM.Ohm-m                    : DIL Medium Resistivity
RLL3.Ohm-m                    : DIL Shallow Resistivity
GR.GAPI                       : Gamma Ray
~Parameter Information Block
~A  Depth        SP         RILD        RILM        RLL3         GR     
# ...
  1036.0000   2000.0000     12.8423     11.9778   2000.0000    133.7914
  1036.2500   2000.0000     13.7399     12.4166   2000.0000    143.9942
  1036.5000   2000.0000     14.8564     12.5017   2000.0000    134.4927
  1036.7500   2000.0000     13.9841     12.7726   2000.0000    109.7249
  1037.0000   2000.0000     13.7270     13.1254   2000.0000    125.2317
  1037.2500   2000.0000     12.7061     13.5260   2000.0000    128.6391
  1037.5000   2000.0000     12.8461     13.6878   2000.0000    119.5108
  1037.7500   2000.0000     13.0905     13.9035   2000.0000    111.7547
  1038.0000   2000.0000     13.1907     13.7944   2000.0000    139.0602
  1038.2500   2000.0000     13.7082     13.7998   2000.0000    142.3493
  1038.5000   2000.0000     13.9281     13.8436   2000.0000    109.2650
  1038.7500   2000.0000     14.0547     13.9046   2000.0000    119.4435
  1039.0000   2000.0000     14.1865     14.0983   2000.0000    119.8672
  1039.2500   2000.0000     14.2763     14.2909   2000.0000    126.7791
  1039.5000   2000.0000     14.3155     14.4645   2000.0000    132.5194
  1039.7500   2000.0000     14.2570     15.1565   2000.0000    127.1020
  1040.0000   2000.0000     14.0670     17.3328   2000.0000    118.6893
  1040.2500   2000.0000     13.9267     18.3647   2000.0000    130.0840
  1040.5000   2000.0000     13.7752     17.0536   2000.0000    122.1912
  1040.7500   2000.0000     13.6448     16.0663   2000.0000    112.1757
  1041.0000   2000.0000     13.4479     14.4250   2000.0000    137.5685
  1041.2500   2000.0000     13.4242     13.6024   2000.0000    139.9886
  1041.5000   2000.0000     13.3000     13.6590   2000.0000    126.8310
  1041.7500   2000.0000     13.2612     13.5033   2000.0000    129.9746
  1042.0000   2000.0000     13.1799     13.5969   2000.0000    135.4670
  1042.2500   2000.0000     13.1121     13.4536   2000.0000    117.9425
  1042.5000   2000.0000     12.9168     13.3826   2000.0000    123.1461
  1042.7500   2000.0000     12.7905     13.0067   2000.0000    118.7925
  1043.0000   2000.0000     12.5326     12.7664   2000.0000    123.9344
  1043.2500   2000.0000     12.2507     12.6844   2000.0000    126.2159
  1043.5000   2000.0000     12.1874     12.5055   2000.0000    132.8483
  1043.7500   2000.0000     12.1658     12.4569   2000.0000    134.2970
  1044.0000   2000.0000     12.0710     12.2836   2000.0000    142.7657
  1044.2500   2000.0000     11.8393     12.2045   2000.0000    139.9798
  1044.5000   2000.0000     11.7877     11.9652   2000.0000    133.3879
  1044.7500   2000.0000     11.7862     11.7629   2000.0000    146.6562
  1045.0000   2000.0000     11.6253     11.5836   2000.0000    154.7574
  1045.2500   2000.0000     11.6672     11.5066   2000.0000    142.1225
  1045.5000   2000.0000     11.5181     11.1916   2000.0000    128.0733
  1045.7500   2000.0000     11.6329     11.0887   2000.0000    123.0392
  1046.0000   2000.0000     11.8212     11.1681   2000.0000    155.1186
  1046.2500   2000.0000     12.0233     11.1211   2000.0000    155.4191
  1046.5000   2000.0000     12.0559     11.2784   2000.0000    154.3669
  1046.7500   2000.0000     12.0532     11.5302   2000.0000    143.1189
  1047.0000   2000.0000     12.3170     11.8888   2000.0000    164.2766
  1047.2500   2000.0000     12.5587     12.1239   2000.0000    151.4476
  1047.5000   2000.0000     12.8849     12.4453   2000.0000    137.7580
  1047.7500   2000.0000     13.4188     12.8240   2000.0000    147.6584
  1048.0000   2000.0000     13.6885     12.8493   2000.0000    125.4487
  1048.2500   2000.0000     14.0083     13.2321   2000.0000    111.6731
  1048.5000   2000.0000     14.3136     13.9502   2000.0000    112.9147
  1048.7500   2000.0000     15.0074     14.6300   2000.0000    128.1778
  1049.0000   2000.0000     15.6800     15.6114   2000.0000    143.1570
  1049.2500   2000.0000     16.1965     16.7028   2000.0000    111.7295
  1049.5000   2000.0000     16.4615     17.6990   2000.0000    109.1904
  1049.7500   2000.0000     17.1432     18.3100   2000.0000    108.9768
  1050.0000   2000.0000     18.3430     18.9843   2000.0000    124.2950
  1050.2500   2000.0000     18.4861     19.4217   2000.0000    117.5669
  1050.5000   2000.0000     18.9700     19.6266   2000.0000    109.8441
  1050.7500   2000.0000     20.7734     19.8931   2000.0000    111.6140
  1051.0000   2000.0000     20.8604     20.3240   2000.0000    108.0654
  1051.2500   2000.0000     21.6179     21.3677   2000.0000    116.5407
  1051.5000   2000.0000     22.6527     23.0598   2000.0000    103.9828
  1051.7500   2000.0000     23.0019     24.3446   2000.0000    118.8094
  1052.0000   2000.0000     23.3857     25.6650   2000.0000    113.7920
  1052.2500   2000.0000     24.1623     27.4186   2000.0000    104.3210
  1052.5000   2000.0000     24.3576     28.1452   2000.0000     93.4150
  1052.7500   2000.0000     24.2736     28.8003   2000.0000     84.7766
  1053.0000   2000.0000     24.1065     29.5927   2000.0000     81.4785
  1053.2500   2000.0000     23.6152     29.2896   2000.0000    102.6565
  1053.5000   2000.0000     23.5988     29.7529   2000.0000     86.4642
  1053.7500   2000.0000     23.5285     31.7904   2000.0000     84.0791
  1054.0000   2000.0000     23.5078     28.5588   2000.0000     88.5570
  1054.2500   2000.0000     23.3423     27.5901   2000.0000     81.4790
  1054.5000   2000.0000     23.4574     27.6732   2000.0000    107.7287
  1054.7500   2000.0000     23.3960     23.9369   2000.0000    107.8473
  1055.0000   2000.0000     22.8839     22.4968   2000.0000    129.9527
  1055.2500   2000.0000     22.4760     22.6270   2000.0000    113.8087
  1055.5000   2000.0000     21.8716     22.4502   2000.0000    104.4054
  1055.7500   2000.0000     21.0268     22.0691   2000.0000    108.4248
  1056.0000   2000.0000     20.7558     21.3959   2000.0000    122.1808
  1056.2500   2000.0000     20.0192     21.0025   2000.0000    120.0323
  1056.5000   2000.0000     19.8339     20.3884   2000.0000    113.2976
  1056.7500   2000.0000     18.8829     19.8645   2000.0000    130.4491
  1057.0000   2000.0000     18.3229     19.0861   2000.0000    129.5175
  1057.2500   2000.0000     18.0472     18.5948   2000.0000    129.0470
  1057.5000   2000.0000     17.7096     17.9013   2000.0000    127.1670
  1057.7500   2000.0000     17.2457     17.4800   2000.0000    111.3978
  1058.0000   2000.0000     16.9994     16.9640   2000.0000    109.8112
  1058.2500   2000.0000     16.8343     16.1856   2000.0000     99.9443
  1058.5000   2000.0000     16.7048     15.5747   2000.0000    136.4046
  1058.7500   2000.0000     16.2660     15.0887   2000.0000    133.4685
  1059.0000   2000.0000     16.0882     14.9968   2000.0000    119.8697
  1059.2500   2000.0000     15.8241     15.0979   2000.0000    138.9364
  1059.5000   2000.0000     15.5487     14.9464   2000.0000    129.4263
  1059.7500   2000.0000     15.2397     14.6084   2000.0000    125.2028
  1060.0000   2000.0000     14.8748     14.4579   2000.0000    117.0563
  1060.2500   2000.0000     14.5138     14.2959   2000.0000    129.8695
  1060.5000   2000.0000     13.8677     14.2947   2000.0000    131.9608
  1060.7500   2000.0000     13.4165     14.4702   2000.0000    130.0563
  1061.0000   2000.0000     12.7627     14.4131   2000.0000    132.2708
  1061.2500   2000.0000     12.3941     14.3471   2000.0000    128.6834
  1061.5000   2000.0000     11.7443     13.8530   2000.0000    131.3415
  1061.7500   2000.0000     11.3324     12.8565   2000.0000    108.0537
  1062.0000   2000.0000     11.0387     11.7372   2000.0000     97.5623
  1062.2500   2000.0000     10.6649     10.9729   2000.0000     93.9274
  1062.5000   2000.0000     10.5654     10.3583   2000.0000    117.1705
  1062.7500   2000.0000     10.4216      9.8907   2000.0000    120.3682
  1063.0000   2000.0000     10.3167      9.4180   2000.0000    130.8724
  1063.2500   2000.0000     10.0721      9.1742   2000.0000    139.8609
  1063.5000   2000.0000      9.7712      9.0537   2000.0000    135.8288
  1063.7500   2000.0000      9.6066      8.9207   2000.0000    120.5717
