~Version Information
VERS.                      2.0: CWLS Log ASCII Standard - VERSION 2.0
WRAP.                       NO: One line per depth step
~Well Information Block
STRT.FT                -9.5000: 
STOP.FT              2893.0000: 
STEP.FT                 0.2500: 
NULL.                -999.2500: 
COMP.          Pioneer Natural Resources: COMPANY
WELL.          Old Yeller 31-32: WELL
FLD.           Purgatoire River: FIELD
LOC.           1832' FEL & 793' FNL----: LOCATION
STAT.                 Colorado: State
CNTY.               Las Animas: COUNTY
CTRY. USA : Country
SECT. 32 : Section
TOWN. 32S : Township
RANG. 67W : Range
SRVC.                         : SERVICE COMPANY
DATE.          Fri Sep 02 16:45:38 2005: LOG DATE
API. 05-071-08356                         : UNIQUE WELL ID
~Curve Information Block
DEPT.FT            0 000 00 00: Depth
CCL.                          : Casing Collar Locator
TT3.usec                      : CBL 3' Travel Time
AMP5.mV                       : CBL 5' Amplitude
GR.GAPI                       : Gamma Ray
~Parameter Information Block
~A  Depth       CCL         TT3         AMP5         GR     
# ...
  1531.5000      0.0000    560.6085      0.5611    131.9113
  1531.7500      0.0000    530.0806      1.0834    138.8246
  1532.0000      0.0000    504.8611      1.6927    141.6674
  1532.2500      0.0000    493.6093      1.3446    142.1243
  1532.5000      0.0000    501.2256      1.2575    141.0200
  1532.7500      0.0000    522.5770      1.5186    138.3705
  1533.0000      0.0000    548.0477      0.8223    134.6306
  1533.2500      2.0000    571.7852      0.9093    131.4385
  1533.5000     -2.0000    590.7839      0.8223    130.9916
  1533.7500      2.0000    600.8044      0.8223    134.4219
  1534.0000      0.0000    597.8324      1.0834    140.6339
  1534.2500      0.0000    581.3206      0.7352    146.8972
  1534.5000      0.0000    554.3669      1.3446    150.7189
  1534.7500      0.0000    523.5045      1.5186    151.1225
  1535.0000      0.0000    499.2591      0.9964    148.3253
  1535.2500      0.0000    493.9658      1.2575    142.8894
  1535.5000      0.0000    515.5575      0.6482    135.8780
  1535.7500      0.0000    560.9801      0.8223    129.4162
  1536.0000      0.0000    614.9713      4.1300    125.7950
  1536.2500      0.0000    658.3875      0.7352    125.4635
  1536.5000      0.0000    681.0860      1.3446    126.4689
  1536.7500      0.0000    686.9814      1.5186    126.2843
  1537.0000      0.0000    686.8179      1.6057    124.0825
  1537.2500      0.0000    688.0315      2.1280    121.3422
  1537.5000      0.0000    690.5393      2.0409    120.4316
  1537.7500      0.0000    689.0443      1.7798    122.4606
  1538.0000      0.0000    677.9915      2.3021    126.4487
  1538.2500      0.0000    655.5623      1.7798    130.5147
  1538.5000      0.0000    624.5341      1.7798    133.4905
  1538.7500      0.0000    591.2758      2.2150    135.3093
  1539.0000      0.0000    565.2064      1.6057    136.4513
  1539.2500      0.0000    556.4950      2.0409    137.3075
  1539.5000      0.0000    569.5714      1.4316    137.7138
  1539.7500      0.0000    598.1664      1.4316    136.9443
  1540.0000      0.0000    629.3354      1.1705    134.3917
  1540.2500      0.0000    652.9929      1.5186    130.1302
  1540.5000      0.0000    666.9234      1.5186    124.7056
  1540.7500      0.0000    674.2816      1.1705    118.8995
  1541.0000      0.0000    678.6605      1.4316    114.1127
  1541.2500      0.0000    681.5428      0.9964    112.3958
  1541.5000      0.0000    682.5655      0.9964    115.2209
  1541.7500      0.0000    680.9285      1.0834    122.0926
  1542.0000      0.0000    675.9164      0.9093    130.7073
  1542.2500      0.0000    666.1703      0.9964    138.4997
  1542.5000      0.0000    649.4430      0.8223    143.9220
  1542.7500      0.0000    624.4431      0.9093    146.6460
  1543.0000      0.0000    593.2903      1.1705    147.1358
  1543.2500      0.0000    561.3899      0.7352    146.0511
  1543.5000      0.0000    534.1703      1.5186    143.8265
  1543.7500      0.0000    513.9962      0.9093    140.8433
  1544.0000      0.0000    500.2043      1.6927    137.8945
  1544.2500      0.0000    491.4151      1.5186    135.9783
  1544.5000      0.0000    487.4865      1.1705    135.4937
  1544.7500      0.0000    490.3376      1.1705    135.8677
  1545.0000      0.0000    503.7559      1.2575    135.9176
  1545.2500      0.0000    531.2594      1.4316    134.4999
  1545.5000      0.0000    572.1267      1.4316    131.2520
  1545.7500      0.0000    619.3322      1.4316    127.0618
  1546.0000      0.0000    662.6740      1.2575    123.5390
  1546.2500      0.0000    694.4981      1.3446    121.7202
  1546.5000      0.0000    712.7349      1.6927    121.3756
  1546.7500      0.0000    719.9507      1.0834    121.5294
  1547.0000      0.0000    720.4833      1.6057    121.3150
  1547.2500      0.0000    717.9365      1.3446    120.2618
  1547.5000      0.0000    714.7397      1.6057    118.0818
  1547.7500      0.0000    713.1797      0.9964    114.5977
  1548.0000      0.0000    715.0500      0.9964    110.1287
  1548.2500      0.0000    719.5347      1.1705    105.7919
  1548.5000      0.0000    722.6289      1.1705    103.0577
  1548.7500      0.0000    719.7554      1.4316    102.7941
  1549.0000      0.0000    709.0129      1.6057    104.6700
  1549.2500      0.0000    692.3187      1.5186    107.3567
  1549.5000      0.0000    674.3099      1.0834    109.2136
  1549.7500      0.0000    660.3279      1.3446    108.8812
  1550.0000      0.0000    654.4420      1.0834    105.6497
  1550.2500      0.0000    657.8190      1.2575     99.8209
  1550.5000      0.0000    667.8920      0.9964     92.7817
  1550.7500      0.0000    679.2296      1.2575     86.3157
  1551.0000      0.0000    686.4056      1.5186     81.5837
  1551.2500      0.0000    687.2422      1.0834     78.7025
  1551.5000      0.0000    683.6830      1.3446     77.0725
  1551.7500      0.0000    679.5643      1.4316     75.9535
  1552.0000      0.0000    677.8145      1.2575     74.9429
  1552.2500      0.0000    679.1697      1.2575     74.2042
  1552.5000      0.0000    681.9689      1.4316     74.2023
  1552.7500      0.0000    682.2710      1.4316     75.0093
  1553.0000      0.0000    675.9628      1.1705     75.9107
  1553.2500      0.0000    663.6633      1.2575     75.9845
  1553.5000      0.0000    653.7604      1.1705     75.0820
  1553.7500      0.0000    657.2757      1.0834     73.9758
  1554.0000      0.0000    677.5154      1.1705     73.4897
  1554.2500      0.0000    706.3851      1.4316     73.6585
  1554.5000      0.0000    732.0531      1.5186     73.7529
  1554.7500      0.0000    748.2179      1.1705     73.0053
  1555.0000      0.0000    755.3741      1.0834     71.3082
  1555.2500      0.0000    756.1372      0.8223     69.3345
  1555.5000      0.0000    751.6156      1.3446     68.0237
  1555.7500      0.0000    741.6163      1.6057     67.9026
  1556.0000      0.0000    727.1142      1.1705     68.8472
  1556.2500      0.0000    711.9525      1.0834     70.3246
  1556.5000      0.0000    701.6207      1.2575     71.6650
  1556.7500      0.0000    699.5104      1.6927     72.2372
  1557.0000      0.0000    703.9049      0.9964     71.7040
  1557.2500      0.0000    708.7755      1.3446     70.2780
  1557.5000      0.0000    708.3647      1.3446     68.7079
  1557.7500      0.0000    701.5786      1.3446     67.8719
  1558.0000      0.0000    691.9370      1.2575     68.1372
  1558.2500      0.0000    683.7725      1.1705     69.0598
  1558.5000      0.0000    679.2316      0.9964     69.8989
  1558.7500      0.0000    678.4245      1.0834     70.3922
  1559.0000      0.0000    680.8242      1.3446     70.7480
  1559.2500      0.0000    685.5172      0.9093     70.9579
  1559.5000      0.0000    690.5725      0.9964     70.6570
  1559.7500      0.0000    693.5451      0.5611     69.7942
  1560.0000      0.0000    693.4099      0.9964     68.9342
  1560.2500      0.0000    691.4111      1.5186     68.6971
  1560.5000      0.0000    689.3972      1.0834     69.3291
  1560.7500      0.0000    688.0976      1.1705     71.0014
  1561.0000      0.0000    687.7970      1.0834     73.9931
  1561.2500      0.0000    689.7873      0.9964     78.0299
  1561.5000      0.0000    695.7150      1.1705     81.6332
  1561.7500      0.0000    705.3832      0.9964     82.8515
  1562.0000      0.0000    716.2235      1.2575     81.0137
  1562.2500      0.0000    725.5919      0.9964     77.4888
  1562.5000      0.0000    732.8898      0.9964     74.5074
  1562.7500      0.0000    738.5486      1.1705     73.4222
  1563.0000      0.0000    741.5735      1.3446     74.1462
  1563.2500      0.0000    739.5356      1.4316     75.7925
  1563.5000      0.0000    731.3053      1.0834     77.4945
  1563.7500      0.0000    719.4260      0.9093     78.8198
  1564.0000      0.0000    709.5574      1.0834     79.8459
  1564.2500      0.0000    707.1005      1.3446     80.9851
  1564.5000      0.0000    713.5289      1.2575     82.6311
  1564.7500      0.0000    725.5249      0.8223     84.8449
