~Version Information
VERS.                      2.0: CWLS Log ASCII Standard - VERSION 2.0
WRAP.                       NO: One line per depth step
~Well Information Block
STRT.FT                -7.2500: 
STOP.FT               868.2500: 
STEP.FT                 0.2500: 
NULL.                -999.2500: 
COMP.          Pioneer Natural Resources: COMPANY
WELL.              Venom 32-22: WELL
FLD.           Purgatorie River: FIELD
LOC.           2307' FNL & 2024' FWL--: LOCATION
PROV.                       CO: PROVINCE
CNTY.               Las Animas: COUNTRY
SRVC.          Patterson Wireline: SERVICE COMPANY
DATE.          Mon May 16 15:26:38 2005: LOG DATE
UWI.           05 071 08361 00: UNIQUE WELL ID
~Curve Information Block
DEPT.FT            0 000 00 00: Depth
CCL.                          : Casing Collar Locator
TT3.usec                      : CBL 3' Travel Time
AMP3.mV                       : CBL 3' Amplitude
GR.GAPI                       : Gamma Ray
~Parameter Information Block
~A  Depth       CCL         TT3         AMP3         GR     
# ...
   595.7500      0.0000    852.2113      4.6382     66.5383
   596.0000      0.0000    852.4448      4.6681     67.3754
   596.2500      0.0000    852.5485      4.7021     70.8724
   596.5000      0.0000    852.5082      4.7214     75.8447
   596.7500      0.0000    852.1639      4.7386     80.2514
   597.0000      0.0000    851.1202      4.7666     82.6550
   597.2500      0.0000    848.5687      4.8056     83.1283
   597.5000      0.0000    843.5590      4.8640     82.7236
   597.7500      0.0000    836.2095      4.9588     82.3098
   598.0000      0.0000    828.9051      5.0829     82.1279
   598.2500      0.0000    825.1736      5.1948     82.2051
   598.5000      0.0000    826.1426      5.2545     82.7105
   598.7500      0.0000    828.3417      5.2540     83.7612
   599.0000      0.0000    825.6548      5.2074     85.1839
   599.2500      0.0000    813.3271      5.1276     86.8213
   599.5000      0.0000    790.7078      5.0220     88.9089
   599.7500      0.0000    761.7051      4.9049     91.6360
   600.0000      0.0000    732.7308      4.8055     94.2112
   600.2500      0.0000    708.8242      4.7558     94.8816
   600.5000      0.0000    691.0685      4.7622     92.3343
   600.7500      0.0000    677.7277      4.7974     87.1452
   601.0000      0.0000    667.2480      4.8308     81.7624
   601.2500      0.0000    659.6904      4.8651     78.9184
   601.5000      0.0000    656.1161      4.9296     79.7451
   601.7500      0.0000    657.9774      5.0370     83.0815
   602.0000      0.0000    667.1634      5.1580     86.4884
   602.2500      0.0000    685.2598      5.2392     88.0214
   602.5000      0.0000    711.6915      5.2468     87.3627
   602.7500      0.0000    742.9461      5.1942     85.8487
   603.0000      0.0000    774.1435      5.1240     85.5563
   603.2500      0.0000    801.0053      5.0674     87.7371
   603.5000      0.0000    820.6731      5.0319     91.5227
   603.7500      0.0000    832.1929      5.0264     94.3345
   604.0000      0.0000    836.7255      5.0714     94.1255
   604.2500      0.0000    836.6874      5.1709     91.4318
   604.5000      0.0000    834.6931      5.2848     88.8913
   604.7500      0.0000    833.2274      5.3420     88.5510
   605.0000      0.0000    834.0209      5.2870     89.9972
   605.2500      0.0000    836.8339      5.1210     91.2989
   605.5000      0.0000    839.2870      4.9005     91.3481
   605.7500      0.0000    838.8295      4.6831     90.7827
   606.0000      0.0000    835.5434      4.4739     90.7137
   606.2500      0.0000    833.5156      4.2398     91.1259
   606.5000      0.0000    838.7321      3.9743     90.9744
   606.7500      0.0000    853.9875      3.7207     89.5843
   607.0000      0.0000    875.3339      3.5286     87.2802
   607.2500      0.0000    894.4285      3.4188     84.6182
   607.5000      0.0000    904.9008      3.3919     81.6323
   607.7500      0.0000    906.4469      3.4327     78.0758
   608.0000      0.0000    903.4232      3.5057     74.0686
   608.2500     -2.0000    901.1276      3.5720     70.3442
   608.5000      2.0000    903.6956      3.6141     67.9640
   608.7500      0.0000    913.4398      3.6363     67.8994
   609.0000      0.0000    929.5031      3.6551     70.7558
   609.2500      0.0000    946.3559      3.6919     76.5016
   609.5000      0.0000    954.9186      3.7643     84.3128
   609.7500      0.0000    947.7343      3.8873     92.8921
   610.0000      0.0000    924.8688      4.0912    100.9916
   610.2500      0.0000    894.3760      4.4134    107.5210
   610.5000      0.0000    866.1946      4.8437    111.4773
   610.7500      0.0000    846.1439      5.2986    112.3966
   611.0000      0.0000    835.2928      5.6752    110.8834
   611.2500      0.0000    832.2415      5.9179    108.2785
   611.5000      0.0000    834.4289      6.0309    105.8181
   611.7500      0.0000    838.7647      6.0510    104.3029
   612.0000      0.0000    842.7599      6.0236    104.2491
   612.2500      0.0000    845.4103      5.9890    105.7806
   612.5000      0.0000    846.8555      5.9649    108.3890
   612.7500      0.0000    847.4952      5.9318    111.3259
   613.0000      0.0000    847.4059      5.8470    114.4332
   613.2500      0.0000    846.3568      5.6875    118.2307
   613.5000      0.0000    844.2267      5.4786    122.7919
   613.7500      0.0000    841.3141      5.2746    126.6851
   614.0000      0.0000    837.9330      5.1194    127.5998
   614.2500      0.0000    833.5352      5.0396    124.4455
   614.5000      0.0000    826.6759      5.0548    118.7658
   614.7500      0.0000    816.3428      5.1639    113.6565
   615.0000      0.0000    803.3999      5.3199    111.0334
   615.2500      0.0000    790.8644      5.4459    110.1372
   615.5000      0.0000    782.9126      5.4860    108.7873
   615.7500      0.0000    782.9739      5.4364    105.9002
   616.0000      0.0000    791.6989      5.3387    102.7083
   616.2500      0.0000    806.3459      5.2540    101.4944
   616.5000      0.0000    822.3607      5.2279    103.0895
   616.7500      0.0000    835.7425      5.2570    105.6917
   617.0000      0.0000    844.2808      5.2888    106.3842
   617.2500      0.0000    847.3089      5.2713    103.8382
   617.5000      0.0000    845.1218      5.2025     99.4753
   617.7500      0.0000    839.1905      5.1219     96.2084
   618.0000      0.0000    832.7606      5.0589     96.1782
   618.2500      0.0000    829.8858      5.0067     99.3785
   618.5000      0.0000    832.5765      4.9402    103.9946
   618.7500      0.0000    839.0829      4.8459    107.6914
   619.0000      0.0000    845.6207      4.7363    108.6683
   619.2500      0.0000    849.3723      4.6508    106.1680
   619.5000      0.0000    849.6657      4.6442    100.6858
   619.7500      0.0000    847.4371      4.7580     93.8367
   620.0000      0.0000    844.4860      4.9840     87.7995
   620.2500      0.0000    842.4603      5.2548     84.4724
   620.5000      0.0000    841.1085      5.4790     84.6032
   620.7500      0.0000    836.9518      5.5948     87.4288
   621.0000      0.0000    824.4069      5.5957     91.3183
   621.2500      0.0000    800.2554      5.5110     94.8986
   621.5000      0.0000    769.2309      5.3705     97.7385
   621.7500      0.0000    744.5852      5.1900    100.3098
   622.0000      0.0000    739.5770      4.9878    103.2631
   622.2500      0.0000    756.5565      4.8112    106.2415
   622.5000      0.0000    785.5811      4.7312    107.4269
   622.7500      0.0000    813.5663      4.7936    104.9132
   623.0000      0.0000    833.1574      4.9722     98.8037
   623.2500      0.0000    843.9733      5.1729     91.5970
   623.5000      0.0000    848.9254      5.2909     86.2262
   623.7500      0.0000    850.9113      5.2751     83.7457
   624.0000      0.0000    851.7020      5.1572     82.8964
   624.2500      0.0000    852.1388      5.0251     81.8442
   624.5000      0.0000    852.5737      4.9602     80.2399
   624.7500      0.0000    853.1042      4.9846     79.4635
   625.0000      0.0000    853.6641      5.0599     80.9918
   625.2500      0.0000    854.1357      5.1374     84.7084
   625.5000      0.0000    854.4636      5.2078     88.6355
   625.7500      0.0000    854.7054      5.2938     90.2831
   626.0000      0.0000    854.9651      5.3972     88.6690
   626.2500      0.0000    855.2720      5.4683     85.2189
   626.5000      0.0000    855.5204      5.4443     82.5832
   626.7500      0.0000    855.5338      5.3146     82.5415
   627.0000      0.0000    855.1691      5.1338     84.9566
   627.2500      0.0000    854.3229      4.9714     88.3716
   627.5000      0.0000    852.8076      4.8603     91.2140
   627.7500      0.0000    850.2410      4.7960     92.5734
   628.0000      0.0000    846.2011      4.7642     92.4063
   628.2500      0.0000    840.5099      4.7555     91.3928
   628.5000      0.0000    833.4400      4.7581     90.4561
   628.7500      0.0000    826.2220      4.7562     90.0735
   629.0000      0.0000    821.7714      4.7427     89.8929
