~Version Information
VERS.                      2.0: CWLS Log ASCII Standard - VERSION 2.0
WRAP.                       NO: One line per depth step
~Well Information Block
STRT.FT               494.2500: 
STOP.FT              1992.0000: 
STEP.FT                 0.2500: 
NULL.                -999.2500: 
COMP.          Petrogulf Corporation: COMPANY
WELL.               Furu 6-23R: WELL
FLD.           Purgatoire River: FIELD
LOC.           2211' FSL & 1780' FWL--: LOCATION
CNTY.               Las Animas: COUNTY
SRVC.                Patterson: SERVICE COMPANY
DATE.          Wed Jun 21 14:57:59 2006: LOG DATE
UWI.           05 071 08266 00: UNIQUE WELL ID
STAT.                 Colorado: STATE
~Curve Information Block
DEPT.FT            0 000 00 00: Depth
GR.GAPI                       : Gamma Ray
RILD.Ohm-m                    : DIL Deep Resistivity
RILM.Ohm-m                    : DIL Medium Resistivity
RLL3.Ohm-m                    : DIL Shallow Resistivity
SP.mV                         : DIL Spontaneous Potential
~Parameter Information Block
~A  Depth        GR         RILD        RILM        RLL3         SP     
# ...
   718.2500     70.2077     60.1862     79.5159   2000.0000   2020.0000
   718.5000     68.7674     60.9121     80.7230   2000.0000   2020.0000
   718.7500     68.3979     61.7379     82.0403   2000.0000   2020.0000
   719.0000     68.5533     62.7813     83.2582   2000.0000   2020.0000
   719.2500     68.9397     64.0972     84.1505   2000.0000   2020.0000
   719.5000     69.8531     65.6344     84.6456   2000.0000   2020.0000
   719.7500     70.6829     67.2460     84.8738   2000.0000   2020.0000
   720.0000     71.8381     68.7599     85.0725   2000.0000   2020.0000
   720.2500     72.1256     70.0703     85.4550   2000.0000   2020.0000
   720.5000     71.6061     71.1883     86.1294   2000.0000   2020.0000
   720.7500     70.9770     72.2257     87.0895   2000.0000   2020.0000
   721.0000     70.4064     73.3371     88.2467   2000.0000   2020.0000
   721.2500     70.4284     74.6516     89.4854   2000.0000   2020.0000
   721.5000     70.7094     76.2080     90.7158   2000.0000   2020.0000
   721.7500     70.7227     77.9092     91.9264   2000.0000   2020.0000
   722.0000     70.0184     79.5221     93.2274   2000.0000   2020.0000
   722.2500     68.9613     80.7434     94.8525   2000.0000   2020.0000
   722.5000     66.7318     81.3189     97.0687   2000.0000   2020.0000
   722.7500     65.1562     81.1522     99.9797   2000.0000   2020.0000
   723.0000     63.1795     80.3363    103.3060   2000.0000   2020.0000
   723.2500     62.1915     79.0917    106.3032   2000.0000   2020.0000
   723.5000     61.0520     77.6665    108.0235   2000.0000   2020.0000
   723.7500     60.4682     76.2601    107.9147   2000.0000   2020.0000
   724.0000     59.8849     74.9922    106.2520   2000.0000   2020.0000
   724.2500     59.6259     73.9111    103.9248   2000.0000   2020.0000
   724.5000     59.1193     73.0149    101.8251   2000.0000   2020.0000
   724.7500     58.5957     72.2782    100.4316   2000.0000   2020.0000
   725.0000     57.7823     71.6717     99.7700   2000.0000   2020.0000
   725.2500     57.5743     71.1729     99.5762   2000.0000   2020.0000
   725.5000     58.3962     70.7709     99.4951   2000.0000   2020.0000
   725.7500     59.8927     70.4655     99.2259   2000.0000   2020.0000
   726.0000     63.3011     70.2642     98.5922   2000.0000   2020.0000
   726.2500     65.8195     70.1713     97.5552   2000.0000   2020.0000
   726.5000     68.8084     70.1743     96.1848   2000.0000   2020.0000
   726.7500     69.8481     70.2390     94.6027   2000.0000   2020.0000
   727.0000     70.1848     70.3258     92.9156   2000.0000   2020.0000
   727.2500     70.1385     70.4207     91.1880   2000.0000   2020.0000
   727.5000     70.4411     70.5582     89.4732   2000.0000   2020.0000
   727.7500     70.8292     70.8065     87.8601   2000.0000   2020.0000
   728.0000     70.8218     71.2213     86.4712   2000.0000   2020.0000
   728.2500     69.9844     71.7952     85.3951   2000.0000   2020.0000
   728.5000     67.5976     72.4409     84.6240   2000.0000   2020.0000
   728.7500     65.7565     73.0229     84.0597   2000.0000   2020.0000
   729.0000     63.5971     73.4287     83.5877   2000.0000   2020.0000
   729.2500     62.9091     73.6264     83.1586   2000.0000   2020.0000
   729.5000     62.8955     73.6547     82.8178   2000.0000   2020.0000
   729.7500     63.0900     73.5479     82.6683   2000.0000   2020.0000
   730.0000     62.8131     73.2643     82.7888   2000.0000   2020.0000
   730.2500     62.1805     72.6842     83.1436   2000.0000   2020.0000
   730.5000     61.2813     71.6815     83.5307   2000.0000   2020.0000
   730.7500     61.1311     70.1945     83.6081   2000.0000   2020.0000
   731.0000     61.4601     68.2299     83.0207   2000.0000   2020.0000
   731.2500     61.6365     65.8139     81.5563   2000.0000   2020.0000
   731.5000     61.5253     62.9706     79.1835   2000.0000   2020.0000
   731.7500     61.5127     59.7510     75.9268   2000.0000   2020.0000
   732.0000     62.5777     56.2721     71.7473   2000.0000   2020.0000
   732.2500     64.6029     52.7092     66.6184   2000.0000   2020.0000
   732.5000     70.5736     49.2434     60.7286   2000.0000   2020.0000
   732.7500     76.8718     46.0071     54.5448   2000.0000   2020.0000
   733.0000     89.3186     43.0614     48.6255   2000.0000   2020.0000
   733.2500     98.5363     40.4080     43.3800   2000.0000   2020.0000
   733.5000    111.5214     38.0190     38.9770   2000.0000   2020.0000
   733.7500    118.8763     35.8634     35.3945   2000.0000   2020.0000
   734.0000    127.9971     33.9180     32.5122   2000.0000   2020.0000
   734.2500    133.1191     32.1667     30.1851   2000.0000   2020.0000
   734.5000    139.5564     30.5987     28.2852   2000.0000   2020.0000
   734.7500    142.9024     29.2109     26.7164   2000.0000   2020.0000
   735.0000    146.3885     28.0084     25.4136   2000.0000   2020.0000
   735.2500    147.9024     26.9965     24.3358   2000.0000   2020.0000
   735.5000    149.7741     26.1676     23.4596   2000.0000   2020.0000
   735.7500    151.1729     25.4936     22.7750   2000.0000   2020.0000
   736.0000    153.3855     24.9313     22.2794   2000.0000   2020.0000
   736.2500    154.3886     24.4390     21.9698   2000.0000   2020.0000
   736.5000    154.2907     23.9923     21.8347   2000.0000   2020.0000
   736.7500    153.1393     23.5860     21.8456   2000.0000   2020.0000
   737.0000    150.6377     23.2245     21.9514   2000.0000   2020.0000
   737.2500    149.0707     22.9100     22.0809   2000.0000   2020.0000
   737.5000    147.3131     22.6370     22.1569   2000.0000   2020.0000
   737.7500    146.2976     22.3949     22.1186   2000.0000   2020.0000
   738.0000    144.2781     22.1736     21.9425   2000.0000   2020.0000
   738.2500    142.3673     21.9671     21.6480   2000.0000   2020.0000
   738.5000    138.6349     21.7736     21.2849   2000.0000   2020.0000
   738.7500    135.6106     21.5959     20.9096   2000.0000   2020.0000
   739.0000    130.5525     21.4397     20.5640   2000.0000   2020.0000
   739.2500    127.2566     21.3124     20.2665   2000.0000   2020.0000
   739.5000    123.2736     21.2177     20.0149   2000.0000   2020.0000
   739.7500    121.5285     21.1525     19.7981   2000.0000   2020.0000
   740.0000    120.2675     21.1070     19.6100   2000.0000   2020.0000
   740.2500    120.1533     21.0691     19.4575   2000.0000   2020.0000
   740.5000    120.7438     21.0287     19.3601   2000.0000   2020.0000
   740.7500    121.6301     20.9778     19.3391   2000.0000   2020.0000
   741.0000    123.8790     20.9099     19.4052   2000.0000   2020.0000
   741.2500    125.8333     20.8246     19.5473   2000.0000   2020.0000
   741.5000    128.5154     20.7348     19.7318   2000.0000   2020.0000
   741.7500    129.7135     20.6660     19.9121   2000.0000   2020.0000
   742.0000    130.8522     20.6482     20.0514   2000.0000   2020.0000
   742.2500    131.5779     20.7028     20.1438   2000.0000   2020.0000
   742.5000    132.8411     20.8342     20.2210   2000.0000   2020.0000
   742.7500    133.6440     21.0276     20.3370   2000.0000   2020.0000
   743.0000    134.6296     21.2509     20.5431   2000.0000   2020.0000
   743.2500    135.2916     21.4610     20.8694   2000.0000   2020.0000
   743.5000    136.8193     21.6164     21.3160   2000.0000   2020.0000
   743.7500    138.4966     21.6901     21.8529   2000.0000   2020.0000
   744.0000    142.1904     21.6751     22.4204   2000.0000   2020.0000
   744.2500    145.2749     21.5787     22.9307   2000.0000   2020.0000
   744.5000    150.2810     21.4134     23.2769   2000.0000   2020.0000
   744.7500    153.5399     21.1907     23.3605   2000.0000   2020.0000
   745.0000    157.7163     20.9229     23.1337   2000.0000   2020.0000
   745.2500    159.6154     20.6261     22.6274   2000.0000   2020.0000
   745.5000    160.5794     20.3197     21.9358   2000.0000   2020.0000
   745.7500    159.9477     20.0213     21.1675   2000.0000   2020.0000
   746.0000    157.6244     19.7422     20.4044   2000.0000   2020.0000
