~Version Information
VERS.                      2.0: CWLS Log ASCII Standard - VERSION 2.0
WRAP.                       NO: One line per depth step
~Well Information Block
STRT.FT               806.0000: 
STOP.FT              1812.2000: 
STEP.FT                 0.1000: 
NULL.                -999.2500: 
COMP.          Pioneer Natural Resources: COMPANY
WELL.            Hill 33-22 Tr: WELL
FLD.           Purgatoire River: FIELD
LOC.           1573' FSL & 1585' FEL: LOCATION
PROV.                 Colorado: PROVINCE
CNTY.               Las Animas: COUNTRY
SRVC.                Patterson: SERVICE COMPANY
DATE.          Thu Apr 14 12:25:33 2005: LOG DATE
UWI.           05 071 08316 00: UNIQUE WELL ID
~Curve Information Block
DEPT.FT            0 000 00 00: Depth
DCAL.in                       : CDL Caliper
RHOB.g/cc                     : CDL Bulk Density
RHOC.g/cc                     : CDL Density Correction
DPOR.pu                       : CDL Density Porosity
GR.GAPI                       : Gamma Ray
NPOR.pu                       : Neutron Porosity
~Parameter Information Block
~A  Depth       DCAL        RHOB        RHOC        DPOR         GR         NPOR    
# ...
  1007.6000      8.0355      2.5012      0.0487      9.0200    149.0932     25.1937
  1007.7000      8.0355      2.5259      0.0987      7.5185    143.1266     25.2338
  1007.8000      8.0432      2.5158      0.0521      8.1346    135.4832     25.4738
  1007.9000      8.0432      2.4980      0.0018      9.2122    130.5715     25.6583
  1008.0000      8.0322      2.5093      0.0215      8.5290    130.7486     25.3970
  1008.1000      8.0322      2.5360      0.0858      6.9080    132.6728     24.7419
  1008.2000      8.0322      2.5493      0.0796      6.1013    131.7724     24.4019
  1008.3000      8.0335      2.5481      0.0930      6.1738    128.2564     24.5881
  1008.4000      8.0335      2.5431     -0.0089      6.4786    125.2844     24.7632
  1008.5000      8.0352      2.5406      0.0708      6.6275    123.9084     24.5678
  1008.6000      8.0352      2.5297      0.0833      7.2923    121.7627     24.1690
  1008.7000      8.0352      2.5055      0.0269      8.7575    116.0855     24.0895
  1008.8000      8.0164      2.4957     -0.0486      9.3524    108.3839     24.4480
  1008.9000      8.0164      2.5200      0.0200      7.8793    105.1295     24.6010
  1009.0000      8.0496      2.5545      0.0630      5.7863    107.0565     24.0429
  1009.1000      8.0496      2.5731      0.0383      4.6606    108.1355     23.0935
  1009.2000      8.0496      2.5824     -0.0426      4.0958    107.3240     22.4200
  1009.3000      8.0462      2.5931      0.0389      3.4507    109.5816     22.4097
  1009.4000      8.0462      2.6039      0.0615      2.7920    116.6545     22.7931
  1009.5000      8.0175      2.6199      0.0859      1.8248    123.7652     22.7764
  1009.6000      8.0175      2.6359      0.1396      0.8569    126.1046     22.4442
  1009.7000      8.0175      2.6351      0.1419      0.9057    126.8554     22.3893
  1009.8000      8.0090      2.6224      0.0722      1.6752    129.3852     22.4520
  1009.9000      8.0090      2.6199      0.0560      1.8237    130.1578     22.3428
  1010.0000      8.0207      2.6275      0.1033      1.3628    129.7054     22.1828
  1010.1000      8.0207      2.6236      0.0597      1.6001    134.2369     22.1699
  1010.2000      8.0207      2.6045      0.0243      2.7548    142.7754     22.3161
  1010.3000      8.0503      2.5874      0.0477      3.7935    147.2345     22.5248
  1010.4000      8.0503      2.5815      0.0128      4.1524    146.1525     22.7961
  1010.5000      8.0703      2.5753     -0.0012      4.5302    144.5726     23.1301
  1010.6000      8.0703      2.5648     -0.0078      5.1617    146.0030     23.7059
  1010.7000      8.0703      2.5708     -0.0005      4.7996    149.5048     24.5908
  1010.8000      8.0998      2.5956      0.0298      3.2975    149.3073     25.2813
  1010.9000      8.0998      2.6107      0.0242      2.3824    143.9530     25.5247
  1011.0000      8.1068      2.6024      0.0231      2.8830    138.5626     25.7038
  1011.1000      8.1068      2.5826     -0.0276      4.0865    133.4582     25.9423
  1011.2000      8.1068      2.5647     -0.0117      5.1726    129.1752     25.8676
  1011.3000      8.1055      2.5560      0.0138      5.6958    132.7508     25.4676
  1011.4000      8.1055      2.5573      0.0312      5.6208    144.6415     25.3211
  1011.5000      8.1125      2.5622      0.0065      5.3185    155.5414     25.5687
  1011.6000      8.1125      2.5619      0.0226      5.3420    155.9731     25.7008
  1011.7000      8.1125      2.5565     -0.0549      5.6638    146.6862     25.4595
  1011.8000      8.1132      2.5661     -0.0598      5.0850    140.0483     25.1312
  1011.9000      8.1132      2.6009     -0.0037      2.9732    142.0124     24.9109
  1012.0000      8.1202      2.6375      0.0615      0.7572    146.9673     24.9056
  1012.1000      8.1202      2.6497      0.0582      0.0197    148.1150     25.2009
  1012.2000      8.1202      2.6471      0.0237      0.1774    143.6801     25.5861
  1012.3000      8.1152      2.6456     -0.0080      0.2649    141.6313     25.7371
  1012.4000      8.1152      2.6341      0.0584      0.9648    147.0911     25.6368
  1012.5000      8.1122      2.6135     -0.0276      2.2096    151.6552     25.4117
  1012.6000      8.1122      2.6068     -0.0004      2.6198    150.4628     24.9842
  1012.7000      8.1122      2.6116     -0.0073      2.3257    147.5118     24.6163
  1012.8000      8.1197      2.6066     -0.0198      2.6286    142.5458     24.6472
  1012.9000      8.1197      2.5814     -0.0411      4.1569    135.7110     24.7042
  1013.0000      8.1188      2.5425     -0.0520      6.5164    133.4284     24.3890
  1013.1000      8.1188      2.5036     -0.0337      8.8747    137.3176     24.0295
  1013.2000      8.1188      2.4791     -0.0782     10.3547    141.5555     24.0357
  1013.3000      8.1065      2.4809     -0.0608     10.2462    144.8052     24.1396
  1013.4000      8.1065      2.5017     -0.0092      8.9852    145.3879     23.8559
  1013.5000      8.0986      2.5184      0.0289      7.9743    138.1995     23.3922
  1013.6000      8.0986      2.5233     -0.0107      7.6766    127.1908     23.3448
  1013.7000      8.0986      2.5295      0.0486      7.3036    122.5785     23.6858
  1013.8000      8.1028      2.5461      0.0090      6.2981    129.3526     23.7857
  1013.9000      8.1028      2.5667      0.0326      5.0478    142.3100     23.3123
  1014.0000      8.1042      2.5803      0.0217      4.2222    152.5480     22.5711
  1014.1000      8.1042      2.5838      0.0349      4.0105    155.2875     22.1610
  1014.2000      8.1042      2.5761      0.0461      4.4796    151.4218     22.3843
  1014.3000      8.1089      2.5615      0.0155      5.3617    146.3155     22.8944
  1014.4000      8.1089      2.5470      0.0242      6.2419    145.5665     23.1145
  1014.5000      8.1115      2.5348     -0.0064      6.9805    147.1766     23.0756
  1014.6000      8.1115      2.5288     -0.0080      7.3467    144.5636     23.2942
  1014.7000      8.1115      2.5235      0.0044      7.6691    138.2246     23.7038
  1014.8000      8.1267      2.5172     -0.0407      8.0507    134.6290     23.9012
  1014.9000      8.1267      2.5206      0.0018      7.8395    137.7860     23.9649
  1015.0000      8.1322      2.5315     -0.0552      7.1837    144.4257     24.1874
  1015.1000      8.1322      2.5470     -0.0294      6.2415    149.5318     24.4295
  1015.2000      8.1322      2.5684      0.0202      4.9475    151.2616     24.4328
  1015.3000      8.1239      2.5921      0.0028      3.5079    151.1013     24.3606
  1015.4000      8.1239      2.6183      0.0211      1.9211    151.1502     24.3755
  1015.5000      8.1143      2.6321      0.1204      1.0841    151.9209     24.4183
  1015.6000      8.1143      2.6110      0.0469      2.3634    149.6067     24.4170
  1015.7000      8.1143      2.5619      0.0202      5.3391    144.9576     24.1444
  1015.8000      8.1076      2.5128     -0.0545      8.3141    144.8231     23.7050
  1015.9000      8.1076      2.4939     -0.0679      9.4610    146.9514     23.6669
  1016.0000      8.1166      2.5114      0.0075      8.3983    145.5835     24.0955
  1016.1000      8.1166      2.5356      0.0898      6.9355    141.9484     24.3721
  1016.2000      8.1166      2.5419      0.0161      6.5506    139.2580     24.1441
  1016.3000      8.1235      2.5366      0.0487      6.8698    140.2339     24.0098
  1016.4000      8.1235      2.5243      0.0766      7.6202    145.7709     24.4885
  1016.5000      8.1308      2.5135     -0.0051      8.2743    152.0509     24.9271
  1016.6000      8.1308      2.5198      0.0171      7.8930    154.8378     24.5160
  1016.7000      8.1308      2.5338      0.0400      7.0417    155.5859     23.3969
  1016.8000      8.1288      2.5466      0.0585      6.2673    157.7481     22.2312
  1016.9000      8.1288      2.5640      0.1178      5.2114    160.2389     21.2905
  1017.0000      8.1305      2.5805      0.0670      4.2108    158.4875     20.2890
  1017.1000      8.1305      2.5791      0.1365      4.2958    149.1513     19.2506
