~Version Information
VERS.                      2.0: CWLS Log ASCII Standard - VERSION 2.0
WRAP.                       NO: One line per depth step
~Well Information Block
STRT.FT               360.0000: 
STOP.FT              1622.7000: 
STEP.FT                 0.1000: 
NULL.                -999.2500: 
COMP.          Pioneer Natural Resources: COMPANY
WELL.                Eric 42-9: WELL
FLD.           Purgatoire River: FIELD
LOC.           2050' FNL & 850' FEL: LOCATION
PROV.                 Colorado: PROVINCE
CNTY.               Las Animas: COUNTRY
SRVC.                Patterson: SERVICE COMPANY
DATE.          Mon Nov 01 08:19:51 2004: LOG DATE
UWI.           05 071 07999 00: UNIQUE WELL ID
~Curve Information Block
DEPT.FT            0 000 00 00: Depth
DCAL.in                       : CDL Caliper
RHOB.g/cc                     : CDL Bulk Density
RHOC.g/cc                     : CDL Density Correction
DPOR.pu                       : CDL Density Porosity
NPOR.pu                       : Neutron Porosity
GR.GAPI                       : Gamma Ray
~Parameter Information Block
~A  Depth       DCAL        RHOB        RHOC        DPOR        NPOR         GR     
# ...
   936.0000      8.2379      2.4995      0.0281      9.1240     18.7836    119.7630
   936.1000      8.2379      2.5000      0.0136      9.0934     19.7793    127.3581
   936.2000      8.2379      2.4962      0.0493      9.3241     21.2903    136.9145
   936.3000      8.2603      2.4886     -0.0053      9.7827     22.5453    147.0695
   936.4000      8.2603      2.4865      0.0018      9.9102     23.0830    155.9912
   936.5000      8.2984      2.4859      0.0064      9.9472     23.3153    163.6307
   936.6000      8.2984      2.4865     -0.0255      9.9068     23.5967    172.3348
   936.7000      8.2984      2.4973      0.0190      9.2575     23.5470    180.7462
   936.8000      8.3411      2.5069      0.0566      8.6736     23.2138    186.4315
   936.9000      8.3411      2.4970      0.0544      9.2709     23.6238    190.2564
   937.0000      8.3744      2.4690      0.0668     10.9713     24.6460    189.9516
   937.1000      8.3744      2.4415      0.0509     12.6376     24.9227    185.1821
   937.2000      8.3744      2.4337      0.0747     13.1104     24.1346    181.7150
   937.3000      8.3993      2.4399      0.1027     12.7339     23.2159    178.3467
   937.4000      8.3993      2.4315      0.1162     13.2395     22.6580    170.2187
   937.5000      8.4381      2.4001      0.0289     15.1431     22.2304    160.5834
   937.6000      8.4381      2.3764      0.0080     16.5821     21.9458    154.0550
   937.7000      8.4381      2.3756      0.1024     16.6286     21.8815    152.3276
   937.8000      8.5129      2.3716      0.1185     16.8715     21.8165    153.5897
   937.9000      8.5129      2.3601      0.0536     17.5723     21.7439    156.1486
   938.0000      8.5712      2.3703      0.1079     16.9493     21.7926    162.4117
   938.1000      8.5712      2.4033      0.1744     14.9489     21.6245    170.9474
   938.2000      8.5712      2.4366      0.1686     12.9360     21.0371    173.8782
   938.3000      8.5951      2.4638      0.1979     11.2831     20.4293    167.0705
   938.4000      8.5951      2.4900      0.1934      9.6948     20.2297    156.4054
   938.5000      8.6244      2.5194      0.2319      7.9124     20.2409    151.5076
   938.6000      8.6244      2.5543      0.2150      5.7996     19.9514    154.5307
   938.7000      8.6244      2.5905      0.2484      3.6041     19.2687    159.2646
   938.8000      8.5800      2.6136      0.2214      2.2035     18.4027    160.3051
   938.9000      8.5800      2.6117      0.1505      2.3219     17.9216    158.1437
   939.0000      8.3799      2.5901      0.0726      3.6307     18.3164    157.7131
   939.1000      8.3799      2.5679      0.0566      4.9786     18.6524    159.1443
   939.2000      8.3799      2.5556      0.0251      5.7242     17.9124    157.2874
   939.3000      8.2075      2.5478      0.0483      6.1923     16.6562    151.8507
   939.4000      8.2075      2.5372      0.0558      6.8391     15.7135    146.2365
   939.5000      8.1460      2.5239      0.0494      7.6441     14.9477    139.7637
   939.6000      8.1460      2.5151      0.0453      8.1761     14.0307    132.5797
   939.7000      8.1460      2.5207      0.0062      7.8378     13.3155    126.1192
   939.8000      8.1269      2.5442      0.0578      6.4143     13.0483    116.9802
   939.9000      8.1269      2.5730      0.0755      4.6646     13.0264    104.7186
   940.0000      8.1198      2.5923      0.0651      3.4944     13.1678     93.6395
   940.1000      8.1198      2.5957      0.0958      3.2917     13.4377     85.2553
   940.2000      8.1198      2.5861      0.0792      3.8749     13.6224     78.6950
   940.3000      8.1180      2.5809      0.0394      4.1858     13.5908     75.6196
   940.4000      8.1180      2.5855      0.1151      3.9069     13.4515     78.5756
   940.5000      8.1178      2.5802      0.1033      4.2328     13.3539     83.5346
   940.6000      8.1178      2.5558      0.0733      5.7117     13.3258     85.3578
   940.7000      8.1178      2.5304      0.0078      7.2470     13.1070     84.8482
   940.8000      8.1196      2.5251      0.0161      7.5689     12.6957     83.5595
   940.9000      8.1196      2.5373      0.0453      6.8294     12.6841     81.9247
   941.0000      8.1269      2.5527      0.0255      5.8969     13.0263     82.3180
   941.1000      8.1269      2.5643      0.0425      5.1965     13.2255     85.6900
   941.2000      8.1269      2.5632      0.0669      5.2584     13.4333     90.6772
   941.3000      8.1395      2.5522      0.0139      5.9297     13.9824     95.2128
   941.4000      8.1395      2.5515      0.0523      5.9684     14.9918     94.2843
   941.5000      8.1529      2.5631      0.0673      5.2671     16.4174     85.8333
   941.6000      8.1529      2.5689      0.0618      4.9129     17.6502     77.8690
   941.7000      8.1529      2.5628      0.0638      5.2865     17.9956     77.1319
   941.8000      8.1646      2.5537      0.0460      5.8357     17.8993     79.2708
   941.9000      8.1646      2.5489      0.0571      6.1258     18.2275     79.3587
   942.0000      8.1697      2.5492      0.0308      6.1120     18.8315     81.0884
   942.1000      8.1697      2.5515      0.0985      5.9715     18.6920     89.0389
   942.2000      8.1697      2.5443      0.0949      6.4084     17.6373     99.6927
   942.3000      8.1667      2.5249      0.0592      7.5803     16.7743    103.6821
   942.4000      8.1667      2.5124      0.0236      8.3417     16.9647     99.6327
   942.5000      8.1635      2.5190      0.0551      7.9403     17.6942     94.4457
   942.6000      8.1635      2.5339      0.0679      7.0336     18.2551     92.0670
   942.7000      8.1635      2.5418      0.0630      6.5588     18.5629     92.5193
   942.8000      8.1668      2.5369      0.0572      6.8554     18.3766     95.2873
   942.9000      8.1668      2.5192      0.0518      7.9276     17.9439     97.8378
   943.0000      8.1704      2.4888      0.0243      9.7670     17.8328     96.6055
   943.1000      8.1704      2.4571     -0.0178     11.6880     17.9959     94.3279
   943.2000      8.1704      2.4435     -0.0050     12.5146     18.2847     97.1041
   943.3000      8.1724      2.4485      0.0059     12.2128     18.7830    102.6162
   943.4000      8.1724      2.4629      0.0013     11.3413     19.2792    103.1385
   943.5000      8.1755      2.4858      0.0414      9.9524     19.2735     98.8165
   943.6000      8.1755      2.5062      0.0718      8.7129     18.5718     92.2951
   943.7000      8.1755      2.5034      0.0848      8.8879     17.4425     82.6007
   943.8000      8.1773      2.4768      0.0385     10.4992     16.4431     74.9390
   943.9000      8.1773      2.4505      0.0321     12.0923     15.9852     75.0656
   944.0000      8.1755      2.4396      0.0237     12.7508     16.1573     79.0161
   944.1000      8.1755      2.4444      0.0206     12.4612     16.7768     81.0806
   944.2000      8.1755      2.4617      0.0358     11.4098     17.5478     80.4057
   944.3000      8.1732      2.4800      0.0662     10.3039     18.2405     79.5638
   944.4000      8.1732      2.4836      0.0669     10.0847     18.7176     80.0289
   944.5000      8.1725      2.4709      0.0748     10.8525     18.8725     80.1070
   944.6000      8.1725      2.4541      0.0182     11.8758     18.8359     78.9890
   944.7000      8.1725      2.4475      0.0170     12.2756     18.6326     77.9947
   944.8000      8.1726      2.4580      0.0388     11.6345     18.2548     80.6126
   944.9000      8.1726      2.4729      0.0609     10.7308     17.7180     88.8718
   945.0000      8.1740      2.4741      0.0619     10.6583     16.9551     97.5330
   945.1000      8.1740      2.4697      0.0253     10.9291     16.6892     97.9084
   945.2000      8.1740      2.4717      0.0450     10.8063     17.3071     88.6670
   945.3000      8.1793      2.4671      0.0468     11.0846     18.1109     79.2942
   945.4000      8.1793      2.4505      0.0042     12.0905     18.5940     76.6250
   945.5000      8.1841      2.4420      0.0257     12.6086     18.5152     77.0878
