~Version Information
VERS.                      2.0: CWLS Log ASCII Standard - VERSION 2.0
WRAP.                       NO: One line per depth step
~Well Information Block
STRT.FT                -4.2500: 
STOP.FT              2500.7500: 
STEP.FT                 0.2500: 
NULL.                -999.2500: 
COMP.          Pioneer Natural Resources: COMPANY
WELL.          Cock-a-doodle-doo 44-27: WELL
FLD.           Purgatoire River: FIELD
LOC.           163' FSL & 54' FEL--: LOCATION
PROV.                 Colorado: PROVINCE
CNTY.               Las Animas: COUNTRY
SRVC.                Patterson: SERVICE COMPANY
DATE.          Wed Jul 06 10:56:34 2005: LOG DATE
UWI.                071 08429 : UNIQUE WELL ID
~Curve Information Block
DEPT.FT            0 000 00 00: Depth
CCL.                          : Casing Collar Locator
TT3.usec                      : CBL 3' Travel Time
AMP3.mV                       : CBL 3' Amplitude
GR.GAPI                       : Gamma Ray
~Parameter Information Block
~A  Depth       CCL         TT3         AMP3         GR     
# ...
  1469.7500      0.0000    552.5123      8.6905    112.0947
  1470.0000      0.0000    554.6004      8.5705    109.6749
  1470.2500      0.0000    562.4311      8.3715    104.6078
  1470.5000      0.0000    577.7662      8.0692     98.0397
  1470.7500      0.0000    600.0367      7.6678     91.3074
  1471.0000      0.0000    627.2204      7.1912     85.7178
  1471.2500      0.0000    656.1501      6.6623     82.4676
  1471.5000      0.0000    682.3118      6.1021     82.1034
  1471.7500      0.0000    701.7885      5.5449     83.9914
  1472.0000      0.0000    713.9968      5.0439     86.3974
  1472.2500      0.0000    721.3771      4.6508     87.2705
  1472.5000      0.0000    726.6427      4.3920     85.5431
  1472.7500      0.0000    730.9525      4.2616     82.2222
  1473.0000      0.0000    733.6838      4.2353     79.9717
  1473.2500      0.0000    732.5868      4.2890     81.0148
  1473.5000      0.0000    724.7075      4.4095     85.3255
  1473.7500      0.0000    708.7138      4.5950     91.1700
  1474.0000      0.0000    686.7408      4.8584     97.1265
  1474.2500      0.0000    663.2044      5.2330    102.8114
  1474.5000      0.0000    641.2870      5.7605    107.8036
  1474.7500      0.0000    620.7231      6.4513    110.9154
  1475.0000      0.0000    598.9444      7.2427    110.8991
  1475.2500      0.0000    573.8766      8.0061    107.4650
  1475.5000      0.0000    545.3096      8.6143    101.6123
  1475.7500      0.0000    514.4799      9.0097     95.3060
  1476.0000      0.0000    483.8398      9.2146     90.6649
  1476.2500      0.0000    456.7819      9.2887     88.9248
  1476.5000      0.0000    435.3777      9.2960     90.0033
  1476.7500      0.0000    418.1342      9.3003     93.1903
  1477.0000      0.0000    401.7161      9.3567     97.9431
  1477.2500      0.0000    384.8310      9.4780    103.5625
  1477.5000      0.0000    369.3187      9.6084    108.5567
  1477.7500      0.0000    358.0204      9.6511    111.3913
  1478.0000      0.0000    352.5308      9.5402    111.9452
  1478.2500      0.0000    352.2837      9.2950    111.4847
  1478.5000      0.0000    355.0723      9.0035    111.1244
  1478.7500      0.0000    358.6830      8.7570    110.7984
  1479.0000      0.0000    362.2069      8.5998    109.7284
  1479.2500      0.0000    365.6966      8.5264    107.4789
  1479.5000      0.0000    369.0449      8.5066    104.4490
  1479.7500      0.0000    371.7719      8.5057    101.6161
  1480.0000      0.0000    373.6106      8.4976     99.9152
  1480.2500      0.0000    374.7938      8.4739     99.5652
  1480.5000      0.0000    375.8890      8.4460     99.9240
  1480.7500      0.0000    377.8803      8.4290    100.2301
  1481.0000      0.0000    382.8092      8.4196    100.4541
  1481.2500      0.0000    394.2857      8.3946    101.2055
  1481.5000      0.0000    416.3825      8.3383    102.8714
  1481.7500      0.0000    450.4225      8.2637    105.1510
  1482.0000      0.0000    491.8381      8.1992    107.5002
  1482.2500      0.0000    530.5392      8.1570    109.8936
  1482.5000      0.0000    555.5701      8.1258    113.1089
  1482.7500      0.0000    561.0724      8.0924    118.2397
  1483.0000      0.0000    549.5366      8.0644    125.7867
  1483.2500      0.0000    530.0941      8.0682    135.0461
  1483.5000      0.0000    513.1707      8.1236    144.2250
  1483.7500      0.0000    505.5540      8.2178    151.1855
  1484.0000      0.0000    508.7725      8.3075    154.5360
  1484.2500      0.0000    520.7349      8.3480    154.4359
  1484.5000      0.0000    538.3326      8.3226    152.3421
  1484.7500      0.0000    558.3572      8.2474    149.8435
  1485.0000      0.0000    576.9777      8.1527    147.7940
  1485.2500      0.0000    590.9122      8.0638    146.4375
  1485.5000      0.0000    600.2800      7.9915    145.8929
  1485.7500      0.0000    608.2233      7.9324    146.2548
  1486.0000      0.0000    615.7478      7.8741    147.4621
  1486.2500      0.0000    618.3776      7.8074    149.4347
  1486.5000      0.0000    609.9641      7.7389    152.2403
  1486.7500      0.0000    589.1318      7.6875    155.6154
  1487.0000      0.0000    560.7502      7.6658    158.2363
  1487.2500      0.0000    532.4658      7.6696    158.2937
  1487.5000      0.0000    511.5693      7.6842    155.4902
  1487.7500      0.0000    502.9234      7.6983    151.9857
  1488.0000      0.0000    505.5111      7.7090    150.6622
  1488.2500      0.0000    510.5742      7.7145    152.6027
  1488.5000      0.0000    507.1445      7.7048    156.4928
  1488.7500      0.0000    492.1573      7.6675    160.0508
  1489.0000      0.0000    473.8662      7.6065    161.8251
  1489.2500      0.0000    464.5489      7.5497    161.9432
  1489.5000      0.0000    471.6414      7.5264    161.3012
  1489.7500      0.0000    495.6974      7.5369    160.1152
  1490.0000      0.0000    532.8582      7.5558    157.6435
  1490.2500      0.0000    576.1118      7.5677    153.3802
  1490.5000      0.0000    615.7760      7.5902    147.8153
  1490.7500      0.0000    643.0248      7.6599    141.7944
  1491.0000      0.0000    654.7520      7.8006    135.7939
  1491.2500      0.0000    654.1660      8.0008    130.0383
  1491.5000      0.0000    646.8943      8.2141    124.9474
  1491.7500      0.0000    637.6813      8.3858    121.5285
  1492.0000      0.0000    629.0386      8.4877    121.4028
  1492.2500      0.0000    619.5571      8.5294    125.8289
  1492.5000      0.0000    604.0973      8.5377    134.1205
  1492.7500      0.0000    578.9567      8.5307    143.1811
  1493.0000      0.0000    547.0764      8.5122    149.0887
  1493.2500      0.0000    516.4988      8.4796    149.4305
  1493.5000      0.0000    494.2340      8.4280    144.5437
  1493.7500      0.0000    482.8847      8.3507    137.0603
  1494.0000      0.0000    482.6695      8.2488    130.1244
  1494.2500      0.0000    494.8391      8.1425    125.3975
  1494.5000      0.0000    521.4796      8.0656    122.5033
  1494.7500      0.0000    561.1074      8.0488    120.2922
  1495.0000      0.0000    605.0034      8.1114    118.1875
  1495.2500      0.0000    639.5525      8.2635    116.1559
  1495.5000      0.0000    653.0673      8.5107    114.2926
  1495.7500      0.0000    641.6223      8.8478    113.1160
  1496.0000      0.0000    611.6328      9.2335    113.5917
  1496.2500      0.0000    578.8033      9.5607    116.1717
  1496.5000      0.0000    561.2435      9.6807    120.2526
  1496.7500      0.0000    568.7079      9.4899    124.9245
  1497.0000      0.0000    597.2262      8.9976    129.6179
  1497.2500      0.0000    634.5605      8.3132    133.6626
  1497.5000      0.0000    670.0469      7.5889    135.9187
  1497.7500      0.0000    699.0519      6.9640    135.5134
  1498.0000      0.0000    720.6067      6.5203    132.6162
  1498.2500      2.0000    734.2687      6.2626    128.0852
  1498.5000      2.0000    740.3806      6.1367    122.6037
  1498.7500     -2.0000    741.2063      6.0620    116.7289
  1499.0000      0.0000    739.3629      5.9633    111.7762
  1499.2500      0.0000    735.2482      5.8125    109.9374
  1499.5000      0.0000    727.0444      5.6677    112.7387
  1499.7500      0.0000    712.5466      5.6526    119.1113
  1500.0000      0.0000    689.8481      5.8600    125.5023
  1500.2500      0.0000    657.3663      6.2641    128.5241
  1500.5000      0.0000    615.4963      6.7352    127.6162
  1500.7500      0.0000    568.7965      7.1380    124.9266
  1501.0000      0.0000    525.1820      7.4075    122.7629
  1501.2500      0.0000    491.9520      7.5476    121.5292
  1501.5000      0.0000    472.7230      7.5916    120.0660
  1501.7500      0.0000    467.6582      7.5701    117.3423
  1502.0000      0.0000    474.9068      7.5008    113.3340
  1502.2500      0.0000    490.9899      7.3935    108.7528
  1502.5000      0.0000    510.9828      7.2640    104.5118
  1502.7500      0.0000    529.8398      7.1449    101.4013
  1503.0000      0.0000    543.9396      7.0761     99.9433
