~Version Information
VERS.                      2.0: CWLS Log ASCII Standard - VERSION 2.0
WRAP.                       NO: One line per depth step
~Well Information Block
STRT.FT                -8.5000: 
STOP.FT              1597.7500: 
STEP.FT                 0.2500: 
NULL.                -999.2500: 
COMP.          Pioneer Natural Resources: COMPANY
WELL.          Dude Canyon 22-32 Tr: WELL
FLD.           Purgatorie River: FIELD
LOC.           1741' FnL & 2331' FWL--: LOCATION
PROV.                       CO: PROVINCE
CNTY.               Las Animas: COUNTRY
SRVC.          Patterson Wireline: SERVICE COMPANY
DATE.          Fri Jul 15 14:44:37 2005: LOG DATE
UWI.           05 071 08421 00: UNIQUE WELL ID
~Curve Information Block
DEPT.FT            0 000 00 00: Depth
CCL.                          : Casing Collar Locator
TT3.usec                      : CBL 3' Travel Time
AMP3.mV                       : CBL 3' Amplitude
GR.GAPI                       : Gamma Ray
~Parameter Information Block
~A  Depth       CCL         TT3         AMP3         GR     
# ...
   829.0000      0.0000    738.5078      1.8050     86.3044
   829.2500      0.0000    745.3441      2.0452     95.7641
   829.5000      0.0000    754.0788      2.3522    106.2726
   829.7500      0.0000    763.0761      2.7360    115.5114
   830.0000      0.0000    770.6760      3.2013    121.9863
   830.2500      0.0000    776.9547      3.7421    125.8090
   830.5000      0.0000    783.5471      4.3317    128.7473
   830.7500      0.0000    791.7750      4.9221    132.7328
   831.0000      0.0000    800.8939      5.4577    137.8453
   831.2500      0.0000    807.8923      5.8895    142.1458
   831.5000      0.0000    809.2973      6.1860    143.8936
   831.7500      0.0000    803.7425      6.3466    143.5454
   832.0000      0.0000    793.4932      6.4101    142.9935
   832.2500      0.0000    783.7446      6.4388    143.2141
   832.5000      0.0000    779.7973      6.4820    143.4022
   832.7500      0.0000    783.9548      6.5467    142.2398
   833.0000      0.0000    794.2880      6.6031    139.4681
   833.2500      0.0000    806.1622      6.6188    136.3729
   833.5000      0.0000    815.2291      6.5891    134.9144
   833.7500      0.0000    819.3906      6.5378    136.0665
   834.0000      0.0000    818.3427      6.4948    138.7943
   834.2500      0.0000    812.3544      6.4747    140.8617
   834.5000      0.0000    802.7086      6.4738    140.6547
   834.7500      0.0000    793.1331      6.4847    138.3214
   835.0000      0.0000    788.8280      6.5150    135.6136
   835.2500      0.0000    792.3841      6.5873    134.6297
   835.5000      0.0000    801.2946      6.7152    136.0108
   835.7500      0.0000    810.3685      6.8789    138.0423
   836.0000      0.0000    815.7214      7.0339    137.8669
   836.2500      0.0000    815.5833      7.1469    133.7770
   836.5000      0.0000    808.5855      7.2133    126.4083
   836.7500      0.0000    793.3380      7.2367    118.1116
   837.0000      0.0000    770.4888      7.2075    111.5158
   837.2500      0.0000    744.4106      7.1195    108.4163
   837.5000      0.0000    721.5563      6.9984    109.4620
   837.7500      0.0000    706.7205      6.8958    114.3450
   838.0000      0.0000    701.1441      6.8536    121.8924
   838.2500      0.0000    703.3029      6.8786    130.1183
   838.5000      0.0000    709.5172      6.9476    136.7301
   838.7500      0.0000    713.0333      7.0366    139.9337
   839.0000      0.0000    704.9142      7.1383    138.8544
   839.2500      0.0000    679.3198      7.2517    133.4590
   839.5000      0.0000    638.9638      7.3608    124.6709
   839.7500      0.0000    593.9710      7.4373    114.8463
   840.0000      0.0000    555.7070      7.4668    107.6262
   840.2500      0.0000    533.3810      7.4644    106.3826
   840.5000      0.0000    534.1963      7.4590    112.3119
   840.7500      0.0000    560.7368      7.4695    123.9525
   841.0000      0.0000    606.1048      7.4954    138.3957
   841.2500      0.0000    654.7394      7.5243    152.8030
   841.5000      0.0000    690.9743      7.5445    165.0354
   841.7500      0.0000    707.9527      7.5531    173.6236
   842.0000      0.0000    709.3869      7.5546    177.9535
   842.2500      0.0000    703.9698      7.5498    178.5248
   842.5000      0.0000    698.5975      7.5273    176.5525
   842.7500      0.0000    695.7143      7.4639    173.1881
   843.0000      0.0000    694.7917      7.3326    169.1864
   843.2500      0.0000    694.5836      7.1116    165.0667
   843.5000      0.0000    694.2792      6.7937    161.3859
   843.7500      0.0000    693.9312      6.3951    158.5088
   844.0000      0.0000    694.9280      5.9576    155.6030
   844.2500      0.0000    700.0134      5.5381    150.2613
   844.5000      0.0000    711.7559      5.1903    140.4251
   844.7500      0.0000    729.9515      4.9446    127.1153
   845.0000      0.0000    750.6801      4.7994    114.4243
   845.2500      0.0000    768.6255      4.7300    106.2292
   845.5000      0.0000    780.5276      4.7091    103.1008
   845.7500      0.0000    786.4927      4.7237    102.4616
   846.0000      0.0000    788.5061      4.7781    101.2723
   846.2500      0.0000    787.9284      4.8882     98.2601
   846.5000      0.0000    784.1431      5.0748     94.0616
   846.7500      0.0000    775.6674      5.3555     90.2013
   847.0000      0.0000    762.8201      5.7257     88.1134
   847.2500      0.0000    748.9760      6.1432     88.3884
   847.5000      0.0000    738.6844      6.5378     90.4512
   847.7500      0.0000    734.4431      6.8489     92.9207
   848.0000      0.0000    735.2000      7.0533     94.2634
   848.2500      0.0000    737.5450      7.1611     93.5043
   848.5000      0.0000    738.1906      7.1946     91.0311
   848.7500      0.0000    736.0029      7.1757     88.7618
   849.0000      0.0000    732.3961      7.1265     88.9402
   849.2500      0.0000    729.8126      7.0710     92.4996
   849.5000      0.0000    729.5923      7.0334     98.6895
   849.7500      0.0000    731.2804      7.0302    106.0343
   850.0000      0.0000    733.7908      7.0659    113.1055
   850.2500      0.0000    736.7216      7.1341    118.4976
   850.5000      0.0000    740.2397      7.2259    120.9423
   850.7500      0.0000    743.9296      7.3328    119.7949
   851.0000      0.0000    746.2094      7.4412    115.1051
   851.2500      0.0000    745.2140      7.5281    107.4401
   851.5000      0.0000    740.1016      7.5703     98.0750
   851.7500      0.0000    731.2906      7.5639     88.9749
   852.0000      0.0000    719.6361      7.5319     81.9201
   852.2500      0.0000    706.1033      7.5058     77.5296
   852.5000      0.0000    692.7951      7.5005     75.2101
   852.7500      0.0000    683.8243      7.5060     73.8495
   853.0000      0.0000    683.2191      7.5044     72.4408
   853.2500      0.0000    690.2932      7.4900     70.4051
   853.5000      0.0000    698.2293      7.4804     67.8149
   853.7500      0.0000    699.1216      7.5127     65.3791
   854.0000      0.0000    690.6475      7.6262     63.9231
   854.2500      0.0000    678.1031      7.8314     63.7223
   854.5000      0.0000    670.7922      8.0904     64.6105
   854.7500      0.0000    675.1756      8.3324     66.8419
   855.0000      0.0000    689.4291      8.4948     71.2965
   855.2500      0.0000    704.9395      8.5536     78.2955
   855.5000      0.0000    713.8536      8.5278     86.4248
   855.7500      0.0000    714.7201      8.4602     93.1596
   856.0000      0.0000    711.3968      8.3906     96.9623
   856.2500      0.0000    708.4764      8.3373     98.5909
   856.5000      0.0000    707.9951      8.2960    100.1778
   856.7500      0.0000    709.1075      8.2540    103.1984
   857.0000      0.0000    709.8532      8.2059    107.4045
   857.2500      0.0000    709.2599      8.1564    111.3433
   857.5000      0.0000    708.2969      8.1119    113.6923
   857.7500      0.0000    709.0520      8.0718    114.4437
   858.0000      0.0000    712.8524      8.0270    114.8877
   858.2500      0.0000    718.9775      7.9652    116.2927
   858.5000      0.0000    725.2606      7.8818    118.8415
   858.7500      0.0000    729.8456      7.7918    121.9576
   859.0000      0.0000    732.2397      7.7263    125.0804
   859.2500      0.0000    732.9367      7.7118    127.8178
   859.5000      0.0000    732.4404      7.7489    130.0054
   859.7500      0.0000    730.6492      7.8012    131.9813
   860.0000      0.0000    726.9877      7.8051    134.1204
   860.2500      0.0000    721.3621      7.7072    135.6990
   860.5000      0.0000    715.3145      7.5022    134.9830
   860.7500      0.0000    711.8372      7.2304    131.0790
   861.0000      0.0000    713.3763      6.9421    125.2954
   861.2500      0.0000    720.1881      6.6772    120.1572
   861.5000      0.0000    731.0180      6.4629    117.4373
   861.7500      0.0000    744.4517      6.2989    117.6146
   862.0000      0.0000    758.5395      6.1458    120.6218
   862.2500     -1.5152    769.9124      5.9509    126.0012
