~Version Information
VERS.                      2.0: CWLS Log ASCII Standard - VERSION 2.0
WRAP.                       NO: One line per depth step
~Well Information Block
STRT.FT               710.0000: 
STOP.FT              2922.5000: 
STEP.FT                 0.2500: 
NULL.                -999.2500: 
COMP.          Petrogulf Corporation: COMPANY
WELL.            Montoya 1-41V: WELL
FLD.           Purgatorie River: FIELD
LOC.           610' FNL & 1205' FEL: LOCATION
PROV.                 Colorado: PROVINCE
CNTY.               Las Animas: COUNTRY
SRVC.                Patterson: SERVICE COMPANY
DATE.          Mon Aug 22 08:00:56 2005: LOG DATE
UWI.                          : UNIQUE WELL ID
~Curve Information Block
DEPT.FT            0 000 00 00: Depth
SP.mV                         : DIL Spontaneous Potential
RILD.Ohm-m                    : DIL Deep Resistivity
RILM.Ohm-m                    : DIL Medium Resistivity
RLL3.Ohm-m                    : DIL Shallow Resistivity
GR.GAPI                       : Gamma Ray
~Parameter Information Block
~A  Depth        SP         RILD        RILM        RLL3         GR     
# ...
  1438.0000      0.1719     11.0487     11.3030     14.3309    150.7897
  1438.2500     -1.8247     11.3223     11.1922     14.0581    149.6371
  1438.5000     -3.8316     11.2829     11.2422     11.6378    126.9346
  1438.7500     -6.0705     11.1040     11.4526     12.5103    134.7737
  1439.0000     -8.1948     10.9336     11.1985     13.0441    162.4743
  1439.2500    -10.3467     10.7362     10.8571     12.0085    157.3019
  1439.5000    -12.6204     10.6284     10.9062     11.8387    155.0159
  1439.7500    -14.6942     10.6477     10.8886     11.9770    150.8321
  1440.0000    -16.5207     10.4522     10.6537     13.2084    140.1624
  1440.2500    -18.1122     10.3761     10.6506     16.0689    152.3748
  1440.5000    -19.1862     10.4347     10.5219     16.8018    156.2299
  1440.7500    -19.9493     10.5375     10.3983     16.4170    150.8591
  1441.0000    -20.3202     10.4808     10.6076     15.1726    158.7557
  1441.2500    -20.4149     10.4805     10.6905     14.6939    151.9819
  1441.5000    -20.3421     10.6344     10.8976     16.4898    163.6220
  1441.7500    -20.3025     10.3690     11.0115     16.9177    145.1462
  1442.0000    -20.3984     10.3594     10.8257     16.4096    143.0365
  1442.2500    -20.6831     10.0784     10.8439     13.0977    145.8400
  1442.5000    -20.8985     10.0708     10.8248     12.2464    155.9975
  1442.7500    -20.8217     10.1144     10.6322     12.3016    144.0296
  1443.0000    -20.5959      9.9576     10.6370     12.0759    151.2006
  1443.2500    -20.3840     10.0103     10.3466     11.9063    137.5819
  1443.5000    -20.2515     10.0824     10.1511     12.7958    152.4101
  1443.7500    -20.1203     10.1141     10.0452     15.4530    141.5824
  1444.0000    -19.9270     10.0641      9.8675     14.8636    153.6019
  1444.2500    -19.7265      9.6398      9.8496     14.8463    169.9581
  1444.5000    -19.2116      9.8574      9.7742     15.5135    160.8173
  1444.7500    -18.2612     10.0411      9.8006     15.6857    163.1196
  1445.0000    -17.0672      9.9248      9.9297     15.5262    170.4596
  1445.2500    -15.7884      9.8251      9.9010     16.2721    172.0002
  1445.5000    -14.6215      9.6112     10.1630     17.4837    136.8423
  1445.7500    -13.4692      9.6469     10.1820     18.6719    146.6247
  1446.0000    -12.4756      9.6821     10.1740     18.9278    141.1330
  1446.2500    -11.7860     10.0300      9.9651     18.4852    124.4773
  1446.5000    -11.2921     10.3772      9.9397     17.6933    128.0724
  1446.7500    -11.0378     10.6143     10.0935     16.5049    139.8728
  1447.0000    -11.1224     10.8056     10.1961     15.7353    151.2465
  1447.2500    -11.4524     10.8664     10.4269     15.2381    132.8430
  1447.5000    -11.9128     11.3514     10.8382     16.8022    136.4067
  1447.7500    -12.3949     11.5549     11.4555     21.0594    140.3234
  1448.0000    -13.0123     11.6464     12.4538     23.9559    133.9329
  1448.2500    -13.7500     11.8116     12.8467     25.0084    117.9872
  1448.5000    -14.6646     11.8433     12.9329     26.6289    139.5957
  1448.7500    -15.9185     12.4891     13.2866     29.5177    136.2680
  1449.0000    -17.3991     12.5972     13.3367     30.5091    129.3560
  1449.2500    -18.9658     13.2676     13.3925     23.0811    135.4863
  1449.5000    -20.7699     14.5206     13.6338     14.0808    143.3422
  1449.7500    -22.5560     15.1944     14.4060     13.4817    147.3599
  1450.0000    -24.3346     16.2268     15.0420     13.7067    157.2906
  1450.2500    -26.2230     17.3221     16.3241     14.9666    142.5162
  1450.5000    -27.9793     17.8105     17.9671     18.9888    135.2581
  1450.7500    -29.7873     18.9489     19.9308     25.8494    138.8573
  1451.0000    -31.3943     19.6812     22.7550     37.4021    128.2010
  1451.2500    -32.5983     20.5896     23.6183     48.8238    108.1459
  1451.5000    -33.6749     21.5371     24.8168     61.1080    111.0091
  1451.7500    -34.5350     22.5570     25.6695     68.5757     96.5924
  1452.0000    -35.3812     24.3195     27.1186     60.8629     84.6734
  1452.2500    -36.2554     26.0446     29.1183     53.8032     85.4719
  1452.5000    -37.0457     26.8076     29.7277     46.7084     89.5130
  1452.7500    -37.7895     28.1440     34.0856     46.8831     98.9731
  1453.0000    -38.3972     32.1134     37.6324     56.2210    102.1581
  1453.2500    -38.8249     33.0571     36.5369     73.8887    104.5463
  1453.5000    -39.0045     33.9828     37.4290     88.3437     85.5886
  1453.7500    -39.0895     33.7140     39.6116     79.8824     77.9931
  1454.0000    -39.1689     37.7464     39.1453     67.1277     85.8145
  1454.2500    -39.1227     36.2120     39.9188     64.6192     81.4469
  1454.5000    -38.9636     34.9001     40.0831     63.5643    107.3430
  1454.7500    -38.7975     38.8883     42.4235     58.3479    101.7787
  1455.0000    -38.7896     38.9721     41.4435     52.9095    116.0572
  1455.2500    -39.1394     41.6579     40.9173     51.6478    109.9926
  1455.5000    -39.6602     41.4717     40.4243     54.1446    108.5641
  1455.7500    -40.2570     44.5510     40.9794     60.0794     99.4168
  1456.0000    -40.6215     43.5085     42.0576     66.5004     81.2401
  1456.2500    -40.5682     44.7369     43.9680     71.7371     67.4219
  1456.5000    -40.4014     45.0141     48.6402     75.2852     67.6231
  1456.7500    -40.1926     46.0884     46.5136     77.1646     76.3838
  1457.0000    -39.9519     48.3011     48.4573     78.9459     83.6214
  1457.2500    -39.7906     47.8717     49.9463     79.8944     80.7514
  1457.5000    -39.6882     47.9638     52.6825     78.8960     75.6924
  1457.7500    -39.5407     44.9863     45.8972     76.3161     72.1226
  1458.0000    -39.4662     50.2059     49.0711     71.1533     83.9272
  1458.2500    -39.1875     49.4814     51.8213     68.2796     78.4540
  1458.5000    -38.4948     47.3397     50.3071     72.7348     77.0424
  1458.7500    -37.3181     53.0666     55.4461     82.0296     74.4298
  1459.0000    -35.8054     54.6627     54.9782     97.5415     92.3710
  1459.2500    -34.0995     47.2048     57.5240    117.8393     89.9477
  1459.5000    -32.4438     45.0612     51.7113    122.5581     78.4655
  1459.7500    -31.0806     52.3233     58.7750    106.3851     76.4423
  1460.0000    -30.0712     48.1965     57.5004     93.5101     74.4716
  1460.2500    -29.4095     46.4623     55.0254     91.8195     69.5799
  1460.5000    -28.8204     54.1810     58.2710     94.2234     66.9230
  1460.7500    -28.3242     54.3574     56.7021     95.4706     66.2479
  1461.0000    -27.8374     51.9047     59.0547     94.5984     54.7237
  1461.2500    -27.1331     57.4156     56.2963     88.4524     59.6146
  1461.5000    -26.4426     55.1112     60.7642     85.6493     71.9789
  1461.7500    -25.5838     64.4802     56.1364     87.4349     63.4247
  1462.0000    -24.6089     65.8129     59.4562     88.4770     58.2191
  1462.2500    -23.7022     58.0204     70.2807     85.6848     59.1230
  1462.5000    -22.7966     60.0957     63.4821     82.4750     63.9690
  1462.7500    -22.0294     62.0763     56.7666     81.4889     65.8122
  1463.0000    -21.3340     62.2054     63.0263     81.2127     71.6435
  1463.2500    -20.6203     61.9076     66.5280     81.7229     61.7667
  1463.5000    -19.9062     63.9764     55.6852     83.5149     57.0486
  1463.7500    -19.0742     62.3212     66.3145     84.1362     67.2315
  1464.0000    -18.1323     60.0543     69.0381     85.5769     69.2213
  1464.2500    -16.7461     61.5013     68.9766     94.4936     56.1024
  1464.5000    -15.0639     65.5406     83.2966    107.4724     38.3940
  1464.7500    -12.9846     59.6660     91.1458    121.2690     57.2468
  1465.0000    -10.7107     65.1764     83.2942    134.9142     61.2917
  1465.2500     -8.1452     61.6507     85.2059    146.7322     58.6990
  1465.5000     -5.2317     58.9221     76.8307    143.9182     46.5868
  1465.7500     -2.3636     56.7417     77.6278    131.3004     63.2433
