~Version Information
VERS.                      2.0: CWLS Log ASCII Standard - VERSION 2.0
WRAP.                       NO: One line per depth step
~Well Information Block
STRT.FT               770.0000: 
STOP.FT              1997.7000: 
STEP.FT                 0.1000: 
NULL.                -999.2500: 
COMP.          Pioneer Natural Resources: COMPANY
WELL.          Titan Federal 34-17: WELL
FLD.           Purgatoire River: FIELD
LOC.           321' FSL & 1911' FEL--: LOCATION
STAT.                 Colorado: State
CNTY.               Las Animas: COUNTY
CTRY. USA : Country
SECT. 17 : Section
TOWN. 32S : Township
RANG. 65W : Range
SRVC.                Patterson: SERVICE COMPANY
DATE.          Thu Oct 06 15:09:27 2005: LOG DATE
API.           05 071 08272 00: UNIQUE WELL ID
~Curve Information Block
DEPT.FT            0 000 00 00: Depth
DCAL.in                       : CDL Caliper
RHOB.g/cc                     : CDL Bulk Density
RHOC.g/cc                     : CDL Density Correction
DPOR.pu                       : CDL Density Porosity
NPOR.pu                       : Neutron Porosity
GR.GAPI                       : Gamma Ray
~Parameter Information Block
~A  Depth       DCAL        RHOB        RHOC        DPOR        NPOR         GR     
# ...
  1730.0000      8.0738      2.5783      0.0185      4.3479     20.0507     99.9394
  1730.1000      8.0738      2.5740      0.0068      4.6040     20.2224    101.9571
  1730.2000      8.0738      2.5765      0.0461      4.4551     20.5462    101.9903
  1730.3000      8.0759      2.5782      0.0243      4.3526     20.3852     96.6874
  1730.4000      8.0759      2.5724      0.0651      4.7060     19.8920     89.6265
  1730.5000      8.0771      2.5609      0.0092      5.3975     19.5436     84.6245
  1730.6000      8.0771      2.5500      0.0208      6.0615     19.5116     81.3164
  1730.7000      8.0771      2.5467     -0.0159      6.2615     19.7245     76.9640
  1730.8000      8.0770      2.5617     -0.0006      5.3495     20.0996     73.6477
  1730.9000      8.0770      2.5896      0.0492      3.6605     20.5267     77.0833
  1731.0000      8.0765      2.6029      0.0542      2.8542     20.8047     83.4447
  1731.1000      8.0765      2.5925      0.0198      3.4870     21.0394     83.0912
  1731.2000      8.0765      2.5765      0.0091      4.4530     21.4395     77.2290
  1731.3000      8.0750      2.5694     -0.0066      4.8851     21.7008     75.8433
  1731.4000      8.0750      2.5732     -0.0066      4.6570     21.7358     82.5988
  1731.5000      8.0744      2.5878      0.0230      3.7706     21.7821     90.1546
  1731.6000      8.0744      2.6055      0.0497      2.6993     21.7076     90.7053
  1731.7000      8.0744      2.6125      0.0498      2.2751     21.3028     86.8112
  1731.8000      8.0762      2.6085      0.0545      2.5157     20.6159     85.0731
  1731.9000      8.0762      2.6058      0.0108      2.6797     19.8345     84.8110
  1732.0000      8.0811      2.6158      0.0205      2.0722     19.0746     83.1708
  1732.1000      8.0811      2.6293      0.0931      1.2569     18.5066     82.1837
  1732.2000      8.0811      2.6215      0.0678      1.7267     18.3415     82.0686
  1732.3000      8.0874      2.5973      0.0066      3.1913     18.5097     79.5542
  1732.4000      8.0874      2.5876      0.0483      3.7827     18.7484     76.8918
  1732.5000      8.0894      2.6040      0.0520      2.7902     18.8524     77.7294
  1732.6000      8.0894      2.6306      0.1127      1.1763     18.8724     81.4913
  1732.7000      8.0894      2.6413      0.1112      0.5274     19.1737     85.9719
  1732.8000      8.0863      2.6263      0.0417      1.4389     19.8761     90.6214
  1732.9000      8.0863      2.6001      0.0503      3.0243     20.5880     97.7584
  1733.0000      8.0834      2.5818      0.0279      4.1351     20.7115    105.1280
  1733.1000      8.0834      2.5783      0.0175      4.3443     20.0609    104.7977
  1733.2000      8.0834      2.5845      0.0147      3.9691     19.1209     96.7560
  1733.3000      8.0840      2.5891      0.0689      3.6883     18.3674     89.6418
  1733.4000      8.0840      2.5831      0.0576      4.0558     17.9127     86.4840
  1733.5000      8.0851      2.5756      0.0110      4.5104     17.7283     83.6886
  1733.6000      8.0851      2.5804      0.0352      4.2154     17.7894     80.9927
  1733.7000      8.0851      2.5918      0.0420      3.5257     18.0917     82.9578
  1733.8000      8.0851      2.5968      0.0690      3.2246     18.4534     87.3784
  1733.9000      8.0851      2.5949      0.0002      3.3400     18.7723     85.3267
  1734.0000      8.0842      2.5960      0.0539      3.2734     19.0994     78.9683
  1734.1000      8.0842      2.6012      0.0570      2.9577     19.1435     75.0358
  1734.2000      8.0842      2.6052      0.0527      2.7162     18.7762     74.4032
  1734.3000      8.0828      2.6062      0.0401      2.6538     18.5033     76.5191
  1734.4000      8.0828      2.6052      0.0397      2.7146     18.6189     77.8647
  1734.5000      8.0822      2.6052      0.0484      2.7153     18.9039     74.7190
  1734.6000      8.0822      2.6090      0.0524      2.4834     19.0421     71.0005
  1734.7000      8.0822      2.6145      0.0545      2.1534     19.0317     72.1198
  1734.8000      8.0823      2.6176      0.0449      1.9614     19.0814     75.1670
  1734.9000      8.0823      2.6211      0.0505      1.7486     19.2325     77.7947
  1735.0000      8.0842      2.6236      0.0642      1.6028     19.2318     82.6474
  1735.1000      8.0842      2.6165      0.0542      2.0310     19.0409     86.0404
  1735.2000      8.0842      2.5975      0.0301      3.1809     19.0009     84.9942
  1735.3000      8.0858      2.5766      0.0250      4.4476     19.1014     82.2939
  1735.4000      8.0858      2.5690     -0.0018      4.9070     19.2324     80.1237
  1735.5000      8.0850      2.5729      0.0360      4.6733     19.6887     81.4190
  1735.6000      8.0850      2.5663      0.0494      5.0708     20.5122     85.8739
  1735.7000      8.0850      2.5408      0.0221      6.6152     21.1931     87.5629
  1735.8000      8.0827      2.5170     -0.0153      8.0609     21.2789     84.1251
  1735.9000      8.0827      2.5181     -0.0058      7.9952     20.9671     80.0328
  1736.0000      8.0797      2.5427     -0.0063      6.5044     20.7280     80.3512
  1736.1000      8.0797      2.5730      0.0417      4.6641     20.4650     84.8332
  1736.2000      8.0797      2.5965      0.0298      3.2412     19.8111     88.7154
  1736.3000      8.0771      2.6070      0.0642      2.6066     19.1453     88.2293
  1736.4000      8.0771      2.5997      0.0623      3.0477     19.0194     84.8271
  1736.5000      8.0751      2.5834      0.0276      4.0374     19.1408     82.3847
  1736.6000      8.0751      2.5798      0.0462      4.2541     18.9790     81.6064
  1736.7000      8.0751      2.5930      0.0516      3.4563     18.6287     83.0306
  1736.8000      8.0743      2.6028      0.0513      2.8604     18.5527     87.6515
  1736.9000      8.0743      2.5969      0.0262      3.2183     18.9522     91.9021
  1737.0000      8.0751      2.5806      0.0372      4.2045     19.5059     91.9173
  1737.1000      8.0751      2.5668      0.0056      5.0407     19.9154     86.8163
  1737.2000      8.0751      2.5703      0.0383      4.8287     20.2347     78.6331
  1737.3000      8.0790      2.5871      0.0605      3.8109     20.3521     73.2532
  1737.4000      8.0790      2.5963      0.0684      3.2539     20.2498     74.0441
  1737.5000      8.0843      2.5900      0.0520      3.6350     20.1901     79.3613
  1737.6000      8.0843      2.5799      0.0352      4.2481     20.2499     86.9480
  1737.7000      8.0843      2.5828      0.0181      4.0714     20.2718     94.6715
  1737.8000      8.0879      2.5992      0.0421      3.0794     20.3436     97.5748
  1737.9000      8.0879      2.6088      0.0657      2.4964     20.7127     93.5982
  1738.0000      8.0890      2.6051      0.0184      2.7230     21.2001     87.6215
  1738.1000      8.0890      2.6041      0.0281      2.7797     21.4366     84.8465
  1738.2000      8.0890      2.6091      0.0528      2.4815     21.7452     86.8717
  1738.3000      8.0887      2.6020      0.0453      2.9081     22.5670     92.2552
  1738.4000      8.0887      2.5806     -0.0211      4.2042     23.4585     98.4948
  1738.5000      8.0885      2.5595      0.0398      5.4835     23.9843    105.2757
  1738.6000      8.0885      2.5398      0.0244      6.6793     24.2834    110.7665
  1738.7000      8.0885      2.5203     -0.0207      7.8607     24.3809    110.1213
  1738.8000      8.0887      2.5060      0.0202      8.7275     24.3763    104.0095
  1738.9000      8.0887      2.4999     -0.0120      9.0949     24.4195     98.1657
  1739.0000      8.0884      2.5074     -0.0017      8.6454     24.4689     95.5638
  1739.1000      8.0884      2.5285      0.0554      7.3609     24.4889     96.2798
  1739.2000      8.0884      2.5584      0.0484      5.5530     24.3243    103.0400
  1739.3000      8.0885      2.5835      0.1342      4.0279     23.7769    115.7445
  1739.4000      8.0885      2.5918      0.0968      3.5277     23.2001    127.5931
  1739.5000      8.0891      2.5962      0.0555      3.2608     23.1267    132.0506
