~Version Information
VERS.                      2.0: CWLS Log ASCII Standard - VERSION 2.0
WRAP.                       NO: One line per depth step
~Well Information Block
STRT.FT                15.0000: 
STOP.FT              1869.0000: 
STEP.FT                 0.2500: 
NULL.                -999.2500: 
COMP.          Pioneer Natural Resources: COMPANY
WELL.          Victory 12-14 Tr: WELL
FLD.           Purgatoire River: FIELD
LOC.           2522' FNL & 276' FWL: LOCATION
PROV.                 Colorado: PROVINCE
CNTY.               Las Animas: COUNTRY
SRVC.                Patterson: SERVICE COMPANY
DATE.          Fri Jul 22 14:39:41 2005: LOG DATE
UWI.           05 071 08433 00: UNIQUE WELL ID
~Curve Information Block
DEPT.FT            0 000 00 00: Depth
GR.GAPI                       : Gamma Ray
CCL.                          : Casing Collar Locator
TT3.usec                      : CBL 3' Travel Time
AMP3.mV                       : CBL 3' Amplitude
~Parameter Information Block
~A  Depth        GR         CCL         TT3         AMP3    
# ...
   986.5000    140.2684      0.0000    736.7863     12.4781
   986.7500    141.1768      0.0000    736.5311     12.3728
   987.0000    139.9745      0.0000    736.3743     12.1539
   987.2500    138.4817      0.0000    736.3484     11.8468
   987.5000    138.8441      0.0000    736.4604     11.5153
   987.7500    141.5176      0.0000    736.6802     11.2323
   988.0000    144.9675      0.0000    736.9402     11.0431
   988.2500    147.3251      0.0000    737.1677     10.9431
   988.5000    148.1085      0.0000    737.3240     10.8880
   988.7500    148.3213      0.0000    737.4246     10.8262
   989.0000    149.0499      0.0000    737.5361     10.7274
   989.2500    150.0147      0.0000    737.7521     10.5927
   989.5000    149.7008      0.0000    738.1369     10.4476
   989.7500    147.2121      0.0000    738.6744     10.3277
   990.0000    143.6572      0.0000    739.2667     10.2617
   990.2500    141.0764      0.0000    739.7925     10.2607
   990.5000    140.2182      0.0000    740.1815     10.3175
   990.7500    140.1874      0.0000    740.4446     10.4145
   991.0000    140.1363      0.0000    740.6407     10.5329
   991.2500    140.3627      0.0000    740.8149     10.6550
   991.5000    141.5157      0.0000    740.9707     10.7664
   991.7500    143.2799      0.0000    741.0917     10.8575
   992.0000    144.3744      0.0000    741.1738     10.9271
   992.2500    144.0260      0.0000    741.2340     10.9814
   992.5000    143.1832      0.0000    741.3006     11.0303
   992.7500    143.8643      0.0000    741.3954     11.0786
   993.0000    147.2648      0.0000    741.5197     11.1177
   993.2500    152.7019      0.0000    741.6486     11.1201
   993.5000    158.1695      0.0000    741.7642     11.0428
   993.7500    161.6197      0.0000    741.9573     10.8380
   994.0000    162.0165      0.0000    742.5846     10.4697
   994.2500    159.5421      0.0000    744.3073      9.9294
   994.5000    155.0353      0.0000    747.7214      9.2429
   994.7500    149.5000      0.0000    752.6118      8.4691
   995.0000    143.8135      0.0000    757.5292      7.6957
   995.2500    138.1174      0.0000    760.4326      7.0258
   995.5000    131.4928      0.0000    760.1753      6.5454
   995.7500    122.9669      0.0000    757.6409      6.2891
   996.0000    113.0206      0.0000    755.3748      6.2350
   996.2500    103.8628      0.0000    755.6896      6.3309
   996.5000     98.3339      0.0000    758.8297      6.5291
   996.7500     98.5769      0.0000    763.0539      6.8121
   997.0000    105.1011      0.0000    766.4335      7.1960
   997.2500    116.4087      0.0000    768.2838      7.7051
   997.5000    129.4548      0.0000    769.0333      8.3405
   997.7500    141.0167      0.0000    769.2598      9.0724
   998.0000    149.3238      0.0000    768.9888      9.8510
   998.2500    154.6191      0.0000    767.4946     10.6058
   998.5000    157.9789      0.0000    763.5699     11.2380
   998.7500    159.7025      0.0000    756.4524     11.6407
   999.0000    159.3633      0.0000    747.0120     11.7485
   999.2500    157.3866      0.0000    737.8925     11.5789
   999.5000    155.7278      0.0000    732.0005     11.2274
   999.7500    156.3581      0.0000    730.5724     10.8164
  1000.0000    159.1542      0.0000    732.2407     10.4401
  1000.2500    161.5759      0.0000    733.4727     10.1422
  1000.5000    160.6942      0.0000    730.5521      9.9311
  1000.7500    155.9015      0.0000    722.4124      9.8010
  1001.0000    149.7496      0.0000    711.7873      9.7404
  1001.2500    145.9066      0.0000    703.3011      9.7356
  1001.5000    146.2155      0.0000    700.4327      9.7737
  1001.7500    149.7230      0.0000    703.7414      9.8444
  1002.0000    154.2315      0.0000    710.6733      9.9434
  1002.2500    158.4209      0.0000    716.7099     10.0771
  1002.5000    162.4504      0.0000    717.9140     10.2576
  1002.7500    166.8038      0.0000    713.4512     10.4847
  1003.0000    170.8935      0.0000    705.7653     10.7362
  1003.2500    172.9181      0.0000    698.2985     10.9792
  1003.5000    171.0359      0.0000    693.1208     11.1897
  1003.7500    164.7084      0.0000    690.3815     11.3685
  1004.0000    155.0755      0.0000    689.2837     11.5472
  1004.2500    144.0827      0.0000    689.1984     11.7718
  1004.5000    133.2522      0.0000    690.1403     12.0590
  1004.7500    123.3038      0.0000    692.6774     12.3658
  1005.0000    114.6640      0.0000    697.4218     12.6126
  1005.2500    107.7826      0.0000    704.2008     12.7407
  1005.5000    102.7373      0.0000    711.4619     12.7492
  1005.7500     98.8172      0.0000    716.8076     12.6877
  1006.0000     94.9375      0.0000    718.6748     12.6237
  1006.2500     90.6979      0.0000    717.8091     12.6078
  1006.5000     87.0118      0.0000    716.9829     12.6470
  1006.7500     85.5783      0.0000    718.7488     12.6916
  1007.0000     87.5880      0.0000    723.0170     12.6456
  1007.2500     92.6955      0.0000    726.8524     12.4011
  1007.5000     99.1062      0.0000    727.0989     11.8827
  1007.7500    104.8401      0.0000    723.4766     11.0776
  1008.0000    109.1247      0.0000    719.1372     10.0587
  1008.2500    112.4926      0.0000    718.4172      9.0030
  1008.5000    115.4904      0.0000    724.4452      8.1537
  1008.7500    117.4295      0.0000    738.0732      7.6853
  1009.0000    116.6153      0.0000    757.0480      7.5897
  1009.2500    112.0155      0.0000    775.7115      7.7242
  1009.5000    104.9112      0.0000    787.4247      7.9527
  1009.7500     98.8799      0.0000    788.8267      8.2103
  1010.0000     97.6416      0.0000    781.6201      8.4819
  1010.2500    102.2749      0.0000    769.9913      8.7816
  1010.5000    110.3644      0.0000    756.5519      9.1386
  1010.7500    118.0597      0.0000    740.0110      9.5967
  1011.0000    122.9249      0.0000    716.3233     10.2470
  1011.2500    124.7076      0.0000    684.1304     11.2240
  1011.5000    124.0385      0.0000    650.8935     12.5585
  1011.7500    121.4763      0.0000    630.7906     14.0062
  1012.0000    117.9109      0.0000    632.8616     15.1218
  1012.2500    114.9941      0.0000    652.4598     15.5579
  1012.5000    114.5267      0.0000    676.3514     15.2723
  1012.7500    117.2575      0.0000    694.0194     14.4839
  1013.0000    122.1944      0.0000    702.9025     13.5013
  1013.2500    127.1747      0.0000    705.9600     12.5762
  1013.5000    130.3851      0.0000    706.8978     11.8409
  1013.7500    131.4080      0.0000    707.3293     11.3256
  1014.0000    130.8650      0.0000    707.3796     11.0070
  1014.2500    129.4419      0.0000    707.9282     10.8335
  1014.5000    127.4613      0.0000    710.7594     10.7177
  1014.7500    125.0539      0.0000    715.9124     10.5430
  1015.0000    122.4153      0.0000    720.3404     10.2085
  1015.2500    119.9662      0.0000    720.8359      9.6922
  1015.5000    118.2083      0.0000    718.0917      9.0766
  1015.7500    117.1882      0.0000    716.4615      8.5024
  1016.0000    116.1496      0.0000    719.4294      8.0778
  1016.2500    114.0903      0.0000    726.3456      7.8082
  1016.5000    110.7601      0.0000    733.9085      7.5895
  1016.7500    106.8917      0.0000    739.9070      7.2642
  1017.0000    103.5345      0.0000    744.8173      6.7024
  1017.2500    101.5407      0.0000    749.9929      5.8714
  1017.5000    101.4668      0.0000    755.0811      4.8637
  1017.7500    103.2705      0.0000    758.0631      3.8644
  1018.0000    106.0757      0.0000    758.2847      3.0694
  1018.2500    108.6455      0.0000    758.9753      2.6061
  1018.5000    110.0387      0.0000    765.6839      2.5006
  1018.7500    109.7260      0.0000    781.2469      2.6926
  1019.0000    107.5561      0.0000    802.0496      3.0736
  1019.2500    104.0333      0.0000    819.7482      3.5384
  1019.5000    100.4270      0.0000    827.0287      4.0325
  1019.7500     98.3234      0.0000    822.0106      4.5704
