~Version Information               
VERS.     2.0     :     CWLS LAS VERSION
WRAP.                         NO     :     WRAPING MODE
~Well Information   
API.                      :            
WELL.               Egan 9-11V     :     WELL
COMP.                    N/A     :     COMPANY
FLD.                    N/A     :     FIELD
LOC.                    N/A     :     LOCATION
CNTY.                    N/A     :     COUNTY
STATE.              N/A     :     STATE
CTRY.                    N/A     :     COUNTRY
DATE.                N/A     :     DATE (LOGGED)
UWI.                    N/A     :     UNIQUE WELL ID
SRVC.                N/A     :     SERVICE COMPANY
STAT.                           :
STRT.FT              612.00     :     START DEPTH
STOP.FT             2500.00     :     STOP DEPTH
STEP.FT                1.00     :     DEPTH INCREMENT
NULL.             -9999           :     NULL VALUE
~Curve information               
 DEPTH.FT                                   :
 ROP.MIN/FT                                 :
 GAS.UNITS                                  :     
C1.PPM          :     
C2.PPM          :
~ASCII Log data               
# ...
1496.00        0.20     0         54.6          -49995
1497.00        0.33     3         46.6          -49995
1498.00        0.40     0         38.9          -49995
1499.00        0.53     3         37.5          -49995
1500.00        0.26     7         32.6          -49995
1501.00        0.20     0         27.4          -49995
1502.00        0.16     7         24.7          -49995
1503.00        0.20     0         23.6          -49995
1504.00        0.45     0         24.2          -49995
1505.00        0.26     7         23.4          -49995
1506.00        0.26     7         22.2          -49995
1507.00        0.23     3         19.3          -49995
1508.00        0.16     7         17.2          -49995
1509.00        0.23     3         15.7          -49995
1510.00        0.23     3         14.7          -49995
1511.00        0.20     0         14.3          -49995
1512.00        0.16     7         13.2          -49995
1513.00        0.13     3         12.8          -49995
1514.00        0.16     7         12.3          -49995
1515.00        0.13     3         12.3          -49995
1516.00        0.23     3         12.5          -49995
1517.00        0.20     0         12.6          -49995
1518.00        0.33     3         13.1          -49995
1519.00        0.35     0         14.8          -49995
1520.00        0.26     7         14.9          -49995
1521.00        0.20     0         14.0          -49995
1522.00        0.26     7         11.8          -49995
1523.00        0.68     3         17.8          -49995
1524.00        0.50     0         29.1          -49995
1525.00        0.46     7         35.6          -49995
1526.00        0.33     3         34.2          -49995
1527.00        0.36     7         28.4          -49995
1528.00        0.33     3         22.2          -49995
1529.00        0.33     3         16.2          -49995
1530.00        0.30     0         15.1          -49995
1531.00        0.30     0         14.9          -49995
1532.00        0.31     7         13.4          -49995
1533.00        0.26     7         13.6          -49995
1534.00        0.40     0         13.1          -49995
1535.00        0.30     0         12.8          -49995
1536.00        0.26     7         13.1          -49995
1537.00        0.30     0         12.9          -49995
1538.00        0.26     7         12.9          -49995
1539.00        0.23     3         12.9          -49995
1540.00        0.26     7         13.1          -49995
1541.00        0.30     0         12.9          -49995
1542.00        0.36     7         13.0          -49995
1543.00        0.38     3         12.6          -49995
1544.00        0.46     7         12.7          -49995
1545.00        0.20     0         12.1          -49995
1546.00        0.20     0         11.9          -49995
1547.00        0.23     3         11.8          -49995
1548.00        0.26     7         11.7          -49995
1549.00        0.26     7         12.3          -49995
1550.00        0.20     0         12.0          -49995
1551.00        0.40     0         15.5          -49995
1552.00        0.26     7         15.5          -49995
1553.00        0.46     7         22.7          -49995
1554.00        0.26     7         25.0          -49995
1555.00        0.20     0         27.5          -49995
1556.00        0.16     7         27.5          -49995
1557.00        0.23     3         28.5          -49995
1558.00        0.25     0         28.1          -49995
1559.00        0.20     0         25.4          -49995
1560.00        0.23     3         24.7          -49995
1561.00        0.26     7         21.7          -49995
1562.00        0.23     3         16.3          -49995
1563.00        0.20     0         14.5          -49995
1564.00        0.16     7         14.5          -49995
1565.00        0.23     3         14.7          -49995
1566.00        0.26     7         14.8          -49995
1567.00        0.23     3         13.9          -49995
1568.00        0.20     0         14.3          -49995
1569.00        0.20     0         14.3          -49995
1570.00        0.23     3         13.3          -49995
1571.00        0.23     3         12.9          -49995
1572.00        0.20     0         12.6          -49995
1573.00        0.21     7         12.2          -49995
1574.00        0.13     3         11.8          -49995
1575.00        0.16     7         11.9          -49995
1576.00        0.20     0         12.1          -49995
1577.00        0.16     7         11.5          -49995
1578.00        0.23     3         12.4          -49995
1579.00        0.20     0         13.6          -49995
1580.00        0.13     3         14.7          -49995
1581.00        0.26     7         11.8          -49995
1582.00        0.26     7         12.4          -49995
1583.00        1.00     0         26.6          -49995
1584.00        0.40     0         27.7          -49995
1585.00        0.33     3         25.0          -49995
1586.00        0.30     0         24.6          -49995
1587.00        0.30     0         23.8          -49995
1588.00        0.30     0         22.5          -49995
1589.00        0.33     3         18.4          -49995
1590.00        0.41     7         16.2          -49995
1591.00        0.30     0         14.3          -49995
1592.00        0.30     0         13.4          -49995
1593.00        0.23     3         13.4          -49995
1594.00        0.30     0         13.0          -49995
1595.00        0.26     7         13.0          -49995
1596.00        0.33     3         13.1          -49995
1597.00        0.30     0         12.2          -49995
1598.00        0.33     3         12.5          -49995
1599.00        0.36     7         12.5          -49995
1600.00        0.33     3         12.4          -49995
1601.00        0.38     3         12.2          -49995
1602.00        0.30     0         12.5          -49995
1603.00        0.16     7         11.7          -49995
1604.00        0.10     0         11.7          -49995
1605.00        0.23     3         11.7          -49995
1606.00        0.23     3         11.9          -49995
1607.00        0.23     3         12.1          -49995
1608.00        0.20     0         12.1          -49995
1609.00        0.23     3         11.8          -49995
1610.00        0.26     7         12.7          -49995
1611.00        0.20     0         13.4          -49995
1612.00        0.30     0         12.4          -49995
1613.00        0.46     7         19.1          -49995
1614.00        0.36     7         27.6          -49995
1615.00        0.30     0         31.3          -49995
1616.00        0.26     7         33.6          -49995
1617.00        0.30     0         32.6          -49995
1618.00        0.31     7         32.7          -49995
1619.00        0.33     3         30.6          -49995
1620.00        0.16     7         25.1          -49995
1621.00        0.10     0         24.7          -49995
1622.00        0.20     0         19.3          -49995
1623.00        0.23     3         18.6          -49995
1624.00        0.23     3         17.5          -49995
1625.00        0.20     0         16.0          -49995
1626.00        0.13     3         16.5          -49995
1627.00        0.16     7         16.5          -49995
1628.00        0.26     7         17.6          -49995
1629.00        0.30     0         17.8          -49995
1630.00        0.30     0         16.8          -49995
1631.00        0.30     0         16.3          -49995
1632.00        0.35     0         21.4          -49995
1633.00        0.33     3        146.9          -49995
1634.00        0.33     3        360.1          -49995
1635.00        0.23     3        301.5          -49995
1636.00        0.20     0        274.8          -49995
1637.00        0.20     0        194.6          -49995
1638.00        0.23     3        132.5          -49995
1639.00        0.23     3         95.1          -49995
1640.00        0.26     7         66.1          -49995
1641.00        0.23     3         47.5          -49995
