~Version Information
VERS.                      2.0: CWLS Log ASCII Standard - VERSION 2.0
WRAP.                       NO: One line per depth step
~Well Information Block
STRT.FT                -7.5000: 
STOP.FT              1129.7500: 
STEP.FT                 0.2500: 
NULL.                -999.2500: 
COMP.          Pioneer Natural Resources: COMPANY
WELL.          Drewmeister 34-34: WELL
FLD.           Purgatorie River: FIELD
LOC.           958' FSL & 1857' FEL: LOCATION
STAT.                       CO: State
CNTY.               Las Animas: COUNTRY
CTRY. USA : Country
SECT. 34 : Section
TOWN. 32S : Township
RANG. 65W : Range
SRVC.          Patterson Wireline: SERVICE COMPANY
DATE.          Fri Oct 14 14:02:00 2005: LOG DATE
API.           05 071 08131 00: UNIQUE WELL ID
~Curve Information Block
DEPT.FT            0 000 00 00: Depth
CCL.                          : Casing Collar Locator
TT3.usec                      : CBL 3' Travel Time
AMP3.mV                       : CBL 3' Amplitude
GR.GAPI                       : Gamma Ray
~Parameter Information Block
~A  Depth       CCL         TT3         AMP3         GR     
# ...
   863.5000      0.0000    722.3649      5.9768     88.5794
   863.7500      0.0000    723.0024      6.0345     94.5658
   864.0000      0.0000    724.4385      6.2022     94.7909
   864.2500      0.0000    726.5700      6.4391     88.3112
   864.5000      0.0000    728.5654      6.7423     77.7264
   864.7500      0.0000    729.8708      7.1173     67.2204
   865.0000      0.0000    730.5251      7.5288     60.0769
   865.2500      0.0000    730.8330      7.9125     57.5353
   865.5000      0.0000    731.0632      8.2314     59.0704
   865.7500      0.0000    731.3989      8.5014     63.3780
   866.0000      0.0000    731.9283      8.7652     69.3657
   866.2500      0.0000    732.6074      9.0573     76.4680
   866.5000      0.0000    733.2961      9.3823     84.1947
   866.7500      0.0000    733.8463      9.7119     91.7741
   867.0000      0.0000    734.0887     10.0061     98.4272
   867.2500      0.0000    733.6551     10.2370    103.6421
   867.5000      0.0000    731.6985     10.3802    107.0108
   867.7500      0.0000    726.7849     10.4041    108.3406
   868.0000      0.0000    717.3284     10.3071    108.2773
   868.2500      0.0000    702.4545     10.1633    108.2720
   868.5000      0.0000    682.2975     10.0913    109.3561
   868.7500      0.0000    657.3910     10.1607    111.2053
   869.0000      0.0000    629.3660     10.3416    112.8001
   869.2500      0.0000    604.1676     10.5404    113.5080
   869.5000      0.0000    592.8597     10.6642    113.0192
   869.7500      0.0000    604.4405     10.6631    110.8384
   870.0000      0.0000    636.2520     10.5452    106.7119
   870.2500      0.0000    674.3928     10.3668    101.5220
   870.5000      0.0000    704.7471     10.2017     97.1031
   870.7500      0.0000    721.8720     10.1012     94.8214
   871.0000      0.0000    728.0308     10.0636     94.5609
   871.2500      0.0000    727.5134     10.0356     95.2516
   871.5000      0.0000    723.4850      9.9510     95.9498
   871.7500      0.0000    718.1114      9.7783     96.1374
   872.0000      0.0000    712.9411      9.5320     95.6160
   872.2500      0.0000    708.5216      9.2457     94.5720
   872.5000      0.0000    704.8354      8.9439     93.3547
   872.7500      0.0000    702.7177      8.6396     91.9641
   873.0000      0.0000    703.9048      8.3488     89.9428
   873.2500      0.0000    709.0480      8.0953     86.8017
   873.5000      0.0000    716.3857      7.8951     82.5941
   873.7500      0.0000    722.7916      7.7385     78.1695
   874.0000      0.0000    725.6007      7.5942     74.5353
   874.2500      0.0000    723.2986      7.4385     71.7784
   874.5000      0.0000    715.5022      7.2764     69.1099
   874.7500      0.0000    703.5058      7.1304     66.3101
   875.0000      0.0000    690.8738      7.0140     64.5733
   875.2500      0.0000    682.3616      6.9206     65.2463
   875.5000      0.0000    681.0325      6.8342     67.8995
   875.7500      0.0000    685.8270      6.7441     70.2234
   876.0000      0.0000    692.0898      6.6518     69.9977
   876.2500      0.0000    695.3034      6.5668     66.9550
   876.5000      0.0000    695.0513      6.4985     62.7583
   876.7500      0.0000    695.1558      6.4551     59.5374
   877.0000      0.0000    699.5638      6.4481     58.6288
   877.2500      0.0000    708.4005      6.4890     60.2824
   877.5000      0.0000    718.2258      6.5742     63.8416
   877.7500      0.0000    725.3632      6.6766     68.0512
   878.0000      0.0000    728.2084      6.7622     71.5729
   878.2500      0.0000    727.0610      6.8154     73.6400
   878.5000      0.0000    723.3037      6.8424     74.5400
   878.7500      0.0000    719.1985      6.8507     75.6192
   879.0000      0.0000    717.2913      6.8355     78.5230
   879.2500      0.0000    718.7933      6.7927     83.9455
   879.5000      0.0000    722.6327      6.7458     91.0255
   879.7500      0.0000    726.6175      6.7510     98.0133
   880.0000      0.0000    729.3459      6.8662    103.5290
   880.2500      0.0000    730.8095      7.1098    107.1961
   880.5000      0.0000    731.6609      7.4504    109.1625
   880.7500      0.0000    732.3991      7.8365    109.2036
   881.0000      0.0000    733.1359      8.2315    106.6424
   881.2500      0.0000    733.7716      8.6181    101.3153
   881.5000      0.0000    734.2112      8.9795     94.4161
   881.7500      0.0000    734.4647      9.2790     88.2470
   882.0000      0.0000    734.6350      9.4559     85.0309
   882.2500      0.0000    734.8918      9.4572     85.5524
   882.5000      0.0000    735.4846      9.2919     88.5945
   882.7500      0.0000    736.8643      9.0502     91.8900
   883.0000      0.0000    739.7872      8.8472     93.7843
   883.2500      0.0000    745.0217      8.7490     93.8897
   883.5000      0.0000    752.5562      8.7572     92.4725
   883.7500      0.0000    761.0353      8.8443     89.8159
   884.0000      0.0000    768.2692      8.9777     86.2345
   884.2500      0.0000    772.4262      9.1198     82.3399
   884.5000      0.0000    772.7306      9.2273     79.1553
   884.7500      0.0000    769.4531      9.2635     77.9141
   885.0000      0.0000    763.8152      9.2150     79.4771
   885.2500      0.0000    757.6074      9.1028     83.5735
   885.5000      0.0000    752.0263      8.9776     88.4711
   885.7500      0.0000    746.6789      8.8927     91.6615
   886.0000      0.0000    740.2980      8.8734     91.3947
   886.2500      0.0000    732.6812      8.9091     88.0271
   886.5000      0.0000    725.6447      8.9737     83.9818
   886.7500      0.0000    721.7864      9.0459     82.1011
   887.0000      0.0000    722.1871      9.1108     83.6867
   887.2500      0.0000    725.4666      9.1533     87.9509
   887.5000      0.0000    729.1993      9.1638     93.1102
   887.7500      0.0000    731.9526      9.1482     97.6316
   888.0000      0.0000    733.9392      9.1266    100.5734
   888.2500      0.0000    736.2781      9.1188    101.5371
   888.5000      0.0000    739.9604      9.1312    100.7021
   888.7500      0.0000    745.2037      9.1495     98.4896
   889.0000      0.0000    751.4147      9.1411     95.0692
   889.2500      0.0000    757.5688      9.0632     90.7852
   889.5000      0.0000    762.5989      8.8725     86.9953
   889.7500      0.0000    765.7686      8.5332     85.5193
   890.0000      0.0000    767.2555      8.0317     86.9117
   890.2500      0.0000    768.3002      7.3994     89.7547
   890.5000      0.0000    770.6859      6.7220     91.9158
   890.7500      0.0000    776.4247      6.1093     92.2957
   891.0000      0.0000    787.5201      5.6328     91.2076
   891.2500      0.0000    804.1992      5.3008     89.3952
   891.5000      0.0000    823.0406      5.1036     87.2767
   891.7500      0.0000    838.6479      5.0471     85.1536
   892.0000      0.0000    847.5324      5.1162     83.4163
   892.2500      0.0000    848.8544      5.2399     82.0831
   892.5000      2.0000    842.6442      5.3340     80.6301
   892.7500      0.0000    830.3681      5.3697     78.6977
   893.0000      0.0000    816.2834      5.3955     76.7139
   893.2500      0.0000    804.7132      5.4961     75.6183
   893.5000      0.0000    795.8518      5.7160     76.1267
   893.7500      0.0000    786.3362      5.9979     78.2555
   894.0000      0.0000    773.9427      6.2127     81.2948
   894.2500      0.0000    760.3652      6.2871     84.1264
   894.5000      0.0000    749.4325      6.2763     85.6933
   894.7500      0.0000    743.5547      6.2854     85.3989
   895.0000      0.0000    742.1900      6.3545     83.5373
   895.2500      0.0000    743.0910      6.4472     81.7402
   895.5000      0.0000    744.4399      6.5109     82.5637
   895.7500      0.0000    745.5365      6.5169     87.5340
   896.0000      0.0000    745.8997      6.4551     95.1515
   896.2500      0.0000    744.5083      6.3146    101.4964
   896.5000      0.0000    740.4096      6.0813    103.4557
   896.7500      0.0000    734.0127      5.7514    101.2633
