~Version Information
VERS.                      2.0: CWLS Log ASCII Standard - VERSION 2.0
WRAP.                       NO: One line per depth step
~Well Information Block
STRT.FT               221.2000: 
STOP.FT              2260.4000: 
STEP.FT                 0.1000: 
NULL.                -999.2500: 
COMP.          Petrogulf Corporation: COMPANY
WELL.          Anderson 18-43V: WELL
FLD.           Purgatorie River: FIELD
LOC.           1782' FSL & 887' FEL--: LOCATION
CNTY.               Las Animas: COUNTY
SRVC.                         : SERVICE COMPANY
DATE.          Mon Sep 13 14:11:09 2004: LOG DATE
UWI.                          : UNIQUE WELL ID
STAT.                       CO: STATE
~Curve Information Block
DEPT.FT            0 000 00 00: Depth
TT3.usec                      : CBL 3' Travel Time
AMP3.mV                       : CBL 3' Amplitude
GR.GAPI                       : Gamma Ray
CCL.                          : Casing Collar Locator
~Parameter Information Block
~A  Depth       TT3         AMP3         GR         CCL     
# ...
  1306.6000    669.7599      2.2234    134.2848      0.0000
  1306.7000    669.7599      2.2234    134.2848      0.0000
  1306.8000    658.3434      2.2053    133.8902      0.0000
  1306.9000    658.3434      2.2053    133.8902      0.0000
  1307.0000    644.4523      2.1812    130.1692      0.0000
  1307.1000    644.4523      2.1812    130.1692      0.0000
  1307.2000    644.4523      2.1812    130.1692      0.0000
  1307.3000    630.8265      2.1509    124.1816      0.0000
  1307.4000    630.8265      2.1509    124.1816      0.0000
  1307.5000    622.0745      2.1191    118.5099      0.0000
  1307.6000    622.0745      2.1191    118.5099      0.0000
  1307.7000    622.0745      2.1191    118.5099      0.0000
  1307.8000    619.3032      2.0886    115.6685      0.0000
  1307.9000    619.3032      2.0886    115.6685      0.0000
  1308.0000    618.2934      2.0589    117.0925      0.0000
  1308.1000    618.2934      2.0589    117.0925      0.0000
  1308.2000    618.2934      2.0589    117.0925      0.0000
  1308.3000    615.0568      2.0315    123.0384      0.0000
  1308.4000    615.0568      2.0315    123.0384      0.0000
  1308.5000    611.2480      2.0154    132.5672      0.0000
  1308.6000    611.2480      2.0154    132.5672      0.0000
  1308.7000    611.2480      2.0154    132.5672      0.0000
  1308.8000    611.1167      2.0246    143.4084      0.0000
  1308.9000    611.1167      2.0246    143.4084      0.0000
  1309.0000    614.6139      2.0658    152.2659      0.0000
  1309.1000    614.6139      2.0658    152.2659      0.0000
  1309.2000    614.6139      2.0658    152.2659      0.0000
  1309.3000    617.3955      2.1245    155.9888      0.0000
  1309.4000    617.3955      2.1245    155.9888      0.0000
  1309.5000    617.7177      2.1691    153.3950      0.0000
  1309.6000    617.7177      2.1691    153.3950      0.0000
  1309.7000    617.7177      2.1691    153.3950      0.0000
  1309.8000    619.4896      2.1765    146.3757      0.0000
  1309.9000    619.4896      2.1765    146.3757      0.0000
  1310.0000    626.6868      2.1546    138.9697      0.0000
  1310.1000    626.6868      2.1546    138.9697      0.0000
  1310.2000    626.6868      2.1546    138.9697      0.0000
  1310.3000    637.1767      2.1349    135.0761      0.0000
  1310.4000    637.1767      2.1349    135.0761      0.0000
  1310.5000    643.6611      2.1416    136.6064      0.0000
  1310.6000    643.6611      2.1416    136.6064      0.0000
  1310.7000    643.6611      2.1416    136.6064      0.0000
  1310.8000    639.2855      2.1686    142.8444      0.0000
  1310.9000    639.2855      2.1686    142.8444      0.0000
  1311.0000    622.4601      2.1860    151.0150      0.0000
  1311.1000    622.4601      2.1860    151.0150      0.0000
  1311.2000    622.4601      2.1860    151.0150      0.0000
  1311.3000    599.3751      2.1679    158.0189      0.0000
  1311.4000    599.3751      2.1679    158.0189      0.0000
  1311.5000    582.3362      2.1149    162.1150      0.0000
  1311.6000    582.3362      2.1149    162.1150      0.0000
  1311.7000    582.3362      2.1149    162.1150      0.0000
  1311.8000    581.8676      2.0551    162.7991      0.0000
  1311.9000    581.8676      2.0551    162.7991      0.0000
  1312.0000    598.1487      2.0278    159.4948      0.0000
  1312.1000    598.1487      2.0278    159.4948      0.0000
  1312.2000    598.1487      2.0278    159.4948      0.0000
  1312.3000    621.3962      2.0609    151.5587      0.0000
  1312.4000    621.3962      2.0609    151.5587      0.0000
  1312.5000    640.8777      2.1520    139.9514      0.0000
  1312.6000    640.8777      2.1520    139.9514      0.0000
  1312.7000    640.8777      2.1520    139.9514      0.0000
  1312.8000    652.1409      2.2691    127.9338      0.0000
  1312.9000    652.1409      2.2691    127.9338      0.0000
  1313.0000    656.6929      2.3762    119.1439      0.0000
  1313.1000    656.6929      2.3762    119.1439      0.0000
  1313.2000    656.6929      2.3762    119.1439      0.0000
  1313.3000    657.8577      2.4543    114.9678      0.0000
  1313.4000    657.8577      2.4543    114.9678      0.0000
  1313.5000    657.9442      2.4972    114.0902      0.0000
  1313.6000    657.9442      2.4972    114.0902      0.0000
  1313.7000    657.9442      2.4972    114.0902      0.0000
  1313.8000    657.7706      2.4992    114.1589      0.0000
  1313.9000    657.7706      2.4992    114.1589      0.0000
  1314.0000    657.2145      2.4588    113.5672      0.0000
  1314.1000    657.2145      2.4588    113.5672      0.0000
  1314.2000    657.2145      2.4588    113.5672      0.0000
  1314.3000    655.7346      2.3907    112.4371      0.0000
  1314.4000    655.7346      2.3907    112.4371      0.0000
  1314.5000    652.4881      2.3220    112.6428      0.0000
  1314.6000    652.4881      2.3220    112.6428      0.0000
  1314.7000    652.4881      2.3220    112.6428      0.0000
  1314.8000    646.5777      2.2784    116.1973      0.0000
  1314.9000    646.5777      2.2784    116.1973      0.0000
  1315.0000    638.2040      2.2718    122.6594      0.0000
  1315.1000    638.2040      2.2718    122.6594      0.0000
  1315.2000    638.2040      2.2718    122.6594      0.0000
  1315.3000    629.7543      2.3001    128.3990      0.0000
  1315.4000    629.7543      2.3001    128.3990      0.0000
  1315.5000    624.2651      2.3568    129.1468      0.0000
  1315.6000    624.2651      2.3568    129.1468      0.0000
  1315.7000    624.2651      2.3568    129.1468      0.0000
  1315.8000    621.0859      2.4391    123.4650      0.0000
  1315.9000    621.0859      2.4391    123.4650      0.0000
  1316.0000    613.5263      2.5434    113.8335      0.0000
  1316.1000    613.5263      2.5434    113.8335      0.0000
  1316.2000    613.5263      2.5434    113.8335      0.0000
  1316.3000    592.9885      2.6544    104.7466      0.0000
  1316.4000    592.9885      2.6544    104.7466      0.0000
  1316.5000    557.1786      2.7406     99.7812      0.0000
  1316.6000    557.1786      2.7406     99.7812      0.0000
  1316.7000    557.1786      2.7406     99.7812      0.0000
  1316.8000    514.5958      2.7669     99.7634      0.0000
  1316.9000    514.5958      2.7669     99.7634      0.0000
  1317.0000    480.5032      2.7185    102.9536      0.0000
  1317.1000    480.5032      2.7185    102.9536      0.0000
  1317.2000    480.5032      2.7185    102.9536      0.0000
  1317.3000    467.8480      2.6149    106.9407      0.0000
  1317.4000    467.8480      2.6149    106.9407      0.0000
  1317.5000    480.6283      2.5008    110.7184      0.0000
  1317.6000    480.6283      2.5008    110.7184      0.0000
  1317.7000    480.6283      2.5008    110.7184      0.0000
  1317.8000    513.1304      2.4173    115.1047      0.0000
  1317.9000    513.1304      2.4173    115.1047      0.0000
  1318.0000    553.7242      2.3739    121.2257      0.0000
  1318.1000    553.7242      2.3739    121.2257      0.0000
  1318.2000    553.7242      2.3739    121.2257      0.0000
  1318.3000    591.0013      2.3469    128.6982      0.0000
  1318.4000    591.0013      2.3469    128.6982      0.0000
  1318.5000    618.8122      2.3056    135.4207      0.0000
  1318.6000    618.8122      2.3056    135.4207      0.0000
  1318.7000    618.8122      2.3056    135.4207      0.0000
  1318.8000    636.7694      2.2440    139.3005      0.0000
  1318.9000    636.7694      2.2440    139.3005      0.0000
  1319.0000    647.1808      2.1837    140.1179      0.0000
  1319.1000    647.1808      2.1837    140.1179      0.0000
  1319.2000    647.1808      2.1837    140.1179      0.0000
  1319.3000    652.4569      2.1477    139.3466      0.0000
  1319.4000    652.4569      2.1477    139.3466      0.0000
  1319.5000    654.5082      2.1379    137.9914      0.0000
  1319.6000    654.5082      2.1379    137.9914      0.0000
  1319.7000    654.5082      2.1379    137.9914      0.0000
  1319.8000    654.8036      2.1377    135.0317      0.0000
  1319.9000    654.8036      2.1377    135.0317      0.0000
