~Version Information
VERS.                      2.0: CWLS Log ASCII Standard - VERSION 2.0
WRAP.                       NO: One line per depth step
~Well Information Block
STRT.FT                15.0000: 
STOP.FT              2265.2500: 
STEP.FT                 0.2500: 
NULL.                -999.2500: 
COMP.          Pioneer Natural Resources: COMPANY
WELL.             Vector 33-23: WELL
FLD.           Purgatoire River: FIELD
LOC.           1988' FSL & 1560' FEL: LOCATION
PROV.                 Colorado: PROVINCE
CNTY.               Las Animas: COUNTRY
SRVC.                Patterson: SERVICE COMPANY
DATE.          Fri Apr 01 13:14:24 2005: LOG DATE
UWI.           05 071 08336 00: UNIQUE WELL ID
~Curve Information Block
DEPT.FT            0 000 00 00: Depth
GR.GAPI                       : Gamma Ray
CCL.                          : Casing Collar Locator
TT3.usec                      : CBL 3' Travel Time
AMP3.mV                       : CBL 3' Amplitude
AMP5.mV                       : CBL 5' Amplitude
~Parameter Information Block
~A  Depth        GR         CCL         TT3         AMP3        AMP5    
# ...
   911.0000    118.5753      0.0000    828.3365     12.9044      1.8347
   911.2500    113.6058      0.0000    825.2107     12.9636      1.8283
   911.5000    107.9133      0.0000    823.5578     13.0734      1.8195
   911.7500    102.8110      0.0000    821.6812     13.1677      1.8213
   912.0000     98.9247      0.0000    819.3211     13.1786      1.8436
   912.2500     96.5379      0.0000    817.9687     13.1044      1.8837
   912.5000     95.8031      0.0000    819.1224     13.0363      1.9278
   912.7500     96.1705      0.0000    822.8244     13.0957      1.9608
   913.0000     96.0795      0.0000    828.0043     13.3266      1.9774
   913.2500     94.0718      0.0000    833.4858     13.6538      1.9824
   913.5000     90.4528      0.0000    838.6618     13.9484      1.9834
   913.7500     87.4036      0.0000    844.2911     14.1249      1.9842
   914.0000     87.1323      0.0000    853.4473     14.1831      1.9841
   914.2500     89.9954      0.0000    870.9368     14.1733      1.9800
   914.5000     94.3152      0.0000    899.0698     14.1339      1.9692
   914.7500     97.7958      0.0000    931.5610     14.0646      1.9510
   915.0000     99.2739      0.0000    953.2980     13.9567      1.9278
   915.2500     99.4870      0.0000    950.9954     13.8328      1.9043
   915.5000    100.1145      0.0000    925.4133     13.7352      1.8831
   915.7500    101.9074      0.0000    890.4138     13.6757      1.8628
   916.0000    104.0042      0.0000    860.3275     13.6179      1.8405
   916.2500    105.1923      0.0000    841.2612     13.5148      1.8166
   916.5000    105.4549      0.0000    832.9966     13.3538      1.7954
   916.7500    106.1695      0.0000    833.9871     13.1613      1.7825
   917.0000    109.0554      0.0000    842.6082     12.9742      1.7810
   917.2500    114.8687      0.0000    855.6738     12.8168      1.7895
   917.5000    122.6263      0.0000    867.8052     12.7027      1.8027
   917.7500    129.8240      0.0000    873.4686     12.6450      1.8134
   918.0000    133.7565      0.0000    870.6549     12.6516      1.8165
   918.2500    133.1482      0.0000    862.3555     12.7128      1.8128
   918.5000    128.8625      0.0000    853.6564     12.8057      1.8068
   918.7500    123.3831      0.0000    847.7268     12.9147      1.8020
   919.0000    119.6235      0.0000    844.7691     13.0346      1.7980
   919.2500    119.5598      0.0000    843.6155     13.1503      1.7915
   919.5000    123.1618      0.0000    843.2330     13.2258      1.7801
   919.7500    128.4583      0.0000    843.0052     13.2234      1.7649
   920.0000    133.0003      0.0000    842.4135     13.1280      1.7512
   920.2500    135.4544      0.0000    840.9136     12.9520      1.7446
   920.5000    135.8699      0.0000    838.2419     12.7335      1.7479
   920.7500    134.8784      0.0000    834.7770     12.5347      1.7579
   921.0000    132.9135      0.0000    831.2535     12.4223      1.7665
   921.2500    129.9048      0.0000    828.1055     12.4266      1.7651
   921.5000    125.4606      0.0000    825.5742     12.5238      1.7512
   921.7500    119.4936      0.0000    824.4646     12.6607      1.7325
   922.0000    112.6830      0.0000    825.8482     12.7914      1.7233
   922.2500    106.1808      0.0000    829.5793     12.8924      1.7344
   922.5000    100.8670      0.0000    833.7787     12.9637      1.7647
   922.7500     96.8942      0.0000    836.2814     13.0282      1.8024
   923.0000     93.8515      0.0000    836.4379     13.1183      1.8356
   923.2500     91.4217      0.0000    835.7062     13.2474      1.8602
   923.5000     89.7836      0.0000    836.8776     13.3936      1.8799
   923.7500     89.1491      0.0000    842.7551     13.5143      1.8999
   924.0000     89.1797      0.0000    854.7710     13.5747      1.9207
   924.2500     89.4446      0.0000    871.3576     13.5692      1.9367
   924.5000     90.2250      0.0000    886.8723     13.5205      1.9412
   924.7500     92.1061      0.0000    894.2324     13.4597      1.9330
   925.0000     94.8707      0.0000    891.7764     13.4009      1.9168
   925.2500     97.5334      0.0000    888.1251     13.3325      1.8985
   925.5000     99.3839      0.0000    899.2256     13.2334      1.8818
   925.7500    100.4140      0.0000    939.4690     13.0984      1.8680
   926.0000    100.9785      0.0000   1012.3866     12.9432      1.8567
   926.2500    101.6794      0.0000   1105.6206     12.7845      1.8447
   926.5000    103.3532      0.0000   1194.5315     12.6205      1.8279
   926.7500    106.5802      0.0000   1253.2587     12.4369      1.8048
   927.0000    111.0376      0.0000   1264.7335     12.2306      1.7778
   927.2500    115.3789      0.0000   1224.7869     12.0216      1.7511
   927.5000    117.9394      0.0000   1143.6482     11.8432      1.7253
   927.7500    118.0456      0.0000   1044.8997     11.7224      1.6981
   928.0000    116.7776      0.0000    956.1884     11.6682      1.6683
   928.2500    116.1451      0.0000    894.9684     11.6768      1.6389
   928.5000    117.5095      0.0000    862.2089     11.7416      1.6149
   928.7500    120.9670      0.0000    848.5969     11.8563      1.5985
   929.0000    125.6923      0.0000    844.1992     12.0089      1.5894
   929.2500    130.1247      0.0000    843.0610     12.1811      1.5879
   929.5000    132.1471      0.0000    842.7743     12.3529      1.5954
   929.7500    130.2201      0.0000    842.6755     12.5054      1.6115
   930.0000    124.9535      0.0000    842.6595     12.6259      1.6320
   930.2500    119.3584      0.0000    842.6931     12.7147      1.6504
   930.5000    117.0850      0.0000    842.7372     12.7818      1.6603
   930.7500    119.8539      0.0000    842.7551     12.8288      1.6588
   931.0000    126.2027      0.0000    842.7429     12.8346      1.6479
   931.2500    132.7903      0.0000    842.7217     12.7648      1.6338
   931.5000    136.9520      0.0000    842.7069     12.5990      1.6237
   931.7500    137.9559      0.0000    842.6807     12.3567      1.6216
   932.0000    136.5141      0.0000    842.5682     12.0993      1.6275
   932.2500    134.0842      0.0000    842.1776     11.9017      1.6372
   932.5000    132.3897      0.0000    841.0707     11.8075      1.6440
   932.7500    132.4680      0.0000    838.5314     11.8050      1.6414
   933.0000    133.9630      0.0000    833.9942     11.8438      1.6258
   933.2500    135.8358      0.0000    827.9618     11.8750      1.5991
   933.5000    137.3928      0.0000    822.5174     11.8783      1.5678
   933.7500    137.9927      0.0000    820.3424     11.8595      1.5412
   934.0000    136.3471      0.0000    822.6822     11.8291      1.5260
   934.2500    131.3465      0.0000    828.2765     11.7889      1.5234
   934.5000    123.8628      0.0000    834.4508     11.7343      1.5286
   934.7500    117.0183      0.0000    839.1423     11.6642      1.5353
   935.0000    114.0521      0.0000    841.8427     11.5860      1.5402
   935.2500    115.7673      0.0000    843.0768     11.5130      1.5447
   935.5000    120.0867      0.0000    843.5745     11.4551      1.5532
   935.7500    124.0314      0.0000    843.9387     11.4128      1.5693
   936.0000    126.0595      0.0000    844.9828     11.3846      1.5942
   936.2500    126.4728      0.0000    848.4719     11.3841      1.6267
   936.5000    125.9819      0.0000    857.8439     11.4393      1.6650
   936.7500    124.6082      0.0000    876.9896     11.5693      1.7064
   937.0000    122.1138      0.0000    905.3384     11.7681      1.7464
   937.2500    118.8253      0.0000    932.9683     12.0134      1.7797
   937.5000    115.6014      0.0000    944.5215     12.2829      1.8021
   937.7500    113.2432      0.0000    932.3419     12.5559      1.8128
   938.0000    112.2670      0.0000    904.2544     12.8094      1.8167
   938.2500    113.0537      0.0000    875.7263     13.0324      1.8219
   938.5000    115.5852      0.0000    856.6600     13.2391      1.8357
   938.7500    119.0086      0.0000    847.4632     13.4495      1.8614
