~Version Information
 VERS.                                  2.0 : CWLS LAS VERSION
 WRAP.                                   NO : WRAPING MODE
 SWARE .                 MController 2.5.0J : SOFTWARE VERSION
~Well Information
 WELL.                        Desoto 13-7TR : WELL
 COMP.        Pioneer Natural Resources Inc : COMPANY
 FLD.                      Purgatoire River : FIELD
 LOC.                 NW/SW Sec 7 T32S R66W : LOCATION
 DATE.                           1/13-14/05 : DATE(S) LOGGED
 SRVC.       Blanco Geological Services LLC : SERVICE COMPANY
 STAT.                                   CO : STATE
 CNTY.                           Las Animas : COUNTY
 CTRY.                                  USA : COUNTRY
 API.                          05-071-08216 : API NUMBER
 STRT.FT                             945.00 : START DEPTH
 STOP.FT                            2785.00 : STOP DEPTH
 STEP.FT                               1.00 : DEPTH INCREMENT
 NULL.                                -9999 : NULL VALUE
~Curve information
 DEPTH.FT                                   :
 ROP.MIN/FT                                 :
 GAS.UNITS                                  :
~ASCII Log data
# ...
      2145.0         0.23        271.4 
      2146.0         0.23        271.4 
      2147.0         0.27        285.6 
      2148.0         0.27        309.1 
      2149.0         0.23        336.6 
      2150.0         0.27        342.6 
      2151.0         0.27        330.5 
      2152.0         0.23        309.3 
      2153.0         0.20        289.4 
      2154.0         0.30        283.1 
      2155.0         0.27        259.9 
      2156.0         0.27        254.1 
      2157.0         0.27        233.9 
      2158.0         0.28        230.0 
      2159.0         0.30        228.7 
      2160.0         0.23        228.2 
      2161.0         0.33        220.4 
      2162.0         0.27        211.2 
      2163.0         0.27        205.4 
      2164.0         0.23        204.8 
      2165.0         0.27        198.8 
      2166.0         0.23        190.8 
      2167.0         0.23        190.0 
      2168.0         0.27        181.4 
      2169.0         0.27        184.0 
      2170.0         0.27        185.7 
      2171.0         0.28        185.4 
      2172.0         0.27        182.1 
      2173.0         0.20        179.8 
      2174.0         0.23        179.0 
      2175.0         0.23        187.5 
      2176.0         0.30        215.5 
      2177.0         0.30        264.9 
      2178.0         0.30        284.1 
      2179.0         0.30        308.4 
      2180.0         0.30        325.2 
      2181.0         0.30        360.2 
      2182.0         0.33        377.3 
      2183.0         0.38        378.1 
      2184.0         0.33        329.7 
      2185.0         0.27        322.9 
      2186.0         0.27        265.3 
      2187.0         0.27        167.5 
      2188.0         0.43        235.4 
      2189.0         0.30        233.4 
      2190.0         0.33        219.5 
      2191.0         0.30        211.9 
      2192.0         0.30        211.4 
      2193.0         0.27        203.4 
      2194.0         0.28        194.5 
      2195.0         0.27        188.9 
      2196.0         0.27        178.7 
      2197.0         0.30        168.1 
      2198.0         0.30        162.9 
      2199.0         0.37        174.8 
      2200.0         0.37        184.4 
      2201.0         0.20        190.2 
      2202.0         0.20        191.9 
      2203.0         0.17        262.3 
      2204.0         0.20        262.3 
      2205.0         0.17        262.6 
      2206.0         0.17        250.0 
      2207.0         0.27        245.7 
      2208.0         0.35        200.1 
      2209.0         0.30         66.3 
      2210.0         0.30         61.2 
      2211.0         0.27         83.9 
      2212.0         0.27        148.8 
      2213.0         0.27        190.5 
      2214.0         0.27        216.8 
      2215.0         0.23        227.8 
      2216.0         0.40        233.0 
      2217.0         0.35        236.1 
      2218.0         0.27        235.3 
      2219.0         0.23        226.7 
      2220.0         0.30        217.5 
      2221.0         0.37        208.9 
      2222.0         0.27        195.1 
      2223.0         0.23        187.7 
      2224.0         0.23        185.1 
      2225.0         0.27        172.9 
      2226.0         0.27        168.7 
      2227.0         0.27        154.2 
      2228.0         0.27        151.0 
      2229.0         0.25        149.1 
      2230.0         0.23        162.2 
      2231.0         0.23        185.4 
      2232.0         0.23         27.7 
      2233.0         0.20         27.7 
      2234.0         0.20         81.0 
      2235.0         0.13         85.7 
      2236.0         0.17         77.8 
      2237.0         0.17         73.4 
      2238.0         0.20         39.8 
      2239.0         0.30         20.0 
      2240.0         0.23         10.5 
      2241.0         0.23          6.2 
      2242.0         0.17          4.1 
      2243.0         0.20          3.0 
      2244.0         0.30          5.4 
      2245.0         0.28         56.3 
      2246.0         0.28         78.1 
      2247.0         0.27        131.6 
      2248.0         0.23        135.5 
      2249.0         0.27        149.8 
      2250.0         0.27        158.3 
      2251.0         0.27        160.9 
      2252.0         0.23        146.8 
      2253.0         0.27        136.4 
      2254.0         0.20        148.5 
      2255.0         0.17        148.5 
      2256.0         0.17        151.1 
      2257.0         0.13        157.6 
      2258.0         0.17        165.6 
      2259.0         0.13        165.6 
      2260.0         0.17        168.4 
      2261.0         0.17        168.4 
      2262.0         0.20        159.5 
      2263.0         0.25        147.3 
      2264.0         0.17        166.9 
      2265.0         0.13         21.9 
      2266.0         0.23         50.9 
      2267.0         0.23        146.9 
      2268.0         0.40        223.8 
      2269.0         0.37        185.2 
      2270.0         0.37         84.1 
      2271.0         0.27         34.3 
      2272.0         0.27         66.8 
      2273.0         0.27         61.4 
      2274.0         0.27         42.0 
      2275.0         0.27         17.7 
      2276.0         0.27         16.4 
      2277.0         0.27         34.2 
      2278.0         0.32         46.9 
      2279.0         0.27         58.7 
      2280.0         0.27         65.8 
      2281.0         0.30         66.5 
      2282.0         0.20         69.4 
      2283.0         0.27         59.8 
      2284.0         0.27         44.2 
      2285.0         0.30         42.2 
      2286.0         0.17         62.0 
      2287.0         0.20         67.9 
      2288.0         0.17         67.9 
      2289.0         0.17         79.1 
      2290.0         0.17         48.1 
      2291.0         0.17         46.2 
      2292.0         0.17         46.2 
      2293.0         0.25         45.8 
      2294.0         0.20         51.5 
      2295.0         0.23         55.4 
      2296.0         0.20         46.1 
      2297.0         0.23         22.4 
      2298.0         0.20         12.8 
      2299.0         0.23         10.7 
      2300.0         0.23         54.5 
      2301.0         0.23         80.3 
      2302.0         0.20         80.3 
      2303.0         0.27         94.1 
      2304.0         0.07         99.3 
      2305.0         0.30        109.5 
      2306.0         0.27        113.0 
      2307.0         0.37        115.4 
      2308.0         0.37        114.2 
      2309.0         0.40        113.4 
      2310.0         0.42        104.9 
      2311.0         0.37         25.2 
      2312.0         0.37         13.6 
      2313.0         0.37          6.5 
      2314.0         0.37          2.9 
      2315.0         0.37          2.4 
      2316.0         0.33          1.1 
      2317.0         0.33          0.5 
      2318.0         0.30          0.9 
      2319.0         0.30          0.4 
      2320.0         0.32          1.1 
      2321.0         0.30          1.0 
      2322.0         0.20          0.3 
      2323.0         0.23          0.6 
      2324.0         0.20          0.6 
      2325.0         0.20          1.1 
      2326.0         0.33          1.1 
      2327.0         0.40         84.3 
      2328.0         0.40        106.9 
      2329.0         0.40        148.4 
      2330.0         0.33        171.4 
      2331.0         0.35        176.7 
      2332.0         0.33        176.2 
      2333.0         0.37        172.5 
      2334.0         0.33        158.6 
      2335.0         0.30        149.8 
      2336.0         0.37        135.3 
      2337.0         0.30        119.4 
      2338.0         0.37        108.9 
      2339.0         0.50        101.7 
      2340.0         0.28        102.5 
      2341.0         0.30        102.9 
      2342.0         0.27        105.8 
      2343.0         0.27        102.6 
      2344.0         0.27         57.9 
