~Version Information
VERS.                      2.0: CWLS Log ASCII Standard - VERSION 2.0
WRAP.                       NO: One line per depth step
~Well Information Block
STRT.FT               652.0000: 
STOP.FT              1880.5000: 
STEP.FT                 0.2500: 
NULL.                -999.2500: 
COMP.          Pioneer Natural Resources: COMPANY
WELL.          Corkscrew 33-12 Tr: WELL
FLD.           Purgatoire River: FIELD
LOC.           1870' FSL & 1706' FEL: LOCATION
PROV.                 Colorado: PROVINCE
CNTY.               Las Animas: COUNTRY
SRVC.                Patterson: SERVICE COMPANY
DATE.          Mon Mar 28 22:58:28 2005: LOG DATE
UWI.           05 071 08295 00: UNIQUE WELL ID
~Curve Information Block
DEPT.FT            0 000 00 00: Depth
SN.Ohm-m                      : IEL Short Normal
SP.mV                         : IEL Spontaneous Potential
DIR.Ohm-m                     : IEL Induction Resistivity
GR.GAPI                       : Gamma Ray
~Parameter Information Block
~A  Depth        SN          SP         DIR          GR     
# ...
  1288.5000     41.7067    -14.6328     21.5857     47.7320
  1288.7500     40.2431    -14.2124     22.7401     53.0725
  1289.0000     38.3886    -13.8200     23.6238     60.6325
  1289.2500     36.7146    -13.4711     24.0868     64.8253
  1289.5000     35.6472    -13.1867     24.0751     69.8408
  1289.7500     35.2318    -12.9824     23.6600     72.6426
  1290.0000     35.1112    -12.8612     22.9825     76.2560
  1290.2500     34.8642    -12.8140     22.1653     78.0131
  1290.5000     34.2681    -12.8260     21.2681     79.0057
  1290.7500     33.2648    -12.8845     20.3019     78.4534
  1291.0000     31.8425    -12.9821     19.2678     76.4760
  1291.2500     29.9545    -13.1109     18.1863     75.2609
  1291.5000     27.5372    -13.2527     17.0993     75.3928
  1291.7500     24.6968    -13.3753     16.0554     77.4980
  1292.0000     21.8180    -13.4426     15.0927     83.4912
  1292.2500     19.3337    -13.4304     14.2319     88.4998
  1292.5000     17.4241    -13.3381     13.4768     95.7692
  1292.7500     15.9792    -13.1904     12.8187     99.8233
  1293.0000     14.7720    -13.0290     12.2394    104.5735
  1293.2500     13.6435    -12.8972     11.7149    107.1506
  1293.5000     12.5812    -12.8176     11.2214    110.7224
  1293.7500     11.6905    -12.7754     10.7448    112.9620
  1294.0000     11.1019    -12.7262     10.2872    115.5557
  1294.2500     10.8294    -12.6284      9.8646    116.3697
  1294.5000     10.7310    -12.4686      9.4966    116.0767
  1294.7500     10.6548    -12.2602      9.1962    115.3074
  1295.0000     10.5403    -12.0271      8.9645    114.7525
  1295.2500     10.3774    -11.7992      8.7930    115.5829
  1295.5000     10.1642    -11.6154      8.6697    118.6849
  1295.7500      9.9253    -11.5141      8.5829    121.0019
  1296.0000      9.7290    -11.5089      8.5216    122.4382
  1296.2500      9.6174    -11.5745      8.4747    121.2395
  1296.5000      9.5352    -11.6615      8.4327    117.0611
  1296.7500      9.4188    -11.7272      8.3922    114.0635
  1297.0000      9.2967    -11.7539      8.3585    111.0387
  1297.2500      9.2308    -11.7453      8.3430    110.0309
  1297.5000      9.2373    -11.7152      8.3565    109.0226
  1297.7500      9.2920    -11.6802      8.4048    108.2945
  1298.0000      9.3537    -11.6588      8.4866    107.2965
  1298.2500      9.3793    -11.6680      8.5954    106.9584
  1298.5000      9.3638    -11.7193      8.7234    107.0799
  1298.7500      9.3696    -11.8173      8.8647    107.4800
  1299.0000      9.4712    -11.9612      9.0168    108.2311
  1299.2500      9.6913    -12.1469      9.1797    108.4854
  1299.5000     10.0089    -12.3645      9.3537    107.8598
  1299.7500     10.3797    -12.5944      9.5384    106.7536
  1300.0000     10.7405    -12.8091      9.7316    104.7909
  1300.2500     11.0392    -12.9836      9.9271    103.6789
  1300.5000     11.2692    -13.1073     10.1145    102.1784
  1300.7500     11.4620    -13.1865     10.2800    100.9212
  1301.0000     11.6474    -13.2400     10.4121     98.3935
  1301.2500     11.8329    -13.2891     10.5049     96.6016
  1301.5000     12.0132    -13.3499     10.5575     94.8387
  1301.7500     12.1653    -13.4296     10.5695     94.7922
  1302.0000     12.2360    -13.5268     10.5352     96.4515
  1302.2500     12.1656    -13.6317     10.4422     98.2345
  1302.5000     11.9384    -13.7253     10.2776    100.8683
  1302.7500     11.6087    -13.7823     10.0373    102.1716
  1303.0000     11.2649    -13.7816      9.7334    103.0514
  1303.2500     10.9552    -13.7155      9.3926    102.7860
  1303.5000     10.6649    -13.5956      9.0469    101.4844
  1303.7500     10.3598    -13.4516      8.7229    100.8384
  1304.0000     10.0219    -13.3235      8.4347    101.8369
  1304.2500      9.6469    -13.2463      8.1835    104.0516
  1304.5000      9.2367    -13.2363      7.9624    108.4920
  1304.7500      8.7948    -13.2860      7.7628    111.1657
  1305.0000      8.3282    -13.3738      7.5799    113.6501
  1305.2500      7.8583    -13.4801      7.4150    114.2529
  1305.5000      7.4296    -13.6011      7.2727    114.2218
  1305.7500      7.1017    -13.7531      7.1587    114.0811
  1306.0000      6.9295    -13.9640      7.0770    114.2545
  1306.2500      6.9467    -14.2593      7.0299    114.6262
  1306.5000      7.1587    -14.6506      7.0182    115.0692
  1306.7500      7.5317    -15.1310      7.0411    114.9022
  1307.0000      7.9928    -15.6781      7.0955    113.5938
  1307.2500      8.4616    -16.2631      7.1736    112.1689
  1307.5000      8.8782    -16.8615      7.2626    110.0173
  1307.7500      9.2013    -17.4573      7.3461    109.0518
  1308.0000      9.4227    -18.0363      7.4081    108.3921
  1308.2500      9.5744    -18.5756      7.4393    108.0196
  1308.5000      9.6849    -19.0427      7.4418    106.6563
  1308.7500      9.7429    -19.4065      7.4287    105.1495
  1309.0000      9.7109    -19.6519      7.4182    102.9658
  1309.2500      9.5729    -19.7905      7.4259    102.4216
  1309.5000      9.3648    -19.8617      7.4596    104.0198
  1309.7500      9.1524    -19.9190      7.5197    106.6089
  1310.0000      8.9885    -20.0024      7.6027    111.1579
  1310.2500      8.8940    -20.1142      7.7046    113.3001
  1310.5000      8.8705    -20.2211      7.8234    114.0960
  1310.7500      8.9203    -20.2766      7.9592    113.6385
  1311.0000      9.0430    -20.2442      8.1167    113.3106
  1311.2500      9.2273    -20.1108      8.3061    113.5506
  1311.5000      9.4839    -19.8894      8.5433    112.7715
  1311.7500      9.8964    -19.6116      8.8460    109.8887
  1312.0000     10.6102    -19.3143      9.2281    100.3114
  1312.2500     11.7696    -19.0235      9.6938     90.6964
  1312.5000     13.5345    -18.7378     10.2347     74.0458
  1312.7500     16.2174    -18.4204     10.8276     63.6104
  1313.0000     20.3722    -18.0171     11.4350     52.0629
  1313.2500     26.5274    -17.4927     12.0083     47.8568
  1313.5000     34.4293    -16.8569     12.4945     45.9659
  1313.7500     42.4934    -16.1518     12.8452     46.4261
  1314.0000     48.4908    -15.4162     13.0263     47.7834
  1314.2500     50.9297    -14.6632     13.0250     48.7012
  1314.5000     49.5541    -13.8872     12.8504     50.7703
  1314.7500     44.8687    -13.0876     12.5300     53.5735
  1315.0000     37.8063    -12.2906     12.0987     61.5449
  1315.2500     29.7666    -11.5499     11.5889     69.6230
  1315.5000     22.3665    -10.9285     11.0249     84.2566
  1315.7500     16.7567    -10.4706     10.4249     93.8593
  1316.0000     13.1629    -10.1837      9.8061    105.3316
  1316.2500     11.1229    -10.0387      9.1903    110.5224
  1316.5000     10.0302     -9.9854      8.6035    115.1841
  1316.7500      9.4333     -9.9720      8.0707    116.6705
  1317.0000      9.0627     -9.9630      7.6091    117.1345
  1317.2500      8.7856     -9.9473      7.2240    116.7599
  1317.5000      8.5547     -9.9368      6.9107    115.9700
  1317.7500      8.3479     -9.9532      6.6590    115.4858
  1318.0000      8.1301    -10.0098      6.4579    115.0821
  1318.2500      7.8680    -10.0996      6.2978    115.4438
  1318.5000      7.5590    -10.1964      6.1710    117.4611
  1318.7500      7.2301    -10.2670      6.0715    119.3421
  1319.0000      6.9250    -10.2817      5.9957    121.1952
  1319.2500      6.6918    -10.2190      5.9415    121.1735
  1319.5000      6.5460    -10.0705      5.9076    120.0565
  1319.7500      6.4550     -9.8472      5.8917    119.6093
  1320.0000      6.3955     -9.5832      5.8901    120.2634
  1320.2500      6.3982     -9.3244      5.8978    121.1725
  1320.5000      6.4804     -9.1098      5.9111    121.7399
  1320.7500      6.5915     -8.9569      5.9281    120.9609
  1321.0000      6.6857     -8.8589      5.9489    118.0297
  1321.2500      6.7766     -8.7912      5.9753    115.3080
  1321.5000      6.8879     -8.7257      6.0107    110.8682
  1321.7500      7.0112     -8.6466      6.0591    107.9660
