~Version Information
 VERS.                      2.0: CWLS Log ASCII Standard - VERSION 2.0
 WRAP.                       NO: One line per depth step
 ~Well Information Block
 STRT.FT               886.1000: 
 STOP.FT              2599.0000: 
 STEP.FT                 0.1000: 
 NULL.                -999.2500: 
 COMP.          Petrogulf Corporation: COMPANY
 WELL.               YWAM 7-23V: WELL
 FLD.           Purgatorie River: FIELD
 LOC.           230' FSL & 225' FWL: LOCATION
 CNTY.               Las Animas: COUNTY
 SRVC.                         : SERVICE COMPANY
 DATE.          Sat Oct 30 10:42:52 2004: LOG DATE
 UWI.           05 071 08227 00: UNIQUE WELL ID
 STAT.                 Colorado: STATE
 PROV.                         :Province
 ~Curve Information Block
 DEPT.FT            0 000 00 00: Depth
 DCAL.in                       : CDL Caliper
 RHOB.g/cc                     : CDL Bulk Density
 RHOC.g/cc                     : CDL Density Correction
 DPOR.pu                       : CDL Density Porosity
 GR.GAPI                       : Gamma Ray
 NPOR.pu                       : Neutron Porosity
 ~Parameter Information Block
 ~A  Depth       DCAL        RHOB        RHOC        DPOR         GR         NPOR    
# ...
  1020.5000      8.0793      2.5261      0.0068      7.5075    137.6947     27.3473
  1020.6000      8.0793      2.5430      0.0518      6.4832    144.1445     27.2034
  1020.7000      8.0793      2.5485      0.0410      6.1521    149.4508     27.1326
  1020.8000      8.0664      2.5500      0.0417      6.0612    149.0401     27.0488
  1020.9000      8.0664      2.5562      0.0972      5.6857    144.7273     26.8520
  1021.0000      8.0578      2.5578      0.0847      5.5887    138.6364     26.5985
  1021.1000      8.0578      2.5533      0.0680      5.8576    133.2764     26.2603
  1021.2000      8.0578      2.5547      0.0725      5.7773    130.2254     25.9031
  1021.3000      8.0386      2.5613      0.0723      5.3767    124.2301     25.7468
  1021.4000      8.0386      2.5627      0.1028      5.2890    113.0278     25.6434
  1021.5000      8.0371      2.5575      0.1079      5.6064    101.0014     25.0316
  1021.6000      8.0371      2.5556      0.0847      5.7182     90.7126     23.7647
  1021.7000      8.0371      2.5656      0.0522      5.1154     84.5545     22.6181
  1021.8000      8.0159      2.5824      0.0710      4.0955     81.4941     22.0704
  1021.9000      8.0159      2.5910      0.0888      3.5748     75.9272     21.7142
  1022.0000      8.0013      2.5805      0.0682      4.2106     68.8782     21.2673
  1022.1000      8.0013      2.5600      0.0467      5.4556     65.1837     20.8286
  1022.2000      8.0013      2.5495      0.0863      6.0926     63.4194     20.3842
  1022.3000      7.9932      2.5538      0.0867      5.8277     60.4429     20.0552
  1022.4000      7.9932      2.5640      0.0823      5.2108     58.1492     19.9662
  1022.5000      7.9637      2.5726      0.1032      4.6886     61.1032     19.8895
  1022.6000      7.9637      2.5777      0.0784      4.3831     68.1707     19.4902
  1022.7000      7.9637      2.5840      0.0417      3.9985     71.6720     18.6056
  1022.8000      7.9658      2.5909      0.0726      3.5793     69.8338     17.5131
  1022.9000      7.9658      2.5870      0.0618      3.8166     68.7831     16.9096
  1023.0000      7.9565      2.5743      0.0526      4.5885     71.1865     16.9455
  1023.1000      7.9565      2.5639      0.0994      5.2167     72.7438     16.9710
  1023.2000      7.9565      2.5559      0.0623      5.7023     70.0536     16.7095
  1023.3000      7.9640      2.5518      0.0498      5.9517     65.9855     16.5457
  1023.4000      7.9640      2.5474      0.0833      6.2152     65.0885     16.6581
  1023.5000      7.9948      2.5339      0.0068      7.0359     67.9345     16.7938
  1023.6000      7.9948      2.5300     -0.0123      7.2743     73.6441     16.8737
  1023.7000      7.9948      2.5527      0.0485      5.8992     81.9841     17.2781
  1023.8000      8.0239      2.5829      0.0496      4.0657     90.9496     18.2098
  1023.9000      8.0239      2.5937      0.0614      3.4143     97.8929     19.4632
  1024.0000      8.0649      2.5792      0.0841      4.2885    102.4810     20.6257
  1024.1000      8.0649      2.5525      0.0416      5.9118    108.2619     21.4686
  1024.2000      8.0649      2.5259      0.0264      7.5211    119.3615     22.4116
  1024.3000      8.0646      2.5101      0.0103      8.4818    133.0494     23.6146
  1024.4000      8.0646      2.5163     -0.0387      8.1036    140.8550     24.3975
  1024.5000      8.0593      2.5401      0.0547      6.6592    138.6840     24.6512
  1024.6000      8.0593      2.5571      0.0900      5.6306    133.9788     25.2693
  1024.7000      8.0593      2.5551      0.0611      5.7510    137.2644     26.2659
  1024.8000      8.0636      2.5482      0.0452      6.1701    142.7602     26.8193
  1024.9000      8.0636      2.5539      0.0380      5.8249    137.2717     27.0415
  1025.0000      8.0699      2.5680      0.0476      4.9692    123.1009     27.3835
  1025.1000      8.0699      2.5751      0.0275      4.5376    112.6900     27.7073
  1025.2000      8.0699      2.5722      0.0476      4.7176    111.9060     27.8961
  1025.3000      8.0735      2.5637      0.0629      5.2303    116.1852     28.1194
  1025.4000      8.0735      2.5595      0.0021      5.4822    119.8640     28.6029
  1025.5000      8.0693      2.5666      0.0500      5.0542    122.9821     29.4064
  1025.6000      8.0693      2.5790      0.0548      4.3004    124.0585     30.2712
  1025.7000      8.0693      2.5896      0.0567      3.6624    120.9361     30.7809
  1025.8000      8.0321      2.5927      0.0471      3.4744    118.3466     30.6233
  1025.9000      8.0321      2.5874      0.0317      3.7962    118.6852     29.9560
  1026.0000      8.0290      2.5799      0.0560      4.2462    118.9385     29.2635
  1026.1000      8.0290      2.5776      0.0362      4.3878    119.9765     28.8359
  1026.2000      8.0290      2.5825      0.0472      4.0897    122.5839     28.5089
  1026.3000      8.0344      2.5867      0.0643      3.8348    122.6407     28.1341
  1026.4000      8.0344      2.5792      0.0853      4.2923    118.6816     27.6671
  1026.5000      8.0213      2.5617      0.0432      5.3504    115.0474     26.8998
  1026.6000      8.0213      2.5479      0.0418      6.1869    115.3224     26.1150
  1026.7000      8.0213      2.5436      0.0600      6.4512    117.5711     25.6545
  1026.8000      8.0199      2.5477      0.0533      6.2023    115.2765     25.3157
  1026.9000      8.0199      2.5620      0.0272      5.3322    107.5704     25.2648
  1027.0000      8.0326      2.5834      0.0531      4.0379    101.3705     25.6168
  1027.1000      8.0326      2.6017      0.0774      2.9262     99.4959     25.7836
  1027.2000      8.0326      2.6075      0.0538      2.5744    101.5458     25.4520
  1027.3000      8.0520      2.5921      0.0644      3.5112    107.1693     25.0932
  1027.4000      8.0520      2.5583      0.0416      5.5555    112.9376     24.9792
  1027.5000      8.0623      2.5316      0.0090      7.1753    115.3269     24.9018
  1027.6000      8.0623      2.5253      0.0746      7.5598    113.2044     24.7461
  1027.7000      8.0623      2.5206      0.0374      7.8397    107.2805     24.6083
  1027.8000      8.0629      2.5055      0.0607      8.7549    101.9422     24.3430
  1027.9000      8.0629      2.4900      0.0665      9.6964    101.6426     23.9899
  1028.0000      8.0678      2.4820      0.0669     10.1817    106.3717     24.0158
  1028.1000      8.0678      2.4753      0.0460     10.5871    112.6252     24.3739
  1028.2000      8.0678      2.4674     -0.0059     11.0693    116.2416     24.8249
  1028.3000      8.0770      2.4624      0.0357     11.3674    117.4209     25.4918
  1028.4000      8.0770      2.4580      0.0137     11.6384    118.1099     26.0751
  1028.5000      8.0830      2.4537      0.0369     11.8951    117.8379     26.1296
  1028.6000      8.0830      2.4559      0.0504     11.7648    116.8708     26.0399
  1028.7000      8.0830      2.4635      0.0143     11.3018    117.5673     26.4360
  1028.8000      8.0888      2.4672      0.0265     11.0793    121.5741     27.2604
  1028.9000      8.0888      2.4657      0.0075     11.1698    128.9483     28.0163
  1029.0000      8.0959      2.4721      0.0217     10.7816    136.9442     28.3337
  1029.1000      8.0959      2.4938      0.0338      9.4664    136.9153     28.1387
  1029.2000      8.0959      2.5205      0.0616      7.8513    126.4272     27.8835
  1029.3000      8.1010      2.5385      0.0585      6.7567    115.7695     28.1919
  1029.4000      8.1010      2.5535      0.0470      5.8467    112.2428     28.9917
  1029.5000      8.1183      2.5784      0.0298      4.3411    114.7520     29.6733
  1029.6000      8.1183      2.5993      0.1128      3.0749    117.9516     30.0178
  1029.7000      8.1183      2.5942      0.0388      3.3813    114.9266     30.2024
  1029.8000      8.1128      2.5760      0.0481      4.4848    106.7980     30.0925
  1029.9000      8.1128      2.5645      0.0379      5.1822    101.7328     29.5080
  1030.0000      8.0863      2.5563      0.0348      5.6803    102.2509     28.8920
