~Version Information
 VERS.                                  2.0 : CWLS LAS VERSION
 WRAP.                                   NO : WRAPING MODE
 SWARE .                 MController 2.5.0E : SOFTWARE VERSION
~Well Information
 WELL.                                  N/A : WELL
 COMP.                                  N/A : COMPANY
 FLD.                                   N/A : FIELD
 LOC.                                   N/A : LOCATION
 DATE.                                  N/A : DATE(S) LOGGED
 SRVC.                                  N/A : SERVICE COMPANY
 STAT.                                  N/A : STATE
 CNTY.                                  N/A : COUNTY
 CTRY.                                  N/A : COUNTRY
 API.                                   N/A : API NUMBER
 STRT.FT                             951.00 : START DEPTH
 STOP.FT                            2600.00 : STOP DEPTH
 STEP.FT                               1.00 : DEPTH INCREMENT
 NULL.                                -9999 : NULL VALUE
~Curve information
 DEPTH.FT                                   :
 ROP.MIN/FT                                 :
 GAS.UNITS                                  :
~ASCII Log data
# ...
     1951.00        0.433         64.5 
     1952.00        0.367         57.1 
     1953.00        0.417         52.1 
     1954.00        0.300         48.3 
     1955.00        0.300         41.7 
     1956.00        0.300         36.4 
     1957.00        0.267         33.4 
     1958.00        0.400         32.0 
     1959.00        0.300         31.4 
     1960.00        0.367         32.4 
     1961.00        0.333         40.4 
     1962.00        0.333         42.8 
     1963.00        0.283         38.5 
     1964.00        0.267         22.2 
     1965.00        0.267         11.2 
     1966.00        0.267          6.7 
     1967.00        0.400         10.0 
     1968.00        0.300         17.8 
     1969.00        0.300         28.9 
     1970.00        0.267         43.1 
     1971.00        0.267         59.8 
     1972.00        0.300         79.2 
     1973.00        0.483         97.7 
     1974.00        0.500        122.2 
     1975.00        0.633        121.9 
     1976.00        5.800        175.7 
     1977.00        1.033          9.5 
     1978.00        0.767          4.7 
     1979.00        0.800         12.7 
     1980.00        0.783         22.6 
     1981.00        0.833         21.7 
     1982.00        0.700         24.6 
     1983.00        0.400         25.9 
     1984.00        0.933         30.0 
     1985.00        0.750         26.5 
     1986.00        0.733         10.0 
     1987.00        0.467         24.3 
     1988.00        0.500         65.2 
     1989.00        0.500         84.0 
     1990.00        0.467         79.4 
     1991.00        0.617         48.4 
     1992.00        0.733         61.7 
     1993.00        0.500         61.3 
     1994.00        0.400         18.9 
     1995.00        0.267          6.6 
     1996.00        0.367         14.3 
     1997.00        0.333         22.0 
     1998.00        0.450         24.0 
     1999.00        0.400          6.0 
     2000.00        0.400         23.9 
     2001.00        0.400         50.3 
     2002.00        0.367        107.3 
     2003.00        0.433        237.7 
     2004.00        0.300        271.2 
     2005.00        0.300        265.6 
     2006.00        7.100        220.3 
     2007.00        0.450          1.1 
     2008.00        0.500         28.5 
     2009.00        0.433         42.5 
     2010.00        0.600         41.5 
     2011.00        0.833         37.2 
     2012.00        0.533         34.4 
     2013.00        0.550         28.9 
     2014.00        0.467         16.8 
     2015.00        0.367         11.8 
     2016.00        0.433         32.1 
     2017.00        0.333         33.3 
     2018.00        0.400         13.0 
     2019.00        0.300        -11.1 
     2020.00        0.300        -11.2 
     2021.00        0.200        -11.1 
     2022.00        0.217        -11.2 
     2023.00        0.267         -0.5 
     2024.00        0.267          9.8 
     2025.00        0.267         20.2 
     2026.00        0.233         30.3 
     2027.00        0.233         45.0 
     2028.00        0.233         61.2 
     2029.00        0.267         77.1 
     2030.00        0.333        133.1 
     2031.00        0.333        229.9 
     2032.00        0.367        255.9 
     2033.00        0.300        242.8 
     2034.00        0.350        172.9 
     2035.00        0.300         93.1 
     2036.00        5.283        173.3 
     2037.00        1.283         -3.5 
     2038.00        0.600          1.6 
     2039.00        0.533         -2.4 
     2040.00        0.633         25.5 
     2041.00        0.367         45.3 
     2042.00        0.367         60.5 
     2043.00        0.333         71.3 
     2044.00        0.383         71.5 
     2045.00        0.400         55.2 
     2046.00        0.433         28.2 
     2047.00        0.767         19.0 
     2048.00        0.733         28.3 
     2049.00        0.333          1.3 
     2050.00        0.333        -11.1 
     2051.00        0.350        -11.2 
     2052.00        0.300         -7.8 
     2053.00        0.300         -0.3 
     2054.00        0.300          7.2 
     2055.00        0.400         18.7 
     2056.00        0.500         42.8 
     2057.00        0.200         56.8 
     2058.00        0.267         81.3 
     2059.00        0.267        130.9 
     2060.00        0.233        214.8 
     2061.00        0.267        281.1 
     2062.00        0.283        294.0 
     2063.00        0.167        269.0 
     2064.00        0.200        221.4 
     2065.00        0.200        159.5 
     2066.00        5.517        161.3 
     2067.00        1.050        -11.1 
     2068.00        0.400        -11.1 
     2069.00        0.433        -11.1 
     2070.00        0.467        -11.1 
     2071.00        0.533        -11.2 
     2072.00        0.300         -8.7 
     2073.00        0.300         -4.2 
     2074.00        0.450         10.7 
     2075.00        0.633         36.8 
     2076.00        0.900         50.8 
     2077.00        0.500         50.6 
     2078.00        0.367         17.8 
     2079.00        0.367        -11.1 
     2080.00        0.283        -11.2 
     2081.00        0.300        -11.1 
     2082.00        0.300         -9.3 
     2083.00        0.300         -0.6 
     2084.00        0.300          7.6 
     2085.00        0.267         15.6 
     2086.00        0.267         25.4 
     2087.00        0.233         36.6 
     2088.00        0.200         49.0 
     2089.00        0.267         67.4 
     2090.00        0.233         88.8 
     2091.00        0.267        136.0 
     2092.00        0.267        190.4 
     2093.00        0.283        211.2 
     2094.00        0.267        203.5 
     2095.00        0.267        150.2 
     2096.00        6.300        218.8 
     2097.00        0.567        -11.1 
     2098.00        0.600        -11.1 
     2099.00        0.500        -11.1 
     2100.00        0.367        -11.2 
     2101.00        0.633        -11.1 
     2102.00        0.717        -11.1 
     2103.00        0.433         -5.1 
     2104.00        0.400         13.4 
     2105.00        0.367         31.4 
     2106.00        0.367         43.8 
     2107.00        0.400         44.6 
     2108.00        0.567         42.6 
     2109.00        0.400         41.0 
     2110.00        0.383          7.7 
     2111.00        0.333        -11.2 
     2112.00        0.333        -11.1 
     2113.00        0.333        -11.2 
     2114.00        0.300         -8.4 
     2115.00        0.300         -0.2 
     2116.00        0.333          9.3 
     2117.00        0.333         20.7 
     2118.00        0.333         33.9 
     2119.00        0.333         51.0 
     2120.00        0.283         71.1 
     2121.00        0.233         95.4 
     2122.00        0.233        136.7 
     2123.00        0.267        235.0 
     2124.00        0.300        310.7 
     2125.00        0.300        312.9 
     2126.00        6.067        268.6 
     2127.00        0.800        -11.1 
     2128.00        0.733        -11.1 
     2129.00        0.767        -11.1 
     2130.00        0.717        -11.1 
     2131.00        0.700        -11.1 
     2132.00        0.667        -11.1 
     2133.00        0.667        -11.1 
     2134.00        0.633          0.5 
     2135.00        0.683          2.1 
     2136.00        0.467         -2.1 
     2137.00        0.533         -7.8 
     2138.00        0.400        -11.2 
     2139.00        0.467        -11.1 
     2140.00        0.267        -11.2 
     2141.00        0.367          4.0 
     2142.00        0.417         14.5 
     2143.00        0.433         -2.3 
     2144.00        0.367        -11.1 
     2145.00        0.333        -11.2 
     2146.00        0.300        -11.2 
     2147.00        0.333          4.5 
     2148.00        0.433         25.8 
     2149.00        0.367         38.5 
     2150.00        0.367         50.7 
