~Version Information
VERS.                      2.0: CWLS Log ASCII Standard - VERSION 2.0
WRAP.                       NO: One line per depth step
~Well Information Block
STRT.FT               -11.0000: 
STOP.FT              1523.2500: 
STEP.FT                 0.2500: 
NULL.                -999.2500: 
COMP.          Petrogulf Corporation: COMPANY
WELL.             State 16-43R: WELL
FLD.           Purgatorie River: FIELD
LOC.           2538' FSL & 716' FEL--: LOCATION
PROV.                       CO: PROVINCE
CNTY.               Las Animas: COUNTRY
SRVC.          Patterson Wireline: SERVICE COMPANY
DATE.          Fri Sep 09 13:13:52 2005: LOG DATE
UWI.           05 071 08338 00: UNIQUE WELL ID
~Curve Information Block
DEPT.FT            0 000 00 00: Depth
CCL.                          : Casing Collar Locator
TT3.usec                      : CBL 3' Travel Time
AMP3.mV                       : CBL 3' Amplitude
GR.GAPI                       : Gamma Ray
~Parameter Information Block
~A  Depth       CCL         TT3         AMP3         GR     
# ...
   692.5000      0.0000    479.6296     21.2157    115.4305
   692.7500      0.0000    498.9821     21.3220    114.5439
   693.0000      0.0000    538.1953     21.4182    112.1956
   693.2500      0.0000    592.0502     21.5208    107.1557
   693.5000      0.0000    649.3878     21.6417     99.5676
   693.7500      0.0000    697.9349     21.7645     90.9657
   694.0000      0.0000    730.9182     21.8373     83.4203
   694.2500      0.0000    748.5112     21.7864     78.5082
   694.5000      0.0000    754.5283     21.5365     76.7873
   694.7500      0.0000    753.4263     21.0311     77.7654
   695.0000      0.0000    749.5409     20.2649     80.3026
   695.2500      0.0000    746.5018     19.3126     83.3092
   695.5000      0.0000    745.9609     18.3185     85.9954
   695.7500      0.0000    747.2472     17.4322     87.5125
   696.0000      0.0000    748.7560     16.7343     87.0924
   696.2500      0.0000    749.5176     16.2080     84.9439
   696.5000      0.0000    749.5554     15.7757     82.5129
   696.7500      0.0000    749.3137     15.3645     81.3958
   697.0000      0.0000    749.2083     14.9464     82.2513
   697.2500      0.0000    749.6547     14.5338     84.9595
   697.5000      0.0000    751.3132     14.1517     89.2459
   697.7500      0.0000    754.9283     13.8182     94.6095
   698.0000      0.0000    760.3920     13.5433    100.0119
   698.2500      0.0000    765.7963     13.3381    104.2464
   698.5000      0.0000    768.1960     13.2164    106.6020
   698.7500      0.0000    766.1289     13.1777    107.1731
   699.0000      0.0000    761.0892     13.1932    106.8987
   699.2500      0.0000    756.0237     13.2161    107.2960
   699.5000      0.0000    752.8080     13.2135    109.5587
   699.7500      0.0000    751.4593     13.1874    113.5866
   700.0000      0.0000    751.0046     13.1632    117.9696
   700.2500      0.0000    750.3697     13.1613    121.0236
   700.5000      0.0000    748.7295     13.1779    121.9344
   700.7500      0.0000    745.8843     13.1917    120.9638
   701.0000      0.0000    742.8854     13.1825    118.6977
   701.2500      0.0000    741.9324     13.1427    115.4956
   701.5000      0.0000    744.6873     13.0763    111.7352
   701.7500      0.0000    750.3456     12.9961    108.2048
   702.0000      0.0000    756.1044     12.9218    105.9673
   702.2500      0.0000    760.0608     12.8730    105.6972
   702.5000      0.0000    763.1308     12.8534    106.8976
   702.7500      0.0000    767.6926     12.8445    107.7426
   703.0000      0.0000    774.9348     12.8211    106.1521
   703.2500      0.0000    784.1841     12.7755    101.4844
   703.5000      0.0000    794.1803     12.7263     95.1128
   703.7500      0.0000    803.6703     12.7066     89.2986
   704.0000      0.0000    810.8401     12.7480     85.8633
   704.2500      0.0000    813.7507     12.8686     85.9341
   704.5000      0.0000    812.0193     13.0638     90.0391
   704.7500      0.0000    807.2714     13.3004     97.5554
   705.0000      0.0000    801.6097     13.5205    106.1984
   705.2500      0.0000    796.1983     13.6612    112.9650
   705.5000      0.0000    791.0515     13.6838    116.1045
   705.7500      0.0000    784.9778     13.5914    116.1432
   706.0000      0.0000    775.6775     13.4211    115.0210
   706.2500      0.0000    761.7437     13.2200    114.4996
   706.5000      0.0000    745.9169     13.0255    115.3789
   706.7500      0.0000    735.4316     12.8577    117.5875
   707.0000      0.0000    737.3434     12.7186    120.4241
   707.2500      0.0000    752.3074     12.5922    122.8042
   707.5000      0.0000    772.4492     12.4500    123.7822
   707.7500      0.0000    785.8532     12.2616    123.2064
   708.0000      0.0000    784.0862     12.0090    122.1065
   708.2500      0.0000    766.0548     11.7004    122.3315
   708.5000      0.0000    736.2361     11.3737    125.3050
   708.7500      0.0000    701.7540     11.0801    130.9848
   709.0000      0.0000    671.6427     10.8571    138.2408
   709.2500      0.0000    655.8569     10.7151    145.8924
   709.5000      0.0000    661.1933     10.6477    152.6606
   709.7500      0.0000    686.4577     10.6536    156.5897
   710.0000      0.0000    721.8648     10.7497    155.8852
   710.2500      0.0000    754.3986     10.9645    150.7965
   710.5000      0.0000    775.0464     11.3150    143.8597
   710.7500      0.0000    782.0367     11.7821    137.6383
   711.0000      0.0000    778.9722     12.3062    132.6124
   711.2500      0.0000    771.2426     12.8125    127.5882
   711.5000      0.0000    763.4222     13.2457    121.5423
   711.7500      0.0000    758.0919     13.5832    114.6332
   712.0000      0.0000    755.9279     13.8248    108.2396
   712.2500      0.0000    756.5362     13.9821    104.6321
   712.5000      0.0000    758.9750     14.0765    105.7336
   712.7500      0.0000    761.6906     14.1272    111.4865
   713.0000      0.0000    762.8377     14.1278    119.9218
   713.2500      0.0000    761.2879     14.0425    128.9355
   713.5000      0.0000    757.1267     13.8380    137.3043
   713.7500      0.0000    751.0084     13.5190    144.1216
   714.0000      0.0000    743.8596     13.1306    148.4497
   714.2500      0.0000    737.8551     12.7307    150.1005
   714.5000      0.0000    736.5072     12.3601    150.0543
   714.7500      0.0000    741.8969     12.0318    149.4368
   715.0000      0.0000    751.8536     11.7417    148.4028
   715.2500      0.0000    761.6304     11.4884    146.4833
   715.5000      0.0000    768.6688     11.2822    143.6459
   715.7500      0.0000    774.1504     11.1351    140.4073
   716.0000      0.0000    779.5715     11.0467    136.9870
   716.2500      0.0000    783.4816     11.0024    132.8254
   716.5000      0.0000    782.2841     10.9852    127.0540
   716.7500      0.0000    772.9852     10.9867    119.5299
   717.0000      0.0000    755.2372     11.0084    111.5784
   717.2500      0.0000    732.9353     11.0570    105.6564
   717.5000      0.0000    713.9151     11.1365    103.9340
   717.7500      0.0000    704.8102     11.2420    106.8492
   718.0000      0.0000    704.9792     11.3634    112.8197
   718.2500      0.0000    707.6967     11.4946    119.2888
   718.5000      0.0000    707.7426     11.6364    124.1935
   718.7500      0.0000    705.7936     11.7895    126.7990
   719.0000      0.0000    705.7386     11.9491    127.5342
   719.2500      0.0000    710.3293     12.1063    127.2023
   719.5000      0.0000    719.9217     12.2527    126.3481
   719.7500      0.0000    733.1095     12.3859    125.2591
   720.0000      0.0000    746.9833     12.5134    124.3087
   720.2500      0.0000    757.7982     12.6467    124.0614
   720.5000      0.0000    762.9680     12.7840    124.8635
   720.7500      0.0000    762.6978     12.9019    126.3154
   721.0000      0.0000    759.4539     12.9712    127.3333
   721.2500      0.0000    755.9326     12.9820    126.8178
   721.5000      0.0000    753.5690     12.9471    124.2550
   721.7500      0.0000    752.4738     12.8845    120.0196
   722.0000      0.0000    752.1633     12.8018    115.4939
   722.2500      0.0000    752.1716     12.6973    112.6756
   722.5000      0.0000    752.2375     12.5698    113.0567
   722.7500      0.0000    752.2068     12.4172    116.5154
   723.0000      0.0000    751.9393     12.2222    121.2817
   723.2500      0.0000    751.4508     11.9409    125.1177
   723.5000      0.0000    751.3973     11.5296    126.7008
   723.7500      0.0000    753.5442     11.0072    126.0469
   724.0000      0.0000    760.3363     10.4760    123.9583
   724.2500      0.0000    773.5473     10.0488    121.3598
   724.5000      0.0000    793.1256      9.7653    118.9124
   724.7500      0.0000    816.8236      9.6088    116.7181
   725.0000      0.0000    840.0919      9.5636    114.3162
   725.2500      0.0000    856.6729      9.6053    111.2243
   725.5000      0.0000    861.2715      9.6773    107.5734
   725.7500      0.0000    852.8865      9.7366    104.0612
