~Version Information
VERS.                      2.0: CWLS Log ASCII Standard - VERSION 2.0
WRAP.                       NO: One line per depth step
~Well Information Block
STRT.FT                 0.0000: 
STOP.FT              1439.5000: 
STEP.FT                 0.2500: 
NULL.                -999.2500: 
COMP.          Petrogulf Corporation: COMPANY
WELL.          Robinson 15-12R: WELL
FLD.           Purgatorie River: FIELD
LOC.           1752' FNL & 561' FWL: LOCATION
PROV.                 Colorado: PROVINCE
CNTY.               Las Animas: COUNTRY
SRVC.                Patterson: SERVICE COMPANY
DATE.          Tue Oct 04 09:17:52 2005: LOG DATE
UWI.                          : UNIQUE WELL ID
~Curve Information Block
DEPT.FT            0 000 00 00: Depth
GR.GAPI                       : Gamma Ray
CCL.                          : Casing Collar Locator
TT3.usec                      : CBL 3' Travel Time
AMP3.mV                       : CBL 3' Amplitude
~Parameter Information Block
~A  Depth        GR         CCL         TT3         AMP3    
# ...
   737.0000     51.5909      0.0000    750.8192      5.5304
   737.2500     56.6596      0.0000    777.0353      5.4345
   737.5000     61.2268      0.0000    793.7955      5.0616
   737.7500     66.5206      0.0000    808.8309      4.6301
   738.0000     73.6102      0.0000    832.4423      4.4241
   738.2500     82.5668      0.0000    866.0146      4.3739
   738.5000     92.6530      0.0000    897.5645      4.2059
   738.7500    102.8390      0.0000    905.5129      3.9267
   739.0000    112.1395      0.0000    877.1813      3.7124
   739.2500    119.7821      0.0000    828.4210      3.6188
   739.5000    125.2299     -2.0000    786.8868      3.6190
   739.7500    128.1569      0.0000    762.1917      3.6406
   740.0000    128.5883      0.0000    750.1870      3.5988
   740.2500    126.9650      0.0000    747.9410      3.5481
   740.5000    123.7237      0.0000    764.2386      3.6919
   740.7500    118.7036      0.0000    820.7158      4.0775
   741.0000    111.3587      0.0000    913.0509      4.3636
   741.2500    101.7961      0.0000    981.6774      4.2074
   741.5000     91.2277      0.0000    969.1754      3.7320
   741.7500     81.1845      0.0000    900.3033      3.2685
   742.0000     72.6416      0.0000    863.9326      2.9928
   742.2500     66.0884      0.0000    912.8686      2.9639
   742.5000     62.0031      0.0000   1008.7059      3.1961
   742.7500     60.9360      0.0000   1075.6144      3.6274
   743.0000     63.2612      0.0000   1086.5686      4.0890
   743.2500     68.9955      0.0000   1073.7150      4.4060
   743.5000     77.6641      0.0000   1074.7810      4.5985
   743.7500     88.0990      0.0000   1095.0017      4.8515
   744.0000     98.5360      0.0000   1111.3311      5.2806
   744.2500    107.3272      0.0000   1092.3441      5.9153
   744.5000    113.7926      0.0000   1019.3146      6.8220
   744.7500    118.3080      0.0000    912.6851      8.0688
   745.0000    121.5486      0.0000    815.4182      9.6471
   745.2500    123.6857      0.0000    733.7316     11.4411
   745.5000    124.2864      0.0000    639.0159     13.2180
   745.7500    123.0248      0.0000    530.4387     14.7281
   746.0000    120.4934      0.0000    443.4459     15.8889
   746.2500    118.1478      0.0000    398.1463     16.8426
   746.5000    117.1793      0.0000    381.6768     17.8333
   746.7500    117.4139      0.0000    373.6876     19.0739
   747.0000    117.5248      0.0000    363.2246     20.6890
   747.2500    116.3649      0.0000    348.5060     22.6726
   747.5000    113.7705      0.0000    332.4733     24.8463
   747.7500    110.0549      0.0000    318.7683     26.8830
   748.0000    105.4625      0.0000    309.6882     28.4059
   748.2500    100.6312      0.0000    305.4774     29.1309
   748.5000     96.9921      0.0000    305.3552     29.0203
   748.7500     95.8904      0.0000    309.7856     28.2834
   749.0000     97.3636      0.0000    322.0620     27.1022
   749.2500    100.0341      0.0000    351.0224     25.4587
   749.5000    102.0581      0.0000    412.9827     23.3508
   749.7500    102.1800      0.0000    516.6495     20.9585
   750.0000    100.4261      0.0000    637.4456     18.5011
   750.2500     98.2424      0.0000    730.7682     16.1256
   750.5000     97.7472      0.0000    777.8108     13.9500
   750.7500    100.2766      0.0000    793.4872     12.0886
   751.0000    105.3259      0.0000    798.4457     10.6139
   751.2500    111.0319      0.0000    806.2460      9.5134
   751.5000    115.8302      0.0000    828.0962      8.6646
   751.7500    119.5168      0.0000    869.3998      7.8936
   752.0000    122.6425      0.0000    916.5637      7.1333
   752.2500    125.1859      0.0000    942.7226      6.5004
   752.5000    126.2651      0.0000    936.5639      6.1889
   752.7500    125.1698      0.0000    911.4329      6.2906
   753.0000    122.2718      0.0000    881.9077      6.6810
   753.2500    118.7634      0.0000    853.9199      7.0990
   753.5000    115.8499      0.0000    837.1707      7.3866
   753.7500    114.2471      0.0000    836.6772      7.6147
   754.0000    114.0904      0.0000    838.6400      7.9569
   754.2500    115.0956      0.0000    828.9323      8.4764
   754.5000    116.9502      0.0000    812.6746      9.0419
   754.7500    119.5568      0.0000    801.2710      9.4707
   755.0000    122.6363      0.0000    796.8412      9.6956
   755.2500    125.1330      0.0000    795.8703      9.7434
   755.5000    125.6893      0.0000    795.2490      9.6326
   755.7500    124.1411      0.0000    791.4313      9.2985
   756.0000    121.9799      0.0000    779.1463      8.6022
   756.2500    120.5185      0.0000    757.1932      7.5054
   756.5000    118.8911      0.0000    737.3953      6.2259
   756.7500    114.9092      0.0000    736.6970      5.1074
   757.0000    107.9782      0.0000    755.2054      4.3319
   757.2500    100.2063      0.0000    776.0203      3.8237
   757.5000     94.4737      0.0000    786.7343      3.4441
   757.7500     92.2432      0.0000    787.3602      3.2077
   758.0000     93.2740      0.0000    783.2001      3.2481
   758.2500     96.4489      0.0000    779.8039      3.6492
   758.5000    100.4627      0.0000    779.2182      4.4052
   758.7500    104.2770      0.0000    779.1106      5.5185
   759.0000    107.5217      0.0000    777.0422      7.0699
   759.2500    110.5680      0.0000    766.0515      9.1191
   759.5000    114.2338      0.0000    726.2972     11.5225
   759.7500    119.2566      0.0000    641.9449     13.9739
   760.0000    125.4777      0.0000    532.1051     16.2525
   760.2500    131.2016      0.0000    439.5110     18.3137
   760.5000    133.9766      0.0000    384.8152     20.1193
   760.7500    132.5113      0.0000    358.1586     21.5569
   761.0000    127.4730      0.0000    344.7878     22.6019
   761.2500    120.3135      0.0000    336.0986     23.3611
   761.5000    112.0740      0.0000    327.6672     23.9047
   761.7500    103.6109      0.0000    320.0504     24.1997
   762.0000     96.1556      0.0000    318.3351     24.1444
   762.2500     91.0584      0.0000    326.8385     23.6124
   762.5000     89.2402      0.0000    343.8928     22.6371
   762.7500     90.9931      0.0000    361.9274     21.6005
   763.0000     95.8495      0.0000    373.0576     21.0521
   763.2500    102.4089      0.0000    373.4952     21.2435
   763.5000    108.6185      0.0000    362.9865     21.9618
   763.7500    112.7039      0.0000    344.7581     22.8769
   764.0000    114.1999      0.0000    325.9651     23.8688
   764.2500    114.1988      0.0000    313.0600     24.9717
   764.5000    114.4295      0.0000    306.9708     26.1957
   764.7500    115.8103      0.0000    304.8985     27.4520
   765.0000    117.7330      0.0000    304.7785     28.5205
   765.2500    118.7108      0.0000    307.4638     29.0503
   765.5000    117.6624      0.0000    316.6388     28.7188
   765.7500    114.6282      0.0000    335.2315     27.4783
   766.0000    110.5860      0.0000    359.1582     25.6188
   766.2500    106.8930      0.0000    377.3387     23.6107
   766.5000    104.6828      0.0000    382.2553     21.8321
   766.7500    104.1684      0.0000    381.8326     20.2748
   767.0000    104.2363      0.0000    399.3308     18.6055
   767.2500    103.1491      0.0000    457.3133     16.6240
   767.5000    100.2341      0.0000    555.9662     14.4819
   767.7500     96.8153      0.0000    664.2048     12.4376
   768.0000     95.0068      0.0000    742.6561     10.6197
   768.2500     95.6027      0.0000    777.0259      9.0637
   768.5000     97.4490      0.0000    777.0328      7.8174
   768.7500     98.7018      0.0000    757.5043      6.9160
   769.0000     98.2978      0.0000    736.1953      6.3144
   769.2500     96.4246      0.0000    729.5560      5.9116
   769.5000     94.0813      0.0000    736.5136      5.6237
   769.7500     92.2306      0.0000    740.7310      5.4102
   770.0000     91.0452      0.0000    730.6827      5.2696
   770.2500     89.7661      0.0000    709.6078      5.2284
