~Version Information
VERS.                      2.0: CWLS Log ASCII Standard - VERSION 2.0
WRAP.                       NO: One line per depth step
~Well Information Block
STRT.FT               846.5000: 
STOP.FT              2610.0000: 
STEP.FT                 0.2500: 
NULL.                -999.2500: 
COMP.          Petrogulf Corporation: COMPANY
WELL.            Lavedure 7-44: WELL
FLD.           Purgatoire River: FIELD
LOC.           969' FSL & 501' FEL: LOCATION
PROV.                 Colorado: PROVINCE
CNTY.               Las Animas: COUNTRY
SRVC.                Patterson: SERVICE COMPANY
DATE.          Sun Dec 07 15:26:03 2003: LOG DATE
UWI.                          : UNIQUE WELL ID
~Curve Information Block
DEPT.FT            0 000 00 00: Depth
SP.mV                         : DIL Spontaneous Potential
RILD.Ohm-m                    : DIL Deep Resistivity
RILM.Ohm-m                    : DIL Medium Resistivity
RLL3.Ohm-m                    : DIL Shallow Resistivity
GR.GAPI                       : Gamma Ray
~Parameter Information Block
~A  Depth        SP         RILD        RILM        RLL3         GR     
# ...
  1098.5000   2000.0000     31.7218     30.3229     59.6400     94.6031
  1098.7500   2000.0000     31.3975     29.0277     54.3205     94.1310
  1099.0000   2000.0000     31.2730     27.7829     46.1060     96.4874
  1099.2500   2000.0000     31.2696     26.7292     37.8425     99.9009
  1099.5000   2000.0000     31.3014     25.9575     31.6150    105.5969
  1099.7500   2000.0000     31.2802     25.5208     28.1232    108.5397
  1100.0000   2000.0000     31.1169     25.4377     27.2849    110.8263
  1100.2500   2000.0000     30.7384     25.6810     29.0730    111.0270
  1100.5000   2000.0000     30.1183     26.1614     33.7738    109.8775
  1100.7500   2000.0000     29.2953     26.7231     41.5111    108.4306
  1101.0000   2000.0000     28.3613     27.1714     51.4281    105.2953
  1101.2500   2000.0000     27.4288     27.3379     61.2657    102.3780
  1101.5000   2000.0000     26.5972     27.1483     67.9442     97.0044
  1101.7500   2000.0000     25.9353     26.6415     69.0078     93.6510
  1102.0000   2000.0000     25.4752     25.9257     64.0301     91.1225
  1102.2500   2000.0000     25.2096     25.1209     54.9582     91.8491
  1102.5000   2000.0000     25.0907     24.3236     45.0380     95.9381
  1102.7500   2000.0000     25.0373     23.5961     37.0582     99.4384
  1103.0000   2000.0000     24.9586     22.9634     32.1913    103.7206
  1103.2500   2000.0000     24.7949     22.4147     30.0412    105.3354
  1103.5000   2000.0000     24.5519     21.9175     29.4451    105.9618
  1103.7500   2000.0000     24.3055     21.4448     29.2693    105.3812
  1104.0000   2000.0000     24.1689     21.0043     28.8116    103.3706
  1104.2500   2000.0000     24.2493     20.6496     27.8556    101.7819
  1104.5000   2000.0000     24.6166     20.4712     26.6799    100.2070
  1104.7500   2000.0000     25.2965     20.5739     26.3631     99.7890
  1105.0000   2000.0000     26.2855     21.0573     29.5469     98.4187
  1105.2500   2000.0000     27.5716     22.0012     41.5010     95.5644
  1105.5000   2000.0000     29.1449     23.4514     70.7087     87.0244
  1105.7500   2000.0000     30.9893     25.4051    127.3801     78.7717
  1106.0000   2000.0000     33.0654     27.8068    218.3267     64.2359
  1106.2500   2000.0000     35.3059     30.5769    339.3070     54.3192
  1106.5000   2000.0000     37.6341     33.6707    470.4488     41.0000
  1106.7500   2000.0000     39.9869     37.1117    581.4901     33.8963
  1107.0000   2000.0000     42.3167     40.9282    646.2844     26.2746
  1107.2500   2000.0000     44.5565     44.9934    655.6647     23.0648
  1107.5000   2000.0000     46.5698     48.8626    617.8729     20.8234
  1107.7500   2000.0000     48.1160     51.7668    548.4315     21.1326
  1108.0000   2000.0000     48.8838     52.9036    460.8549     24.6634
  1108.2500   2000.0000     48.6178     51.9156    364.9788     29.1509
  1108.5000   2000.0000     47.2651     49.1323    269.8036     38.7307
  1108.7500   2000.0000     45.0035     45.3247    184.9395     46.5757
  1109.0000   2000.0000     42.1298     41.2467    118.6022     59.6303
  1109.2500   2000.0000     38.9367     37.3669     74.2909     68.6276
  1109.5000   2000.0000     35.6728     33.8711     49.5147     81.4995
  1109.7500   2000.0000     32.5491     30.7893     37.9172     89.0862
  1110.0000   2000.0000     29.7260     28.1118     32.9728     98.3941
  1110.2500   2000.0000     27.2839     25.8351     30.4714    103.1813
  1110.5000   2000.0000     25.2168     23.9516     28.7128    108.5331
  1110.7500   2000.0000     23.4592     22.4275     27.3778    111.1812
  1111.0000   2000.0000     21.9289     21.1980     26.4670    114.3456
  1111.2500   2000.0000     20.5655     20.1834     25.9069    116.1135
  1111.5000   2000.0000     19.3485     19.3102     25.5785    118.0600
  1111.7500   2000.0000     18.2921     18.5257     25.3465    118.5399
  1112.0000   2000.0000     17.4230     17.8042     25.0077    117.6904
  1112.2500   2000.0000     16.7552     17.1444     24.3354    116.3816
  1112.5000   2000.0000     16.2750     16.5604     23.2803    114.8180
  1112.7500   2000.0000     15.9422     16.0688     22.1019    115.0476
  1113.0000   2000.0000     15.7031     15.6787     21.2027    117.8916
  1113.2500   2000.0000     15.5069     15.3874     20.8030    120.7922
  1113.5000   2000.0000     15.3150     15.1834     20.7971    124.5687
  1113.7500   2000.0000     15.1013     15.0491     20.8969    125.7127
  1114.0000   2000.0000     14.8510     14.9646     20.8632    124.8769
  1114.2500   2000.0000     14.5643     14.9098     20.6289    122.9123
  1114.5000   2000.0000     14.2602     14.8684     20.2963    118.6479
  1114.7500   2000.0000     13.9733     14.8282     20.0568    115.4455
  1115.0000   2000.0000     13.7371     14.7784     20.0561    111.3406
  1115.2500   2000.0000     13.5655     14.7077     20.2557    109.8594
  1115.5000   2000.0000     13.4477     14.6048     20.4118    110.0924
  1115.7500   2000.0000     13.3594     14.4629     20.2414    111.5356
  1116.0000   2000.0000     13.2835     14.2852     19.6504    114.3663
  1116.2500   2000.0000     13.2225     14.0862     18.8066    116.0269
  1116.5000   2000.0000     13.1948     13.8891     18.0087    117.5875
  1116.7500   2000.0000     13.2174     13.7196     17.5046    117.9547
  1117.0000   2000.0000     13.2896     13.5983     17.3943    117.7005
  1117.2500   2000.0000     13.3893     13.5355     17.6173    117.2749
  1117.5000   2000.0000     13.4824     13.5300     17.9967    116.9541
  1117.7500   2000.0000     13.5398     13.5748     18.3290    117.3338
  1118.0000   2000.0000     13.5477     13.6662     18.4816    118.9815
  1118.2500   2000.0000     13.5089     13.8099     18.4488    120.3891
  1118.5000   2000.0000     13.4398     14.0169     18.3721    121.2876
  1118.7500   2000.0000     13.3641     14.2931     18.5435    120.0387
  1119.0000   2000.0000     13.3048     14.6258     19.3263    114.9434
  1119.2500   2000.0000     13.2749     14.9778     20.9302    110.1452
  1119.5000   2000.0000     13.2757     15.2916     23.1426    102.8228
  1119.7500   2000.0000     13.3044     15.5061     25.2750     98.7680
  1120.0000   2000.0000     13.3638     15.5793     26.4717     94.9216
  1120.2500   2000.0000     13.4649     15.5046     26.1963     94.3420
  1120.5000   2000.0000     13.6173     15.3122     24.5116     97.0700
  1120.7500   2000.0000     13.8171     15.0578     21.9686    101.1067
  1121.0000   2000.0000     14.0385     14.8089     19.2771    108.7719
  1121.2500   2000.0000     14.2394     14.6328     17.0543    113.5165
  1121.5000   2000.0000     14.3798     14.5866     15.7743    118.3383
  1121.7500   2000.0000     14.4394     14.7052     15.8279    119.8149
  1122.0000   2000.0000     14.4228     14.9903     17.5280    119.5000
  1122.2500   2000.0000     14.3507     15.4006     20.9248    117.2309
  1122.5000   2000.0000     14.2490     15.8506     25.4776    109.9280
  1122.7500   2000.0000     14.1463     16.2260     29.9412    102.9689
  1123.0000   2000.0000     14.0747     16.4223     32.8478     92.7752
  1123.2500   2000.0000     14.0692     16.3928     33.3647     88.5436
  1123.5000   2000.0000     14.1631     16.1730     31.7321     88.0158
  1123.7500   2000.0000     14.3836     15.8595     28.8782     90.9153
  1124.0000   2000.0000     14.7465     15.5642     25.7253     97.5863
  1124.2500   2000.0000     15.2528     15.3790     22.8614    102.2810
  1124.5000   2000.0000     15.8856     15.3666     20.6118    108.3288
  1124.7500   2000.0000     16.6122     15.5691     19.1735    111.2014
  1125.0000   2000.0000     17.3948     16.0187     18.6888    113.3106
  1125.2500   2000.0000     18.2043     16.7448     19.3796    113.1810
  1125.5000   2000.0000     19.0255     17.7760     21.7929    110.5734
  1125.7500   2000.0000     19.8452     19.1359     27.0248    107.1440
  1126.0000   2000.0000     20.6326     20.8349     36.6751     99.9971
  1126.2500   2000.0000     21.3333     22.8529     52.3165     94.8048
