~Version Information
VERS.                      2.0: CWLS Log ASCII Standard - VERSION 2.0
WRAP.                       NO: One line per depth step
~Well Information Block
STRT.FT                -2.0000: 
STOP.FT              1016.0000: 
STEP.FT                 0.2500: 
NULL.                -999.2500: 
COMP.          Evergreen Operating Corp.: COMPANY
WELL.              Sunset 24-3: WELL
FLD.           Purgatorie River: FIELD
LOC.           467' FSL & 2262' FWL--: LOCATION
PROV.                       CO: PROVINCE
CNTY.               Las Animas: COUNTRY
SRVC.                         : SERVICE COMPANY
DATE.          Mon Sep 27 13:40:22 2004: LOG DATE
UWI.           005 071 08158  : UNIQUE WELL ID
~Curve Information Block
DEPT.FT            0 000 00 00: Depth
GR.GAPI                       : Gamma Ray
CCL.                          : Casing Collar Locator
TT3.usec                      : CBL 3' Travel Time
AMP3.mV                       : CBL 3' Amplitude
~Parameter Information Block
~A  Depth        GR         CCL         TT3         AMP3    
# ...
   266.0000     97.5781      0.0000    401.0992      6.1933
   266.2500     91.1886      0.0000    388.1147      6.4683
   266.5000     86.6474      0.0000    378.4401      6.7577
   266.7500     83.7808      0.0000    370.3644      7.0236
   267.0000     81.2752      0.0000    363.0117      7.2322
   267.2500     78.2052      0.0000    356.0297      7.3681
   267.5000     75.1790      0.0000    349.5694      7.4435
   267.7500     73.8278      0.0000    344.2083      7.4872
   268.0000     75.1496      0.0000    340.4942      7.5203
   268.2500     78.4042      0.0000    338.4682      7.5451
   268.5000     81.7119      0.0000    337.6759      7.5527
   268.7500     83.6420      0.0000    337.5949      7.5352
   269.0000     83.9917      0.0000    338.0200      7.4923
   269.2500     83.3692      0.0000    339.2447      7.4348
   269.5000     82.6556      0.0000    342.0259      7.3795
   269.7500     82.7043      0.0000    347.2663      7.3339
   270.0000     83.8306      0.0000    355.5410      7.2810
   270.2500     85.5194      0.0000    367.1008      7.1842
   270.5000     87.0305      0.0000    382.4809      7.0133
   270.7500     88.2810      0.0000    402.4001      6.7701
   271.0000     89.9668      0.0000    426.1707      6.4886
   271.2500     93.0069      0.0000    451.0531      6.2116
   271.5000     97.9466      0.0000    475.0405      5.9655
   271.7500    104.3760      0.0000    500.3556      5.7528
   272.0000    110.6040      0.0000    532.5346      5.5640
   272.2500    114.3873      0.0000    575.2629      5.3958
   272.5000    114.4238      0.0000    626.0657      5.2559
   272.7500    110.8494      0.0000    676.6139      5.1491
   273.0000    104.3270      0.0000    717.4388      5.0633
   273.2500     95.4700      0.0000    743.4099      4.9728
   273.5000     85.3662      0.0000    755.5641      4.8553
   273.7500     75.9620      0.0000    758.6918      4.7042
   274.0000     69.4317      0.0000    757.9576      4.5255
   274.2500     67.0085      0.0000    756.9130      4.3308
   274.5000     68.0728      0.0000    756.8531      4.1346
   274.7500     70.4221      0.0000    757.3810      3.9548
   275.0000     71.9737      0.0000    757.9801      3.8141
   275.2500     72.2530      0.0000    759.0217      3.7344
   275.5000     71.9505      0.0000    761.0750      3.7206
   275.7500     71.4498      0.0000    763.8386      3.7502
   276.0000     70.3388      0.0000    766.3151      3.7888
   276.2500     68.2605      0.0000    767.7786      3.8217
   276.5000     65.9323      0.0000    768.2086      3.8665
   276.7500     65.0639      0.0000    767.9980      3.9566
   277.0000     66.9332      0.0000    767.5712      4.1077
   277.2500     71.0595      0.0000    767.2220      4.2937
   277.5000     75.8286      0.0000    767.0613      4.4563
   277.7500     80.3646      0.0000    766.9485      4.5477
   278.0000     84.8657      0.0000    766.4651      4.5670
   278.2500     89.1295      0.0000    765.1293      4.5510
   278.5000     92.1098      0.0000    762.9512      4.5316
   278.7500     93.5014      0.0000    760.8900      4.5085
   279.0000     94.5510      0.0000    760.4838      4.4595
   279.2500     96.3695      0.0000    762.7802      4.3642
   279.5000     98.2171      0.0000    767.8564      4.2084
   279.7500     98.2796      0.0000    775.4402      3.9658
   280.0000     95.6519      0.0000    785.1312      3.5932
   280.2500     91.1003      0.0000    795.2416      3.0739
   280.5000     86.2443      0.0000    802.1969      2.4854
   280.7500     82.3749      0.0000    802.6846      2.0078
   281.0000     79.9009      0.0000    796.7526      1.8306
   281.2500     78.5938      0.0000    787.9319      2.0301
   281.5000     78.2075      0.0000    780.1576      2.5252
   281.7500     78.8754      0.0000    775.1693      3.1426
   282.0000     80.9855      0.0000    772.5651      3.7266
   282.2500     84.7838      0.0000    771.2449      4.2096
   282.5000     90.1356      0.0000    770.4032      4.6005
   282.7500     96.5987      0.0000    769.7058      4.9190
   283.0000    103.4443      0.0000    769.0989      5.1534
   283.2500    109.5525      0.0000    768.5931      5.2906
   283.5000    113.7243      0.0000    768.1295      5.3673
   283.7500    115.3598      0.0000    767.5341      5.4607
   284.0000    114.5398      0.0000    766.5120      5.6244
   284.2500    111.5591      0.0000    764.7296      5.8464
   284.5000    106.8913      0.0000    762.0652      6.0664
   284.7500    101.3974      0.0000    758.7944      6.2294
   285.0000     95.9097      0.0000    755.2519      6.3303
   285.2500     90.6683      0.0000    751.2612      6.4161
   285.5000     85.5665      0.0000    746.4043      6.5339
   285.7500     80.9127      0.0000    741.1260      6.6715
   286.0000     77.7802      0.0000    736.9664      6.7518
   286.2500     77.5194      0.0000    735.1387      6.6965
   286.5000     80.6489      0.0000    735.1261      6.4974
   286.7500     86.0236      0.0000    735.1439      6.2310
   287.0000     91.1610      0.0000    733.9692      6.0023
   287.2500     93.6801      0.0000    732.0203      5.8733
   287.5000     92.7328      0.0000    730.7286      5.8357
   287.7500     89.2919      0.0000    731.2964      5.8452
   288.0000     85.2177      0.0000    734.0806      5.8716
   288.2500     82.0149      0.0000    738.6475      5.9161
   288.5000     80.0644      0.0000    744.0624      5.9905
   288.7500     78.6667      0.0000    749.1576      6.0899
   289.0000     76.9638      0.0000    752.6548      6.1835
   289.2500     75.1201      0.0000    753.5123      6.2219
   289.5000     74.5220      0.0000    751.7479      6.1621
   289.7500     76.5476      0.0000    748.8041      6.0052
   290.0000     81.0633      0.0000    746.4312      5.8109
   290.2500     86.1727      0.0000    745.1334      5.6613
   290.5000     89.3958      0.0000    744.0961      5.6036
   290.7500     89.2824      0.0000    742.6108      5.6285
   291.0000     86.3184      0.0000    741.2087      5.6887
   291.2500     82.5125      0.0000    741.1263      5.7295
   291.5000     79.9419      0.0000    742.6047      5.7147
   291.7500     79.4740      0.0000    744.0329      5.6433
   292.0000     80.6714      0.0000    743.2923      5.5375
   292.2500     82.5818      0.0000    739.8891      5.4065
   292.5000     84.3642      0.0000    735.3252      5.2327
   292.7500     85.3247      0.0000    731.4934      4.9995
   293.0000     84.7961      0.0000    729.2487      4.7244
   293.2500     82.2990      0.0000    728.5123      4.4527
   293.5000     77.9134      0.0000    729.2017      4.2247
   293.7500     72.5207      0.0000    731.7682      4.0555
   294.0000     67.5954      0.0000    736.8305      3.9385
   294.2500     64.5328      0.0000    744.2319      3.8545
   294.5000     63.9017      0.0000    752.4317      3.7808
   294.7500     65.1933      0.0000    758.9652      3.7007
   295.0000     67.2224      0.0000    761.6822      3.6120
   295.2500     68.7296      0.0000    759.8588      3.5258
   295.5000     68.7525      0.0000    754.7477      3.4526
   295.7500     66.9568      0.0000    749.3374      3.3891
   296.0000     64.0016      0.0000    746.9237      3.3247
   296.2500     61.3384      0.0000    749.0096      3.2642
   296.5000     60.1565      0.0000    754.3422      3.2292
   296.7500     60.4287      0.0000    760.1526      3.2258
   297.0000     61.1896      0.0000    764.3411      3.2154
   297.2500     61.6718      0.0000    766.5402      3.1293
   297.5000     61.9198      0.0000    767.5599      2.9203
   297.7500     62.4355      0.0000    768.3505      2.6013
   298.0000     63.5718      0.0000    769.5197      2.2370
   298.2500     65.0982      0.0000    771.4991      1.9014
   298.5000     65.9388      0.0000    774.7156      1.6417
   298.7500     64.6526      0.0000    779.1047      1.4725
   299.0000     60.9186      0.0000    783.3465      1.3903
   299.2500     56.5730      0.0000    785.2674      1.3861
