~Version Information
 VERS.                      2.0: CWLS Log ASCII Standard - VERSION 2.0
 WRAP.                       NO: One line per depth step
 ~Well Information Block
 STRT.FT               763.7500: 
 STOP.FT              2577.0000: 
 STEP.FT                 0.2500: 
 NULL.                -999.2500: 
 COMP.          Petrogulf Corporation: COMPANY
 WELL.               J&P 12-33V: WELL
 FLD.           Purgatorie River: FIELD
 LOC.           2005' FSL & 1928' FEL: LOCATION
 CNTY.               Las Animas: COUNTY
 SRVC.                         : SERVICE COMPANY
 DATE.          Sat Aug 28 09:00:36 2004: LOG DATE
 UWI.           05 071 08092 00: UNIQUE WELL ID
 STAT.                 Colorado: STATE
 PROV.                         :Province
 ~Curve Information Block
 DEPT.FT            0 000 00 00: Depth
 SP.mV                         : DIL Spontaneous Potential
 RILD.Ohm-m                    : DIL Deep Resistivity
 RILM.Ohm-m                    : DIL Medium Resistivity
 RLL3.Ohm-m                    : DIL Shallow Resistivity
 GR.GAPI                       : Gamma Ray
 ~Parameter Information Block
 ~A  Depth        SP         RILD        RILM        RLL3         GR     
# ...
  1379.7500    -53.7206     17.8106     23.7875     79.4971    109.1907
  1380.0000    -54.6965     17.3702     23.3735     86.2673     99.1931
  1380.2500    -55.9401     16.8847     22.5188     87.1167     95.9504
  1380.5000    -57.1746     16.4168     21.3592     81.9129     97.0883
  1380.7500    -58.2100     15.9974     20.0593     71.8201    101.6280
  1381.0000    -58.9672     15.6306     18.7601     58.8853    112.8036
  1381.2500    -59.4570     15.3010     17.5549     45.4406    122.1141
  1381.5000    -59.7438     14.9827     16.4897     33.4991    136.8376
  1381.7500    -59.9044     14.6484     15.5763     24.3298    145.7847
  1382.0000    -60.0109     14.2808     14.8078     18.3342    155.3543
  1382.2500    -60.1279     13.8822     14.1701     15.2086    158.1070
  1382.5000    -60.3063     13.4762     13.6494     14.2350    156.8067
  1382.7500    -60.5821     13.0988     13.2357     14.5454    153.4394
  1383.0000    -60.9650     12.7843     12.9233     15.3182    147.3825
  1383.2500    -61.4408     12.5529     12.7085     15.9369    144.0547
  1383.5000    -61.9843     12.4053     12.5870     16.1075    141.4691
  1383.7500    -62.5810     12.3245     12.5505     15.8830    141.4491
  1384.0000    -63.2409     12.2818     12.5848     15.5612    142.8991
  1384.2500    -63.9849     12.2473     12.6687     15.4993    143.6801
  1384.5000    -64.8167     12.2005     12.7757     15.9269    142.8531
  1384.7500    -65.6805     12.1393     12.8780     16.8281    140.8233
  1385.0000    -66.4508     12.0815     12.9527     17.9308    136.9943
  1385.2500    -66.9446     12.0588     12.9881     18.8199    135.3534
  1385.5000    -66.9747     12.1050     12.9875     19.1366    136.6961
  1385.7500    -66.4079     12.2457     12.9684     18.7614    140.8439
  1386.0000    -65.2071     12.4901     12.9576     17.8692    150.7835
  1386.2500    -63.4478     12.8279     12.9849     16.8240    157.8096
  1386.5000    -61.3033     13.2291     13.0771     15.9896    164.8728
  1386.7500    -59.0083     13.6502     13.2544     15.5852    166.0966
  1387.0000    -56.8126     14.0468     13.5293     15.6622    163.9234
  1387.2500    -54.9344     14.3925     13.9057     16.1791    161.4682
  1387.5000    -53.5251     14.6918     14.3794     17.0897    157.9871
  1387.7500    -52.6492     14.9794     14.9392     18.3677    155.6270
  1388.0000    -52.2905     15.3053     15.5686     19.9716    151.0558
  1388.2500    -52.3742     15.7149     16.2479     21.8087    147.1449
  1388.5000    -52.7930     16.2364     16.9567     23.7439    140.4518
  1388.7500    -53.4328     16.8759     17.6767     25.6338    135.7647
  1389.0000    -54.1925     17.6179     18.3931     27.3383    128.5338
  1389.2500    -54.9929     18.4249     19.0951     28.7091    123.5984
  1389.5000    -55.7832     19.2340     19.7755     29.6101    116.9875
  1389.7500    -56.5470     19.9593     20.4289     30.0034    114.3650
  1390.0000    -57.3047     20.5086     21.0496     30.0504    114.6607
  1390.2500    -58.1026     20.8160     21.6295     30.1177    117.0173
  1390.5000    -58.9950     20.8714     22.1559     30.6212    120.3092
  1390.7500    -60.0175     20.7218     22.6088     31.7725    120.5322
  1391.0000    -61.1603     20.4445     22.9619     33.4014    117.4640
  1391.2500    -62.3664     20.1129     23.1845     35.0076    114.2714
  1391.5000    -63.5511     19.7757     23.2473     36.0348    110.3551
  1391.7500    -64.6204     19.4541     23.1299     36.1775    109.4739
  1392.0000    -65.5034     19.1487     22.8271     35.4982    111.2306
  1392.2500    -66.1426     18.8502     22.3530     34.2885    113.6738
  1392.5000    -66.4902     18.5497     21.7400     32.8166    116.9363
  1392.7500    -66.4888     18.2461     21.0327     31.1764    117.9918
  1393.0000    -66.0778     17.9430     20.2810     29.3289    118.4186
  1393.2500    -65.2182     17.6422     19.5314     27.2474    118.8565
  1393.5000    -63.9244     17.3373     18.8217     25.0136    120.6359
  1393.7500    -62.2839     17.0144     18.1771     22.7994    122.4991
  1394.0000    -60.4451     16.6601     17.6090     20.7917    126.1530
  1394.2500    -58.5821     16.2681     17.1157     19.1456    129.3261
  1394.5000    -56.8627     15.8414     16.6845     17.9759    135.2550
  1394.7500    -55.4199     15.3857     16.2951     17.3441    139.5319
  1395.0000    -54.3588     14.9066     15.9237     17.2198    145.0571
  1395.2500    -53.7550     14.4108     15.5481     17.4571    147.3918
  1395.5000    -53.6575     13.9116     15.1527     17.8265    148.3241
  1395.7500    -54.0725     13.4314     14.7323     18.0967    147.6165
  1396.0000    -54.9419     12.9969     14.2926     18.1147    146.3541
  1396.2500    -56.1339     12.6310     13.8483     17.8352    146.5038
  1396.5000    -57.4619     12.3450     13.4183     17.2966    148.8324
  1396.7500    -58.7259     12.1369     13.0215     16.5741    151.1671
  1397.0000    -59.7679     11.9922     12.6718     15.7473    154.0907
  1397.2500    -60.5101     11.8893     12.3770     14.8987    154.9676
  1397.5000    -60.9735     11.8051     12.1377     14.1253    154.5854
  1397.7500    -61.2522     11.7205     11.9486     13.5350    153.5598
  1398.0000    -61.4636     11.6249     11.8006     13.2136    151.5836
  1398.2500    -61.6901     11.5173     11.6829     13.1829    150.4057
  1398.5000    -61.9329     11.4043     11.5860     13.3830    149.7625
  1398.7500    -62.1014     11.2948     11.5031     13.6958    150.5840
  1399.0000    -62.0530     11.1959     11.4319     13.9937    153.7671
  1399.2500    -61.6537     11.1122     11.3739     14.1802    156.5853
  1399.5000    -60.8529     11.0472     11.3329     14.2045    160.2477
  1399.7500    -59.7207     11.0062     11.3130     14.0548    161.4763
  1400.0000    -58.4413     10.9952     11.3162     13.7573    160.7287
  1400.2500    -57.2625     11.0158     11.3403     13.4045    158.5957
  1400.5000    -56.4171     11.0579     11.3783     13.2004    154.0068
  1400.7500    -56.0522     11.0981     11.4180     13.4788    150.5758
  1401.0000    -56.1896     11.1059     11.4436     14.6281    144.2523
  1401.2500    -56.7307     11.0570     11.4389     16.8876    138.0749
  1401.5000    -57.4987     10.9458     11.3901     20.0780    124.6294
  1401.7500    -58.3045     10.7870     11.2902     23.4540    113.5727
  1402.0000    -59.0089     10.6073     11.1409     25.8825     96.9871
  1402.2500    -59.5549     10.4327     10.9522     26.3578     87.9089
  1402.5000    -59.9669     10.2797     10.7400     24.5572     79.4307
  1402.7500    -60.3117     10.1524     10.5221     21.0304     77.3766
  1403.0000    -60.6546     10.0442     10.3147     16.8728     78.0903
  1403.2500    -61.0323      9.9425     10.1293     13.1440     79.5520
  1403.5000    -61.4498      9.8348      9.9721     10.4501     81.2445
  1403.7500    -61.9047      9.7139      9.8446      8.8888     81.9269
  1404.0000    -62.4010      9.5814      9.7447      8.2470     83.4052
  1404.2500    -62.9467      9.4477      9.6697      8.2267     85.2870
  1404.5000    -63.5244      9.3290      9.6173      8.5704     89.4916
  1404.7500    -64.0604      9.2421      9.5878      9.0930     92.8837
  1405.0000    -64.4215      9.1997      9.5840      9.6744     98.5081
  1405.2500    -64.4409      9.2072      9.6105     10.2490    102.6832
  1405.5000    -63.9749      9.2624      9.6722     10.7932    109.6482
  1405.7500    -62.9565      9.3568      9.7726     11.3099    114.4238
  1406.0000    -61.4346      9.4782      9.9124     11.8103    120.6819
  1406.2500    -59.5662      9.6148     10.0889     12.3013    123.7652
  1406.5000    -57.5876      9.7588     10.2962     12.7828    126.9425
  1406.7500    -55.7579      9.9076     10.5261     13.2456    128.7460
  1407.0000    -54.3048     10.0640     10.7698     13.6657    132.1716
  1407.2500    -53.3862     10.2331     11.0193     14.0030    135.1159
  1407.5000    -53.0620     10.4184     11.2687     14.2138    139.6300
