~Version Information
VERS.                      2.0: CWLS Log ASCII Standard - VERSION 2.0
WRAP.                       NO: One line per depth step
~Well Information Block
STRT.FT               590.0000: 
STOP.FT              1563.5000: 
STEP.FT                 0.1000: 
NULL.                -999.2500: 
COMP.          Petrogulf Corporation: COMPANY
WELL.             State 16-43R: WELL
FLD.           Purgatorie River: FIELD
LOC.           2538' FSL & 716' FEL: LOCATION
PROV.                 Colorado: PROVINCE
CNTY.               Las Animas: COUNTRY
SRVC.                Patterson: SERVICE COMPANY
DATE.          Tue Aug 09 14:21:37 2005: LOG DATE
UWI.                          : UNIQUE WELL ID
~Curve Information Block
DEPT.FT            0 000 00 00: Depth
DCAL.in                       : CDL Caliper
RHOB.g/cc                     : CDL Bulk Density
RHOC.g/cc                     : CDL Density Correction
DPOR.pu                       : CDL Density Porosity
GR.GAPI                       : Gamma Ray
NPOR.pu                       : Neutron Porosity
~Parameter Information Block
~A  Depth       DCAL        RHOB        RHOC        DPOR         GR         NPOR    
   590.0000      8.2899      1.9760     -0.4968     40.8459     89.2464     43.8548
   590.1000      8.2899      1.9880     -0.4838     40.1216     92.1401     44.0737
   590.2000      8.2899      2.0323     -0.4277     37.4346     96.1187     44.4112
   590.3000      8.2959      2.0757     -0.3461     34.8088     97.7569     44.6873
   590.4000      8.2959      2.0940     -0.4185     33.6942     97.4023     44.6623
   590.5000      8.2964      2.0972     -0.3949     33.5032     96.3891     44.3278
   590.6000      8.2964      2.0984     -0.4156     33.4333     95.3109     44.1061
   590.7000      8.2964      2.0920     -0.3958     33.8173     94.4137     44.3684
   590.8000      8.3024      2.0744     -0.4510     34.8854     94.9498     44.7597
   590.9000      8.3024      2.0617     -0.4309     35.6541     96.0928     44.9156
   591.0000      8.3003      2.0660     -0.4197     35.3922     95.7127     44.8127
   591.1000      8.3003      2.0756     -0.4004     34.8098     95.8757     44.4266
   591.2000      8.3003      2.0766     -0.4050     34.7517     98.2722     43.9593
   591.3000      8.2959      2.0779     -0.4586     34.6729     98.6460     43.7668
   591.4000      8.2959      2.0949     -0.4125     33.6450     96.5466     43.9920
   591.5000      8.2803      2.1183     -0.3662     32.2256     97.0236     44.5030
   591.6000      8.2803      2.1277     -0.3470     31.6568     99.3313     44.9186
   591.7000      8.2803      2.1207     -0.3537     32.0807     98.8000     44.9583
   591.8000      8.2443      2.1138     -0.4196     32.4944     94.9228     44.7137
   591.9000      8.2443      2.1145     -0.3607     32.4575     90.8088     44.3064
   592.0000      8.2457      2.1087     -0.3729     32.8075     88.8748     43.9141
   592.1000      8.2457      2.0893     -0.4229     33.9789     87.7696     43.6842
   592.2000      8.2457      2.0655     -0.4087     35.4247     86.1471     43.5261
   592.3000      8.2440      2.0490     -0.4553     36.4261     85.3373     43.4813
   592.4000      8.2440      2.0443     -0.4160     36.7069     86.6372     43.5288
   592.5000      8.2449      2.0462     -0.4688     36.5948     89.5615     43.4905
   592.6000      8.2449      2.0520     -0.4343     36.2443     92.0206     43.5652
   592.7000      8.2449      2.0507     -0.3601     36.3206     90.6615     43.8438
   592.8000      8.2580      2.0253     -0.4141     37.8631     86.1055     43.9306
   592.9000      8.2580      1.9862     -0.4915     40.2278     83.9819     43.7752
   593.0000      8.2879      1.9570     -0.4646     41.9973     85.6536     43.6668
   593.1000      8.2879      1.9427     -0.4819     42.8675     86.6974     43.5487
   593.2000      8.2879      1.9370     -0.4567     43.2122     84.8613     43.2979
   593.3000      8.2901      1.9305     -0.4540     43.6064     80.6153     43.0499
   593.4000      8.2901      1.9195     -0.5026     44.2757     76.5051     42.9653
   593.5000      8.2884      1.9082     -0.4418     44.9584     75.8323     43.0725
   593.6000      8.2884      1.9012     -0.4821     45.3820     77.0465     43.2329
   593.7000      8.2884      1.9045     -0.4568     45.1800     77.9784     43.3118
   593.8000      8.2954      1.9162     -0.4636     44.4734     79.8339     43.2726
   593.9000      8.2954      1.9231     -0.4090     44.0546     81.9848     43.0924
   594.0000      8.2925      1.9179     -0.4336     44.3675     83.6023     42.7583
   594.1000      8.2925      1.9107     -0.4745     44.8067     85.1840     42.4413
   594.2000      8.2925      1.9091     -0.4149     44.9037     86.0097     42.2817
   594.3000      8.2925      1.9094     -0.4679     44.8834     85.1570     42.1737
   594.4000      8.2925      1.9140     -0.4607     44.6067     83.6447     41.9813
   594.5000      8.2961      1.9204     -0.4078     44.2195     82.7179     41.7765
   594.6000      8.2961      1.9207     -0.4670     44.1974     81.8972     41.6401
   594.7000      8.2961      1.9147     -0.4136     44.5614     80.2498     41.4419
   594.8000      8.2929      1.9026     -0.4682     45.2999     78.7223     41.2203
   594.9000      8.2929      1.8874     -0.4678     46.2164     78.7843     41.3010
   595.0000      8.2813      1.8726     -0.4751     47.1180     78.5528     41.7806
   595.1000      8.2813      1.8611     -0.5280     47.8124     76.7198     42.3194
   595.2000      8.2813      1.8582     -0.4904     47.9858     74.9733     42.5293
   595.3000      8.2548      1.8605     -0.4782     47.8510     74.2234     42.3604
   595.4000      8.2548      1.8604     -0.4473     47.8552     74.3821     42.0049
   595.5000      8.2475      1.8618     -0.4920     47.7715     74.7444     41.7472
   595.6000      8.2475      1.8729     -0.4943     47.0942     73.7790     41.6689
   595.7000      8.2475      1.8882     -0.4453     46.1702     71.8620     41.5670
   595.8000      8.2473      1.8910     -0.4737     46.0010     71.9738     41.3901
   595.9000      8.2473      1.8743     -0.4596     47.0134     75.3000     41.2164
   596.0000      8.2510      1.8543     -0.5430     48.2267     79.0295     41.1521
   596.1000      8.2510      1.8545     -0.5028     48.2132     78.8293     41.2194
   596.2000      8.2510      1.8658     -0.4405     47.5282     74.7522     41.2820
   596.3000      8.2603      1.8652     -0.4899     47.5607     71.2159     41.1839
   596.4000      8.2603      1.8608     -0.5175     47.8307     71.0073     40.8795
   596.5000      8.2714      1.8635     -0.4598     47.6695     74.0467     40.6056
   596.6000      8.2714      1.8672     -0.5027     47.4405     77.3091     40.6677
   596.7000      8.2714      1.8759     -0.5197     46.9128     78.8368     40.8836
   596.8000      8.2882      1.8918     -0.4427     45.9531     78.7548     40.9629
   596.9000      8.2882      1.9006     -0.4196     45.4202     76.4572     41.0192
   597.0000      8.2901      1.8958     -0.4743     45.7105     73.7794     41.0351
   597.1000      8.2901      1.8861     -0.4580     46.2976     73.7383     40.9790
   597.2000      8.2901      1.8832     -0.4729     46.4746     75.8518     41.0798
   597.3000      8.2885      1.8951     -0.4570     45.7526     77.7123     41.4152
   597.4000      8.2885      1.9177     -0.4436     44.3810     78.5649     41.8378
   597.5000      8.2862      1.9352     -0.4120     43.3235     78.6379     42.3095
   597.6000      8.2862      1.9375     -0.4371     43.1825     77.5304     42.8587
   597.7000      8.2862      1.9374     -0.4700     43.1882     75.8805     43.3420
   597.8000      8.2894      1.9550     -0.4295     42.1224     75.0815     43.5232
   597.9000      8.2894      1.9887     -0.4311     40.0794     74.7336     43.3384
   598.0000      8.2879      2.0190     -0.3846     38.2440     73.4744     43.0112
   598.1000      8.2879      2.0305     -0.4072     37.5478     71.9299     42.7498
   598.2000      8.2879      2.0197     -0.3706     38.2026     71.1623     42.5929
   598.3000      8.2913      1.9981     -0.4256     39.5107     70.7193     42.5343
   598.4000      8.2913      1.9910     -0.4881     39.9366     68.8808     42.5529
   598.5000      8.2912      2.0024     -0.3905     39.2498     66.0318     42.5129
   598.6000      8.2912      2.0071     -0.4403     38.9652     65.3033     42.1966
   598.7000      8.2912      1.9976     -0.4749     39.5389     65.9078     41.6385
   598.8000      8.2938      1.9940     -0.4983     39.7602     63.9297     41.2017
   598.9000      8.2938      2.0080     -0.4523     38.9090     60.6261     41.0707
   599.0000      8.2751      2.0221     -0.4055     38.0551     59.8126     41.0634
   599.1000      8.2751      2.0138     -0.4337     38.5579     59.9211     40.9855
   599.2000      8.2751      1.9815     -0.4011     40.5157     57.6849     40.9206
   599.3000      8.2656      1.9385     -0.4708     43.1235     55.2958     40.9051
   599.4000      8.2656      1.9022     -0.5017     45.3195     55.0379     40.7271
   599.5000      8.2720      1.8832     -0.4905     46.4733     55.7015     40.4532
