~Version Information
VERS.                      2.0: CWLS Log ASCII Standard - VERSION 2.0
WRAP.                       NO: One line per depth step
~Well Information Block
STRT.FT               -14.2500: 
STOP.FT              2177.5000: 
STEP.FT                 0.2500: 
NULL.                -999.2500: 
COMP.          Evergreen Operating Corp.: COMPANY
WELL.            Triumph 13-10: WELL
FLD.           Purgatorie River: FIELD
LOC.           1551' FSL & 522' FWL--: LOCATION
PROV.                       CO: PROVINCE
CNTY.               Las Animas: COUNTRY
SRVC.                         : SERVICE COMPANY
DATE.          Sat Aug 21 09:27:32 2004: LOG DATE
UWI.           005 071 08108 : UNIQUE WELL ID
~Curve Information Block
DEPT.FT            0 000 00 00: Depth
CCL.                          : Casing Collar Locator
TT3.usec                      : CBL 3' Travel Time
AMP3.mV                       : CBL 3' Amplitude
GR.GAPI                       : Gamma Ray
~Parameter Information Block
~A  Depth       CCL         TT3         AMP3         GR     
# ...
   689.2500      0.0000    706.2844      4.0403    105.0700
   689.5000      0.0000    718.4908      4.2072     97.3184
   689.7500      0.0000    727.6797      4.4599     92.0992
   690.0000      0.0000    732.6177      4.6370     89.0384
   690.2500      0.0000    732.0331      4.6616     86.8637
   690.5000      0.0000    727.0796      4.6210     84.5616
   690.7500      0.0000    721.1731      4.7092     81.7825
   691.0000      0.0000    717.3888      5.0734     78.5305
   691.2500      0.0000    716.0579      5.6997     75.2600
   691.5000      0.0000    713.9769      6.4502     73.3839
   691.7500      0.0000    704.7003      7.2039     74.9882
   692.0000      0.0000    679.7158      7.9459     81.5405
   692.2500      0.0000    632.5699      8.7030     92.8512
   692.5000      0.0000    566.5107      9.3987    107.0886
   692.7500      0.0000    499.2626      9.8229    121.5188
   693.0000      0.0000    456.4972      9.7851    133.5885
   693.2500      0.0000    456.1463      9.2789    141.8754
   693.5000      0.0000    496.5378      8.4728    146.3014
   693.7500      0.0000    558.3139      7.5721    147.6912
   694.0000      0.0000    618.1046      6.7105    147.2077
   694.2500      0.0000    662.5178      5.9305    145.7888
   694.5000      0.0000    691.3407      5.2156    143.3973
   694.7500      0.0000    710.1385      4.5438    138.6492
   695.0000      0.0000    722.7840      3.9343    129.9364
   695.2500      0.0000    730.9936      3.4479    117.5726
   695.5000      0.0000    737.0629      3.1394    104.5788
   695.7500      0.0000    743.4373      3.0062     94.9353
   696.0000      0.0000    750.1201      2.9837     91.1155
   696.2500      0.0000    754.7734      2.9887     93.1353
   696.5000      1.7389    755.2909      2.9735     99.2153
   696.7500      2.0000    751.0062      2.9503    107.0400
   697.0000      0.0000    742.2304      2.9730    115.0130
   697.2500      0.0000    730.3198      3.0831    122.6572
   697.5000      0.0000    717.9520      3.2615    129.5933
   697.7500      0.0000    708.3353      3.4331    134.5960
   698.0000      0.0000    703.8406      3.5221    136.5238
   698.2500      0.0000    704.8709      3.5013    135.8616
   698.5000      0.0000    709.4725      3.3966    134.4885
   698.7500      0.0000    714.2487      3.2672    134.1327
   699.0000      0.0000    715.8969      3.1940    135.5870
   699.2500      0.0000    711.4969      3.2525    138.7711
   699.5000      0.0000    697.6361      3.4553    142.8119
   699.7500      0.0000    671.1520      3.7231    146.4066
   700.0000      0.0000    632.6036      3.9345    148.7399
   700.2500      0.0000    588.7280      4.0090    149.7702
   700.5000      0.0000    549.5010      3.9426    149.1953
   700.7500      0.0000    521.8161      3.7785    145.7049
   701.0000      0.0000    506.3497      3.5713    138.2853
   701.2500      0.0000    499.9128      3.3818    128.2256
   701.5000      0.0000    499.3274      3.2667    118.9033
   701.7500      0.0000    502.8768      3.2406    113.3146
   702.0000      0.0000    509.3311      3.2619    112.1396
   702.2500      0.0000    516.7819      3.2644    113.8297
   702.5000      0.0000    522.9142      3.2023    115.8910
   702.7500      0.0000    526.4999      3.0800    116.4117
   703.0000      0.0000    529.0300      2.9629    115.0535
   703.2500      0.0000    535.2038      2.9414    112.6002
   703.5000      0.0000    550.6683      3.0521    109.5620
   703.7500      0.0000    576.6790      3.2262    105.5011
   704.0000      0.0000    606.1909      3.3264     99.8062
   704.2500      0.0000    627.9188      3.2514     92.9028
   704.5000      0.0000    636.7490      3.0277     86.5232
   704.7500      0.0000    639.0184      2.8034     82.5404
   705.0000      0.0000    645.4058      2.7388     81.3556
   705.2500      0.0000    659.6015      2.8844     81.5380
   705.5000      0.0000    676.1621      3.1502     81.3083
   705.7500      0.0000    688.3569      3.3768     80.2869
   706.0000      0.0000    694.9520      3.4410     79.5762
   706.2500      0.0000    699.1168      3.3214     80.3807
   706.5000      0.0000    703.5399      3.0966     82.8565
   706.7500      0.0000    708.2383      2.8818     85.9408
   707.0000      0.0000    711.9822      2.7426     87.8697
   707.2500      0.0000    714.1458      2.6664     87.2344
   707.5000      0.0000    715.0281      2.6313     84.0026
   707.7500      0.0000    715.2070      2.6846     79.5384
   708.0000      0.0000    715.0220      2.9055     75.5803
   708.2500      0.0000    714.4573      3.2804     73.3316
   708.5000      0.0000    713.2864      3.6487     73.4964
   708.7500      0.0000    711.4841      3.8081     76.7029
   709.0000      0.0000    709.6708      3.6891     83.1917
   709.2500      0.0000    708.9354      3.4369     91.8881
   709.5000      0.0000    709.9015      3.3210    100.3679
   709.7500      0.0000    712.0717      3.5375    106.3095
   710.0000      0.0000    714.3195      4.0594    109.0555
   710.2500      0.0000    715.8728      4.6578    109.6765
   710.5000      0.0000    716.6620      5.0845    109.8088
   710.7500      0.0000    716.7944      5.2593    110.4410
   711.0000      0.0000    715.7550      5.2996    111.4295
   711.2500      0.0000    711.7401      5.3866    112.1321
   711.5000      0.0000    701.8022      5.6106    112.4289
   711.7500      0.0000    683.4056      5.9155    112.7593
   712.0000      0.0000    656.4956      6.1562    113.3601
   712.2500      0.0000    623.7976      6.2128    113.9782
   712.5000      0.0000    589.1701      6.0782    114.2169
   712.7500      0.0000    556.6979      5.8581    113.8518
   713.0000      0.0000    531.0307      5.6886    112.8149
   713.2500      0.0000    516.6551      5.6487    111.1437
   713.5000      0.0000    515.7125      5.7185    109.2436
   713.7500      0.0000    526.0034      5.7884    108.1593
   714.0000      0.0000    540.4711      5.7204    109.1254
   714.2500      0.0000    549.9305      5.4388    112.4338
   714.5000      0.0000    548.9840      4.9802    116.7657
   714.7500      0.0000    539.7084      4.4583    119.9061
   715.0000      0.0000    528.7640      3.9898    120.5311
   715.2500      0.0000    522.0209      3.6445    119.4087
   715.5000      0.0000    522.9197      3.4442    118.4252
   715.7500      0.0000    533.5236      3.3911    118.2511
   716.0000      0.0000    553.7546      3.4736    117.3545
   716.2500      0.0000    579.3380      3.6321    113.4091
   716.5000      0.0000    603.0396      3.7538    105.3249
   716.7500      0.0000    619.7885      3.7566     94.1611
   717.0000      0.0000    630.0590      3.6723     82.8518
   717.2500      0.0000    637.4894      3.6058     75.0051
   717.5000      0.0000    644.0614      3.6079     72.9190
   717.7500      0.0000    649.0150      3.6167     76.0028
   718.0000      0.0000    652.0569      3.5265     81.2669
   718.2500      0.0000    655.5009      3.2975     85.8054
   718.5000      0.0000    662.1186      3.0004     88.8740
   718.7500      0.0000    671.9304      2.7746     91.5366
   719.0000      0.0000    682.3975      2.7400     94.8051
   719.2500      0.0000    691.2218      2.9179     98.5986
   719.5000      0.0000    697.5567      3.2144    102.2245
   719.7500      0.0000    700.4570      3.4741    105.2171
   720.0000      0.0000    698.0098      3.5632    107.4687
   720.2500      0.0000    689.8466      3.4313    108.8342
   720.5000      0.0000    680.2598      3.1275    109.0653
   720.7500      0.0000    676.4700      2.7640    108.3511
   721.0000      0.0000    681.9999      2.4605    107.7333
   721.2500      0.0000    692.6534      2.3172    108.6398
   721.5000      0.0000    700.3308      2.4071    111.7541
   721.7500      0.0000    700.1622      2.7305    116.1907
   722.0000      0.0000    693.3162      3.1593    119.9422
   722.2500      0.0000    684.0234      3.4742    121.4771
   722.5000      0.0000    675.4467      3.5059    121.1096
