~Version Information
VERS.                      2.0: CWLS Log ASCII Standard - VERSION 2.0
WRAP.                       NO: One line per depth step
~Well Information Block
STRT.FT               590.0000: 
STOP.FT              1563.5000: 
STEP.FT                 0.2500: 
NULL.                -999.2500: 
COMP.          Petrogulf Corporation: COMPANY
WELL.             State 16-43R: WELL
FLD.           Purgatorie River: FIELD
LOC.           2538' FSL & 716' FEL: LOCATION
PROV.                 Colorado: PROVINCE
CNTY.               Las Animas: COUNTRY
SRVC.                Patterson: SERVICE COMPANY
DATE.          Tue Aug 09 14:21:37 2005: LOG DATE
UWI.                          : UNIQUE WELL ID
~Curve Information Block
DEPT.FT            0 000 00 00: Depth
RILD.Ohm-m                    : DIL Deep Resistivity
RILM.Ohm-m                    : DIL Medium Resistivity
GR.GAPI                       : Gamma Ray
~Parameter Information Block
~A  Depth       RILD        RILM         GR     
# ...
  1216.2500     18.4948     18.8347    102.0397
  1216.5000     19.0846     19.2844     95.3828
  1216.7500     19.5092     20.0120     98.0578
  1217.0000     19.9064     20.5299     90.7473
  1217.2500     20.9163     20.8697     94.3854
  1217.5000     20.5367     22.5743     86.4608
  1217.7500     20.9933     22.4474     87.4947
  1218.0000     21.7482     23.6362     89.4718
  1218.2500     22.5586     25.7158     82.7357
  1218.5000     22.9581     25.7871     85.1713
  1218.7500     23.7614     26.1276     81.9083
  1219.0000     23.0173     27.8627     80.7000
  1219.2500     23.4755     27.5348     80.6987
  1219.5000     22.6873     28.4172     84.8899
  1219.7500     21.3587     28.8944     85.0227
  1220.0000     21.4517     26.9369     87.9885
  1220.2500     20.1011     24.7393     95.3937
  1220.5000     19.2980     22.8953    108.6767
  1220.7500     18.7994     21.7063    105.9606
  1221.0000     18.7439     19.3377    123.8154
  1221.2500     18.5974     18.5464    125.5665
  1221.5000     18.1359     17.3665    129.0841
  1221.7500     17.5287     16.5953    132.4365
  1222.0000     18.3845     15.8564    135.6910
  1222.2500     18.4572     15.4087    136.4971
  1222.5000     18.9611     15.1568    131.4004
  1222.7500     19.7372     15.8030    129.2019
  1223.0000     18.8839     15.8216    126.9059
  1223.2500     18.0544     16.9435    120.6431
  1223.5000     18.4234     18.3360    101.7645
  1223.7500     19.2364     19.2379     89.0778
  1224.0000     19.9947     20.5507     84.4772
  1224.2500     20.5183     21.6335     83.6002
  1224.5000     22.0265     22.8164     80.8504
  1224.7500     22.4355     23.6333     80.1709
  1225.0000     23.2972     24.1083     81.6771
  1225.2500     25.1726     26.2302     81.7171
  1225.5000     24.2052     27.9760     80.0863
  1225.7500     29.1745     28.7223     78.1579
  1226.0000     28.3251     30.6381     77.7828
  1226.2500     32.6022     31.8544     80.6067
  1226.5000     32.5517     31.8684     79.3816
  1226.7500     30.9739     35.7814     80.0407
  1227.0000     31.0603     39.7549     78.5180
  1227.2500     30.8501     40.0123     78.1618
  1227.5000     31.2001     39.3253     75.2010
  1227.7500     30.0991     38.8111     74.2120
  1228.0000     29.1833     39.3866     72.3004
  1228.2500     27.7946     36.6156     72.8965
  1228.5000     25.2380     35.8301     73.7929
  1228.7500     24.2477     34.0552     87.0395
  1229.0000     22.7795     29.8556     98.1183
  1229.2500     22.5942     28.8156    113.1791
  1229.5000     21.6162     22.6868    129.2749
  1229.7500     20.6523     21.7242    137.6874
  1230.0000     20.3103     19.0571    141.0971
  1230.2500     19.3926     18.1232    138.8904
  1230.5000     18.2248     17.4317    139.9853
  1230.7500     18.2686     17.4815    143.6534
  1231.0000     17.0762     17.1164    144.8337
  1231.2500     16.3939     16.4618    137.5979
  1231.5000     15.1199     16.1090    125.9687
  1231.7500     14.4420     15.5681    125.8922
  1232.0000     13.6982     15.0614    124.6021
  1232.2500     13.2468     14.2804    134.0000
  1232.5000     12.6056     13.4359    140.1250
  1232.7500     12.0925     12.4240    142.9649
  1233.0000     11.9008     11.5162    161.1648
  1233.2500     12.1049     10.7354    161.7458
  1233.5000     12.1395     10.3501    168.8163
  1233.7500     12.2401     10.1535    166.6854
  1234.0000     12.3866     10.0621    167.0780
  1234.2500     12.3262     10.3475    169.1634
  1234.5000     11.9218     10.3467    157.9474
  1234.7500     12.2099     10.9466    147.6173
  1235.0000     12.0537     11.3931    125.6297
  1235.2500     11.8887     12.0815    120.9556
  1235.5000     11.6217     12.4651    120.2760
  1235.7500     10.8111     12.9371    116.9571
  1236.0000     10.8218     13.0889    114.1182
  1236.2500     10.7018     13.0815    120.0409
  1236.5000     10.5819     12.9435    123.2989
  1236.7500     10.4076     12.3967    126.4841
  1237.0000     10.7837     11.7259    147.3250
  1237.2500     10.4516     11.2214    153.1210
  1237.5000     10.0662     10.6951    162.6930
  1237.7500      9.8837     10.2220    159.1249
  1238.0000      9.4522      9.8725    156.1053
  1238.2500      9.4201      9.7086    156.2565
  1238.5000      8.9188      9.0301    159.2055
  1238.7500      8.5057      8.6228    166.4821
  1239.0000      8.3356      8.3549    173.8880
  1239.2500      8.0775      7.9251    170.5651
  1239.5000      7.9550      7.9189    170.9816
  1239.7500      7.9180      7.4886    172.4342
  1240.0000      7.9974      7.3535    169.0397
  1240.2500      8.0553      7.2871    175.0840
  1240.5000      8.4054      7.3661    177.2020
  1240.7500      8.5703      7.4037    167.7836
  1241.0000      8.8632      7.8965    146.4725
  1241.2500      9.3270      8.5411    136.0620
  1241.5000      9.5600      9.1860    125.1072
  1241.7500      9.9790     10.0567    114.4644
  1242.0000     10.6012     10.6836    114.3213
  1242.2500     11.0199     11.8416    113.9340
  1242.5000     11.6123     13.0354    100.7674
  1242.7500     12.3835     13.9361     97.3412
  1243.0000     13.3652     15.2526     97.3446
  1243.2500     14.7115     16.5911     96.4470
  1243.5000     15.0794     18.0674     92.0528
  1243.7500     16.6303     19.7762     89.0060
  1244.0000     18.3127     21.9205     89.1852
  1244.2500     19.7302     22.9180     86.4484
  1244.5000     20.1533     23.9323     86.3514
  1244.7500     20.8599     25.5524     87.9108
  1245.0000     21.6901     25.4739     94.3730
  1245.2500     21.1212     26.8687    100.6238
  1245.5000     21.8112     26.8553    103.5628
  1245.7500     21.1825     27.2216     99.6080
  1246.0000     21.2668     26.5326     97.9566
  1246.2500     21.4209     26.9497    103.5098
  1246.5000     20.5929     26.1947     97.8445
  1246.7500     21.2637     25.3047     96.1462
  1247.0000     21.0655     24.1050     81.6986
  1247.2500     21.2415     25.1679     87.4878
  1247.5000     20.8156     24.2551     91.2850
  1247.7500     20.8443     22.8657     92.3883
  1248.0000     20.5326     22.0839    101.8300
  1248.2500     20.3519     21.4612    114.8442
  1248.5000     20.1357     21.5428    121.7474
  1248.7500     19.9961     20.8556    123.9374
  1249.0000     20.1435     20.6496    117.1349
  1249.2500     20.3877     20.4519    119.5575
  1249.5000     20.1657     21.4717    111.6123
  1249.7500     19.6794     22.1815     96.7869
  1250.0000     18.7162     22.6391     94.8873
  1250.2500     17.2357     22.8074     87.8292
  1250.5000     15.6387     22.3021     86.6184
  1250.7500     14.6244     21.7295     81.8248
  1251.0000     13.7129     20.1494     88.9648
  1251.2500     13.2691     17.8515     99.1289
  1251.5000     12.9165     16.1644    105.5497
  1251.7500     12.5498     13.9570    127.4406
  1252.0000     12.0085     12.6895    153.1465
  1252.2500     11.5416     11.5888    150.7380
  1252.5000     11.1886     10.8197    156.9489
  1252.7500     10.8842     10.2981    157.9215
  1253.0000     10.5641      9.7746    154.0740
  1253.2500     10.0421      9.6277    150.2728
  1253.5000      9.6549      9.1391    148.6278
  1253.7500      9.3379      9.0742    147.5514
  1254.0000      8.8653      8.8097    156.9080
  1254.2500      8.6934      8.7394    148.4664
  1254.5000      8.6508      8.5897    150.0048
  1254.7500      8.6340      8.5379    154.7918
  1255.0000      8.7602      8.5086    155.9638
  1255.2500      8.6193      8.4321    155.0912
  1255.5000      8.7413      8.5176    147.5927
  1255.7500      8.9054      8.7062    150.8196
  1256.0000      8.9698      8.8221    145.8452
  1256.2500      9.4378      8.9358    137.4893
  1256.5000      9.7276      9.0158    146.7110
  1256.7500      9.9255      9.1338    142.3366
  1257.0000     10.3588      9.5651    140.3897
  1257.2500     10.8668      9.9440    130.6983
  1257.5000     11.1176     10.3029    130.5017
  1257.7500     11.3762     11.2223    123.2897
