~Version Information
VERS.                      2.0: CWLS Log ASCII Standard - VERSION 2.0
WRAP.                       NO: One line per depth step
~Well Information Block
STRT.FT               898.0000: 
STOP.FT              2359.2000: 
STEP.FT                 0.1000: 
NULL.                -999.2500: 
COMP.          Pioneer Natural Resources: COMPANY
WELL.             Trimax 44-23: WELL
FLD.           Purgatoire River: FIELD
LOC.           527' FSL & 1064' FEL: LOCATION
PROV.                 Colorado: PROVINCE
CNTY.               Las Animas: COUNTRY
SRVC.                Patterson: SERVICE COMPANY
DATE.          Mon Mar 14 07:28:19 2005: LOG DATE
UWI.           05 071 08326 00: UNIQUE WELL ID
~Curve Information Block
DEPT.FT            0 000 00 00: Depth
DCAL.in                       : CDL Caliper
RHOB.g/cc                     : CDL Bulk Density
RHOC.g/cc                     : CDL Density Correction
DPOR.pu                       : CDL Density Porosity
GR.GAPI                       : Gamma Ray
NPOR.pu                       : Neutron Porosity
~Parameter Information Block
~A  Depth       DCAL        RHOB        RHOC        DPOR         GR         NPOR    
# ...
  1963.6000      7.9422      2.3637      0.0382     17.3502     33.4643     21.4034
  1963.7000      7.9422      2.3565      0.0154     17.7880     32.4051     21.3728
  1963.8000      7.9402      2.3587      0.0464     17.6557     32.7851     21.2257
  1963.9000      7.9402      2.3563      0.0610     17.8009     34.6544     21.0963
  1964.0000      7.9351      2.3240      0.0895     19.7600     36.3037     21.1494
  1964.1000      7.9351      2.2515      0.0627     24.1517     37.6753     21.4826
  1964.2000      7.9351      2.1572      0.0175     29.8680     39.2829     22.6809
  1964.3000      7.9311      2.0529      0.0018     36.1887     39.3152     24.4777
  1964.4000      7.9311      1.9290     -0.0473     43.6947     37.5566     25.9839
  1964.5000      7.9411      1.7868     -0.0909     52.3178     36.5615     27.2424
  1964.6000      7.9411      1.6461     -0.1313     60.8439     36.8307     28.2992
  1964.7000      7.9411      1.5271     -0.1240     68.0551     36.7003     28.9360
  1964.8000      7.9906      1.4389     -0.1257     73.3992     35.7007     29.4807
  1964.9000      7.9906      1.3830     -0.1249     76.7864     33.5362     30.2227
  1965.0000      8.1199      1.3539     -0.0209     78.5506     30.1634     30.8837
  1965.1000      8.1199      1.3373      0.0089     79.5570     26.9223     31.4035
  1965.2000      8.1199      1.3234      0.0158     80.3984     25.2623     32.0120
  1965.3000      8.3171      1.3103     -0.0089     81.1934     25.0457     32.4769
  1965.4000      8.3171      1.2966     -0.0021     82.0224     25.0435     32.7627
  1965.5000      8.4589      1.2807      0.0214     82.9875     24.8813     33.3184
  1965.6000      8.4589      1.2615      0.0402     84.1505     24.7845     34.3736
  1965.7000      8.4589      1.2485      0.0096     84.9401     24.6799     35.4517
  1965.8000      8.4456      1.2692     -0.0150     83.6841     25.3946     35.6412
  1965.9000      8.4456      1.3484      0.0068     78.8852     28.1604     34.8643
  1966.0000      8.3190      1.4808      0.0763     70.8636     33.0664     33.8976
  1966.1000      8.3190      1.6367      0.1439     61.4138     40.6642     33.4390
  1966.2000      8.3190      1.7923      0.1808     51.9837     49.9924     33.4472
  1966.3000      8.2102      1.9454      0.2017     42.7009     57.2795     33.1834
  1966.4000      8.2102      2.1054      0.2147     33.0068     62.3726     32.1779
  1966.5000      8.1399      2.2697      0.2355     23.0493     67.1582     30.6886
  1966.6000      8.1399      2.4082      0.3022     14.6520     70.7336     29.0054
  1966.7000      8.1399      2.4921      0.2206      9.5674     73.7741     27.2989
  1966.8000      8.0626      2.5279      0.1503      7.3973     80.1380     25.7931
  1966.9000      8.0626      2.5331      0.0946      7.0827     89.0019     24.4041
  1967.0000      7.9701      2.5137      0.1011      8.2630     94.5776     23.2794
  1967.1000      7.9701      2.4882      0.0218      9.8081     94.4224     22.7954
  1967.2000      7.9701      2.4875      0.0491      9.8470     92.0141     22.6051
  1967.3000      7.8989      2.5168      0.0531      8.0737     89.5323     22.3829
  1967.4000      7.8989      2.5544      0.0904      5.7932     86.3735     22.5326
  1967.5000      7.8666      2.5815      0.0745      4.1522     84.9180     23.0088
  1967.6000      7.8666      2.5980      0.0997      3.1529     88.5992     23.2780
  1967.7000      7.8666      2.6068      0.1478      2.6204     96.2016     23.5038
  1967.8000      7.8430      2.6063      0.1056      2.6514    102.2652     23.8571
  1967.9000      7.8430      2.5977      0.1356      3.1688    102.6711     23.9094
  1968.0000      7.8129      2.5770      0.1051      4.4234     98.5689     23.8314
  1968.1000      7.8129      2.5463      0.0771      6.2850     94.9896     24.1438
  1968.2000      7.8129      2.5234      0.0535      7.6717     96.6702     24.6469
  1968.3000      7.8028      2.5189      0.0220      7.9425    102.5299     25.1391
  1968.4000      7.8028      2.5245      0.0805      7.6058    104.5714     25.6975
  1968.5000      7.8199      2.5276      0.0423      7.4157     99.0043     26.0905
  1968.6000      7.8199      2.5321      0.0145      7.1428     91.6895     26.1295
  1968.7000      7.8199      2.5472      0.0465      6.2277     88.5974     25.7109
  1968.8000      7.8375      2.5635      0.0752      5.2432     90.5559     24.9389
  1968.9000      7.8375      2.5628      0.0917      5.2847     94.2067     24.5002
  1969.0000      7.8436      2.5408      0.0798      6.6204     98.0296     24.6910
  1969.1000      7.8436      2.5079      0.0576      8.6115    102.4135     25.0840
  1969.2000      7.8436      2.4833     -0.0100     10.1033    106.0285     25.2292
  1969.3000      7.8431      2.4863     -0.0198      9.9226    107.8124     25.1230
  1969.4000      7.8431      2.5134      0.0354      8.2798    106.4477     25.0825
  1969.5000      7.8385      2.5358      0.1055      6.9205    103.1511     25.1112
  1969.6000      7.8385      2.5370      0.0599      6.8501    103.7492     24.9548
  1969.7000      7.8385      2.5317      0.0346      7.1712    109.0464     24.6487
  1969.8000      7.8427      2.5400      0.0823      6.6688    113.1425     24.5686
  1969.9000      7.8427      2.5595      0.0747      5.4835    113.8658     25.0708
  1970.0000      7.8702      2.5678      0.1013      4.9794    113.3431     25.9367
  1970.1000      7.8702      2.5541      0.0859      5.8092    113.6301     26.6298
  1970.2000      7.8702      2.5392      0.0620      6.7175    115.2140     26.8860
  1970.3000      7.8966      2.5411      0.0958      6.5989    116.8394     26.6731
  1970.4000      7.8966      2.5499      0.1087      6.0681    117.2635     26.2548
  1970.5000      7.8925      2.5551      0.0774      5.7493    113.9746     25.9822
  1970.6000      7.8925      2.5626      0.0366      5.2983    107.6650     25.8199
  1970.7000      7.8925      2.5686      0.1054      4.9345    102.7808     25.7770
  1970.8000      7.8745      2.5578      0.0918      5.5896     99.1817     25.8762
  1970.9000      7.8745      2.5340      0.0671      7.0300     94.2728     25.7312
  1971.0000      7.8549      2.5201      0.0393      7.8724     90.7431     25.3108
  1971.1000      7.8549      2.5250      0.0557      7.5731     93.3409     24.9067
  1971.2000      7.8549      2.5373      0.0692      6.8281     99.8373     24.5795
  1971.3000      7.8344      2.5513      0.0498      5.9797    102.6307     24.4820
  1971.4000      7.8344      2.5686      0.1329      4.9349     99.1048     24.6121
  1971.5000      7.8182      2.5830      0.1259      4.0604     95.7906     24.6218
  1971.6000      7.8182      2.5842      0.1180      3.9879     99.1976     24.8853
  1971.7000      7.8182      2.5588      0.1224      5.5272    106.3650     25.9189
  1971.8000      7.8031      2.4999      0.0688      9.0963    109.7773     26.8082
  1971.9000      7.8031      2.4182      0.0836     14.0459    108.1105     26.5561
  1972.0000      7.8001      2.3370     -0.0013     18.9713    103.3443     25.8396
  1972.1000      7.8001      2.2586      0.0066     23.7187     95.4001     26.1740
  1972.2000      7.8001      2.1543     -0.0214     30.0416     85.8003     27.7134
  1972.3000      7.8225      2.0131     -0.0504     38.6009     78.2308     28.8954
  1972.4000      7.8225      1.8681     -0.0863     47.3905     75.5165     29.0868
  1972.5000      7.8543      1.7548     -0.0918     54.2518     75.4180     29.3568
  1972.6000      7.8543      1.6733     -0.0895     59.1954     72.6111     29.9369
  1972.7000      7.8543      1.5995     -0.1099     63.6678     64.8147     30.2792
  1972.8000      7.8615      1.5261     -0.0850     68.1175     54.8423     30.5897
  1972.9000      7.8615      1.4752      0.0193     71.2014     47.8098     31.4144
  1973.0000      7.8484      1.4649      0.0594     71.8247     45.2741     32.4960
  1973.1000      7.8484      1.4910      0.0515     70.2424     44.5434     33.0032
