~Version Information
VERS.                      2.0: CWLS Log ASCII Standard - VERSION 2.0
WRAP.                       NO: One line per depth step
~Well Information Block
STRT.FT               550.0000: 
STOP.FT              1577.7000: 
STEP.FT                 0.1000: 
NULL.                -999.2500: 
COMP.          Pioneer Natural Resources: COMPANY
WELL.          Kristin 22-23 Tr: WELL
FLD.           Purgatoire River: FIELD
LOC.           2273' FNL & 2029' FWL: LOCATION
PROV.                 Colorado: PROVINCE
CNTY.               Las Animas: COUNTRY
SRVC.                Patterson: SERVICE COMPANY
DATE.          Fri Jan 21 06:58:50 2005: LOG DATE
UWI.           05 071 08259 00: UNIQUE WELL ID
~Curve Information Block
DEPT.FT            0 000 00 00: Depth
DCAL.in                       : CDL Caliper
RHOB.g/cc                     : CDL Bulk Density
RHOC.g/cc                     : CDL Density Correction
DPOR.pu                       : CDL Density Porosity
NPOR.pu                       : Neutron Porosity
GR.GAPI                       : Gamma Ray
~Parameter Information Block
~A  Depth       DCAL        RHOB        RHOC        DPOR        NPOR         GR     
# ...
  1414.0000      8.0987      2.2682      0.3045     23.1377     20.6888     76.9861
  1414.1000      8.0987      2.3925      0.3190     15.6054     19.8507     78.4457
  1414.2000      8.0987      2.4912      0.3058      9.6266     19.3494     86.0256
  1414.3000      8.0378      2.5577      0.2505      5.5922     18.7239     94.6019
  1414.4000      8.0378      2.5948      0.1363      3.3449     17.5762    101.1225
  1414.5000      7.9732      2.6082      0.0614      2.5338     16.3557    105.0829
  1414.6000      7.9732      2.5989      0.0733      3.0979     15.7209    107.1168
  1414.7000      7.9732      2.5791     -0.0079      4.2945     15.5594    109.0171
  1414.8000      7.9433      2.5719      0.0308      4.7317     15.8597    111.3617
  1414.9000      7.9433      2.5815      0.0177      4.1522     16.6215    113.6504
  1415.0000      7.9384      2.5973      0.0426      3.1967     17.2495    116.9184
  1415.1000      7.9384      2.6019      0.0738      2.9168     17.1672    119.7444
  1415.2000      7.9384      2.5833      0.0599      4.0449     16.3605    117.6727
  1415.3000      7.9376      2.5523      0.0042      5.9238     15.5422    109.2158
  1415.4000      7.9376      2.5309     -0.0116      7.2211     15.3602     96.8732
  1415.5000      7.9356      2.5267     -0.0031      7.4732     15.5343     87.4650
  1415.6000      7.9356      2.5353      0.0024      6.9544     15.5477     88.2533
  1415.7000      7.9356      2.5532      0.0372      5.8642     15.6734     97.3084
  1415.8000      7.9349      2.5741      0.0663      4.5991     16.1319    105.0803
  1415.9000      7.9349      2.5870      0.0395      3.8182     16.3832    105.0990
  1416.0000      7.9372      2.5857      0.0406      3.8941     16.2840     98.8440
  1416.1000      7.9372      2.5718      0.0350      4.7417     15.9295     92.6378
  1416.2000      7.9372      2.5560     -0.0057      5.6982     15.3646     90.0667
  1416.3000      7.9389      2.5563     -0.0153      5.6775     15.1130     89.6408
  1416.4000      7.9389      2.5763      0.0278      4.4681     15.2221     88.9875
  1416.5000      7.9386      2.5939      0.0931      3.4002     15.4111     86.7674
  1416.6000      7.9386      2.5927      0.0516      3.4700     16.0070     86.6884
  1416.7000      7.9386      2.5828      0.0508      4.0716     17.2633     89.9745
  1416.8000      7.9379      2.5728      0.0492      4.6795     18.4635     93.1900
  1416.9000      7.9379      2.5613      0.0160      5.3758     18.5078     97.2736
  1417.0000      7.9361      2.5538      0.0006      5.8331     17.6859    101.2484
  1417.1000      7.9361      2.5522      0.0242      5.9248     17.4399     99.8952
  1417.2000      7.9361      2.5517      0.0269      5.9559     18.3074     95.0316
  1417.3000      7.9355      2.5585      0.0340      5.5446     19.8085     95.1781
  1417.4000      7.9355      2.5780      0.0343      4.3649     21.2503    105.4471
  1417.5000      7.9373      2.5930      0.1281      3.4542     22.3659    122.0827
  1417.6000      7.9373      2.5871      0.0609      3.8131     22.9812    139.5881
  1417.7000      7.9373      2.5696      0.0836      4.8697     22.6191    153.7833
  1417.8000      7.9379      2.5491      0.0612      6.1179     21.8004    160.9177
  1417.9000      7.9379      2.5206      0.0482      7.8443     21.8179    164.0788
  1418.0000      7.9410      2.4846      0.0174     10.0237     22.7488    168.3925
  1418.1000      7.9410      2.4594     -0.0326     11.5543     23.6864    169.9099
  1418.2000      7.9410      2.4604      0.0151     11.4925     24.4917    163.4633
  1418.3000      7.9512      2.4739      0.0423     10.6706     25.1739    154.2513
  1418.4000      7.9512      2.4806      0.0526     10.2684     25.3937    150.1475
  1418.5000      7.9589      2.4829      0.0483     10.1280     25.2642    155.3255
  1418.6000      7.9589      2.4942      0.0402      9.4431     24.7552    167.8429
  1418.7000      7.9589      2.5157      0.0855      8.1364     23.7125    177.3061
  1418.8000      7.9499      2.5371      0.1027      6.8397     22.7742    175.9188
  1418.9000      7.9499      2.5504      0.0809      6.0363     22.3995    166.9558
  1419.0000      7.9401      2.5554      0.0648      5.7330     22.4482    160.8550
  1419.1000      7.9401      2.5638      0.0307      5.2244     22.5535    161.0838
  1419.2000      7.9401      2.5831      0.0743      4.0516     22.1259    161.0027
  1419.3000      7.9391      2.5988      0.0984      3.1021     21.4878    160.3022
  1419.4000      7.9391      2.5978      0.0652      3.1633     21.4789    160.8565
  1419.5000      7.9391      2.5843      0.0386      3.9788     21.6162    156.8143
  1419.6000      7.9391      2.5648      0.0436      5.1619     21.1783    145.7500
  1419.7000      7.9391      2.5466      0.0458      6.2672     20.4907    135.4581
  1419.8000      7.9364      2.5428      0.0133      6.4957     19.6876    129.6856
  1419.9000      7.9364      2.5584      0.0372      5.5504     18.8809    123.5797
  1420.0000      7.9333      2.5795      0.0212      4.2730     18.6967    117.2923
  1420.1000      7.9333      2.5881      0.0774      3.7507     19.1957    115.0262
  1420.2000      7.9333      2.5797      0.0300      4.2619     19.5489    117.2658
  1420.3000      7.9334      2.5677     -0.0070      4.9905     19.2260    122.7236
  1420.4000      7.9334      2.5657      0.0193      5.1103     18.8697    126.7283
  1420.5000      7.9311      2.5700      0.0413      4.8476     19.0681    121.9065
  1420.6000      7.9311      2.5708      0.0157      4.7983     19.4764    108.9834
  1420.7000      7.9311      2.5685      0.0385      4.9413     19.7547     99.2895
  1420.8000      7.9261      2.5682      0.0404      4.9605     20.0531    101.8509
  1420.9000      7.9261      2.5683      0.0494      4.9535     20.4762    112.4190
  1421.0000      7.9304      2.5640      0.0487      5.2102     20.7386    120.3925
  1421.1000      7.9304      2.5569      0.0406      5.6448     20.4996    121.5436
  1421.2000      7.9304      2.5502      0.0489      6.0476     19.9493    119.0480
  1421.3000      7.9362      2.5449      0.0086      6.3705     19.5367    118.6131
  1421.4000      7.9362      2.5422      0.0280      6.5335     19.3293    121.6666
  1421.5000      7.9356      2.5414      0.0337      6.5800     19.0930    123.8882
  1421.6000      7.9356      2.5379      0.0767      6.7915     18.8929    124.2518
  1421.7000      7.9356      2.5309      0.0439      7.2176     19.1224    126.2980
  1421.8000      7.9345      2.5322      0.0083      7.1378     19.7296    129.6080
  1421.9000      7.9345      2.5504      0.0293      6.0389     20.2855    131.8682
  1422.0000      7.9331      2.5754      0.0296      4.5190     20.5462    132.7308
  1422.1000      7.9331      2.6018      0.0470      2.9209     20.3508    131.0205
  1422.2000      7.9331      2.6244      0.0811      1.5513     19.6555    124.9380
  1422.3000      7.9315      2.6298      0.0696      1.2245     18.9591    118.0700
  1422.4000      7.9315      2.6212      0.0682      1.7470     18.8119    115.6861
  1422.5000      7.9333      2.6146      0.0494      2.1466     19.2399    114.5152
  1422.6000      7.9333      2.6092      0.0978      2.4710     20.0933    109.8316
  1422.7000      7.9333      2.5933      0.0173      3.4362     20.9027    103.1723
  1422.8000      7.9359      2.5751      0.0509      4.5392     20.8013     96.2887
  1422.9000      7.9359      2.5746      0.0174      4.5721     19.9316     91.6669
  1423.0000      7.9367      2.5999      0.0506      3.0370     19.0839     91.9304
  1423.1000      7.9367      2.6414      0.0755      0.5204     18.2466     95.6104
  1423.2000      7.9367      2.6802      0.0844     -1.8312     17.3259     99.8412
  1423.3000      7.9361      2.6990      0.0947     -2.9692     16.9086    102.9612
  1423.4000      7.9361      2.6894      0.0747     -2.3876     17.2510    103.8207
  1423.5000      7.9353      2.6585      0.0501     -0.5154     17.7278    101.2114
