~Version Information
VERS.                      2.0: CWLS Log ASCII Standard - VERSION 2.0
WRAP.                       NO: One line per depth step
~Well Information Block
STRT.FT               -11.0000: 
STOP.FT              1896.2500: 
STEP.FT                 0.2500: 
NULL.                -999.2500: 
COMP.          Pioneer Natural Resources: COMPANY
WELL.            Summers 21-19: WELL
FLD.           Purgatoire River: FIELD
LOC.           900' FNL & 1950' FWL--: LOCATION
PROV.                 Colorado: PROVINCE
CNTY.               Las Animas: COUNTRY
SRVC.                Patterson: SERVICE COMPANY
DATE.          Thu Oct 20 15:06:00 2005: LOG DATE
UWI.           05 071 08315 00: UNIQUE WELL ID
~Curve Information Block
DEPT.FT            0 000 00 00: Depth
GR.GAPI                       : Gamma Ray
CCL.                          : Casing Collar Locator
TT3.usec                      : CBL 3' Travel Time
AMP3.mV                       : CBL 3' Amplitude
~Parameter Information Block
~A  Depth        GR         CCL         TT3         AMP3    
# ...
   860.0000    132.6001      0.0000    734.0329      3.3840
   860.2500    133.0471      0.0000    736.7935      3.3846
   860.5000    132.6628      0.0000    739.1443      3.3598
   860.7500    131.9704      0.0000    740.6327      3.3294
   861.0000    131.7059      0.0000    741.3222      3.3139
   861.2500    132.2970      0.0000    741.5166      3.3265
   861.5000    133.5476      0.0000    741.4675      3.3698
   861.7500    134.8198      0.0000    741.3112      3.4330
   862.0000    135.3191      0.0000    741.1161      3.4947
   862.2500    134.1977      0.0000    740.9067      3.5346
   862.5000    130.8169      0.0000    740.6584      3.5471
   862.7500    125.3103      0.0000    740.3196      3.5427
   863.0000    118.7571      0.0000    739.8588      3.5362
   863.2500    112.4790      0.0000    739.2745      3.5321
   863.5000    107.3527      0.0000    738.5753      3.5222
   863.7500    104.2002      0.0000    737.7870      3.4970
   864.0000    104.3440      0.0000    736.9621      3.4613
   864.2500    108.7068      0.0000    736.0818      3.4324
   864.5000    116.1827      0.0000    734.8401      3.4197
   864.7500    123.6696      0.0000    732.5420      3.4067
   865.0000    128.2020      0.0000    728.4789      3.3542
   865.2500    128.8531      0.0000    722.7117      3.2259
   865.5000    126.6839      0.0000    716.4837      3.0209
   865.7500    123.6076      0.0000    711.4543      2.7843
   866.0000    121.4525      0.0000    708.2692      2.5741
   866.2500    121.2181      0.0000    706.0674      2.4164
   866.5000    122.4389      0.0000    703.6294      2.3041
   866.7500    123.4117      0.0000    700.7661      2.2287
   867.0000    122.5883      0.0000    698.3884      2.1924
   867.2500    120.0316      0.0000    697.7609      2.1954
   867.5000    117.3676      2.0000    700.1094      2.2303
   867.7500    116.1076      0.0000    706.0435      2.2864
   868.0000    116.1982      0.0000    714.2859      2.3628
   868.2500    116.4097      0.0000    721.4557      2.4810
   868.5000    115.7703      0.0000    724.1678      2.6726
   868.7500    114.2804      0.0000    721.5554      2.9357
   869.0000    112.6030      0.0000    715.6411      3.2145
   869.2500    111.5355      0.0000    709.4976      3.4458
   869.5000    111.7371      0.0000    705.1970      3.6117
   869.7500    113.6266      0.0000    703.1321      3.7274
   870.0000    117.0867      0.0000    702.6971      3.7998
   870.2500    121.0013      0.0000    703.2426      3.8224
   870.5000    123.5461      0.0000    704.5485      3.8011
   870.7500    123.6247      0.0000    706.7064      3.7644
   871.0000    121.9553      0.0000    709.6464      3.7503
   871.2500    120.2528      0.0000    712.7266      3.7858
   871.5000    119.3282      0.0000    714.9993      3.8702
   871.7500    118.3514      0.0000    716.0826      3.9711
   872.0000    116.0498      0.0000    716.4838      4.0421
   872.2500    112.2483      0.0000    716.8294      4.0545
   872.5000    107.8878      0.0000    717.1411      4.0176
   872.7500    103.7919      0.0000    717.1218      3.9670
   873.0000     99.9774      0.0000    716.7017      3.9390
   873.2500     96.3310      0.0000    716.0931      3.9520
   873.5000     93.4415      0.0000    715.7637      3.9989
   873.7500     92.1621      0.0000    716.3267      4.0494
   874.0000     92.4231      0.0000    717.8152      4.0670
   874.2500     93.1694      0.0000    719.0759      4.0375
   874.5000     93.7800      0.0000    718.5858      3.9824
   874.7500     94.9362      0.0000    716.0134      3.9385
   875.0000     97.5094      0.0000    712.5679      3.9215
   875.2500    100.9313      0.0000    709.8251      3.9170
   875.5000    103.4433      0.0000    708.6561      3.9031
   875.7500    104.1421      0.0000    709.1805      3.8724
   876.0000    104.2147      0.0000    711.0681      3.8303
   876.2500    105.6133      0.0000    713.6023      3.7861
   876.5000    108.6866      0.0000    715.8637      3.7484
   876.7500    111.6412      0.0000    717.2471      3.7224
   877.0000    112.3070      0.0000    717.6993      3.7048
   877.2500    109.9138      0.0000    717.5367      3.6874
   877.5000    105.1096      0.0000    717.4257      3.6679
   877.7500     98.8947      0.0000    718.3308      3.6545
   878.0000     92.0192      0.0000    720.6735      3.6563
   878.2500     85.2355      0.0000    723.3690      3.6730
   878.5000     79.7107      0.0000    724.2995      3.6975
   878.7500     76.7794      0.0000    722.1142      3.7264
   879.0000     76.9555      0.0000    717.4192      3.7639
   879.2500     79.1911      0.0000    712.1463      3.8145
   879.5000     81.6095      0.0000    707.9926      3.8767
   879.7500     83.1937      0.0000    705.5145      3.9450
   880.0000     84.3540      0.0000    704.3737      4.0154
   880.2500     85.7729      0.0000    704.1208      4.0861
   880.5000     87.1830      0.0000    704.7805      4.1540
   880.7500     87.4736      0.0000    706.8945      4.2157
   881.0000     85.8035      0.0000    710.9625      4.2669
   881.2500     82.6445      0.0000    716.6313      4.2986
   881.5000     79.8073      0.0000    722.3508      4.2896
   881.7500     79.2407      0.0000    726.1304      4.2135
   882.0000     81.5725      0.0000    727.0865      4.0598
   882.2500     85.5820      0.0000    726.4154      3.8515
   882.5000     88.7973      0.0000    726.5148      3.6367
   882.7500     88.7927      0.0000    728.8087      3.4608
   883.0000     84.7651      0.0000    732.5818      3.3444
   883.2500     78.3345      0.0000    736.0190      3.2840
   883.5000     72.6422      0.0000    737.8578      3.2620
   883.7500     70.5422      0.0000    737.7263      3.2493
   884.0000     73.4722      0.0000    735.3906      3.2104
   884.2500     81.1709      0.0000    730.3215      3.1227
   884.5000     91.5551      0.0000    722.1595      3.0000
   884.7500    101.1444      0.0000    711.5457      2.8925
   885.0000    106.7891      0.0000    700.6490      2.8561
   885.2500    107.7644      0.0000    693.0136      2.9127
   885.5000    106.0916      0.0000    692.2120      3.0383
   885.7500    104.5138      0.0000    699.3813      3.1908
   886.0000    104.1805      0.0000    711.7242      3.3439
   886.2500    104.3689      0.0000    724.2057      3.4939
   886.5000    104.0185      0.0000    733.0904      3.6385
   886.7500    102.8035      0.0000    737.7150      3.7603
   887.0000    100.6931      0.0000    739.4454      3.8365
   887.2500     97.2898      0.0000    739.8507      3.8580
   887.5000     92.2623      0.0000    739.8508      3.8333
   887.7500     86.3076      0.0000    739.7943      3.7779
   888.0000     81.3042      0.0000    739.7532      3.7062
   888.2500     79.2129      0.0000    739.7025      3.6334
   888.5000     80.6133      0.0000    739.5865      3.5757
   888.7500     84.3132      0.0000    739.3438      3.5427
   889.0000     88.4904      0.0000    738.9164      3.5290
   889.2500     92.0677      0.0000    738.2615      3.5137
   889.5000     94.7856      0.0000    737.3859      3.4711
   889.7500     96.3606      0.0000    736.3311      3.3877
   890.0000     96.3857      0.0000    735.0220      3.2748
   890.2500     95.1057      0.0000    733.0023      3.1637
   890.5000     93.5687      0.0000    729.3107      3.0847
   890.7500     92.6109      0.0000    722.9160      3.0444
   891.0000     92.0570      0.0000    713.7291      3.0225
   891.2500     91.1345      0.0000    703.4670      2.9887
   891.5000     89.3822      0.0000    695.4700      2.9209
   891.7500     86.9832      0.0000    693.7332      2.8097
   892.0000     84.5651      0.0000    701.6095      2.6555
   892.2500     82.9645      0.0000    719.4590      2.4702
   892.5000     83.0173      0.0000    741.8707      2.2789
   892.7500     85.2452      0.0000    758.9163      2.1119
   893.0000     89.5887      0.0000    763.5396      1.9898
   893.2500     95.3065      0.0000    758.1918      1.9142
