~Version Information
VERS.                      2.0: CWLS Log ASCII Standard - VERSION 2.0
WRAP.                       NO: One line per depth step
~Well Information Block
STRT.FT               430.0000: 
STOP.FT              2826.2500: 
STEP.FT                 0.2500: 
NULL.                -999.2500: 
COMP.          Pioneer Natural Resources: COMPANY
WELL.           Ei-ei-oh 31-24: WELL
FLD.           Purgatoire River: FIELD
LOC.           235' FNL & 2001' FEL--: LOCATION
PROV.                 Colorado: PROVINCE
CNTY.               Las Animas: COUNTRY
SRVC.                Patterson: SERVICE COMPANY
DATE.          Thu Jun 16 06:46:37 2005: LOG DATE
UWI.           05 071 08403 00: UNIQUE WELL ID
~Curve Information Block
DEPT.FT            0 000 00 00: Depth
DIR.Ohm-m                     : IEL Induction Resistivity
SN.Ohm-m                      : IEL Short Normal
SP.mV                         : IEL Spontaneous Potential
GR.GAPI                       : Gamma Ray
~Parameter Information Block
~A  Depth       DIR          SN          SP          GR     
# ...
   597.5000     30.0105   2000.0000   2000.0000     80.9428
   597.7500     29.3168   2000.0000   2000.0000     82.5232
   598.0000     28.5809   2000.0000   2000.0000     86.6638
   598.2500     27.7830   2000.0000   2000.0000     90.3785
   598.5000     26.8959   2000.0000   2000.0000     96.1266
   598.7500     25.9103   2000.0000   2000.0000     99.3870
   599.0000     24.8502   2000.0000   2000.0000    102.9775
   599.2500     23.7637   2000.0000   2000.0000    104.7157
   599.5000     22.7011   2000.0000   2000.0000    107.2446
   599.7500     21.6984   2000.0000   2000.0000    109.4366
   600.0000     20.7772   2000.0000   2000.0000    113.8278
   600.2500     19.9519   2000.0000   2000.0000    117.2118
   600.5000     19.2347   2000.0000   2000.0000    122.1617
   600.7500     18.6337   2000.0000   2000.0000    125.0229
   601.0000     18.1490   2000.0000   2000.0000    128.3684
   601.2500     17.7702   2000.0000   2000.0000    129.9291
   601.5000     17.4771   2000.0000   2000.0000    131.4971
   601.7500     17.2444   2000.0000   2000.0000    132.3629
   602.0000     17.0485   2000.0000   2000.0000    133.9985
   602.2500     16.8734   2000.0000   2000.0000    135.3808
   602.5000     16.7140   2000.0000   2000.0000    137.3897
   602.7500     16.5737   2000.0000   2000.0000    138.3595
   603.0000     16.4591   2000.0000   2000.0000    139.3787
   603.2500     16.3751   2000.0000   2000.0000    140.1691
   603.5000     16.3248   2000.0000   2000.0000    141.8647
   603.7500     16.3102   2000.0000   2000.0000    143.0036
   604.0000     16.3324   2000.0000   2000.0000    143.5791
   604.2500     16.3885   2000.0000   2000.0000    142.6975
   604.5000     16.4702   2000.0000   2000.0000    139.5640
   604.7500     16.5653   2000.0000   2000.0000    136.8472
   605.0000     16.6637   2000.0000   2000.0000    132.9116
   605.2500     16.7636   2000.0000   2000.0000    130.6362
   605.5000     16.8730   2000.0000   2000.0000    127.4818
   605.7500     17.0066   2000.0000   2000.0000    125.2564
   606.0000     17.1783   2000.0000   2000.0000    121.4056
   606.2500     17.3959   2000.0000   2000.0000    118.5274
   606.5000     17.6557   2000.0000   2000.0000    114.2427
   606.7500     17.9404   2000.0000   2000.0000    111.8198
   607.0000     18.2195   2000.0000   2000.0000    109.2001
   607.2500     18.4563   2000.0000   2000.0000    107.9785
   607.5000     18.6202   2000.0000   2000.0000    106.3548
   607.7500     18.6975   2000.0000   2000.0000    105.2367
   608.0000     18.6932   2000.0000   2000.0000    104.0166
   608.2500     18.6231   2000.0000   2000.0000    104.2924
   608.5000     18.5046   2000.0000   2000.0000    107.7544
   608.7500     18.3525   2000.0000   2000.0000    112.2447
   609.0000     18.1792   2000.0000   2000.0000    120.6300
   609.2500     17.9941   2000.0000   2000.0000    125.7793
   609.5000     17.8038   2000.0000   2000.0000    131.1257
   609.7500     17.6140   2000.0000   2000.0000    133.2251
   610.0000     17.4348   2000.0000   2000.0000    135.4331
   610.2500     17.2847   2000.0000   2000.0000    136.7028
   610.5000     17.1905   2000.0000   2000.0000    137.8734
   610.7500     17.1828   2000.0000   2000.0000    137.6863
   611.0000     17.2887   2000.0000   2000.0000    135.6740
   611.2500     17.5266   2000.0000   2000.0000    133.3017
   611.5000     17.9022   2000.0000   2000.0000    128.3722
   611.7500     18.4094   2000.0000   2000.0000    124.2047
   612.0000     19.0342   2000.0000   2000.0000    116.9437
   612.2500     19.7606   2000.0000   2000.0000    111.8865
   612.5000     20.5768   2000.0000   2000.0000    104.8389
   612.7500     21.4797   2000.0000   2000.0000    100.6276
   613.0000     22.4785   2000.0000   2000.0000     94.4441
   613.2500     23.5923   2000.0000   2000.0000     90.0527
   613.5000     24.8397   2000.0000   2000.0000     83.2456
   613.7500     26.2209   2000.0000   2000.0000     78.9878
   614.0000     27.6996   2000.0000   2000.0000     73.4771
   614.2500     29.2037   2000.0000   2000.0000     70.3149
   614.5000     30.6478   2000.0000   2000.0000     66.0313
   614.7500     31.9662   2000.0000   2000.0000     63.4910
   615.0000     33.1289   2000.0000   2000.0000     60.5089
   615.2500     34.1303   2000.0000   2000.0000     59.1737
   615.5000     34.9685   2000.0000   2000.0000     57.7583
   615.7500     35.6386   2000.0000   2000.0000     56.8423
   616.0000     36.1427   2000.0000   2000.0000     55.3267
   616.2500     36.4983   2000.0000   2000.0000     54.5231
   616.5000     36.7296   2000.0000   2000.0000     54.3868
   616.7500     36.8491   2000.0000   2000.0000     55.1442
   617.0000     36.8532   2000.0000   2000.0000     56.9551
   617.2500     36.7439   2000.0000   2000.0000     58.1515
   617.5000     36.5565   2000.0000   2000.0000     59.7280
   617.7500     36.3655   2000.0000   2000.0000     60.7935
   618.0000     36.2617   2000.0000   2000.0000     62.5096
   618.2500     36.3194   2000.0000   2000.0000     63.5552
   618.5000     36.5730   2000.0000   2000.0000     64.5273
   618.7500     37.0133   2000.0000   2000.0000     64.5863
   619.0000     37.5971   2000.0000   2000.0000     63.7392
   619.2500     38.2623   2000.0000   2000.0000     62.7004
   619.5000     38.9410   2000.0000   2000.0000     60.8463
   619.7500     39.5738   2000.0000   2000.0000     59.6700
   620.0000     40.1269   2000.0000   2000.0000     58.4407
   620.2500     40.6025   2000.0000   2000.0000     58.1668
   620.5000     41.0333   2000.0000   2000.0000     58.4622
   620.7500     41.4639   2000.0000   2000.0000     58.7864
   621.0000     41.9372   2000.0000   2000.0000     58.8196
   621.2500     42.4980   2000.0000   2000.0000     58.3302
   621.5000     43.2024   2000.0000   2000.0000     56.7749
   621.7500     44.1106   2000.0000   2000.0000     55.3172
   622.0000     45.2473   2000.0000   2000.0000     53.0852
   622.2500     46.5537   2000.0000   2000.0000     52.0942
   622.5000     47.8710   2000.0000   2000.0000     52.0611
   622.7500     48.9914   2000.0000   2000.0000     52.8979
   623.0000     49.7454   2000.0000   2000.0000     54.1989
   623.2500     50.0396   2000.0000   2000.0000     54.3072
   623.5000     49.8198   2000.0000   2000.0000     53.3195
   623.7500     49.0397   2000.0000   2000.0000     52.9047
   624.0000     47.7135   2000.0000   2000.0000     55.0536
   624.2500     45.9892   2000.0000   2000.0000     59.3165
   624.5000     44.1271   2000.0000   2000.0000     70.0733
   624.7500     42.3863   2000.0000   2000.0000     79.2614
   625.0000     40.9250   2000.0000   2000.0000     93.2807
   625.2500     39.7790   2000.0000   2000.0000    100.8596
   625.5000     38.9023   2000.0000   2000.0000    106.9466
   625.7500     38.2235   2000.0000   2000.0000    106.9686
   626.0000     37.6846   2000.0000   2000.0000    102.1585
   626.2500     37.2490   2000.0000   2000.0000     97.1594
   626.5000     36.8811   2000.0000   2000.0000     89.2442
   626.7500     36.5212   2000.0000   2000.0000     84.5169
   627.0000     36.0772   2000.0000   2000.0000     79.0155
   627.2500     35.4446   2000.0000   2000.0000     76.6942
   627.5000     34.5432   2000.0000   2000.0000     75.6846
   627.7500     33.3461   2000.0000   2000.0000     76.8951
   628.0000     31.8820   2000.0000   2000.0000     81.5701
   628.2500     30.2151   2000.0000   2000.0000     86.1856
   628.5000     28.4277   2000.0000   2000.0000     93.9904
   628.7500     26.6137   2000.0000   2000.0000     98.9837
   629.0000     24.8725   2000.0000   2000.0000    105.6093
   629.2500     23.2919   2000.0000   2000.0000    109.5794
   629.5000     21.9286   2000.0000   2000.0000    114.8442
   629.7500     20.8006   2000.0000   2000.0000    117.3642
   630.0000     19.8962   2000.0000   2000.0000    118.5769
   630.2500     19.1912   2000.0000   2000.0000    117.6686
   630.5000     18.6638   2000.0000   2000.0000    114.9806
   630.7500     18.2987   2000.0000   2000.0000    113.1276
