~Version Information
VERS.                      2.0: CWLS Log ASCII Standard - VERSION 2.0
WRAP.                       NO: One line per depth step
~Well Information Block
STRT.FT               870.0000: 
STOP.FT              2519.5000: 
STEP.FT                 0.2500: 
NULL.                -999.2500: 
COMP.          Pioneer Natural Resources: COMPANY
WELL.              Tiaga 23-14: WELL
FLD.           Purgatoire River: FIELD
LOC.           2168' FSL & 2030' FWL: LOCATION
PROV.                 Colorado: PROVINCE
CNTY.               Las Animas: COUNTRY
SRVC.                         : SERVICE COMPANY
DATE.          Sat May 07 08:44:43 2005: LOG DATE
UWI.           05 071 08329 00: UNIQUE WELL ID
~Curve Information Block
DEPT.FT            0 000 00 00: Depth
LTEN.lb                       : Surface Line Tension
SN.Ohm-m                      : IEL Short Normal
SP.mV                         : IEL Spontaneous Potential
DIR.Ohm-m                     : IEL Induction Resistivity
GR.GAPI                       : Gamma Ray
~Parameter Information Block
~A  Depth       LTEN         SN          SP         DIR          GR     
# ...
  1290.0000    634.2102     18.0172    -60.1722     14.6333    132.6376
  1290.2500    636.6520     17.7496    -60.1002     14.3264    132.5986
  1290.5000    639.1115     17.4365    -60.0090     14.0767    133.3881
  1290.7500    640.6589     17.1075    -59.9049     13.8823    134.1066
  1291.0000    640.3203     16.8025    -59.7990     13.7478    134.6206
  1291.2500    637.8264     16.5411    -59.7008     13.6822    134.1324
  1291.5000    633.8914     16.3185    -59.6108     13.6931    131.7883
  1291.7500    629.7935     16.1665    -59.5210     13.7837    129.3493
  1292.0000    626.6074     16.1449    -59.4213     13.9534    125.4020
  1292.2500    624.6868     16.2527    -59.3082     14.2010    123.2455
  1292.5000    623.7847     16.4520    -59.1892     14.5283    121.1959
  1292.7500    623.5972     16.7588    -59.0797     14.9407    120.3201
  1293.0000    624.1049     17.2352    -58.9936     15.4442    118.5871
  1293.2500    625.3953     17.9309    -58.9370     16.0417    116.4470
  1293.5000    627.3445     18.8704    -58.9066     16.7298    110.9917
  1293.7500    629.5855     20.0610    -58.8930     17.5007    105.8427
  1294.0000    631.6365     21.4906    -58.8854     18.3473     96.7456
  1294.2500    632.9750     23.1416    -58.8758     19.2722     90.6654
  1294.5000    633.2162     25.0118    -58.8607     20.2962     82.9541
  1294.7500    632.4753     27.1377    -58.8392     21.4600     79.2050
  1295.0000    631.5643     29.5790    -58.8117     22.8120     75.8149
  1295.2500    631.5333     32.2384    -58.7808     24.3865     74.9205
  1295.5000    632.7455     34.7487    -58.7515     26.1822     75.2456
  1295.7500    634.4948     36.7272    -58.7302     28.1574     76.3039
  1296.0000    635.7474     38.0365    -58.7218     30.2457     78.5541
  1296.2500    636.2397     38.7487    -58.7264     32.3782     79.9814
  1296.5000    636.6035     39.0153    -58.7391     34.4861     80.9487
  1296.7500    637.3431     39.1045    -58.7518     36.4729     80.3797
  1297.0000    637.9340     39.4932    -58.7563     38.1922     77.6949
  1297.2500    637.2221     40.5580    -58.7464     39.4922     74.9618
  1297.5000    634.7057     42.1478    -58.7204     40.3191     69.8897
  1297.7500    631.1578     43.8133    -58.6808     40.7739     66.1213
  1298.0000    627.8768     45.2879    -58.6340     41.0434     60.6895
  1298.2500    625.6019     46.4734    -58.5879     41.2822     57.7911
  1298.5000    624.3578     47.2892    -58.5498     41.5538     55.0840
  1298.7500    624.0704     47.8542    -58.5264     41.8344     54.3050
  1299.0000    624.9709     48.6151    -58.5221     42.0183     54.0859
  1299.2500    627.3129     49.9127    -58.5351     41.9118     54.0971
  1299.5000    630.8277     51.4212    -58.5585     41.2683     53.6881
  1299.7500    634.6596     52.4073    -58.5882     39.9072     53.1227
  1300.0000    637.8331     52.4892    -58.6290     37.8453     52.6316
  1300.2500    639.6721     51.7337    -58.6886     35.3102     53.1859
  1300.5000    639.9415     50.1326    -58.7659     32.6159     56.0425
  1300.7500    638.9304     47.3978    -58.8476     30.0219     59.3250
  1301.0000    637.3939     43.4904    -58.9165     27.6708     65.9038
  1301.2500    636.1070     39.0831    -58.9630     25.6046     71.0666
  1301.5000    635.2839     34.9421    -58.9884     23.8092     79.5415
  1301.7500    634.5369     31.1819    -59.0016     22.2495     85.5434
  1302.0000    633.4523     27.6672    -59.0131     20.8872     94.8624
  1302.2500    632.0768     24.5788    -59.0313     19.6870    101.0248
  1302.5000    630.8148     22.2179    -59.0599     18.6201    109.5437
  1302.7500    630.0032     20.5955    -59.0985     17.6664    114.4416
  1303.0000    629.7719     19.4455    -59.1450     16.8148    120.3781
  1303.2500    630.3547     18.5579    -59.1969     16.0633    123.2050
  1303.5000    632.2286     17.8932    -59.2509     15.4179    124.9481
  1303.7500    635.5929     17.4319    -59.3007     14.8907    123.9582
  1304.0000    639.7069     17.0810    -59.3383     14.4962    119.5464
  1304.2500    643.1411     16.7356    -59.3561     14.2472    115.8125
  1304.5000    644.9626     16.3939    -59.3511     14.1523    111.7834
  1304.7500    645.4423     16.1652    -59.3247     14.2121    111.2769
  1305.0000    645.4016     16.1197    -59.2820     14.4127    113.9577
  1305.2500    645.1884     16.1876    -59.2300     14.7145    117.2999
  1305.5000    644.5102     16.2654    -59.1733     15.0446    122.7640
  1305.7500    643.0128     16.3378    -59.1101     15.3056    125.5535
  1306.0000    640.7662     16.4322    -59.0333     15.4098    126.9919
  1306.2500    638.2572     16.5373    -58.9386     15.3228    125.9910
  1306.5000    636.0511     16.6239    -58.8308     15.0789    122.7402
  1306.7500    634.4496     16.6734    -58.7224     14.7532    120.4192
  1307.0000    633.3843     16.6532    -58.6267     14.4189    117.7921
  1307.2500    632.6149     16.5379    -58.5492     14.1268    116.6362
  1307.5000    632.0327     16.3813    -58.4855     13.9120    115.2908
  1307.7500    631.8011     16.2885    -58.4261     13.8068    114.4151
  1308.0000    632.2085     16.2605    -58.3643     13.8398    113.1260
  1308.2500    633.3461     16.1762    -58.3024     14.0213    112.4664
  1308.5000    634.9011     15.9612    -58.2520     14.3275    112.2667
  1308.7500    636.2709     15.6732    -58.2301     14.6933    112.9982
  1309.0000    636.9225     15.4450    -58.2594     15.0136    115.8196
  1309.2500    636.7711     15.4066    -58.3719     15.1434    118.7872
  1309.5000    636.3038     15.6524    -58.6094     14.9051    123.8808
  1309.7500    636.2709     16.2383    -59.0199     14.1482    126.6460
  1310.0000    637.1326     17.1657    -59.6546     12.8682    127.7741
  1310.2500    638.7371     18.3606    -60.5709     11.2574    125.6097
  1310.5000    640.5126     19.6878    -61.8342      9.5883    117.5932
  1310.7500    641.9158     21.0482    -63.5152      8.0558    109.5740
  1311.0000    642.6756     22.4349    -65.6866      6.7340     95.3339
  1311.2500    642.7490     23.6450    -68.4205      5.6276     85.6354
  1311.5000    642.1687     23.9322    -71.7706      4.7292     72.6291
  1311.7500    640.9105     22.3773    -75.7182      4.0379     65.6206
  1312.0000    638.9158     18.8488    -80.0981      3.5514     57.8793
  1312.2500    636.2915     14.4350    -84.5578      3.2567     54.3245
  1312.5000    633.4533     10.6874    -88.6003      3.1287     50.4809
  1312.7500    631.0178      8.4131    -91.7125      3.1297     48.3315
  1313.0000    629.5681      7.3806    -93.5210      3.2077     45.2958
  1313.2500    629.4686      7.0189    -93.8940      3.3010     43.5801
  1313.5000    630.7747      6.9782    -92.9266      3.3622     42.0841
  1313.7500    633.2318      7.1479    -90.8334      3.3816     42.0016
  1314.0000    636.3679      7.5695    -87.8498      3.3767     42.9779
  1314.2500    639.6471      8.4997    -84.2187      3.3602     43.9135
  1314.5000    642.6217     10.5657    -80.2327      3.3254     44.9455
  1314.7500    644.9896     14.6120    -76.2318      3.2656     45.1625
  1315.0000    646.5348     20.8817    -72.5254      3.2058     44.9279
  1315.2500    647.1313     28.3712    -69.3071      3.2093     44.6208
  1315.5000    646.8844     35.4885    -66.6379      3.3639     44.1566
  1315.7500    646.1157     41.1873    -64.4937      3.7821     43.8758
  1316.0000    645.0497     45.1235    -62.8202      4.6429     43.6976
  1316.2500    643.6016     47.3487    -61.5593      6.3004     43.9933
  1316.5000    641.6274     48.4068    -60.6552      9.5646     45.3599
  1316.7500    639.3431     49.0231    -60.0544     16.6508     46.7829
  1317.0000    637.3260     49.3923    -59.7101     36.4417     49.0737
  1317.2500    636.0447     49.4196    -59.5847    220.5909     50.2944
  1317.5000    635.4981     49.3186    -59.6497 100000.0000     51.2246
  1317.7500    635.3624     49.4567    -59.8853 100000.0000     51.2512
