~Version Information
VERS.                      2.0: CWLS Log ASCII Standard - VERSION 2.0
WRAP.                       NO: One line per depth step
~Well Information Block
STRT.FT               -13.5000: 
STOP.FT              2092.5000: 
STEP.FT                 0.2500: 
NULL.                -999.2500: 
COMP.          Petrogulf Corporation: COMPANY
WELL.          Robinson 15-11V: WELL
FLD.           Purgatorie River: FIELD
LOC.           226' FNL & 592' FWL--: LOCATION
CNTY.               Las Animas: COUNTY
SRVC.                         : SERVICE COMPANY
DATE.          Tue Aug 17 13:05:46 2004: LOG DATE
UWI.                          : UNIQUE WELL ID
STAT.                       CO: STATE
~Curve Information Block
DEPT.FT            0 000 00 00: Depth
CCL.                          : Casing Collar Locator
TT3.usec                      : CBL 3' Travel Time
AMP3.mV                       : CBL 3' Amplitude
GR.GAPI                       : Gamma Ray
~Parameter Information Block
~A  Depth       CCL         TT3         AMP3         GR     
# ...
  1092.0000      0.0000    356.2633      9.1199    130.5024
  1092.2500      0.0000    356.4831      9.0378    148.7456
  1092.5000      0.0000    356.8818      8.8438    161.8993
  1092.7500      0.0000    357.3171      8.6793    168.8118
  1093.0000      0.0000    357.9005      8.6379    171.6226
  1093.2500      0.0000    359.2397      8.6932    173.5091
  1093.5000      0.0000    362.3957      8.7492    176.0508
  1093.7500      0.0000    368.1202      8.7441    178.4529
  1094.0000      0.0000    375.7035      8.6933    178.7065
  1094.2500      0.0000    382.8672      8.6478    175.2820
  1094.5000      0.0000    387.9124      8.6319    168.3303
  1094.7500      0.0000    391.9860      8.6126    159.9505
  1095.0000      0.0000    397.4734      8.5202    153.2838
  1095.2500      0.0000    403.4170      8.3163    150.7181
  1095.5000      0.0000    404.7422      8.0531    152.3219
  1095.7500      0.0000    397.7976      7.8549    155.7638
  1096.0000      0.0000    385.0059      7.8259    157.9281
  1096.2500      0.0000    372.3888      7.9720    157.1836
  1096.5000      0.0000    363.9739      8.2048    154.6364
  1096.7500      0.0000    359.8966      8.4168    153.0134
  1097.0000      0.0000    358.3835      8.5631    154.0586
  1097.2500      0.0000    357.9031      8.6718    157.2743
  1097.5000      0.0000    357.8593      8.7670    161.0930
  1097.7500      0.0000    358.4740      8.8038    164.3838
  1098.0000      0.0000    360.6995      8.7097    166.6591
  1098.2500      0.0000    366.1621      8.4736    167.7071
  1098.5000      0.0000    377.0368      8.1703    167.4020
  1098.7500      0.0000    394.9189      7.9072    165.4987
  1099.0000      0.0000    417.8071      7.7591    161.6579
  1099.2500      0.0000    437.4942      7.7339    156.0045
  1099.5000      0.0000    443.0409      7.7809    149.4472
  1099.7500      0.0000    430.1794      7.8392    143.1514
  1100.0000      0.0000    406.0903      7.8894    137.8938
  1100.2500      0.0000    382.8388      7.9583    134.0318
  1100.5000      0.0000    367.7074      8.0722    131.7165
  1100.7500      0.0000    360.9072      8.2135    130.6250
  1101.0000      0.0000    359.5324      8.3347    129.4255
  1101.2500      0.0000    360.9068      8.4080    126.0425
  1101.5000      0.0000    363.0252      8.4583    119.2808
  1101.7500      0.0000    364.2139      8.5461    110.4468
  1102.0000      0.0000    363.5647      8.7023    102.9517
  1102.2500      0.0000    361.3894      8.8670    100.1047
  1102.5000      0.0000    358.7946      8.9160    103.2953
  1102.7500      0.0000    356.7275      8.7699    111.6387
  1103.0000      0.0000    355.5294      8.4755    122.5616
  1103.2500      0.0000    355.0981      8.1805    133.0343
  1103.5000      0.0000    355.1743      8.0318    141.1160
  1103.7500      0.0000    355.4897      8.0842    146.7411
  1104.0000      0.0000    355.8295      8.2813    151.0146
  1104.2500      0.0000    356.0739      8.5062    154.8889
  1104.5000      0.0000    356.2182      8.6531    158.6333
  1104.7500      0.0000    356.3550      8.6797    162.1925
  1105.0000      0.0000    356.5942      8.6230    165.3590
  1105.2500      0.0000    356.9560      8.5646    167.3306
  1105.5000      0.0000    357.3328      8.5626    166.8332
  1105.7500      0.0000    357.5692      8.6123    163.4970
  1106.0000      0.0000    357.5806      8.6741    158.8366
  1106.2500      0.0000    357.3868      8.7197    154.9814
  1106.5000      0.0000    357.0607      8.7352    152.3181
  1106.7500      0.0000    356.6736      8.6967    149.0679
  1107.0000      0.0000    356.3033      8.5848    143.3520
  1107.2500      0.0000    356.1048      8.4216    135.1487
  1107.5000      0.0000    356.4071      8.2739    126.0181
  1107.7500      0.0000    357.6522      8.2099    117.4841
  1108.0000      0.0000    359.9802      8.2562    110.1457
  1108.2500      0.0000    362.7450      8.3817    104.0161
  1108.5000      0.0000    364.7215      8.5040     98.9593
  1108.7500      0.0000    365.2144      8.5348     94.4968
  1109.0000      0.0000    365.0619      8.4527     89.6180
  1109.2500      0.0000    366.5978      8.3344     83.4549
  1109.5000      0.0000    372.6213      8.2939     76.3949
  1109.7500      0.0000    384.4749      8.3810     70.3178
  1110.0000      0.0000    399.6614      8.5315     67.4071
  1110.2500      0.0000    411.5030      8.6189     68.6570
  1110.5000      0.0000    413.1970      8.5665     73.6888
  1110.7500      0.0000    403.4521      8.4098     81.9977
  1111.0000      0.0000    387.5598      8.2517     93.8265
  1111.2500      0.0000    372.7007      8.1684    109.2897
  1111.5000      0.0000    362.9017      8.1603    126.7363
  1111.7500      0.0000    358.1241      8.1734    142.7796
  1112.0000      0.0000    356.4516      8.1599    154.5979
  1112.2500      0.0000    356.1603      8.1214    161.9868
  1112.5000      0.0000    356.3419      8.1063    166.7726
  1112.7500      0.0000    356.6610      8.1682    170.5383
  1113.0000      0.0000    356.9997      8.3134    173.4247
  1113.2500      0.0000    357.2747      8.4781    174.8565
  1113.5000      0.0000    357.4120      8.5761    174.8711
  1113.7500      0.0000    357.3909      8.5865    174.5663
  1114.0000      0.0000    357.2581      8.5727    175.0942
  1114.2500      0.0000    357.0792      8.5951    176.0815
  1114.5000      0.0000    356.8880      8.6305    175.2552
  1114.7500      0.0000    356.6868      8.6044    170.0327
  1115.0000      0.0000    356.4695      8.4884    159.4933
  1115.2500      0.0000    356.2317      8.3401    145.0036
  1115.5000      0.0000    355.9813      8.2470    129.6133
  1115.7500      0.0000    355.7599      8.2535    117.0554
  1116.0000      0.0000    355.6400      8.3449    110.4405
  1116.2500      0.0000    355.6688      8.4808    110.7035
  1116.5000      0.0000    355.8194      8.6138    115.5910
  1116.7500      0.0000    356.0169      8.6872    120.4210
  1117.0000      0.0000    356.2103      8.6621    120.9528
  1117.2500      0.0000    356.3730      8.5648    116.4170
  1117.5000      0.0000    356.3920      8.4774    109.8778
  1117.7500      0.0000    355.9083      8.4742    105.4378
  1118.0000      0.0000    354.3188      8.5784    105.0352
  1118.2500      0.0000    351.0996      8.7613    107.6742
  1118.5000      0.0000    346.2756      8.9494    111.1182
  1118.7500      0.0000    340.6087      9.0471    113.9686
  1119.0000      0.0000    335.4970      8.9957    116.2751
  1119.2500      0.0000    332.9318      8.8138    118.4403
  1119.5000      0.0000    335.1248      8.5619    119.8066
  1119.7500      0.0000    343.0963      8.2916    118.8170
  1120.0000      0.0000    355.0461      8.0513    114.9701
  1120.2500      0.0000    366.5780      7.8942    110.3766
  1120.5000      0.0000    373.2823      7.8321    108.7478
  1120.7500      0.0000    373.5481      7.8166    112.5407
  1121.0000      0.0000    369.1527      7.8054    121.1592
  1121.2500      0.0000    363.4059      7.8130    131.7671
  1121.5000      0.0000    358.8000      7.8632    141.2430
  1121.7500      0.0000    356.0638      7.9360    147.5317
  1122.0000      0.0000    354.7477      8.0021    150.5171
  1122.2500      0.0000    354.1605      8.0728    152.3450
  1122.5000      0.0000    353.8737      8.1841    155.9736
  1122.7500      0.0000    353.9673      8.3457    162.4959
  1123.0000      0.0000    355.2992      8.5105    170.1681
  1123.2500      0.0000    359.2248      8.5808    176.3036
  1123.5000      0.0000    366.1230      8.4802    179.3355
  1123.7500      0.0000    373.9405      8.2604    178.5046
  1124.0000      0.0000    379.4320      8.0838    172.4618
  1124.2500      0.0000    382.0320      8.0512    159.6451
  1124.5000      0.0000    386.3599      8.0976    140.5426
  1124.7500      0.0000    399.9921      8.0961    119.1030
  1125.0000      0.0000    427.1203      8.0082    101.1340
  1125.2500      0.0000    462.8804      7.8940     90.6918
