~Version Information
VERS.                      2.0: CWLS Log ASCII Standard - VERSION 2.0
WRAP.                       NO: One line per depth step
~Well Information Block
STRT.FT               521.6000: 
STOP.FT              1490.2000: 
STEP.FT                 0.1000: 
NULL.                -999.2500: 
COMP.          Petrogulf Corporation: COMPANY
WELL.          Robinson 15-11R: WELL
FLD.           Purgatorie River: FIELD
LOC.           324' FNL & 570' FWL: LOCATION
CNTY.               Las Animas: COUNTY
SRVC.                         : SERVICE COMPANY
DATE.          Sat Nov 06 22:43:15 2004: LOG DATE
UWI.           05 071 08029 00: UNIQUE WELL ID
STAT.                 Colorado: STATE
~Curve Information Block
DEPT.FT            0 000 00 00: Depth
DCAL.in                       : CDL Caliper
RHOB.g/cc                     : CDL Bulk Density
RHOC.g/cc                     : CDL Density Correction
DPOR.pu                       : CDL Density Porosity
GR.GAPI                       : Gamma Ray
NPOR.pu                       : Neutron Porosity
~Parameter Information Block
~A  Depth       DCAL        RHOB        RHOC        DPOR         GR         NPOR    
# ...
  1222.4000      7.8524      2.5454      0.0328      6.3415    147.9746     25.9733
  1222.5000      7.8678      2.5545      0.0410      5.7851    147.7908     26.0066
  1222.6000      7.8678      2.5694      0.0399      4.8845    149.5589     26.0014
  1222.7000      7.8678      2.5718      0.0800      4.7370    150.1343     25.9348
  1222.8000      7.8807      2.5630     -0.0049      5.2747    146.1458     25.7172
  1222.9000      7.8807      2.5636      0.0602      5.2364    140.1993     25.7536
  1223.0000      7.8365      2.5796      0.0902      4.2642    137.3313     26.2026
  1223.1000      7.8365      2.6124      0.0561      2.2799    139.3696     26.3770
  1223.2000      7.8365      2.6615      0.1029     -0.6967    142.0476     26.0094
  1223.3000      7.8771      2.6991      0.1093     -2.9765    139.8058     25.3114
  1223.4000      7.8771      2.6985      0.1364     -2.9398    130.4444     24.3509
  1223.5000      7.8912      2.6665      0.1522     -1.0030    117.7477     23.5109
  1223.6000      7.8912      2.6276      0.0787      1.3575    109.2551     23.1545
  1223.7000      7.8912      2.6011      0.0610      2.9656    106.0096     23.2620
  1223.8000      7.8283      2.5929      0.0724      3.4605    102.4981     23.4325
  1223.9000      7.8283      2.5961      0.0687      3.2688     97.3876     23.2349
  1224.0000      7.7672      2.6006      0.0387      2.9964     96.1372     22.7993
  1224.1000      7.7672      2.5941      0.1058      3.3859    100.9643     22.3194
  1224.2000      7.7672      2.5789      0.0199      4.3103    105.4640     21.8955
  1224.3000      7.7767      2.5853      0.0446      3.9222    105.5833     21.6353
  1224.4000      7.7767      2.6109      0.1704      2.3709    105.1821     21.5597
  1224.5000      7.7804      2.6153      0.1459      2.1016    107.6342     21.4628
  1224.6000      7.7804      2.5876      0.1224      3.7829    112.3645     21.3008
  1224.7000      7.7804      2.5458      0.1121      6.3178    117.9646     21.4301
  1224.8000      7.8248      2.5133      0.0435      8.2822    122.0627     21.8340
  1224.9000      7.8248      2.5051      0.1073      8.7841    126.1094     22.1334
  1225.0000      7.7918      2.5186      0.0609      7.9606    132.9334     22.1245
  1225.1000      7.7918      2.5493      0.0487      6.1028    139.9794     21.9043
  1225.2000      7.7918      2.5807      0.1410      4.2017    144.3497     21.9503
  1225.3000      7.8814      2.5859      0.1475      3.8828    147.2764     22.4482
  1225.4000      7.8814      2.5633      0.1086      5.2576    152.0875     23.0472
  1225.5000      7.9377      2.5362      0.1014      6.8940    157.3671     23.7386
  1225.6000      7.9377      2.5224      0.0559      7.7350    160.3365     24.5266
  1225.7000      7.9377      2.5187      0.0914      7.9576    161.7706     24.9122
  1225.8000      7.9199      2.5152      0.0777      8.1717    163.3552     24.6071
  1225.9000      7.9199      2.5137      0.0270      8.2606    165.6342     24.1021
  1226.0000      7.9199      2.5156      0.0790      8.1459    167.4660     23.9915
  1226.1000      7.9199      2.5099      0.0482      8.4917    168.1657     23.9671
  1226.2000      7.9199      2.4982      0.0224      9.1991    168.4850     23.5245
  1226.3000      7.9165      2.4898      0.0635      9.7063    169.3738     23.0839
  1226.4000      7.9165      2.4852      0.0641      9.9877    169.7477     23.2470
  1226.5000      7.9593      2.4850      0.0901      9.9982    169.2904     23.9839
  1226.6000      7.9593      2.4994      0.0801      9.1279    170.9154     24.7656
  1226.7000      7.9593      2.5337      0.0945      7.0496    173.6972     25.0061
  1226.8000      7.9377      2.5718      0.1141      4.7390    171.1271     24.7399
  1226.9000      7.9377      2.5959      0.1340      3.2806    164.2350     24.5599
  1227.0000      7.9344      2.6019      0.1664      2.9133    161.1371     24.7094
  1227.1000      7.9344      2.5952      0.1688      3.3191    162.3082     24.5696
  1227.2000      7.9344      2.5835      0.1806      4.0317    160.5231     23.9242
  1227.3000      7.9756      2.5710      0.1607      4.7858    155.0279     23.5772
  1227.4000      7.9756      2.5612      0.1044      5.3804    153.7485     23.6861
  1227.5000      7.9537      2.5494      0.1218      6.0942    161.2889     23.8890
  1227.6000      7.9537      2.5343      0.0282      7.0105    170.7053     24.2544
  1227.7000      7.9537      2.5356      0.0165      6.9333    170.4782     24.5994
  1227.8000      7.9365      2.5560      0.0824      5.6990    158.5825     24.5306
  1227.9000      7.9365      2.5653      0.0699      5.1357    142.9122     24.1043
  1228.0000      7.9307      2.5541     -0.0093      5.8095    129.2182     23.7702
  1228.1000      7.9307      2.5456      0.0451      6.3298    120.3344     23.9257
  1228.2000      7.9307      2.5529      0.0262      5.8845    119.0074     24.5154
  1228.3000      7.9346      2.5723      0.0458      4.7064    121.2881     25.0183
  1228.4000      7.9346      2.5878      0.1159      3.7716    119.8662     25.2687
  1228.5000      7.9200      2.5892      0.0615      3.6873    113.6943     25.5644
  1228.6000      7.9200      2.5881      0.0644      3.7524    106.1554     25.7475
  1228.7000      7.9200      2.5904      0.0367      3.6119    100.6140     25.4276
  1228.8000      7.8674      2.5897      0.0728      3.6567     97.2472     24.7804
  1228.9000      7.8674      2.5878      0.0375      3.7679     95.9311     24.4055
  1229.0000      7.8520      2.5931      0.0396      3.4482     97.1601     24.3788
  1229.1000      7.8520      2.6041      0.0415      2.7836     97.6346     24.1716
  1229.2000      7.8520      2.6130      0.0909      2.2415     94.4178     23.7694
  1229.3000      7.8453      2.6162      0.0663      2.0479     89.7215     23.4481
  1229.4000      7.8453      2.6124      0.0340      2.2765     85.4885     23.0861
  1229.5000      7.8499      2.6026      0.0584      2.8732     80.2655     22.5491
  1229.6000      7.8499      2.5867      0.0401      3.8341     76.5158     21.8586
  1229.7000      7.8499      2.5685      0.0240      4.9389     76.9645     21.1811
  1229.8000      7.8362      2.5557      0.0281      5.7144     77.1408     20.8920
  1229.9000      7.8362      2.5446      0.0482      6.3873     75.9355     20.7334
  1230.0000      7.8570      2.5339      0.0306      7.0348     78.7649     20.1270
  1230.1000      7.8570      2.5428     -0.0001      6.4970     85.1658     19.5436
  1230.2000      7.8570      2.5708      0.1064      4.7996     88.7342     19.6380
  1230.3000      7.7968      2.5901      0.1242      3.6318     87.5678     20.2221
  1230.4000      7.7968      2.5951      0.1448      3.3270     84.5405     20.8443
  1230.5000      7.7931      2.5936      0.1539      3.4210     81.4694     21.2226
  1230.6000      7.7931      2.5882      0.1121      3.7429     80.2037     21.1275
  1230.7000      7.7931      2.5909      0.0953      3.5823     81.2613     20.8458
  1230.8000      7.8240      2.6059      0.1430      2.6744     82.2363     20.8686
  1230.9000      7.8240      2.6203      0.1162      1.8012     83.7800     21.1750
  1231.0000      7.8851      2.6266      0.0810      1.4166     89.0236     21.5023
  1231.1000      7.8851      2.6228      0.1166      1.6466     95.7550     21.6739
  1231.2000      7.8851      2.6098      0.0689      2.4355     97.1559     21.8761
  1231.3000      7.9008      2.5977      0.0771      3.1705     91.7535     22.0180
  1231.4000      7.9008      2.5939      0.0419      3.3995     87.5577     21.6092
  1231.5000      7.8875      2.6011      0.0244      2.9627     89.1050     20.9551
  1231.6000      7.8875      2.6168      0.0838      2.0098     90.9868     20.5304
  1231.7000      7.8875      2.6342      0.0357      0.9606     90.4127     20.2773
  1231.8000      7.8905      2.6491      0.0494      0.0541     90.7603     20.2374
  1231.9000      7.8905      2.6471      0.0931      0.1746     94.7179     20.4256
