~Version Information
VERS.                      2.0: CWLS Log ASCII Standard - VERSION 2.0
WRAP.                       NO: One line per depth step
~Well Information Block
STRT.FT               230.0000: 
STOP.FT              1527.0000: 
STEP.FT                 0.1000: 
NULL.                -999.2500: 
COMP.          Pioneer Natural Resources: COMPANY
WELL.              Border 21-3: WELL
FLD.           Purgatorie River: FIELD
LOC.           865' FNL & 1415' FWL: LOCATION
PROV.                 Colorado: PROVINCE
CNTY.               Las Animas: COUNTRY
SRVC.                         : SERVICE COMPANY
DATE.          Thu Dec 09 16:57:34 2004: LOG DATE
UWI.           05 071 08169 00: UNIQUE WELL ID
~Curve Information Block
DEPT.FT            0 000 00 00: Depth
LTEN.lb                       : Surface Line Tension
DCAL.in                       : CDL Caliper
RHOB.g/cc                     : CDL Bulk Density
RHOC.g/cc                     : CDL Density Correction
DPOR.pu                       : CDL Density Porosity
GR.GAPI                       : Gamma Ray
NPOR.pu                       : Neutron Porosity
~Parameter Information Block
~A  Depth       LTEN        DCAL        RHOB        RHOC        DPOR         GR         NPOR    
# ...
   658.4000    853.9415      7.8212      2.7463      0.4242     -5.8335     96.8618     24.8572
   658.5000    849.0501      7.9095      2.7564      0.3820     -6.4502     95.3958     24.5249
   658.6000    849.0501      7.9095      2.7338      0.3540     -5.0808     95.0922     24.2626
   658.7000    849.0501      7.9095      2.6939      0.2840     -2.6604     98.1683     24.2122
   658.8000    845.9963      7.9466      2.6495      0.1782      0.0292    100.7797     24.1905
   658.9000    845.9963      7.9466      2.6073      0.1294      2.5862     96.1626     23.6351
   659.0000    884.8063      7.9428      2.5671      0.0810      5.0221     88.8983     22.7055
   659.1000    884.8063      7.9428      2.5381      0.0353      6.7800     85.9853     22.0403
   659.2000    884.8063      7.9428      2.5338      0.0462      7.0444     86.8829     21.9265
   659.3000    900.5278      7.9427      2.5481      0.0770      6.1754     89.4715     22.2941
   659.4000    900.5278      7.9427      2.5647      0.0851      5.1684     92.3271     22.5982
   659.5000    846.6066      7.9423      2.5785      0.0951      4.3303     93.5920     22.3902
   659.6000    846.6066      7.9423      2.5910      0.0960      3.5737     93.4873     21.9580
   659.7000    846.6066      7.9423      2.6020      0.0882      2.9072     93.8909     21.8891
   659.8000    870.1654      7.9433      2.6092      0.1227      2.4737     95.3018     22.2143
   659.9000    870.1654      7.9433      2.6088      0.1275      2.4965     95.9390     22.4490
   660.0000    881.3220      7.9412      2.6078      0.1039      2.5559     92.8609     22.4763
   660.1000    881.3220      7.9412      2.6144      0.1331      2.1587     88.3502     22.3462
   660.2000    881.3220      7.9412      2.6175      0.1314      1.9714     86.6742     22.0496
   660.3000    887.3358      7.9414      2.6067      0.1124      2.6258     86.9859     21.7687
   660.4000    887.3358      7.9414      2.5912      0.0940      3.5650     85.3561     21.7492
   660.5000    887.8857      7.9405      2.5823      0.0682      4.1055     81.5368     22.0731
   660.6000    887.8857      7.9405      2.5795      0.0818      4.2725     77.6921     22.2973
   660.7000    887.8857      7.9405      2.5783      0.0731      4.3473     75.0704     22.0641
   660.8000    888.9829      7.9412      2.5781      0.0925      4.3581     76.0794     21.7782
   660.9000    888.9829      7.9412      2.5847      0.0845      3.9586     79.7151     21.6394
   661.0000    902.8779      7.9432      2.6000      0.1191      3.0287     82.5339     21.5142
   661.1000    902.8779      7.9432      2.6153      0.1160      2.1043     83.6484     21.4114
   661.2000    902.8779      7.9432      2.6319      0.1197      1.0967     85.2434     21.3276
   661.3000    888.8712      7.9486      2.6562      0.1335     -0.3745     89.4079     21.2771
   661.4000    888.8712      7.9486      2.6746      0.1525     -1.4887     94.8659     21.1990
   661.5000    906.8657      7.9424      2.6731      0.1137     -1.4021     97.4247     21.0701
   661.6000    906.8657      7.9424      2.6553      0.1442     -0.3221     94.4554     21.1732
   661.7000    906.8657      7.9424      2.6314      0.0912      1.1259     88.5126     21.3740
   661.8000    917.0367      7.9461      2.6148      0.0832      2.1361     85.0961     21.1164
   661.9000    917.0367      7.9461      2.6039      0.1368      2.7913     85.9474     20.6359
   662.0000    912.5216      7.9893      2.5871      0.0521      3.8151     87.1988     20.4997
   662.1000    912.5216      7.9893      2.5643      0.0823      5.1952     86.9951     20.6834
   662.2000    912.5216      7.9893      2.5447      0.0428      6.3788     88.9250     20.8376
   662.3000    894.9509      8.0052      2.5404      0.0634      6.6408     93.3020     20.5743
   662.4000    894.9509      8.0052      2.5499      0.0750      6.0668     96.7845     19.9556
   662.5000    886.1650      8.0047      2.5605      0.0413      5.4256     98.3785     19.1909
   662.6000    886.1650      8.0047      2.5668      0.0500      5.0451     98.6633     18.1084
   662.7000    886.1650      8.0047      2.5626      0.1062      5.2947     98.3105     16.5730
   662.8000    896.8522      8.0033      2.5390      0.0416      6.7268     96.5116     14.8021
   662.9000    896.8522      8.0033      2.4873      0.0929      9.8606     91.5351     13.2992
   663.0000    909.8795      8.0047      2.3948      0.0386     15.4668     84.0610     12.2709
   663.1000    909.8795      8.0047      2.2573      0.0083     23.7995     77.9089     11.3290
   663.2000    909.8795      8.0047      2.0899     -0.0504     33.9463     73.8070     10.1177
   663.3000    911.0380      8.0079      1.9230     -0.0834     44.0612     69.2400      8.8032
   663.4000    911.0380      8.0079      1.7728     -0.1017     53.1662     65.9539      7.8268
   663.5000    867.8078      8.0343      1.6316     -0.1329     61.7203     65.4177      7.5322
   663.6000    867.8078      8.0343      1.4971     -0.1145     69.8722     64.9154      7.9685
   663.7000    867.8078      8.0343      1.3853     -0.1562     76.6489     62.6339      8.6541
   663.8000    874.3313      8.1528      1.3158     -0.1210     80.8597     59.4475      8.9896
   663.9000    874.3313      8.1528      1.2901     -0.0003     82.4194     57.2586      9.2143
   664.0000    936.1208      8.2387      1.3010     -0.0035     81.7549     55.8216     10.0497
   664.1000    936.1208      8.2387      1.3456      0.0635     79.0543     53.7555     11.5572
   664.2000    936.1208      8.2387      1.4108      0.1076     75.1005     53.6204     13.0144
   664.3000    952.6293      8.2227      1.4820      0.1575     70.7876     56.7579     14.1124
   664.4000    952.6293      8.2227      1.5580      0.2089     66.1790     59.9022     15.3418
   664.5000    889.0880      8.2147      1.6430      0.2216     61.0316     62.0856     16.8334
   664.6000    889.0880      8.2147      1.7325      0.2308     55.6047     65.4947     18.1580
   664.7000    889.0880      8.2147      1.8162      0.2508     50.5309     72.5941     18.9315
   664.8000    833.8478      8.2086      1.8902      0.2138     46.0472     82.2763     19.2759
   664.9000    833.8478      8.2086      1.9539      0.1816     42.1907     89.1636     19.5127
   665.0000    832.6501      8.2014      1.9990      0.1927     39.4517     91.8367     19.5599
   665.1000    832.6501      8.2014      2.0180      0.1325     38.3030     94.7409     19.1671
   665.2000    832.6501      8.2014      2.0075      0.1393     38.9404     98.8206     18.3890
   665.3000    918.3182      8.1992      1.9623      0.1332     41.6778     98.9592     17.3905
   665.4000    918.3182      8.1992      1.8793      0.0561     46.7107     94.6194     16.1059
   665.5000    943.4100      8.2230      1.7665     -0.0353     53.5455     91.9542     14.7217
   665.6000    943.4100      8.2230      1.6442     -0.0604     60.9546     90.2167     13.6139
   665.7000    943.4100      8.2230      1.5302     -0.0514     67.8671     85.1972     12.9339
   665.8000    911.9537      8.2524      1.4352     -0.0664     73.6267     80.3847     12.7578
   665.9000    911.9537      8.2524      1.3772     -0.0772     77.1365     79.1452     13.0361
   666.0000    871.5696      8.3693      1.3766     -0.0505     77.1773     80.2747     13.6101
   666.1000    871.5696      8.3693      1.4329      0.0319     73.7663     84.0737     14.4042
   666.2000    871.5696      8.3693      1.5218      0.1069     68.3747     89.5609     15.3672
   666.3000    830.2312      8.4097      1.6121      0.1559     62.9058     93.3078     16.4401
   666.4000    830.2312      8.4097      1.6873      0.1643     58.3434     93.5525     17.6343
   666.5000    874.4573      8.4032      1.7571      0.1860     54.1126     91.1184     18.9425
   666.6000    874.4573      8.4032      1.8401      0.1857     49.0855     89.3810     20.4782
   666.7000    874.4573      8.4032      1.9381      0.2174     43.1457     93.1395     22.3115
