~Version Information
VERS.                      2.0: CWLS Log ASCII Standard - VERSION 2.0
WRAP.                       NO: One line per depth step
~Well Information Block
STRT.FT               580.0000: 
STOP.FT              2729.7000: 
STEP.FT                 0.1000: 
NULL.                -999.2500: 
COMP.          Pioneer Natural Resources: COMPANY
WELL.          Sand Pebbles 13-33: WELL
FLD.           Purgatoire River: FIELD
LOC.           1883' FSL & 63' FWL----: LOCATION
PROV.                 Colorado: PROVINCE
CNTY.               Las Animas: COUNTRY
SRVC.                Patterson: SERVICE COMPANY
DATE.          Mon Mar 14 07:33:33 2005: LOG DATE
UWI.           05 071 08224 00: UNIQUE WELL ID
~Curve Information Block
DEPT.FT            0 000 00 00: Depth
DCAL.in                       : CDL Caliper
RHOB.g/cc                     : CDL Bulk Density
RHOC.g/cc                     : CDL Density Correction
DPOR.pu                       : CDL Density Porosity
NPOR.pu                       : Neutron Porosity
GR.GAPI                       : Gamma Ray
~Parameter Information Block
~A  Depth       DCAL        RHOB        RHOC        DPOR        NPOR         GR     
# ...
  1002.4000      8.1631      2.6302      0.0628      1.2025     22.6081    104.8124
  1002.5000      8.1633      2.6363      0.0262      0.8273     23.1395    101.5208
  1002.6000      8.1633      2.6585      0.0685     -0.5135     23.2140    100.3671
  1002.7000      8.1633      2.6872      0.0791     -2.2543     23.1305    103.1490
  1002.8000      8.1621      2.7093      0.0714     -3.5965     23.3918    108.7402
  1002.9000      8.1621      2.7168      0.1285     -4.0505     24.3852    113.2913
  1003.0000      8.1614      2.7053      0.0512     -3.3497     25.7823    113.4450
  1003.1000      8.1614      2.6910      0.0653     -2.4867     27.2275    113.4627
  1003.2000      8.1614      2.6886      0.0752     -2.3407     28.4623    116.4091
  1003.3000      8.1608      2.6886      0.0377     -2.3372     28.8654    119.4614
  1003.4000      8.1608      2.6837      0.0055     -2.0433     28.4056    120.2284
  1003.5000      8.1603      2.6819     -0.0005     -1.9362     27.8581    121.2345
  1003.6000      8.1603      2.6830     -0.0195     -2.0000     27.7170    123.9936
  1003.7000      8.1603      2.6808     -0.0786     -1.8652     27.7052    125.5912
  1003.8000      8.1621      2.6806     -0.0479     -1.8516     27.9260    128.7753
  1003.9000      8.1621      2.6802      0.0031     -1.8273     28.7743    133.5348
  1004.0000      8.1639      2.6671     -0.0395     -1.0353     29.7244    133.3782
  1004.1000      8.1639      2.6390     -0.0393      0.6690     29.8822    131.0291
  1004.2000      8.1639      2.6040     -0.0511      2.7886     29.2034    131.5931
  1004.3000      8.1640      2.5755     -0.0337      4.5157     28.4976    134.5238
  1004.4000      8.1640      2.5608     -0.0022      5.4038     28.2166    139.0827
  1004.5000      8.1624      2.5565      0.0288      5.6658     28.0841    143.0324
  1004.6000      8.1624      2.5593      0.0144      5.4975     27.5051    143.0943
  1004.7000      8.1624      2.5668      0.0058      5.0446     26.2386    138.1376
  1004.8000      8.1600      2.5643      0.0620      5.1963     25.1113    130.3581
  1004.9000      8.1600      2.5443      0.0292      6.4038     25.1276    125.3379
  1005.0000      8.1591      2.5347     -0.0167      6.9879     25.9227    123.7513
  1005.1000      8.1591      2.5517      0.0564      5.9591     26.3628    123.2036
  1005.2000      8.1591      2.5737      0.1041      4.6253     26.3322    122.2044
  1005.3000      8.1588      2.5980      0.0232      3.1502     26.5161    120.4462
  1005.4000      8.1588      2.6434      0.0622      0.4024     26.8850    118.9766
  1005.5000      8.1589      2.6967      0.1240     -2.8287     27.0570    119.1634
  1005.6000      8.1589      2.7300      0.1000     -4.8500     27.1283    123.0626
  1005.7000      8.1589      2.7323      0.1136     -4.9875     27.1850    126.3189
  1005.8000      8.1618      2.6973      0.1050     -2.8690     27.2335    128.3070
  1005.9000      8.1618      2.6419      0.0033      0.4899     27.4976    137.8246
  1006.0000      8.1633      2.6092      0.0015      2.4720     28.1388    150.7980
  1006.1000      8.1633      2.6085      0.0650      2.5161     28.9773    156.1940
  1006.2000      8.1633      2.6050      0.0147      2.7287     29.6089    154.8242
  1006.3000      8.1622      2.5811     -0.0313      4.1753     29.6555    153.8677
  1006.4000      8.1622      2.5599     -0.1117      5.4619     29.4111    155.7563
  1006.5000      8.1628      2.5674     -0.0496      5.0074     29.4135    154.9817
  1006.6000      8.1628      2.5995      0.0209      3.0606     29.4552    150.1529
  1006.7000      8.1628      2.6389      0.0676      0.6728     29.1301    145.9609
  1006.8000      8.1641      2.6772      0.0757     -1.6461     28.6372    142.8698
  1006.9000      8.1641      2.7017      0.1459     -3.1303     28.2710    140.4659
  1007.0000      8.1651      2.6971      0.1271     -2.8556     28.1427    140.5885
  1007.1000      8.1651      2.6756      0.0980     -1.5487     28.1100    141.0108
  1007.2000      8.1651      2.6555      0.1051     -0.3313     27.9337    138.6672
  1007.3000      8.1649      2.6372      0.0892      0.7732     27.7841    134.2349
  1007.4000      8.1649      2.6218      0.0861      1.7105     27.8263    129.2974
  1007.5000      8.1617      2.6173      0.0445      1.9819     28.0413    126.5233
  1007.6000      8.1617      2.6274      0.0511      1.3711     28.3282    128.6006
  1007.7000      8.1617      2.6475     -0.0503      0.1522     28.2698    131.2679
  1007.8000      8.1601      2.6636      0.0555     -0.8264     27.5783    127.7019
  1007.9000      8.1601      2.6571      0.0255     -0.4282     26.7439    120.7481
  1008.0000      8.1622      2.6358      0.0536      0.8590     26.3595    116.7779
  1008.1000      8.1622      2.6255      0.0568      1.4847     26.2570    114.4045
  1008.2000      8.1622      2.6369      0.0693      0.7933     26.0926    110.6267
  1008.3000      8.1656      2.6647      0.0522     -0.8923     26.0733    108.9187
  1008.4000      8.1656      2.6937      0.0922     -2.6510     26.2910    111.5427
  1008.5000      8.1723      2.7066      0.0991     -3.4312     26.2579    114.0382
  1008.6000      8.1723      2.7004      0.0200     -3.0564     26.0075    115.7341
  1008.7000      8.1723      2.6776      0.0477     -1.6742     26.2028    118.1080
  1008.8000      8.1803      2.6477     -0.0873      0.1377     26.6177    117.7263
  1008.9000      8.1803      2.6371     -0.0737      0.7842     26.3813    115.3829
  1009.0000      8.1852      2.6472     -0.0343      0.1720     25.7376    115.6353
  1009.1000      8.1852      2.6576     -0.0202     -0.4601     25.4916    116.8587
  1009.2000      8.1852      2.6686     -0.0248     -1.1289     25.5807    115.0721
  1009.3000      8.1856      2.6858      0.0408     -2.1680     25.9569    113.1714
  1009.4000      8.1856      2.6966      0.0442     -2.8262     26.7101    116.7094
  1009.5000      8.1849      2.6902      0.0502     -2.4358     27.3284    122.6162
  1009.6000      8.1849      2.6683      0.0489     -1.1068     27.4733    124.1499
  1009.7000      8.1849      2.6444      0.0165      0.3393     27.4229    121.7929
  1009.8000      8.1853      2.6280      0.0569      1.3359     27.1710    120.3407
  1009.9000      8.1853      2.6123      0.0118      2.2845     26.6478    120.3402
  1010.0000      8.1879      2.6037     -0.0453      2.8036     26.3596    118.8497
  1010.1000      8.1879      2.6126     -0.0249      2.2680     26.6895    115.8241
  1010.2000      8.1879      2.6182      0.0521      1.9286     27.6073    116.1425
  1010.3000      8.1937      2.6075     -0.0356      2.5746     28.6872    121.3821
  1010.4000      8.1937      2.6069     -0.0165      2.6140     29.3128    127.6203
  1010.5000      8.2004      2.6269     -0.0121      1.3971     29.4711    132.6098
  1010.6000      8.2004      2.6488      0.0222      0.0752     29.3972    135.3822
  1010.7000      8.2004      2.6550      0.0698     -0.3036     29.0489    136.8537
  1010.8000      8.2067      2.6361      0.0610      0.8420     28.7352    139.5760
  1010.9000      8.2067      2.6102     -0.0277      2.4109     28.6041    140.6927
  1011.0000      8.2103      2.6114     -0.0050      2.3414     28.2518    135.5111
  1011.1000      8.2103      2.6342      0.0211      0.9573     27.5233    125.4359
  1011.2000      8.2103      2.6472      0.0139      0.1712     26.6155    116.2829
  1011.3000      8.2121      2.6373      0.0650      0.7709     25.6214    114.1440
  1011.4000      8.2121      2.6236      0.0168      1.5989     24.5526    118.6518
  1011.5000      8.2147      2.6322      0.0442      1.0810     23.7178    122.9294
  1011.6000      8.2147      2.6529      0.0823     -0.1756     23.2940    123.9387
  1011.7000      8.2147      2.6631      0.0684     -0.7918     23.1081    122.5214
  1011.8000      8.2175      2.6715      0.0130     -1.3024     23.1310    118.3440
  1011.9000      8.2175      2.6842      0.0993     -2.0755     23.0486    112.6982
