~Version Information
VERS.                      2.0: CWLS Log ASCII Standard - VERSION 2.0
WRAP.                       NO: One line per depth step
~Well Information Block
STRT.FT               454.0000: 
STOP.FT              1389.0000: 
STEP.FT                 0.1000: 
NULL.                -999.2500: 
COMP.          Pioneer Natural Resources: COMPANY
WELL.          Lorencito 6-3-34-66: WELL
FLD.           Purgatoire River: FIELD
LOC.           2545' FNL & 1914' FWL: LOCATION
STAT.                 Colorado: State
CNTY.               Las Animas: COUNTY
CTRY. USA : Country
SECT. 3 : Section
TOWN. 34S : Township
RANG. 66W : Range
SRVC.                Patterson: SERVICE COMPANY
DATE.          Mon Sep 12 07:20:37 2005: LOG DATE
API.        05 071 08369 00: UNIQUE WELL ID
~Curve Information Block
DEPT.FT            0 000 00 00: Depth
DCAL.in                       : CDL Caliper
RHOB.g/cc                     : CDL Bulk Density
RHOC.g/cc                     : CDL Density Correction
DPOR.pu                       : CDL Density Porosity
GR.GAPI                       : Gamma Ray
NPOR.pu                       : Neutron Porosity
~Parameter Information Block
~A  Depth       DCAL        RHOB        RHOC        DPOR         GR         NPOR    
# ...
   818.8000      8.0093      2.5275      0.0266      7.4248     38.4510     16.6748
   818.9000      8.0093      2.5225      0.0942      7.7273     39.7777     16.2583
   819.0000      8.0333      2.4984      0.0244      9.1863     40.0586     17.1210
   819.1000      8.0333      2.4754     -0.0349     10.5842     41.4144     18.7619
   819.2000      8.0333      2.4738     -0.0066     10.6778     43.5327     19.8503
   819.3000      8.0389      2.4883      0.0085      9.8030     46.8110     19.9603
   819.4000      8.0389      2.4990      0.0203      9.1538     49.4610     19.4942
   819.5000      8.0884      2.4951      0.0279      9.3909     49.2263     18.9974
   819.6000      8.0884      2.4868      0.0191      9.8914     47.4049     18.7156
   819.7000      8.0884      2.4836      0.0621     10.0846     47.3985     18.8980
   819.8000      8.1011      2.4863      0.0006      9.9232     51.1118     19.5929
   819.9000      8.1011      2.4904      0.0773      9.6698     56.3644     20.1847
   820.0000      8.1090      2.4849      0.0075     10.0089     58.6952     20.0812
   820.1000      8.1090      2.4772     -0.0102     10.4718     55.5436     19.4825
   820.2000      8.1090      2.4871     -0.0014      9.8758     49.6904     18.9005
   820.3000      8.0789      2.5118      0.0480      8.3756     46.2308     18.1512
   820.4000      8.0789      2.5313      0.0566      7.1946     47.1981     17.4428
   820.5000      8.1262      2.5342      0.0564      7.0191     51.4251     17.5200
   820.6000      8.1262      2.5294      0.0174      7.3072     56.6048     18.1094
   820.7000      8.1262      2.5280      0.0540      7.3910     59.5296     18.6165
   820.8000      8.1070      2.5251      0.0488      7.5708     58.3943     19.0704
   820.9000      8.1070      2.5113      0.0521      8.4085     54.2146     19.2590
   821.0000      8.0797      2.4833      0.0480     10.1043     49.5495     18.7990
   821.1000      8.0797      2.4517     -0.0202     12.0211     47.9254     17.9341
   821.2000      8.0797      2.4380     -0.0295     12.8457     49.1929     17.2753
   821.3000      8.0789      2.4476      0.0027     12.2677     50.0021     16.9692
   821.4000      8.0789      2.4625      0.0293     11.3666     48.0335     16.8629
   821.5000      8.0808      2.4700     -0.0326     10.9093     44.8168     17.2525
   821.6000      8.0808      2.4785      0.0383     10.3941     44.7605     18.3301
   821.7000      8.0808      2.4974      0.0110      9.2494     48.4355     19.4847
   821.8000      8.0551      2.5255      0.0867      7.5443     51.7282     20.1802
   821.9000      8.0551      2.5504      0.0735      6.0334     51.8324     20.1808
   822.0000      8.0541      2.5575      0.0496      5.6078     50.3355     19.5932
   822.1000      8.0541      2.5394      0.0753      6.7000     49.8129     19.2166
   822.2000      8.0541      2.5068      0.0324      8.6803     50.7180     19.2576
   822.3000      8.0770      2.4866     -0.0388      9.9055     51.5501     19.2816
   822.4000      8.0770      2.4920      0.0273      9.5762     50.8522     19.4213
   822.5000      8.0936      2.5064      0.0252      8.7037     47.8823     19.6891
   822.6000      8.0936      2.5164      0.0114      8.0942     44.4119     19.7881
   822.7000      8.0936      2.5150      0.0618      8.1806     42.9919     20.1824
   822.8000      8.1391      2.4926      0.0163      9.5373     43.1874     21.0662
   822.9000      8.1391      2.4626     -0.0196     11.3557     44.2407     21.3341
   823.0000      8.0859      2.4517     -0.0370     12.0164     44.5399     20.6414
   823.1000      8.0859      2.4694      0.0026     10.9460     42.5964     20.0813
   823.2000      8.0859      2.5010      0.0527      9.0301     41.8772     20.1314
   823.3000      8.0440      2.5250      0.0455      7.5753     44.1070     20.2633
   823.4000      8.0440      2.5332      0.0790      7.0799     45.3195     19.7681
   823.5000      8.0768      2.5390      0.0261      6.7279     45.3888     18.6379
   823.6000      8.0768      2.5558      0.0771      5.7067     45.4209     17.8524
   823.7000      8.0768      2.5665      0.1031      5.0599     43.2242     18.1355
   823.8000      8.0917      2.5494      0.1081      6.0977     38.2899     18.8474
   823.9000      8.0917      2.5171      0.0154      8.0536     34.4958     18.9388
   824.0000      8.0597      2.4952      0.0358      9.3797     36.3870     18.7637
   824.1000      8.0597      2.4853      0.0321      9.9830     40.8816     19.0339
   824.2000      8.0597      2.4730      0.0421     10.7261     40.1971     18.9375
   824.3000      8.0470      2.4561     -0.0081     11.7514     35.0542     18.1253
   824.4000      8.0470      2.4478     -0.0284     12.2568     31.5110     18.0174
   824.5000      8.0473      2.4483      0.0187     12.2258     31.3623     18.8233
   824.6000      8.0473      2.4468      0.0170     12.3166     32.9817     19.6414
   824.7000      8.0473      2.4489      0.0151     12.1851     33.7938     20.4528
   824.8000      8.0260      2.4639      0.0565     11.2806     34.2361     21.4011
   824.9000      8.0260      2.4876      0.0534      9.8453     37.6020     22.3895
   825.0000      8.0543      2.5170      0.0767      8.0628     45.0918     23.0518
   825.1000      8.0543      2.5488      0.1079      6.1343     51.5022     23.1059
   825.2000      8.0543      2.5737      0.1078      4.6243     50.9970     22.7967
   825.3000      8.0381      2.5918      0.0937      3.5245     46.0525     22.6461
   825.4000      8.0381      2.6159      0.1077      2.0693     40.7335     22.8451
   825.5000      8.0289      2.6476      0.1127      0.1436     35.3544     23.1124
   825.6000      8.0289      2.6684      0.1394     -1.1163     32.4919     23.4582
   825.7000      8.0289      2.6656      0.0822     -0.9470     35.4170     23.7860
   825.8000      8.0241      2.6578      0.0218     -0.4727     40.4492     23.9379
   825.9000      8.0241      2.6627      0.0238     -0.7667     42.2957     24.1572
   826.0000      8.0366      2.6689      0.0262     -1.1474     42.7477     24.4233
   826.1000      8.0366      2.6743     -0.0230     -1.4753     43.9259     24.4853
   826.2000      8.0366      2.6871      0.0898     -2.2502     44.3992     24.4344
   826.3000      8.0217      2.6876      0.0997     -2.2776     44.6423     24.1225
   826.4000      8.0217      2.6631      0.0259     -0.7945     45.7168     23.2838
   826.5000      8.0115      2.6281      0.0393      1.3267     48.2589     22.1374
   826.6000      8.0115      2.5864      0.0039      3.8524     53.7206     21.2363
   826.7000      8.0115      2.5374     -0.0785      6.8232     62.0197     20.9521
   826.8000      8.0130      2.5016     -0.0651      8.9920     70.3036     21.1547
   826.9000      8.0130      2.4939      0.0351      9.4619     74.5822     21.0944
   827.0000      8.0357      2.4967      0.0573      9.2883     72.8212     20.3606
   827.1000      8.0357      2.4920      0.0712      9.5731     68.4502     19.6189
   827.2000      8.0357      2.4831      0.0243     10.1156     67.1095     19.4583
   827.3000      8.0200      2.4758      0.0282     10.5583     69.1770     19.8839
   827.4000      8.0200      2.4670      0.0365     11.0901     70.3037     20.8241
   827.5000      8.0908      2.4582      0.0142     11.6224     70.5248     22.0380
   827.6000      8.0908      2.4549      0.0048     11.8225     73.1245     22.9048
   827.7000      8.0908      2.4608      0.0559     11.4660     76.6625     23.0132
   827.8000      8.1209      2.4785      0.0325     10.3927     78.6625     22.6518
   827.9000      8.1209      2.5004      0.0953      9.0642     79.8333     21.9558
   828.0000      8.1087      2.5104      0.0798      8.4587     81.2643     21.2811
   828.1000      8.1087      2.5088      0.0522      8.5564     81.2972     21.3620
   828.2000      8.1087      2.5013      0.1326      9.0122     79.5688     21.7415
   828.3000      8.0788      2.4889      0.0580      9.7633     79.9485     21.6469
