~Version Information
VERS.                      2.0: CWLS Log ASCII Standard - VERSION 2.0
WRAP.                       NO: One line per depth step
~Well Information Block
STRT.FT               -14.2500: 
STOP.FT              2177.5000: 
STEP.FT                 0.2500: 
NULL.                -999.2500: 
COMP.          Evergreen Operating Corp.: COMPANY
WELL.            Triumph 13-10: WELL
FLD.           Purgatorie River: FIELD
LOC.           1551' FSL & 522' FWL--: LOCATION
PROV.                       CO: PROVINCE
CNTY.               Las Animas: COUNTRY
SRVC.                         : SERVICE COMPANY
DATE.          Sat Aug 21 09:27:32 2004: LOG DATE
UWI.           005 071 08108 : UNIQUE WELL ID
~Curve Information Block
DEPT.FT            0 000 00 00: Depth
CCL.                          : Casing Collar Locator
TT3.usec                      : CBL 3' Travel Time
AMP3.mV                       : CBL 3' Amplitude
GR.GAPI                       : Gamma Ray
~Parameter Information Block
~A  Depth       CCL         TT3         AMP3         GR     
# ...
   555.2500      0.0000    729.8782      2.7825     76.0160
   555.5000      0.0000    732.2596      2.5577     73.5994
   555.7500      0.0000    736.4420      2.2618     70.8846
   556.0000      0.0000    740.8450      1.9520     68.8082
   556.2500      0.0000    743.1671      1.7581     67.7885
   556.5000      0.0000    742.0816      1.7940     67.8862
   556.7500      0.0000    738.4395      2.0671     68.8083
   557.0000      0.0000    734.3950      2.4629     69.9663
   557.2500      0.0000    731.5900      2.8216     70.8743
   557.5000      0.0000    730.4198      3.0458     71.5081
   557.7500      0.0000    730.5369      3.1590     72.2130
   558.0000      0.0000    731.4671      3.2726     73.2462
   558.2500      0.0000    732.7297      3.4726     74.4055
   558.5000      0.0000    733.7372      3.7278     75.3731
   558.7500      0.0000    733.9357      3.9266     76.6058
   559.0000      0.0000    733.1493      4.0053     79.5368
   559.2500      0.0000    731.6984      4.0073     85.4482
   559.5000      0.0000    730.1140      4.0074     94.1748
   559.7500      0.0000    728.8168      4.0175    104.2130
   560.0000      0.0000    728.0524      3.9955    114.0401
   560.2500      0.0000    727.9506      3.9249    122.9454
   560.5000      0.0000    728.5288      3.8578    130.6387
   560.7500      0.0000    729.6856      3.8737    136.6165
   561.0000      0.0000    731.2472      3.9971    140.2242
   561.2500      0.0000    733.0460      4.1545    141.3842
   561.5000      0.0000    735.0259      4.2376    141.0805
   561.7500      0.0000    737.4767      4.2306    140.6095
   562.0000      0.0000    741.1815      4.2561    140.1759
   562.2500      0.0000    746.9377      4.4585    138.7944
   562.5000      0.0000    754.4379      4.8384    135.8687
   562.7500      0.0000    761.6942      5.2234    132.2162
   563.0000      0.0000    766.1265      5.4035    129.0546
   563.2500      0.0000    766.3818      5.2864    126.4921
   563.5000      0.0000    762.6847      4.9418    123.6836
   563.7500      0.0000    755.5510      4.5438    120.2075
   564.0000      0.0000    745.2220      4.2732    116.7131
   564.2500      0.0000    732.8398      4.2233    114.2457
   564.5000      0.0000    721.1002      4.3549    113.3340
   564.7500      0.0000    712.6647      4.5467    113.9730
   565.0000      0.0000    708.2433      4.7142    116.2913
   565.2500      0.0000    706.8052      4.8781    120.5256
   565.5000      0.0000    707.4500      5.1029    125.9467
   565.7500      2.0000    710.5833      5.3735    130.5201
   566.0000      2.0000    716.7583      5.5783    132.3128
   566.2500      0.0000    724.3716      5.6420    130.8810
   566.5000      0.0000    728.5598      5.6462    127.2117
   566.7500      0.0000    723.0361      5.7622    123.2378
   567.0000      0.0000    705.2765      6.0475    121.5287
   567.2500      0.0000    681.7198      6.3545    124.1992
   567.5000      0.0000    665.6461      6.4800    131.2153
   567.7500      0.0000    666.5632      6.3671    139.8891
   568.0000      0.0000    682.3873      6.1078    146.3330
   568.2500      0.0000    703.3862      5.8008    147.7182
   568.5000      0.0000    721.1064      5.4843    143.7461
   568.7500      0.0000    731.8287      5.1820    136.6738
   569.0000      0.0000    735.2125      4.9262    129.9507
   569.2500      0.0000    733.5120      4.7207    126.0260
   569.5000      0.0000    731.2113      4.5278    124.7757
   569.7500      0.0000    732.6557      4.3309    124.2555
   570.0000      0.0000    739.0558      4.1975    122.9419
   570.2500      0.0000    747.7930      4.2256    120.6377
   570.5000      0.0000    754.2950      4.4073    117.4441
   570.7500      0.0000    755.1956      4.5858    112.8395
   571.0000      0.0000    750.6895      4.5802    106.0935
   571.2500      0.0000    743.9414      4.3434     97.3822
   571.5000      0.0000    737.9614      3.9928     88.3286
   571.7500      0.0000    733.0370      3.6974     81.1140
   572.0000      0.0000    726.5175      3.5367     76.7714
   572.2500      0.0000    713.8036      3.4631     74.4965
   572.5000      0.0000    689.6969      3.3836     72.6591
   572.7500      0.0000    651.3276      3.2587     70.1007
   573.0000      0.0000    602.4609      3.1319     66.4271
   573.2500      0.0000    554.6943      3.0855     61.8511
   573.5000      0.0000    521.7322      3.1623     57.2653
   573.7500      0.0000    511.4042      3.3190     53.9877
   574.0000      0.0000    523.9250      3.4660     52.7725
   574.2500      0.0000    555.7479      3.5499     53.1778
   574.5000      0.0000    600.9836      3.5743     54.1435
   574.7500      0.0000    649.6135      3.5503     55.1201
   575.0000      0.0000    689.5487      3.4751     56.4179
   575.2500      0.0000    713.3302      3.3678     58.3128
   575.5000      0.0000    721.8279      3.2807     60.0425
   575.7500      0.0000    721.2060      3.2634     60.3240
   576.0000      0.0000    717.7744      3.3374     58.9675
   576.2500      0.0000    715.2652      3.4783     57.3037
   576.5000      0.0000    714.5955      3.5938     56.7265
   576.7500      0.0000    714.9630      3.5634     57.4255
   577.0000      0.0000    715.5388      3.3466     58.8176
   577.2500      0.0000    716.4126      3.0425     60.3901
   577.5000      0.0000    717.9422      2.8191     61.4390
   577.7500      0.0000    719.8140      2.7824     60.8098
   578.0000      0.0000    721.2461      2.9056     58.0113
   578.2500      0.0000    721.8139      3.0682     54.4333
   578.5000      0.0000    721.6927      3.1711     52.6065
   578.7500      0.0000    721.2717      3.2244     53.9967
   579.0000      0.0000    720.8201      3.3049     57.6758
   579.2500      0.0000    720.4417      3.4272     61.0989
   579.5000      0.0000    720.1449      3.5082     62.0209
   579.7500      0.0000    719.8875      3.4857     59.8710
   580.0000      0.0000    719.6206      3.4237     55.7352
   580.2500      0.0000    719.3337      3.4498     51.3064
   580.5000      0.0000    719.0701      3.6177     47.8246
   580.7500      0.0000    718.8925      3.8683     45.7981
   581.0000      0.0000    718.8419      4.1023     45.3835
   581.2500      0.0000    718.9302      4.2407     46.7280
   581.5000      0.0000    719.1624      4.2298     49.8027
   581.7500      0.0000    719.5465      4.0506     54.0266
   582.0000      0.0000    720.0845      3.7558     58.3515
   582.2500      0.0000    720.7653      3.4673     62.0160
   582.5000      0.0000    721.5728      3.2896     65.1524
   582.7500      0.0000    722.4829      3.2224     68.3653
   583.0000      0.0000    723.4505      3.1851     71.7431
   583.2500      0.0000    724.4357      3.1378     74.6958
   583.5000      0.0000    725.4603      3.1433     76.9104
   583.7500      0.0000    726.5780      3.2790     79.1296
   584.0000      0.0000    727.7413      3.5122     82.6966
   584.2500      0.0000    728.7495      3.7201     88.1957
   584.5000      0.0000    729.3978      3.8332     94.4751
   584.7500      0.0000    729.6672      3.8991     99.1832
   585.0000      0.0000    729.7243      3.9867    100.5844
   585.2500      0.0000    729.7449      4.0914     98.9320
   585.5000      0.0000    729.7661      4.1766     95.9068
   585.7500      0.0000    729.6891      4.2515     92.7465
   586.0000      0.0000    729.3708      4.3509     89.1599
   586.2500      0.0000    728.7119      4.4686     84.0004
   586.5000      0.0000    727.7141      4.5517     76.6588
   586.7500      0.0000    726.3486      4.5486     68.0234
   587.0000      0.0000    724.1802      4.4419     60.5241
   587.2500      0.0000    719.9794      4.2555     56.9243
   587.5000      0.0000    712.2045      4.0487     58.3137
   587.7500      0.0000    700.9985      3.8817     63.0466
   588.0000      0.0000    690.1428      3.7584     67.8811
   588.2500      0.0000    685.5225      3.6170     70.4072
   588.5000      0.0000    690.0093      3.4047     70.5056
