~Version Information
 VERS.                      2.0: CWLS Log ASCII Standard - VERSION 2.0
 WRAP.                       NO: One line per depth step
 ~Well Information Block
 STRT.FT               130.0000: 
 STOP.FT              1766.9000: 
 STEP.FT                 0.1000: 
 NULL.                -999.2500: 
 COMP.          Petrogulf Corporation: COMPANY
 WELL.           Parsons 23-15V: WELL
 FLD.           Purgatorie River: FIELD
 LOC.           2095' FSL & 1817' FWL--API 05 071 07556 00----: LOCATION
 CNTY.               Las Animas: COUNTY
 SRVC.                         : SERVICE COMPANY
 DATE.          Fri Apr 19 17:40:55 2002: LOG DATE
 UWI.                          : UNIQUE WELL ID
 STAT.                       CO: STATE
 PROV.                         :Province
 ~Curve Information Block
 DEPT.FT            0 000 00 00: Depth
 DCAL.in                       : CDL Caliper
 RHOB.g/cc                     : CDL Bulk Density
 RHOC.g/cc                     : CDL Density Correction
 DPOR.pu                       : CDL Density Porosity
 GR.GAPI                       : Gamma Ray
 NPOR.pu                       : Neutron Porosity
 ~Parameter Information Block
 ~A  Depth       DCAL        RHOB        RHOC        DPOR         GR         NPOR    
# ...
  1435.6000      7.7717      2.5752      0.0516      4.5307    122.1581     22.0531
  1435.7000      7.7717      2.5732      0.0524      4.6567    123.7305     22.1767
  1435.8000      7.7833      2.5707      0.0538      4.8037    125.1633     22.2860
  1435.9000      7.7833      2.5680      0.0555      4.9685    126.4281     22.3647
  1436.0000      7.7916      2.5650      0.0572      5.1500    127.5131     22.4029
  1436.1000      7.7916      2.5618      0.0589      5.3480    128.4107     22.3980
  1436.2000      7.7916      2.5582      0.0603      5.5632    129.1127     22.3542
  1436.3000      7.7917      2.5544      0.0614      5.7968    129.6032     22.2836
  1436.4000      7.7917      2.5502      0.0621      6.0497    129.8531     22.2020
  1436.5000      7.7892      2.5457      0.0624      6.3230    129.8331     22.1286
  1436.6000      7.7892      2.5408      0.0623      6.6173    129.5160     22.0828
  1436.7000      7.7892      2.5356      0.0619      6.9324    128.8949     22.0821
  1436.8000      7.7928      2.5301      0.0612      7.2682    127.9883     22.1422
  1436.9000      7.7928      2.5242      0.0603      7.6231    126.8486     22.2743
  1437.0000      7.8048      2.5181      0.0592      7.9954    125.5544     22.4842
  1437.1000      7.8048      2.5117      0.0580      8.3830    124.2030     22.7729
  1437.2000      7.8048      2.5051      0.0568      8.7833    122.8956     23.1346
  1437.3000      7.8245      2.4983      0.0556      9.1935    121.7189     23.5570
  1437.4000      7.8245      2.4914      0.0546      9.6113    120.7363     24.0217
  1437.5000      7.8502      2.4844      0.0538     10.0346    119.9762     24.5068
  1437.6000      7.8502      2.4774      0.0531     10.4618    119.4326     24.9879
  1437.7000      7.8502      2.4703      0.0527     10.8920    119.0701     25.4422
  1437.8000      7.8850      2.4631      0.0524     11.3246    118.8345     25.8507
  1437.9000      7.8850      2.4560      0.0522     11.7594    118.6645     26.2009
  1438.0000      7.9122      2.4488      0.0519     12.1960    118.5089     26.4882
  1438.1000      7.9122      2.4415      0.0515     12.6334    118.3340     26.7146
  1438.2000      7.9122      2.4344      0.0507     13.0694    118.1307     26.8883
  1438.3000      7.8791      2.4272      0.0495     13.5004    117.9181     27.0205
  1438.4000      7.8791      2.4203      0.0478     13.9208    117.7333     27.1236
  1438.5000      7.8073      2.4137      0.0457     14.3234    117.6215     27.2079
  1438.6000      7.8073      2.4075      0.0434     14.6989    117.6261     27.2806
  1438.7000      7.8073      2.4019      0.0412     15.0369    117.7772     27.3453
  1438.8000      7.7661      2.3971      0.0393     15.3265    118.0862     27.4034
  1438.9000      7.7661      2.3933      0.0381     15.5569    118.5428     27.4536
  1439.0000      7.7660      2.3906      0.0380     15.7185    119.1197     27.4941
  1439.1000      7.7660      2.3892      0.0392     15.8039    119.7800     27.5239
  1439.2000      7.7660      2.3892      0.0418     15.8086    120.4818     27.5432
  1439.3000      7.7828      2.3904      0.0456     15.7311    121.1879     27.5536
  1439.4000      7.7828      2.3930      0.0505     15.5738    121.8657     27.5586
  1439.5000      7.7951      2.3969      0.0561     15.3418    122.4898     27.5624
  1439.6000      7.7951      2.4018      0.0618     15.0435    123.0403     27.5701
  1439.7000      7.7951      2.4076      0.0672     14.6888    123.4955     27.5867
  1439.8000      7.8036      2.4142      0.0720     14.2890    123.8327     27.6166
  1439.9000      7.8036      2.4214      0.0759     13.8555    124.0251     27.6635
  1440.0000      7.8162      2.4289      0.0786     13.3993    124.0444     27.7288
  1440.1000      7.8162      2.4367      0.0804     12.9299    123.8647     27.8119
  1440.2000      7.8162      2.4445      0.0813     12.4554    123.4687     27.9096
  1440.3000      7.8177      2.4523      0.0817     11.9822    122.8497     28.0156
  1440.4000      7.8177      2.4600      0.0817     11.5147    122.0159     28.1207
  1440.5000      7.7989      2.4676      0.0817     11.0564    120.9947     28.2142
  1440.6000      7.7989      2.4750      0.0817     10.6090    119.8263     28.2838
  1440.7000      7.7989      2.4821      0.0819     10.1740    118.5611     28.3186
  1440.8000      7.7921      2.4891      0.0822      9.7522    117.2470     28.3094
  1440.9000      7.7921      2.4958      0.0823      9.3443    115.9280     28.2511
  1441.0000      7.8123      2.5023      0.0822      8.9507    114.6337     28.1431
  1441.1000      7.8123      2.5086      0.0816      8.5720    113.3809     27.9902
  1441.2000      7.8123      2.5146      0.0804      8.2088    112.1704     27.7998
  1441.3000      7.8268      2.5203      0.0786      7.8615    110.9951     27.5833
  1441.4000      7.8268      2.5257      0.0761      7.5305    109.8431     27.3520
  1441.5000      7.8155      2.5309      0.0730      7.2157    108.7026     27.1160
  1441.6000      7.8155      2.5359      0.0695      6.9175    107.5653     26.8822
  1441.7000      7.8155      2.5405      0.0657      6.6360    106.4283     26.6545
  1441.8000      7.7928      2.5449      0.0619      6.3717    105.2875     26.4328
  1441.9000      7.7928      2.5489      0.0581      6.1251    104.1333     26.2146
  1442.0000      7.7782      2.5527      0.0545      5.8973    102.9528     25.9956
  1442.1000      7.7782      2.5561      0.0511      5.6900    101.7204     25.7719
  1442.2000      7.7782      2.5592      0.0480      5.5049    100.4062     25.5406
  1442.3000      7.7779      2.5618      0.0452      5.3442     98.9815     25.3004
  1442.4000      7.7779      2.5640      0.0426      5.2101     97.4251     25.0515
  1442.5000      7.7814      2.5658      0.0401      5.1045     95.7362     24.7954
  1442.6000      7.7814      2.5670      0.0376      5.0287     93.9394     24.5349
  1442.7000      7.7814      2.5678      0.0351      4.9836     92.0853     24.2721
  1442.8000      7.7831      2.5680      0.0327      4.9693     90.2474     24.0089
  1442.9000      7.7831      2.5677      0.0304      4.9855     88.5092     23.7466
  1443.0000      7.7817      2.5670      0.0283      5.0320     86.9542     23.4863
  1443.1000      7.7817      2.5657      0.0266      5.1093     85.6479     23.2298
  1443.2000      7.7817      2.5639      0.0253      5.2188     84.6291     22.9791
  1443.3000      7.7799      2.5615      0.0247      5.3650     83.9005     22.7381
  1443.4000      7.7799      2.5583      0.0248      5.5554     83.4295     22.5123
  1443.5000      7.7783      2.5543      0.0254      5.8017     83.1544     22.3080
  1443.6000      7.7783      2.5490      0.0264      6.1210     82.9925     22.1323
  1443.7000      7.7783      2.5422      0.0277      6.5354     82.8572     21.9913
  1443.8000      7.7698      2.5333      0.0290      7.0732     82.6722     21.8903
  1443.9000      7.7698      2.5218      0.0299      7.7668     82.3821     21.8326
  1444.0000      7.7619      2.5072      0.0303      8.6531     81.9643     21.8198
  1444.1000      7.7619      2.4888      0.0297      9.7708     81.4287     21.8519
  1444.2000      7.7619      2.4659      0.0278     11.1580     80.8149     21.9279
  1444.3000      7.7573      2.4380      0.0245     12.8498     80.1844     22.0473
  1444.4000      7.7573      2.4046      0.0193     14.8744     79.6049     22.2107
  1444.5000      7.7553      2.3654      0.0122     17.2505     79.1342     22.4205
  1444.6000      7.7553      2.3203      0.0028     19.9836     78.8041     22.6814
  1444.7000      7.7553      2.2694     -0.0087     23.0643     78.6120     23.0007
  1444.8000      7.7577      2.2133     -0.0221     26.4665     78.5134     23.3863
  1444.9000      7.7577      2.1526     -0.0366     30.1475     78.4284     23.8471
  1445.0000      7.7589      2.0882     -0.0514     34.0484     78.2459     24.3898
  1445.1000      7.7589      2.0214     -0.0653     38.0975     77.8435     25.0184
