~Version Information
VERS.                      2.0: CWLS Log ASCII Standard - VERSION 2.0
WRAP.                       NO: One line per depth step
~Well Information Block
STRT.FT               575.0000: 
STOP.FT              2016.2000: 
STEP.FT                 0.1000: 
NULL.                -999.2500: 
COMP.          Pioneer Natural Resources: COMPANY
WELL.          Bucksnort 41-35: WELL
FLD.           Purgatoire River: FIELD
LOC.           117' FNL & 463' FEL--: LOCATION
PROV.                 Colorado: PROVINCE
CNTY.               Las Animas: COUNTRY
SRVC.                Patterson: SERVICE COMPANY
DATE.          Thu Jul 21 15:01:23 2005: LOG DATE
UWI.           05 071 08401 00: UNIQUE WELL ID
~Curve Information Block
DEPT.FT            0 000 00 00: Depth
DCAL.in                       : CDL Caliper
RHOB.g/cc                     : CDL Bulk Density
RHOC.g/cc                     : CDL Density Correction
DPOR.pu                       : CDL Density Porosity
NPOR.pu                       : Neutron Porosity
GR.GAPI                       : Gamma Ray
~Parameter Information Block
~A  Depth       DCAL        RHOB        RHOC        DPOR        NPOR         GR     
   575.0000      8.2044      2.4375     -0.1556     12.8812     48.3937     77.9381
   575.1000      8.2044      2.4499     -0.2006     12.1275     48.2716     81.4842
   575.2000      8.2044      2.4739     -0.1262     10.6739     48.0778     86.0772
   575.3000      8.2074      2.4842     -0.1563     10.0512     47.9983     88.8567
   575.4000      8.2074      2.4745     -0.1579     10.6385     48.2576     89.1356
   575.5000      8.2094      2.4593     -0.1813     11.5546     48.7753     87.5779
   575.6000      8.2094      2.4403     -0.1824     12.7062     49.1742     83.9446
   575.7000      8.2094      2.4075     -0.2296     14.6958     49.3478     80.8234
   575.8000      8.2089      2.3559     -0.1909     17.8225     49.3275     80.8579
   575.9000      8.2089      2.2902     -0.2493     21.8078     49.0187     79.7095
   576.0000      8.2051      2.2219     -0.2886     25.9449     48.5075     73.2141
   576.1000      8.2051      2.1444     -0.2560     30.6407     48.2948     65.9564
   576.2000      8.2051      2.0343     -0.2908     37.3143     48.5757     63.2873
   576.3000      8.2018      1.8962     -0.3692     45.6859     48.9166     63.0762
   576.4000      8.2018      1.7798     -0.5059     52.7393     49.0788     62.4784
   576.5000      8.2019      1.7293     -0.4644     55.8000     49.2465     61.1963
   576.6000      8.2019      1.7272     -0.4169     55.9270     49.5185     58.2200
   576.7000      8.2019      1.7225     -0.3924     56.2122     49.7983     54.1388
   576.8000      8.2042      1.6906     -0.4606     58.1451     49.8184     51.9337
   576.9000      8.2042      1.6484     -0.5162     60.7001     49.4392     51.8939
   577.0000      8.2068      1.6275     -0.5591     61.9709     49.0471     51.8070
   577.1000      8.2068      1.6368     -0.5014     61.4090     49.0047     51.4918
   577.2000      8.2068      1.6575     -0.4704     60.1500     49.0913     51.8919
   577.3000      8.2077      1.6813     -0.4665     58.7117     48.9225     52.5964
   577.4000      8.2077      1.7195     -0.4428     56.3964     48.4972     54.2363
   577.5000      8.2069      1.7782     -0.4458     52.8339     48.0516     57.7423
   577.6000      8.2069      1.8550     -0.4141     48.1844     47.6276     62.9868
   577.7000      8.2069      1.9362     -0.3735     43.2582     47.2766     67.4108
   577.8000      8.2073      1.9912     -0.3289     39.9253     47.2912     68.5315
   577.9000      8.2073      1.9993     -0.3905     39.4391     47.6488     68.9197
   578.0000      8.2077      1.9745     -0.3552     40.9374     47.9231     68.5777
   578.1000      8.2077      1.9493     -0.4089     42.4644     47.8700     65.5305
   578.2000      8.2077      1.9416     -0.3478     42.9348     47.5587     64.6577
   578.3000      8.2072      1.9404     -0.3512     43.0065     47.2606     71.1630
   578.4000      8.2072      1.9286     -0.3658     43.7200     47.2994     81.0210
   578.5000      8.2078      1.9073     -0.4005     45.0117     47.6813     84.7125
   578.6000      8.2078      1.8924     -0.3826     45.9148     48.0017     79.8515
   578.7000      8.2078      1.9012     -0.4072     45.3791     47.9300     72.4918
   578.8000      8.2089      1.9493     -0.3921     42.4689     47.5307     68.4808
   578.9000      8.2089      2.0297     -0.2975     37.5917     47.1690     69.1512
   579.0000      8.2091      2.1023     -0.2335     33.1955     47.1609     71.4361
   579.1000      8.2091      2.1416     -0.2907     30.8144     47.4971     72.0944
   579.2000      8.2091      2.1724     -0.3159     28.9471     47.9192     71.6473
   579.3000      8.2088      2.2221     -0.2722     25.9327     48.0841     73.8304
   579.4000      8.2088      2.2779     -0.1753     22.5525     47.9468     80.4168
   579.5000      8.2090      2.3094     -0.1883     20.6447     47.5961     88.0890
   579.6000      8.2090      2.3125     -0.2109     20.4557     47.0030     91.4243
   579.7000      8.2090      2.3137     -0.2171     20.3799     46.3524     90.8043
   579.8000      8.2096      2.3338     -0.1955     19.1631     45.9882     89.9057
   579.9000      8.2096      2.3647     -0.1578     17.2912     46.0030     87.2299
   580.0000      8.2089      2.3870     -0.1568     15.9409     46.1303     81.9395
   580.1000      8.2089      2.3921     -0.1387     15.6305     46.1793     76.8881
   580.2000      8.2089      2.3871     -0.1850     15.9330     46.2277     72.2857
   580.3000      8.2081      2.3829     -0.1722     16.1878     46.2759     69.9681
   580.4000      8.2081      2.3852     -0.1970     16.0472     46.4447     74.2327
   580.5000      8.2072      2.4008     -0.1919     15.1050     46.8683     84.0786
   580.6000      8.2072      2.4254     -0.1854     13.6107     47.2419     93.8881
   580.7000      8.2072      2.4401     -0.1747     12.7216     47.2972     99.0698
   580.8000      8.2079      2.4403     -0.1833     12.7064     47.2101     99.1629
   580.9000      8.2079      2.4422     -0.1907     12.5911     47.0478     95.4130
   581.0000      8.2093      2.4449     -0.1557     12.4303     46.5997     90.6325
   581.1000      8.2093      2.4337     -0.2066     13.1087     46.1162     88.6859
   581.2000      8.2093      2.4117     -0.2220     14.4434     46.0604     88.7511
   581.3000      8.2092      2.3867     -0.2221     15.9597     46.3864     88.2015
   581.4000      8.2092      2.3710     -0.2888     16.9071     46.6619     87.7526
   581.5000      8.2093      2.3809     -0.2180     16.3073     46.5418     89.8946
   581.6000      8.2093      2.3997     -0.1678     15.1668     46.0860     93.9998
   581.7000      8.2093      2.3965     -0.2240     15.3649     45.6492     97.0982
   581.8000      8.2101      2.3729     -0.2352     16.7912     45.3759     98.6929
   581.9000      8.2101      2.3538     -0.2259     17.9513     45.2601     98.5655
   582.0000      8.2092      2.3484     -0.2115     18.2795     45.3407     96.0368
   582.1000      8.2092      2.3459     -0.2412     18.4287     45.4578     90.7279
   582.2000      8.2092      2.3425     -0.2052     18.6369     45.3949     82.9961
   582.3000      8.2079      2.3435     -0.2103     18.5753     45.2915     77.6219
   582.4000      8.2079      2.3481     -0.2116     18.2983     45.4732     79.2328
   582.5000      8.2084      2.3494     -0.1892     18.2162     45.5733     83.7994
   582.6000      8.2084      2.3444     -0.1841     18.5239     45.1927     84.9728
   582.7000      8.2084      2.3426     -0.2385     18.6276     44.8016     83.0340
   582.8000      8.2100      2.3545     -0.2165     17.9098     44.6803     80.9528
   582.9000      8.2100      2.3694     -0.1677     17.0059     44.7105     79.9575
   583.0000      8.2122      2.3744     -0.1772     16.7055     45.0027     79.2109
   583.1000      8.2122      2.3807     -0.1987     16.3211     45.6415     77.0819
   583.2000      8.2122      2.4138     -0.1655     14.3125     46.5145     75.6610
   583.3000      8.2137      2.4819     -0.1591     10.1857     47.2785     78.1895
   583.4000      8.2137      2.5681     -0.1397      4.9640     47.5699     83.5079
   583.5000      8.2131      2.6426     -0.0755      0.4480     47.4439     88.6243
   583.6000      8.2131      2.6734     -0.0566     -1.4164     47.3428     91.1202
   583.7000      8.2131      2.6304     -0.0645      1.1876     47.5507     92.4067
   583.8000      8.2076      2.4832     -0.0935     10.1098     48.0202     94.9207
   583.9000      8.2076      2.2424     -0.3012     24.7015     48.6056     94.3333
   584.0000      8.1883      2.0033     -0.5387     39.1915     49.1005     86.9933
   584.1000      8.1883      1.8602     -0.5473     47.8645     49.4014     77.8632
   584.2000      8.1883      1.8149     -0.6062     50.6130     49.4943     73.1026
   584.3000      8.1544      1.8197     -0.6204     50.3185     49.1690     73.1066
   584.4000      8.1544      1.8494     -0.8118     48.5182     48.1059     75.2404
   584.5000      8.1251      1.8991     -0.6497     45.5118     46.3773     79.3541
