~Version Information
VERS.                      2.0: CWLS Log ASCII Standard - VERSION 2.0
WRAP.                       NO: One line per depth step
~Well Information Block
STRT.FT               546.0000: 
STOP.FT              1771.5000: 
STEP.FT                 0.1000: 
NULL.                -999.2500: 
COMP.          Petrogulf Corporation: COMPANY
WELL.             McLeod 9-42R: WELL
FLD.           Purgatorie River: FIELD
LOC.           1748' FNL & 372' FEL: LOCATION
PROV.                 Colorado: PROVINCE
CNTY.               Las Animas: COUNTRY
SRVC.                Patterson: SERVICE COMPANY
DATE.          Tue Aug 16 11:11:38 2005: LOG DATE
UWI.                071 08092 : UNIQUE WELL ID
~Curve Information Block
DEPT.FT            0 000 00 00: Depth
DCAL.in                       : CDL Caliper
RHOB.g/cc                     : CDL Bulk Density
RHOC.g/cc                     : CDL Density Correction
DPOR.pu                       : CDL Density Porosity
GR.GAPI                       : Gamma Ray
NPOR.pu                       : Neutron Porosity
~Parameter Information Block
~A  Depth       DCAL        RHOB        RHOC        DPOR         GR         NPOR    
# ...
   939.6000      7.9953      2.6612      0.0835     -0.6791    112.6781     29.6892
   939.7000      7.9953      2.6727      0.0231     -1.3750    113.0076     29.3207
   939.8000      7.9859      2.6969      0.0523     -2.8399    114.9523     29.2771
   939.9000      7.9859      2.7245      0.0742     -4.5170    115.5711     29.3990
   940.0000      7.9382      2.7421      0.0635     -5.5834    113.8407     29.5557
   940.1000      7.9382      2.7557      0.0863     -6.4076    113.2173     29.5654
   940.2000      7.9382      2.7688      0.1086     -7.2028    118.3704     29.6075
   940.3000      7.9370      2.7635      0.0880     -6.8771    126.6172     29.8504
   940.4000      7.9370      2.7280      0.0438     -4.7265    131.9073     30.1025
   940.5000      7.8982      2.6746     -0.0055     -1.4901    133.5257     30.3505
   940.6000      7.8982      2.6221     -0.0047      1.6881    131.6417     30.5923
   940.7000      7.8982      2.5865     -0.0492      3.8476    126.0415     30.6315
   940.8000      7.8813      2.5771     -0.0207      4.4192    119.8532     30.4795
   940.9000      7.8813      2.5822      0.0345      4.1106    117.1611     30.3196
   941.0000      7.9170      2.5857      0.0098      3.8991    119.1128     30.2940
   941.1000      7.9170      2.5878      0.0698      3.7711    122.3088     30.3515
   941.2000      7.9170      2.5885      0.1311      3.7247    122.7798     30.4457
   941.3000      7.9686      2.5915      0.1394      3.5463    121.7890     30.5371
   941.4000      7.9686      2.6143      0.1580      2.1614    123.2303     30.3725
   941.5000      7.8328      2.6660      0.1425     -0.9719    125.8068     29.9987
   941.6000      7.8328      2.7335      0.1951     -5.0622    126.5524     29.8608
   941.7000      7.8328      2.7961      0.1604     -8.8562    126.6131     30.1455
   941.8000      7.7883      2.8297      0.2157    -10.8912    127.4787     30.4104
   941.9000      7.7883      2.8081      0.1872     -9.5796    130.1122     30.3475
   942.0000      7.7708      2.7346      0.1211     -5.1254    133.8119     30.2713
   942.1000      7.7708      2.6590     -0.0394     -0.5479    133.8847     30.4049
   942.2000      7.7708      2.6283     -0.0365      1.3139    129.2798     30.3875
   942.3000      7.7735      2.6343     -0.0872      0.9526    125.3150     30.1083
   942.4000      7.7735      2.6472     -0.0978      0.1719    124.5301     29.8961
   942.5000      7.8857      2.6577     -0.0677     -0.4690    125.5413     29.7684
   942.6000      7.8857      2.6686     -0.0628     -1.1293    128.3847     29.7268
   942.7000      7.8857      2.6763      0.0308     -1.5937    132.3087     29.7918
   942.8000      7.9973      2.6726      0.0863     -1.3692    134.3676     29.8166
   942.9000      7.9973      2.6617      0.0651     -0.7079    131.5957     29.7385
   943.0000      8.0455      2.6572      0.0732     -0.4340    126.2986     29.8143
   943.1000      8.0455      2.6585      0.1017     -0.5173    124.4363     30.2676
   943.2000      8.0455      2.6558      0.0852     -0.3540    127.3710     30.8570
   943.3000      7.9832      2.6502      0.0654     -0.0121    131.8235     31.1742
   943.4000      7.9832      2.6533      0.0322     -0.2021    135.4310     30.9849
   943.5000      8.0119      2.6664      0.0824     -0.9924    137.2429     30.4478
   943.6000      8.0119      2.6790      0.0554     -1.7555    136.8856     29.7354
   943.7000      8.0119      2.6868      0.0414     -2.2310    135.2558     29.2064
   943.8000      7.9682      2.6825      0.0582     -1.9726    133.1704     29.2745
   943.9000      7.9682      2.6606     -0.0140     -0.6433    131.3749     29.6048
   944.0000      7.9794      2.6352     -0.0052      0.8965    130.1729     29.5664
   944.1000      7.9794      2.6231     -0.0184      1.6286    128.6506     29.4287
   944.2000      7.9794      2.6279      0.0005      1.3364    126.7960     29.6557
   944.3000      7.9815      2.6404      0.0433      0.5840    124.7020     29.7677
   944.4000      7.9815      2.6483      0.0735      0.1044    122.4999     29.5872
   944.5000      7.9764      2.6486      0.0841      0.0847    121.7833     29.6829
   944.6000      7.9764      2.6511      0.0433     -0.0661    122.8788     30.0951
   944.7000      7.9764      2.6685      0.0661     -1.1230    124.1660     30.2380
   944.8000      7.9588      2.6936      0.1466     -2.6433    123.9067     29.9653
   944.9000      7.9588      2.7030      0.1688     -3.2135    122.0746     29.5204
   945.0000      7.9668      2.6868      0.1194     -2.2280    120.2660     29.0450
   945.1000      7.9668      2.6602      0.0729     -0.6189    121.2357     28.8084
   945.2000      7.9668      2.6469      0.0113      0.1894    125.3125     28.7349
   945.3000      7.9886      2.6506      0.0514     -0.0372    128.1515     28.5643
   945.4000      7.9886      2.6545      0.0573     -0.2754    127.2616     28.3443
   945.5000      7.9958      2.6503      0.0402     -0.0154    124.9302     28.4739
   945.6000      7.9958      2.6427      0.0639      0.4405    123.2484     29.2055
   945.7000      7.9958      2.6297      0.0536      1.2331    121.3285     29.9910
   945.8000      7.9730      2.6002      0.0606      3.0193    119.4735     30.3338
   945.9000      7.9730      2.5620     -0.0201      5.3309    119.6398     30.3167
   946.0000      7.9780      2.5425      0.0448      6.5176    121.2472     30.0872
   946.1000      7.9780      2.5473      0.0486      6.2235    122.5557     29.9609
   946.2000      7.9780      2.5642      0.0667      5.2026    123.2535     30.3493
   946.3000      7.9832      2.5867      0.1233      3.8351    124.5428     31.0059
   946.4000      7.9832      2.6083      0.1686      2.5245    128.0882     31.4340
   946.5000      7.9883      2.6238      0.1409      1.5891    133.6814     31.6203
   946.6000      7.9883      2.6340      0.1554      0.9713    136.4081     31.6648
   946.7000      7.9883      2.6365      0.1726      0.8185    133.8736     31.4157
   946.8000      8.0115      2.6273      0.1213      1.3742    129.8121     31.0448
   946.9000      8.0115      2.6083      0.1124      2.5245    127.3446     31.0589
   947.0000      8.0113      2.5839      0.0731      4.0084    125.6606     31.3867
   947.1000      8.0113      2.5582      0.0634      5.5620    123.4585     31.5095
   947.2000      8.0113      2.5335      0.0312      7.0613    121.0555     31.2299
   947.3000      8.0124      2.5127     -0.0055      8.3232    119.3419     30.6098
   947.4000      8.0124      2.5016     -0.0147      8.9938    120.1744     29.8651
   947.5000      7.9966      2.5026      0.0070      8.9338    123.1785     29.5638
   947.6000      7.9966      2.5083      0.0407      8.5874    123.0387     29.8398
   947.7000      7.9966      2.5004      0.0486      9.0679    117.5358     30.1714
   947.8000      8.0017      2.4545      0.0521     11.8489    112.1441     30.2905
   947.9000      8.0017      2.3612      0.0342     17.5044    111.1339     30.2038
   948.0000      8.0203      2.2515     -0.0269     24.1543    113.6346     30.0761
   948.1000      8.0203      2.1719     -0.0121     28.9754    115.2693     30.5753
   948.2000      8.0203      2.1317     -0.0110     31.4145    113.8236     31.7546
   948.3000      8.0400      2.1069      0.0098     32.9175    113.1575     32.5929
   948.4000      8.0400      2.0835      0.0256     34.3326    114.1904     32.6582
   948.5000      8.0793      2.0625      0.0863     35.6080    110.8766     32.6562
   948.6000      8.0793      2.0280      0.1862     37.6990    103.0340     33.2407
   948.7000      8.0793      1.9570      0.1762     41.9992     96.6303     34.3088
   948.8000      8.2456      1.8613      0.1026     47.7998     91.9042     35.2382
   948.9000      8.2456      1.7785     -0.0143     52.8174     87.3938     35.4359
   949.0000      8.1598      1.7234     -0.0293     56.1578     85.2184     35.1533
   949.1000      8.1598      1.6773     -0.0547     58.9534     84.6022     35.1785
