~Version Information
VERS.                      2.0: CWLS Log ASCII Standard - VERSION 2.0
WRAP.                       NO: One line per depth step
~Well Information Block
STRT.FT                -5.5000: 
STOP.FT              1979.7500: 
STEP.FT                 0.2500: 
NULL.                -999.2500: 
COMP.          Pioneer Natural Resources: COMPANY
WELL.          Bucksnort 41-35: WELL
FLD.           Purgatorie River: FIELD
LOC.           117' FNL & 463' FEL: LOCATION
PROV.                 Colorado: PROVINCE
CNTY.               Las Animas: COUNTRY
SRVC.                Patterson: SERVICE COMPANY
DATE.          Fri Jul 29 10:31:46 2005: LOG DATE
UWI.                          : UNIQUE WELL ID
~Curve Information Block
DEPT.FT            0 000 00 00: Depth
GR.GAPI                       : Gamma Ray
CCL.                          : Casing Collar Locator
TT3.usec                      : CBL 3' Travel Time
AMP3.mV                       : CBL 3' Amplitude
~Parameter Information Block
~A  Depth        GR         CCL         TT3         AMP3    
# ...
   262.5000     66.3772      0.0000    706.6342     11.1783
   262.7500     69.4736      0.0000    706.8635     11.0224
   263.0000     72.4247      0.0000    707.6262     10.8488
   263.2500     75.8668      0.0000    710.9008     10.6867
   263.5000     80.0706      0.0000    722.3416     10.5534
   263.7500     84.3296      0.0000    749.7781     10.4530
   264.0000     87.4137      0.0000    791.8234     10.3802
   264.2500     88.6060      0.0000    828.9312     10.3148
   264.5000     88.1134      0.0000    840.6160     10.2265
   264.7500     86.4419      0.0000    829.9597     10.1038
   265.0000     83.5746      0.0000    816.3420      9.9678
   265.2500     79.1246      0.0000    810.0007      9.8553
   265.5000     73.5970      0.0000    804.6002      9.7882
   265.7500     69.3436      0.0000    790.5309      9.7664
   266.0000     69.4801      0.0000    768.8818      9.7930
   266.2500     75.2110      0.0000    751.1301      9.8841
   266.5000     84.3632      0.0000    744.7379     10.0441
   266.7500     92.9965      0.0000    745.0737     10.2377
   267.0000     98.4486      0.0000    744.2363     10.3882
   267.2500    100.6476      0.0000    740.6458     10.4387
   267.5000    100.9758      0.0000    738.4926     10.4300
   267.7500    100.8046      0.0000    740.8133     10.4586
   268.0000    101.0947      0.0000    745.4593     10.5599
   268.2500    102.3070      0.0000    748.9684     10.6896
   268.5000    103.9663      0.0000    750.3518     10.7943
   268.7500    104.6516      0.0000    749.9341     10.8523
   269.0000    103.1496      0.0000    748.3978     10.8595
   269.2500     99.8899      0.0000    748.6416     10.8156
   269.5000     96.8789      0.0000    755.5247     10.7235
   269.7500     95.8583      0.0000    769.4000     10.5712
   270.0000     96.6240      0.0000    783.5715     10.3079
   270.2500     97.4258      0.0000    791.2786      9.8536
   270.5000     96.9301      0.0000    787.7304      9.1425
   270.7500     95.4762      0.0000    769.5088      8.2105
   271.0000     94.4297      0.0000    745.3251      7.1749
   271.2500     94.7568      0.0000    733.7498      6.0422
   271.5000     96.2442      0.0000    736.5883      4.7762
   271.7500     97.6369      0.0000    739.8231      3.5800
   272.0000     97.5607      0.0000    740.1391      2.7405
   272.2500     95.7098      0.0000    741.9056      2.3070
   272.5000     93.0220      2.0000    744.3240      2.1436
   272.7500     90.5279      0.0000    745.1880      2.1107
   273.0000     88.2990      0.0000    743.2562      2.1499
   273.2500     85.7093      0.0000    736.4044      2.3765
   273.5000     82.4376      0.0000    724.4759      3.1016
   273.7500     78.9554      0.0000    711.9129      4.4700
   274.0000     76.0800      0.0000    700.3307      6.0437
   274.2500     74.1542      0.0000    683.6212      7.2548
   274.5000     72.5811      0.0000    661.7812      8.0523
   274.7500     70.1538      0.0000    648.0777      8.6100
   275.0000     66.0249      0.0000    649.7847      8.9951
   275.2500     60.5677      0.0000    656.5594      9.2665
   275.5000     55.3357      0.0000    659.4053      9.4882
   275.7500     52.0255      0.0000    663.9156      9.7228
   276.0000     51.2551      0.0000    675.7894     10.0587
   276.2500     52.2615      0.0000    693.9440     10.5295
   276.5000     53.6900      0.0000    716.4053     11.0248
   276.7500     54.6314      0.0000    739.1114     11.3843
   277.0000     55.1636      0.0000    758.8672     11.5631
   277.2500     56.2415      0.0000    774.5482     11.6247
   277.5000     59.0255      0.0000    779.4456     11.6194
   277.7500     64.0923      0.0000    766.0013     11.5419
   278.0000     71.0973      0.0000    737.9730     11.3892
   278.2500     78.8219      0.0000    709.1086     11.1897
   278.5000     85.3003      0.0000    693.4955     10.9509
   278.7500     88.4527      0.0000    693.7043     10.6211
   279.0000     87.3218      0.0000    698.1427     10.1047
   279.2500     82.7850      0.0000    698.8472      9.3386
   279.5000     76.8397      0.0000    703.0425      8.4449
   279.7500     71.2458      0.0000    717.4725      7.7246
   280.0000     66.9004      0.0000    735.2612      7.3677
   280.2500     64.1478      0.0000    747.9343      7.2945
   280.5000     63.1455      0.0000    756.5134      7.3292
   280.7500     63.7859      0.0000    764.8836      7.3892
   281.0000     65.5716      0.0000    771.0500      7.4724
   281.2500     67.8553      0.0000    769.1896      7.5344
   281.5000     70.1427      0.0000    757.7719      7.4648
   281.7500     72.0516      0.0000    741.5142      7.2118
   282.0000     73.1637      0.0000    727.3146      6.8624
   282.2500     73.2122      0.0000    721.1213      6.5583
   282.5000     72.4335      0.0000    724.8544      6.3684
   282.7500     71.4120      0.0000    734.5076      6.2662
   283.0000     70.4058      0.0000    744.1398      6.2071
   283.2500     69.0647      0.0000    751.6110      6.1840
   283.5000     67.0005      0.0000    757.1272      6.1954
   283.7500     64.5045      0.0000    758.1067      6.1967
   284.0000     62.4995      0.0000    750.9691      6.1174
   284.2500     61.7058      0.0000    736.7943      5.9346
   284.5000     61.8890      0.0000    721.3120      5.7159
   284.7500     62.0504      0.0000    710.1063      5.5627
   285.0000     61.4182      0.0000    704.6922      5.5071
   285.2500     60.1751      0.0000    703.1877      5.4953
   285.5000     59.2820      0.0000    704.1725      5.4679
   285.7500     59.8074      0.0000    708.5450      5.4166
   286.0000     62.2745      0.0000    716.8087      5.3804
   286.2500     66.1993      0.0000    725.4736      5.4190
   286.5000     70.2259      0.0000    730.2657      5.5742
   286.7500     73.0215      0.0000    732.6075      5.8488
   287.0000     74.0816      0.0000    736.4786      6.2264
   287.2500     73.6035      0.0000    741.4332      6.6729
   287.5000     71.9459      0.0000    744.7762      7.1144
   287.7500     69.4724      0.0000    746.0613      7.4884
   288.0000     66.5916      0.0000    746.3309      7.8161
   288.2500     63.6807      0.0000    746.2957      8.1667
   288.5000     61.1067      0.0000    746.1589      8.5633
   288.7500     59.2807      0.0000    745.9591      8.9687
   289.0000     58.4647      0.0000    745.7318      9.3469
   289.2500     58.6272      0.0000    745.5056      9.6968
   289.5000     59.6781      0.0000    745.2993     10.0140
   289.7500     61.5476      0.0000    745.1387     10.2597
   290.0000     63.7847      0.0000    745.0323     10.4029
   290.2500     65.4607      0.0000    744.9571     10.4634
   290.5000     65.9432      0.0000    744.9084     10.4786
   290.7500     65.6597      0.0000    744.9481     10.4616
   291.0000     65.7043      0.0000    745.1155     10.4128
   291.2500     66.6140      0.0000    745.3101     10.3393
   291.5000     67.7601      0.0000    745.3904     10.2365
   291.7500     68.0658      0.0000    745.3620     10.0879
   292.0000     67.2349      0.0000    745.3452      9.9006
   292.2500     66.1436      0.0000    745.4353      9.7023
   292.5000     66.0963      0.0000    745.7526      9.4997
   292.7500     67.8903      0.0000    746.6437      9.2711
   293.0000     71.3862      0.0000    749.0035      9.0079
   293.2500     75.5274      0.0000    754.5028      8.7375
   293.5000     78.7832      0.0000    764.2327      8.4872
   293.7500     80.0335      0.0000    776.0981      8.2468
   294.0000     79.3769      0.0000    785.6976      7.9939
   294.2500     78.1720      0.0000    790.7596      7.7391
   294.5000     78.0856      0.0000    792.1725      7.5227
   294.7500     79.7366      0.0000    790.8260      7.3715
   295.0000     82.1413      0.0000    785.7327      7.2704
   295.2500     83.7060      0.0000    775.9505      7.1802
   295.5000     83.7912      0.0000    763.7689      7.0870
   295.7500     83.0318      0.0000    753.8046      7.0246
