~Version Information
VERS.                      2.0: CWLS Log ASCII Standard - VERSION 2.0
WRAP.                       NO: One line per depth step
~Well Information Block
STRT.FT               380.0000: 
STOP.FT               899.2000: 
STEP.FT                 0.1000: 
NULL.                -999.2500: 
COMP.          Pioneer Natural Resources: COMPANY
WELL.          Prospector 12-19: WELL
FLD.           Purgatoire River: FIELD
LOC.           2262' FNL & 634' FWL: LOCATION
PROV.                 Colorado: PROVINCE
CNTY.               Las Animas: COUNTRY
SRVC.                Patterson: SERVICE COMPANY
DATE.          Mon Apr 25 09:33:09 2005: LOG DATE
UWI.           05 071 08191 00: UNIQUE WELL ID
~Curve Information Block
DEPT.FT            0 000 00 00: Depth
DCAL.in                       : CDL Caliper
RHOB.g/cc                     : CDL Bulk Density
RHOC.g/cc                     : CDL Density Correction
DPOR.pu                       : CDL Density Porosity
GR.GAPI                       : Gamma Ray
NPOR.pu                       : Neutron Porosity
~Parameter Information Block
~A  Depth       DCAL        RHOB        RHOC        DPOR         GR         NPOR    
# ...
   418.4000      7.9764      2.5824      0.0962      4.0949     95.5135     21.2341
   418.5000      7.9546      2.5865      0.1068      3.8482     94.6452     21.5391
   418.6000      7.9546      2.5842      0.0399      3.9862     93.7476     22.0496
   418.7000      7.9546      2.5918      0.0952      3.5263     91.1979     22.1495
   418.8000      7.9308      2.6055      0.1162      2.6946     87.4497     22.1637
   418.9000      7.9308      2.6092      0.0760      2.4722     85.2886     22.5619
   419.0000      7.9241      2.5952      0.0582      3.3241     84.0061     22.8248
   419.1000      7.9241      2.5670      0.0273      5.0318     81.0275     22.4105
   419.2000      7.9241      2.5347      0.0242      6.9863     77.0122     21.6371
   419.3000      7.9629      2.5158      0.0150      8.1321     73.5351     21.0380
   419.4000      7.9629      2.5268     -0.0022      7.4653     71.7566     20.6193
   419.5000      7.9707      2.5597      0.0672      5.4735     73.0713     20.0375
   419.6000      7.9707      2.5899      0.0173      3.6433     76.1661     19.5039
   419.7000      7.9707      2.6057      0.0324      2.6875     77.8006     19.2763
   419.8000      7.9856      2.5986      0.0678      3.1136     77.4125     18.9269
   419.9000      7.9856      2.5617     -0.0033      5.3504     78.3718     18.2282
   420.0000      8.0132      2.5093     -0.0056      8.5293     80.8226     17.6130
   420.1000      8.0132      2.4647     -0.0090     11.2278     79.8752     17.3347
   420.2000      8.0132      2.4363     -0.0053     12.9536     75.9388     17.1033
   420.3000      7.9955      2.4136     -0.0021     14.3276     73.8433     16.7565
   420.4000      7.9955      2.3976     -0.0921     15.2969     73.7726     16.3769
   420.5000      8.0115      2.4051     -0.0049     14.8441     74.9059     16.0576
   420.6000      8.0115      2.4289      0.0144     13.4010     77.0213     16.0051
   420.7000      8.0115      2.4417      0.0533     12.6240     77.9861     16.3286
   420.8000      7.9823      2.4398      0.0487     12.7403     76.9618     16.7336
   420.9000      7.9823      2.4488      0.0698     12.1933     73.8199     16.8736
   421.0000      7.9593      2.4685      0.1691     11.0006     70.8584     16.9434
   421.1000      7.9593      2.4693      0.1421     10.9503     71.3823     16.9661
   421.2000      7.9593      2.4435      0.1034     12.5149     72.3069     16.5681
   421.3000      7.9220      2.4060      0.1131     14.7853     70.1941     15.9061
   421.4000      7.9220      2.3824      0.0550     16.2197     68.3730     15.5183
   421.5000      7.9181      2.3957      0.0564     15.4095     70.6104     15.6531
   421.6000      7.9181      2.4369      0.1004     12.9168     75.7215     16.0687
   421.7000      7.9181      2.4765      0.1350     10.5123     82.2793     16.2844
   421.8000      7.9377      2.4978      0.1472      9.2254     86.9525     16.0798
   421.9000      7.9377      2.4982      0.1350      9.1971     83.8039     15.7617
   422.0000      7.9619      2.4867      0.0719      9.8944     75.2878     15.7611
   422.1000      7.9619      2.4718      0.1284     10.7976     71.2377     16.2328
   422.2000      7.9619      2.4558      0.0923     11.7712     71.8908     16.8823
   422.3000      7.9689      2.4485      0.0728     12.2142     71.1848     17.0900
   422.4000      7.9689      2.4480      0.1026     12.2436     71.3347     16.9323
   422.5000      7.9877      2.4370      0.0754     12.9111     75.5613     17.1924
   422.6000      7.9877      2.4200      0.0251     13.9381     81.3854     17.8585
   422.7000      7.9877      2.4137      0.0514     14.3197     85.2115     18.2607
   422.8000      8.0067      2.4154      0.0203     14.2158     84.4793     18.1954
   422.9000      8.0067      2.4168      0.0689     14.1327     82.4647     17.9907
   423.0000      8.0176      2.4175      0.0437     14.0922     85.1719     18.0546
   423.1000      8.0176      2.4193      0.0704     13.9809     89.5448     18.4042
   423.2000      8.0176      2.4220      0.0804     13.8195     90.7213     18.7103
   423.3000      8.0107      2.4327      0.0604     13.1712     92.8481     18.6428
   423.4000      8.0107      2.4584      0.0952     11.6097     98.5492     18.2536
   423.5000      7.9809      2.4865      0.1205      9.9084    102.9550     18.0167
   423.6000      7.9809      2.4940      0.1701      9.4550    103.0069     18.0854
   423.7000      7.9809      2.4789      0.0859     10.3706    102.7467     18.0704
   423.8000      7.9713      2.4648      0.0659     11.2272    107.0742     17.7807
   423.9000      7.9713      2.4599      0.1126     11.5229    114.6769     17.2025
   424.0000      7.9672      2.4593      0.0423     11.5586    120.7856     16.2801
   424.1000      7.9672      2.4663      0.0917     11.1329    123.5172     15.3744
   424.2000      7.9672      2.4759      0.0735     10.5491    124.1710     14.8022
   424.3000      7.9712      2.4831      0.0510     10.1172    125.4310     14.3268
   424.4000      7.9712      2.4821      0.1459     10.1751    127.9037   -150.0067
   424.5000      7.9807      2.4653      0.0615     11.1932    129.1606   -151.5027
   424.6000      7.9807      2.4456      0.0947     12.3905    130.0368   -131.4767
   424.7000      7.9807      2.4389      0.0457     12.7923    131.1918    -94.0455
   424.8000      7.9609      2.4488      0.0627     12.1918    129.8309    -54.0567
   424.9000      7.9609      2.4668      0.1026     11.1040    125.9608    -24.6966
   425.0000      7.9738      2.4751      0.0788     10.6007    119.7846     -9.6955
   425.1000      7.9738      2.4643      0.0923     11.2523    111.6548     -3.2782
   425.2000      7.9738      2.4487      0.0080     12.2010    105.6314      0.1503
   425.3000      8.0113      2.4562      0.0128     11.7442    103.9799      2.8990
   425.4000      8.0113      2.4973      0.0639      9.2534    102.7438      5.5731
   425.5000      8.0190      2.5523      0.1013      5.9207     99.3356      8.0685
   425.6000      8.0190      2.5845      0.0956      3.9725     96.5476     10.5301
   425.7000      8.0190      2.5735      0.1076      4.6375    100.3298     13.6102
   425.8000      8.0256      2.5392      0.0390      6.7134    109.6201     16.9082
   425.9000      8.0256      2.5151     -0.0187      8.1745    113.1338     18.8904
   426.0000      8.0181      2.5103      0.0209      8.4694    106.6390     19.4657
   426.1000      8.0181      2.5084      0.0184      8.5832     99.6548     19.3889
   426.2000      8.0181      2.4919      0.0164      9.5841    100.3149     18.6442
   426.3000      8.0167      2.4640     -0.0129     11.2756    108.0205     17.5734
   426.4000      8.0167      2.4501     -0.0492     12.1167    115.9857     16.9400
   426.5000      8.0229      2.4602      0.0458     11.5043    116.4338     17.0495
   426.6000      8.0229      2.4682      0.0645     11.0188    108.0403     18.0148
   426.7000      8.0229      2.4608      0.0195     11.4689     97.1411     19.6549
   426.8000      8.0268      2.4584     -0.0084     11.6126     89.5597     21.0920
   426.9000      8.0268      2.4721      0.0179     10.7795     86.1400     21.4380
   427.0000      8.0161      2.4847      0.0427     10.0200     85.2502     21.0440
   427.1000      8.0161      2.4805      0.0114     10.2723     86.8685     20.8672
   427.2000      8.0161      2.4691     -0.0032     10.9645     92.2526     21.1028
   427.3000      8.0135      2.4660      0.0537     11.1532     98.8908     21.4741
   427.4000      8.0135      2.4750      0.0004     10.6065    102.4092     21.3550
   427.5000      8.0066      2.4917      0.0338      9.5965    103.6593     20.3164
   427.6000      8.0066      2.5087      0.0177      8.5652    105.8358     19.1432
   427.7000      8.0066      2.5309     -0.0046      7.2156    107.6093     18.7565
   427.8000      7.9901      2.5645      0.0873      5.1814    106.5129     18.8031
   427.9000      7.9901      2.5918      0.0792      3.5250    102.9594     18.6576
