~Version Information
VERS.                      2.0: CWLS Log ASCII Standard - VERSION 2.0
WRAP.                       NO: One line per depth step
~Well Information Block
STRT.FT               491.0000: 
STOP.FT              1055.5000: 
STEP.FT                 0.1000: 
NULL.                -999.2500: 
COMP.          Evergreen Operating Corporation: COMPANY
WELL.              Sunset 24-3: WELL
FLD.           Purgatorie River: FIELD
LOC.           467' FSL & 2262' FWL: LOCATION
PROV.                 Colorado: PROVINCE
CNTY.               Las Animas: COUNTRY
SRVC.                         : SERVICE COMPANY
DATE.          Wed Sep 22 14:05:09 2004: LOG DATE
UWI.           05 071 08158 00: UNIQUE WELL ID
~Curve Information Block
DEPT.FT            0 000 00 00: Depth
DCAL.in                       : CDL Caliper
RHOB.g/cc                     : CDL Bulk Density
RHOC.g/cc                     : CDL Density Correction
DPOR.pu                       : CDL Density Porosity
GR.GAPI                       : Gamma Ray
NPOR.pu                       : Neutron Porosity
~Parameter Information Block
~A  Depth       DCAL        RHOB        RHOC        DPOR         GR         NPOR    
# ...
   673.4000      7.9412      2.5638      0.0962      5.2256     60.5057     20.2347
   673.5000      7.9405      2.5382      0.0422      6.7734     65.5948     20.3639
   673.6000      7.9405      2.5177      0.0056      8.0193     69.6937     20.5432
   673.7000      7.9405      2.5144      0.0215      8.2173     70.9425     20.8166
   673.8000      7.9421      2.5216      0.0516      7.7814     74.8777     20.7097
   673.9000      7.9421      2.5328      0.0180      7.1058     82.1809     20.2586
   674.0000      7.9415      2.5504      0.0213      6.0349     85.6193     20.0722
   674.1000      7.9415      2.5682      0.0864      4.9605     84.6873     20.1782
   674.2000      7.9415      2.5759      0.0488      4.4909     85.9185     20.1231
   674.3000      7.9407      2.5824      0.0395      4.0962     89.4948     20.2489
   674.4000      7.9407      2.5947      0.1134      3.3533     89.7016     21.0720
   674.5000      7.9407      2.6031      0.1257      2.8450     87.1402     22.4594
   674.6000      7.9407      2.6076      0.0894      2.5720     86.7524     24.0300
   674.7000      7.9407      2.6255      0.1068      1.4867     89.1073     25.2622
   674.8000      7.9410      2.6721      0.0872     -1.3393     92.1207     25.5969
   674.9000      7.9410      2.7513      0.0568     -6.1380     92.5205     25.0269
   675.0000      7.9407      2.8511      0.1158    -12.1876     90.4288     24.1285
   675.1000      7.9407      2.9454      0.1651    -17.9025     90.8094     23.7007
   675.2000      7.9407      3.0057      0.2266    -21.5556     90.3299     23.7232
   675.3000      7.9361      3.0137      0.1871    -22.0445     81.2335     22.9269
   675.4000      7.9361      2.9704      0.1792    -19.4192     68.7873     21.2720
   675.5000      7.9183      2.8929      0.0503    -14.7198     61.8848     20.2639
   675.6000      7.9183      2.8144     -0.1264     -9.9659     62.3026     20.2247
   675.7000      7.9183      2.7545     -0.1515     -6.3340     68.5792     20.6143
   675.8000      7.9140      2.6909     -0.1484     -2.4815     74.4388     21.2334
   675.9000      7.9140      2.6109     -0.2312      2.3673     74.5798     21.3805
   676.0000      7.9388      2.5443     -0.1860      6.4056     71.8631     20.6765
   676.1000      7.9388      2.5122     -0.0643      8.3493     68.9547     19.9045
   676.2000      7.9388      2.4989      0.0251      9.1572     64.0733     19.5976
   676.3000      7.9420      2.4902     -0.0264      9.6832     58.8561     19.3990
   676.4000      7.9420      2.4896      0.0376      9.7204     57.9702     18.9336
   676.5000      7.9470      2.4976      0.0447      9.2385     59.0382     18.3572
   676.6000      7.9470      2.5094      0.0319      8.5206     58.0730     18.0667
   676.7000      7.9470      2.5161      0.0656      8.1164     59.1203     18.2127
   676.8000      7.9619      2.5070      0.0581      8.6688     63.5349     18.2927
   676.9000      7.9619      2.4925      0.0126      9.5483     64.2917     17.9422
   677.0000      7.9461      2.4952      0.0345      9.3795     60.9279     17.9769
   677.1000      7.9461      2.5116      0.1074      8.3886     61.0272     19.0538
   677.2000      7.9461      2.5229      0.0707      7.7003     65.5189     20.4823
   677.3000      7.9485      2.5238      0.0887      7.6460     67.2118     21.1473
   677.4000      7.9485      2.5177      0.0698      8.0152     64.9721     20.9565
   677.5000      7.9466      2.5141      0.0782      8.2334     64.4487     20.4174
   677.6000      7.9466      2.5225      0.0655      7.7294     67.6694     19.9790
   677.7000      7.9466      2.5367      0.1127      6.8655     72.1329     20.4279
   677.8000      7.9470      2.5352      0.1239      6.9600     73.9729     21.5328
   677.9000      7.9470      2.5146      0.0580      8.2033     69.9065     22.0407
   678.0000      7.9623      2.4987      0.0463      9.1701     63.8392     21.5723
   678.1000      7.9623      2.4960      0.0576      9.3320     63.4509     20.9031
   678.2000      7.9623      2.4987      0.0313      9.1674     66.9637     20.7611
   678.3000      7.9803      2.5047      0.0595      8.8081     68.1079     20.8591
   678.4000      7.9803      2.5099      0.0762      8.4907     67.5763     20.5769
   678.5000      7.9794      2.5112      0.0384      8.4129     69.8446     20.0481
   678.6000      7.9794      2.5165      0.0790      8.0906     73.6154     19.8966
   678.7000      7.9794      2.5320      0.0624      7.1496     72.9616     20.1619
   678.8000      7.9609      2.5474      0.0946      6.2172     68.4772     20.2944
   678.9000      7.9609      2.5499      0.0670      6.0652     65.0017     19.9391
   679.0000      7.9552      2.5452      0.0449      6.3532     62.5407     19.3762
   679.1000      7.9552      2.5373      0.0889      6.8326     59.4615     19.2311
   679.2000      7.9552      2.5191      0.0487      7.9356     56.2861     19.4797
   679.3000      7.9460      2.4994      0.0226      9.1276     53.6874     19.3590
   679.4000      7.9460      2.4937      0.0282      9.4735     50.0556     18.7823
   679.5000      7.9444      2.4992      0.0104      9.1367     44.5270     18.3227
   679.6000      7.9444      2.5048      0.0445      8.7970     41.3843     18.0239
   679.7000      7.9444      2.5097      0.0129      8.5032     43.0322     17.8152
   679.8000      7.9568      2.5207      0.0625      7.8352     45.8346     18.0149
   679.9000      7.9568      2.5335      0.0710      7.0615     48.8450     18.6286
   680.0000      7.9563      2.5405      0.0626      6.6356     52.2798     19.0526
   680.1000      7.9563      2.5408      0.0685      6.6207     53.2595     19.0879
   680.2000      7.9563      2.5370      0.0369      6.8499     51.0706     19.2586
   680.3000      7.9513      2.5357      0.0445      6.9252     48.1254     19.2770
   680.4000      7.9513      2.5411      0.0514      6.6013     45.0502     18.7824
   680.5000      7.9587      2.5508      0.0811      6.0135     42.5004     18.3391
   680.6000      7.9587      2.5549      0.0838      5.7610     42.9346     18.0312
   680.7000      7.9587      2.5478      0.0465      6.1968     47.8608     17.7619
   680.8000      7.9442      2.5363      0.0507      6.8929     55.0600     17.9864
   680.9000      7.9442      2.5261      0.0318      7.5110     58.6582     18.4149
   681.0000      7.9429      2.5159      0.0189      8.1243     55.7527     18.3761
   681.1000      7.9429      2.5071      0.0127      8.6602     51.1026     18.4771
   681.2000      7.9429      2.5018      0.0211      8.9847     48.7132     19.0821
   681.3000      7.9479      2.4975      0.0323      9.2435     46.0021     19.3763
   681.4000      7.9479      2.4925      0.0280      9.5475     43.4843     19.1703
   681.5000      7.9797      2.4937     -0.0148      9.4703     45.1465     18.8629
   681.6000      7.9797      2.5099      0.0123      8.4929     48.9024     18.3647
   681.7000      7.9797      2.5339      0.0659      7.0388     51.3793     17.5861
   681.8000      7.9860      2.5469      0.0489      6.2483     52.7204     16.9005
   681.9000      7.9860      2.5383      0.0678      6.7725     52.7900     16.7037
   682.0000      7.9986      2.5146      0.0272      8.2052     52.1161     17.2042
   682.1000      7.9986      2.4940      0.0241      9.4522     51.3734     18.2359
   682.2000      7.9986      2.4931     -0.0089      9.5118     50.7432     18.9773
   682.3000      7.9998      2.5092      0.0532      8.5337     50.4351     18.9259
   682.4000      7.9998      2.5181      0.0296      7.9968     48.8739     18.6139
   682.5000      7.9951      2.5098      0.0274      8.4964     45.2976     18.3651
   682.6000      7.9951      2.4956      0.0418      9.3550     41.6022     17.9945
   682.7000      7.9951      2.4812      0.0267     10.2331     39.7841     17.6420
   682.8000      7.9862      2.4690      0.0151     10.9704     41.0513     17.6616
   682.9000      7.9862      2.4669     -0.0058     11.0953     44.9404     18.2048
