~Version Information
 VERS.                                  2.0 : CWLS LAS VERSION
 WRAP.                                   NO : WRAPING MODE
 SWARE .                 MController 2.5.0J : SOFTWARE VERSION
~Well Information
 WELL.                       Galloway 32-13 : WELL
 COMP.   Pioneer Natural Resources USA Inc. : COMPANY
 FLD.                         Spanish Peaks : FIELD
 LOC.                SW/NE Sec 13 T32S R66W : LOCATION
 DATE.                             7/6-7/05 : DATE(S) LOGGED
 SRVC.       BLANCO Geological Services LLC : SERVICE COMPANY
 STAT.                                   CO : STATE
 CNTY.                           Las Animas : COUNTY
 CTRY.                                  USA : COUNTRY
 API.                       05-071-08423-00 : API NUMBER
 STRT.FT                             596.00 : START DEPTH
 STOP.FT                            2075.00 : STOP DEPTH
 STEP.FT                               1.00 : DEPTH INCREMENT
 NULL.                                -9999 : NULL VALUE
~Curve information
 DEPTH.FT                                   :
 ROP.MIN/FT                                 :
 GAS.UNITS                                  :
~ASCII Log data
# ...
      1396.0         0.33        141.5 
      1397.0         0.23        132.3 
      1398.0         0.27        124.1 
      1399.0         0.30        130.9 
      1400.0         0.30        133.1 
      1401.0         0.20        136.4 
      1402.0         0.27        141.9 
      1403.0         0.23        138.0 
      1404.0         0.23        139.3 
      1405.0         0.30        136.3 
      1406.0         0.20        170.8 
      1407.0         0.33        138.0 
      1408.0         0.22        119.4 
      1409.0         0.37        163.4 
      1410.0         0.27        185.8 
      1411.0         0.27        193.0 
      1412.0         0.23        187.3 
      1413.0         0.27        178.7 
      1414.0         0.33        169.9 
      1415.0         0.23        166.7 
      1416.0         0.33        165.2 
      1417.0         0.27        168.2 
      1418.0         0.23        169.5 
      1419.0         0.27        165.5 
      1420.0         0.32        157.6 
      1421.0         0.37        158.1 
      1422.0         0.23        167.8 
      1423.0         0.23        168.0 
      1424.0         0.27        159.3 
      1425.0         0.23        153.5 
      1426.0         0.30        179.1 
      1427.0         0.27        138.8 
      1428.0         0.23        107.0 
      1429.0         0.27        130.5 
      1430.0         0.20        154.6 
      1431.0         0.30        171.4 
      1432.0         0.27        180.8 
      1433.0         0.25        213.0 
      1434.0         0.33        154.6 
      1435.0         0.27        120.6 
      1436.0         0.23        139.4 
      1437.0         0.37        168.2 
      1438.0         0.27        175.0 
      1439.0         0.30        169.6 
      1440.0         0.30        152.7 
      1441.0         0.53        164.0 
      1442.0         0.27        172.3 
      1443.0         0.23        164.4 
      1444.0         0.55        131.1 
      1445.0         0.43        137.9 
      1446.0         0.43        154.0 
      1447.0         0.30        158.0 
      1448.0         0.50        131.6 
      1449.0         0.23        129.3 
      1450.0         0.27        131.2 
      1451.0         0.50        135.6 
      1452.0         0.22        138.9 
      1453.0         0.30        144.5 
      1454.0         0.40        154.2 
      1455.0         0.30        137.4 
      1456.0         0.23        146.5 
      1457.0         0.50        180.4 
      1458.0         0.47        148.8 
      1459.0         0.30        181.1 
      1460.0         0.33        183.3 
      1461.0         0.33        165.6 
      1462.0         0.55        163.6 
      1463.0         0.23        174.9 
      1464.0         0.30        175.4 
      1465.0         0.57        181.3 
      1466.0         0.23        140.7 
      1467.0         0.53        138.1 
      1468.0         0.23        144.5 
      1469.0         0.30        142.9 
      1470.0         0.48        134.8 
      1471.0         0.43        135.4 
      1472.0         0.23        159.4 
      1473.0         0.60        106.9 
      1474.0         0.27        110.5 
      1475.0         0.57        208.5 
      1476.0         0.27        206.4 
      1477.0         0.37        175.8 
      1478.0         0.72        174.0 
      1479.0         0.33        182.5 
      1480.0         0.53        147.7 
      1481.0         0.27        139.3 
      1482.0         0.60        128.3 
      1483.0         0.27        142.7 
      1484.0         0.60        148.4 
      1485.0         0.40        136.8 
      1486.0         0.32        131.8 
      1487.0         0.37        136.9 
      1488.0         0.37        145.1 
      1489.0         0.37        146.0 
      1490.0         0.33        138.8 
      1491.0         0.37        147.2 
      1492.0         0.37        133.2 
      1493.0         0.33        139.8 
      1494.0         0.33        150.7 
      1495.0         0.37        156.7 
      1496.0         0.58        159.3 
      1497.0         0.33        167.3 
      1498.0         0.40        199.7 
      1499.0         0.27        239.8 
      1500.0         0.33        271.4 
      1501.0       872.02          1.6 
      1502.0         4.08          1.4 
      1503.0         0.33          1.4 
      1504.0         0.40          1.5 
      1505.0         0.42          2.7 
      1506.0         0.40         21.6 
      1507.0         0.40         30.5 
      1508.0         0.30         34.7 
      1509.0         0.37         36.3 
      1510.0         0.40         37.5 
      1511.0         0.33         38.3 
      1512.0         0.40         40.7 
      1513.0         0.37         43.5 
      1514.0         0.27         43.2 
      1515.0         0.42         45.3 
      1516.0         0.30         46.0 
      1517.0         0.33         49.4 
      1518.0         0.43         56.0 
      1519.0         0.43         56.6 
      1520.0         0.37         57.3 
      1521.0         0.50         58.8 
      1522.0         0.37         60.0 
      1523.0         0.55         65.4 
      1524.0         0.43         74.5 
      1525.0         0.50        116.0 
      1526.0         0.53         57.1 
      1527.0         0.47         60.4 
      1528.0         0.43         68.3 
      1529.0         0.43         76.7 
      1530.0         0.42         80.2 
      1531.0         0.40         73.2 
      1532.0         0.40         76.3 
      1533.0         0.47         77.3 
      1534.0         0.47         67.9 
      1535.0         0.47         73.7 
      1536.0         0.50         61.6 
      1537.0         0.47         70.1 
      1538.0         0.42         80.9 
      1539.0         0.47         71.6 
      1540.0         0.37         68.0 
      1541.0         0.40         68.1 
      1542.0         0.40         68.9 
      1543.0         0.37         73.3 
      1544.0         0.43         73.1 
      1545.0         0.40         76.0 
      1546.0         0.42         74.2 
      1547.0         0.43         66.2 
      1548.0         0.43         70.5 
      1549.0         0.43         74.2 
      1550.0         0.43         79.6 
      1551.0         0.47         86.3 
      1552.0         0.47        161.4 
      1553.0         0.55         88.2 
      1554.0         0.57         88.9 
      1555.0         0.50         92.1 
      1556.0         0.53         83.1 
      1557.0         0.50         83.5 
      1558.0         0.47         88.0 
      1559.0         0.47         88.5 
      1560.0         0.45         86.2 
      1561.0         0.50         90.6 
      1562.0         0.37         95.5 
      1563.0         0.43         90.8 
      1564.0         0.27         88.1 
      1565.0         0.43         85.1 
      1566.0         0.40         89.0 
      1567.0         0.17         88.6 
      1568.0         0.30         95.2 
      1569.0         0.17        100.0 
      1570.0         0.28        104.3 
      1571.0         0.17        109.4 
      1572.0         0.23        112.8 
      1573.0         0.17        112.9 
      1574.0         0.33        117.7 
      1575.0         0.13        123.6 
      1576.0         0.30        135.5 
      1577.0         0.20        136.7 
      1578.0         0.27        123.0 
      1579.0         0.27        121.1 
      1580.0         0.20        105.7 
      1581.0         0.23         87.1 
      1582.0         0.23         84.9 
      1583.0         0.27         94.9 
      1584.0         0.22        103.7 
      1585.0         0.23        115.2 
      1586.0         0.23        122.9 
      1587.0         0.20        126.3 
      1588.0         0.20        125.2 
      1589.0         0.23        121.6 
      1590.0         0.20        119.5 
      1591.0         0.30        120.2 
      1592.0         0.30        125.2 
      1593.0         0.17        143.7 
      1594.0         0.20        166.1 
      1595.0         0.27        124.0 
