~Version Information
VERS.                      2.0: CWLS Log ASCII Standard - VERSION 2.0
WRAP.                       NO: One line per depth step
~Well Information Block
STRT.FT               651.5000: 
STOP.FT              2190.5000: 
STEP.FT                 0.2500: 
NULL.                -999.2500: 
COMP.          Pioneer Natural Resources: COMPANY
WELL.               King 22-13: WELL
FLD.           Purgatoire River: FIELD
LOC.           2419' FNL & 1806' FWL----: LOCATION
PROV.                 Colorado: PROVINCE
CNTY.               Las Animas: COUNTRY
SRVC.                Patterson: SERVICE COMPANY
DATE.          Thu Mar 31 14:33:28 2005: LOG DATE
UWI.           05 071 08318 00: UNIQUE WELL ID
~Curve Information Block
DEPT.FT            0 000 00 00: Depth
SN.Ohm-m                      : IEL Short Normal
SP.mV                         : IEL Spontaneous Potential
DIR.Ohm-m                     : IEL Induction Resistivity
GR.GAPI                       : Gamma Ray
~Parameter Information Block
~A  Depth        SN          SP         DIR          GR     
# ...
  1857.5000     36.1899    139.8823     25.9982    101.5021
  1857.7500     35.9931    140.8485     25.9714    101.0649
  1858.0000     35.5968    141.8956     25.9433    101.8713
  1858.2500     35.1845    143.0102     25.8801    103.4332
  1858.5000     34.8728    144.1617     25.7678    107.8134
  1858.7500     34.6390    145.3144     25.6070    111.9299
  1859.0000     34.3612    146.4403     25.4048    118.0952
  1859.2500     33.9246    147.5163     25.1656    120.6009
  1859.5000     33.3178    148.5127     24.8857    119.9918
  1859.7500     32.6421    149.3921     24.5552    116.9982
  1860.0000     32.0168    150.1249     24.1649    111.9739
  1860.2500     31.4877    150.7095     23.7122    110.5346
  1860.5000     31.0314    151.1743     23.2037    112.1339
  1860.7500     30.6121    151.5622     22.6551    114.1645
  1861.0000     30.1555    151.9097     22.0903    115.7581
  1861.2500     29.4958    152.2344     21.5352    115.6240
  1861.5000     28.4896    152.5372     21.0121    114.8649
  1861.7500     27.2259    152.8144     20.5353    114.1351
  1862.0000     26.0292    153.0701     20.1113    111.2075
  1862.2500     25.2071    153.3150     19.7412    107.3102
  1862.5000     24.7929    153.5546     19.4254    100.2780
  1862.7500     24.5117    153.7776     19.1652     97.5794
  1863.0000     24.0199    153.9587     18.9613    100.6579
  1863.2500     23.2412    154.0739     18.8090    107.2833
  1863.5000     22.4558    154.1183     18.6942    119.3799
  1863.7500     22.0479    154.1135     18.5989    125.9602
  1864.0000     22.2230    154.0978     18.5115    132.2578
  1864.2500     22.9370    154.1026     18.4372    135.3647
  1864.5000     23.9726    154.1308     18.3985    140.9969
  1864.7500     25.0627    154.1554     18.4279    145.5607
  1865.0000     26.0287    154.1423     18.5558    150.9026
  1865.2500     26.8413    154.0759     18.8019    151.2283
  1865.5000     27.5426    153.9783     19.1692    145.3413
  1865.7500     28.1393    153.9174     19.6422    138.5952
  1866.0000     28.5654    154.0018     20.1864    128.8480
  1866.2500     28.6990    154.3486     20.7520    124.5705
  1866.5000     28.4278    155.0388     21.2834    121.5900
  1866.7500     27.7470    156.0930     21.7345    120.5220
  1867.0000     26.7903    157.4886     22.0827    118.0227
  1867.2500     25.7826    159.1863     22.3350    115.4681
  1867.5000     25.0177    161.1239     22.5208    111.1205
  1867.7500     24.8779    163.1694     22.6818    108.2001
  1868.0000     25.7236    165.0853     22.8618    103.4347
  1868.2500     27.5688    166.5638     23.0990     99.7474
  1868.5000     29.9377    167.3362     23.4158     93.7659
  1868.7500     32.2149    167.2937     23.8099     90.1067
  1869.0000     34.0518    166.5420     24.2523     86.6817
  1869.2500     35.4032    165.3540     24.6982     86.7527
  1869.5000     36.3893    164.0453     25.1075     91.2189
  1869.7500     37.1940    162.8414     25.4621     96.6158
  1870.0000     37.9885    161.8098     25.7665    106.1885
  1870.2500     38.8900    160.8895     26.0352    112.0913
  1870.5000     39.9693    159.9865     26.2739    117.8442
  1870.7500     41.2574    159.0596     26.4677    118.5792
  1871.0000     42.7079    158.1370     26.5799    115.2345
  1871.2500     44.1366    157.2718     26.5624    111.6597
  1871.5000     45.2209    156.5019     26.3704    107.8849
  1871.7500     45.5936    155.8659     25.9728    107.5608
  1872.0000     44.9793    155.4594     25.3561    109.7670
  1872.2500     43.3370    155.4747     24.5305    111.7697
  1872.5000     40.9818    156.1787     23.5396    113.2862
  1872.7500     38.5175    157.8100     22.4593    112.5403
  1873.0000     36.4472    160.4298     21.3796    109.1315
  1873.2500     34.7341    163.8352     20.3759    106.1186
  1873.5000     32.8033    167.6313     19.4922    101.3078
  1873.7500     30.1277    171.4262     18.7412     97.9404
  1874.0000     26.8926    174.9819     18.1150     93.2478
  1874.2500     23.9081    178.2147     17.5975     91.3712
  1874.5000     21.7556    181.0953     17.1711     92.2093
  1874.7500     20.3257    183.5683     16.8190     95.4612
  1875.0000     19.2830    185.5490     16.5276    103.0426
  1875.2500     18.5767    186.9717     16.2895    108.5494
  1875.5000     18.3774    187.8366     16.1077    115.9701
  1875.7500     18.7899    188.2246     15.9981    120.5730
  1876.0000     19.7171    188.2749     15.9862    128.4458
  1876.2500     20.8839    188.1348     16.0988    134.5845
  1876.5000     21.9453    187.9010     16.3539    143.4231
  1876.7500     22.6372    187.5884     16.7533    147.7010
  1877.0000     22.9002    187.1517     17.2830    150.9065
  1877.2500     22.8717    186.5476     17.9194    151.4985
  1877.5000     22.7500    185.7909     18.6358    151.7327
  1877.7500     22.6662    184.9654     19.4044    152.3098
  1878.0000     22.6590    184.1810     20.1921    154.6399
  1878.2500     22.7190    183.5021     20.9576    157.1853
  1878.5000     22.8222    182.8986     21.6566    161.8542
  1878.7500     22.9515    182.2681     22.2525    164.7484
  1879.0000     23.1269    181.5177     22.7277    166.8651
  1879.2500     23.4217    180.6373     23.0859    166.1363
  1879.5000     23.9199    179.7049     23.3487    163.1463
  1879.7500     24.6453    178.8290     23.5495    161.6627
  1880.0000     25.5360    178.0842     23.7249    161.6324
  1880.2500     26.4835    177.4814     23.9031    161.8761
  1880.5000     27.4034    176.9823     24.0935    159.4553
  1880.7500     28.2776    176.5414     24.2819    155.8690
  1881.0000     29.1143    176.1562     24.4351    151.1735
  1881.2500     29.8526    175.8933     24.5134    150.5556
  1881.5000     30.3260    175.8572     24.4872    152.8914
  1881.7500     30.3646    176.1125     24.3499    154.6678
  1882.0000     29.9425    176.6312     24.1223    155.4747
  1882.2500     29.2049    177.3282     23.8449    154.9037
  1882.5000     28.3583    178.1573     23.5630    153.3646
  1882.7500     27.5552    179.1717     23.3125    152.3905
  1883.0000     26.8509    180.4782     23.1145    152.3165
  1883.2500     26.2530    182.1205     22.9759    153.9342
  1883.5000     25.8382    183.9898     22.8925    158.0331
  1883.7500     25.7580    185.8344     22.8503    159.7252
  1884.0000     26.0723    187.3671     22.8269    156.6694
  1884.2500     26.6314    188.3938     22.7972    150.6042
  1884.5000     27.1644    188.8882     22.7432    139.7926
  1884.7500     27.4730    188.9729     22.6611    134.8263
  1885.0000     27.5509    188.8339     22.5594    132.9391
  1885.2500     27.5509    188.6169     22.4489    133.9597
  1885.5000     27.6563    188.3665     22.3328    134.9380
  1885.7500     27.9594    188.0447     22.2051    133.8102
  1886.0000     28.4130    187.6049     22.0593    129.5906
  1886.2500     28.8685    187.0525     21.8975    126.3776
  1886.5000     29.1894    186.4358     21.7312    123.7048
  1886.7500     29.3429    185.7827     21.5741    124.2162
  1887.0000     29.3742    185.0510     21.4336    127.7959
  1887.2500     29.3239    184.1409     21.3093    130.8999
  1887.5000     29.1968    182.9563     21.1966    134.3357
  1887.7500     28.9841    181.4596     21.0923    134.6528
  1888.0000     28.6803    179.6813     20.9964    131.3895
  1888.2500     28.2685    177.6940     20.9122    127.5382
  1888.5000     27.7203    175.5824     20.8461    122.6221
  1888.7500     27.0438    173.4260     20.8077    121.8218
  1889.0000     26.3169    171.2936     20.8060    124.6815
  1889.2500     25.6434    169.2415     20.8434    127.4853
  1889.5000     25.0960    167.3172     20.9106    129.0082
  1889.7500     24.7137    165.5679     20.9863    127.0657
  1890.0000     24.5275    164.0403     21.0434    121.1694
  1890.2500     24.5489    162.7571     21.0612    117.6882
  1890.5000     24.7337    161.6918     21.0360    117.3382
  1890.7500     24.9782    160.7758     20.9846    120.9621
