~Version Information
 VERS.                                  2.0 : CWLS LAS VERSION
 WRAP.                                   NO : WRAPING MODE
 SWARE .                 MController 2.5.0N : SOFTWARE VERSION
~Well Information
 WELL.                   Blackjack 32-11 Tr : WELL
 COMP.  Pioneer Natural Resources USA, Inc. : COMPANY
 FLD.                      Purgatoire River : FIELD
 LOC.               SW/NE Sec 11 T32S  R66W : LOCATION
 DATE.                             08/14/05 : DATE(S) LOGGED
 SRVC.       BLANCO Geological Services LLC : SERVICE COMPANY
 STAT.                                   CO : STATE
 CNTY.                           Las Animas : COUNTY
 CTRY.                                  USA : COUNTRY
 API.                       05-071-08310-00 : API NUMBER
 STRT.FT                             521.00 : START DEPTH
 STOP.FT                            1862.00 : STOP DEPTH
 STEP.FT                               1.00 : DEPTH INCREMENT
 NULL.                                -9999 : NULL VALUE
~Curve information
 DEPTH.FT                                   :
 ROP.MIN/FT                                 :
 GAS.UNITS                                  :
~ASCII Log data
       521.0     -9999.00          1.3 
       522.0         1.20          2.2 
       523.0         0.13          1.2 
       524.0         0.17          0.7 
       525.0         0.13          1.8 
       526.0         0.13          1.7 
       527.0         0.13          1.9 
       528.0         0.23          1.6 
       529.0         0.15          1.8 
       530.0         0.07          1.9 
       531.0         1.17          2.0 
       532.0         0.40          1.5 
       533.0         0.10          1.2 
       534.0         0.37          1.8 
       535.0         0.23          1.5 
       536.0         6.40          1.5 
       537.0         0.70          0.4 
       538.0         0.27          0.4 
       539.0         0.28          0.8 
       540.0         0.20          0.8 
       541.0         0.43          1.1 
       542.0         0.20          1.5 
       543.0         0.17          1.5 
       544.0         0.20          1.5 
       545.0         0.17          1.7 
       546.0         0.33          1.6 
       547.0         0.20          1.9 
       548.0         0.20          1.4 
       549.0         0.23          1.5 
       550.0         0.27          1.7 
       551.0         0.20          1.9 
       552.0         0.23          1.8 
       553.0         0.17          1.7 
       554.0         0.18          2.3 
       555.0         0.13          2.0 
       556.0         0.13          1.7 
       557.0         0.17          2.1 
       558.0         0.13          1.7 
       559.0         0.17          2.0 
       560.0         0.20          2.4 
       561.0         0.27          1.7 
       562.0         0.27          1.8 
       563.0         0.10          1.7 
       564.0         0.10          1.6 
       565.0         0.10          1.4 
       566.0         1.37          1.9 
       567.0         0.15          0.5 
       568.0         0.13          0.2 
       569.0         0.13          0.2 
       570.0         0.13          0.4 
       571.0         0.13          0.5 
       572.0         0.53          1.0 
       573.0         0.30          1.1 
       574.0         0.23          0.4 
       575.0         0.17          1.2 
       576.0         0.23          1.0 
       577.0         0.17          0.7 
       578.0         0.20          0.9 
       579.0         0.20          1.2 
       580.0         0.20          1.2 
       581.0         0.17          1.4 
       582.0         0.17          0.9 
       583.0         0.25          1.3 
       584.0         0.13          0.7 
       585.0         0.33          1.0 
       586.0         3.92          1.2 
       587.0         0.23          0.8 
       588.0         0.20          0.1 
       589.0         0.20          0.4 
       590.0         0.23          0.2 
       591.0         0.17          0.0 
       592.0         0.37          0.2 
       593.0         0.33          0.3 
       594.0         0.55          0.3 
       595.0         0.67          0.8 
       596.0         4.72          4.2 
       597.0         0.27          4.1 
       598.0         0.20          3.6 
       599.0         0.23          3.9 
       600.0         0.23          4.2 
       601.0         0.22          4.3 
       602.0         0.17          3.9 
       603.0         0.20          3.7 
       604.0         0.20          4.2 
       605.0         0.20          3.8 
       606.0         0.20          3.7 
       607.0         0.20          4.0 
       608.0         0.20          3.5 
       609.0         0.20          4.1 
       610.0         0.23          4.0 
       611.0         0.20          4.0 
       612.0         0.13          3.7 
       613.0         0.17          4.0 
       614.0         0.17          3.8 
       615.0         0.20          4.2 
       616.0         0.20          4.4 
       617.0         0.20          4.2 
       618.0         0.17          3.7 
       619.0         0.22          4.2 
       620.0         0.20          4.5 
       621.0         0.17          4.3 
       622.0         0.20          4.1 
       623.0         0.20          4.4 
       624.0         0.20          4.7 
       625.0         0.20          4.5 
       626.0         1.27          4.8 
       627.0         0.17          4.9 
       628.0         0.37          4.8 
       629.0         0.28          4.6 
       630.0         0.23          4.3 
       631.0         0.23          3.9 
       632.0         0.23          4.5 
       633.0         0.23          3.5 
       634.0         0.20          3.9 
       635.0         0.20          4.3 
       636.0         0.23          4.7 
       637.0         0.20          3.9 
       638.0         0.20          4.0 
       639.0         0.20          4.1 
       640.0         0.17          4.3 
       641.0         0.17          4.1 
       642.0         0.20          4.3 
       643.0         0.20          3.9 
       644.0         0.17          3.7 
       645.0         0.22          4.1 
       646.0         0.20          4.3 
       647.0         0.20          4.0 
       648.0         0.20          4.2 
       649.0         0.20          4.3 
       650.0         0.20          3.9 
       651.0         0.17          4.4 
       652.0         0.20          4.2 
       653.0         0.20          4.4 
       654.0         0.17          4.0 
       655.0         0.17          3.9 
       656.0         1.45          4.9 
       657.0         0.17          3.9 
       658.0         0.40          4.0 
       659.0         0.27          4.0 
       660.0         0.27          4.0 
       661.0         0.23          4.5 
       662.0         0.17          3.4 
       663.0         0.23          4.2 
       664.0         0.23          3.6 
       665.0         0.23          3.7 
       666.0         0.23          4.1 
       667.0         0.23          3.5 
       668.0         0.20          4.0 
       669.0         0.23          3.6 
       670.0         0.22          4.1 
       671.0         0.20          4.1 
       672.0         0.23          3.9 
       673.0         0.23          3.3 
       674.0         0.20          3.8 
       675.0         0.20          4.0 
       676.0         0.20          3.7 
       677.0         0.20          3.7 
       678.0         0.23          3.3 
       679.0         0.20          3.8 
       680.0         0.20          3.4 
       681.0         0.23          3.3 
       682.0         0.20          3.1 
       683.0         0.20          2.9 
       684.0         0.20          3.7 
       685.0         0.23          3.7 
       686.0         1.38          4.0 
       687.0         0.17          2.8 
       688.0         0.33          3.4 
       689.0         0.30          3.5 
       690.0         0.23          3.7 
       691.0         0.23          3.6 
       692.0         0.23          3.8 
       693.0         0.23          3.8 
       694.0         0.17          4.0 
       695.0         0.22          4.8 
       696.0         0.20          4.0 
       697.0         0.20          3.8 
       698.0         0.17          3.7 
       699.0         0.17          3.4 
       700.0         0.17          3.5 
       701.0         0.17          3.3 
       702.0         0.17          3.4 
       703.0         0.20          3.4 
       704.0         0.17          3.5 
       705.0         0.20          3.9 
       706.0         0.20          3.3 
       707.0         0.17          3.3 
       708.0         0.17          3.7 
       709.0         0.20          3.4 
       710.0         0.17          3.3 
       711.0         0.17          3.8 
       712.0         0.20          3.1 
       713.0         0.18          3.6 
       714.0         0.20          3.6 
       715.0         0.20          3.9 
       716.0         1.93          4.1 
       717.0         0.23          3.6 
       718.0         0.27          3.7 
       719.0         0.27          3.7 
       720.0         0.22          3.6 
