~Version Information
 VERS.                                  2.0 : CWLS LAS VERSION
 WRAP.                                   NO : WRAPING MODE
 SWARE .                 MController 2.5.0I : SOFTWARE VERSION
~Well Information
 WELL.                        Montoya 6-14v : WELL
 COMP.                       Petrogulf Corp : COMPANY
 FLD.                      Purgatorie River : FIELD
 LOC.                 SW/SW Sec 6 T33S R67W : LOCATION
 DATE.                              8/12/04 : DATE(S) LOGGED
 SRVC.       Blanco Geological Services LLC : SERVICE COMPANY
 STAT.                                   CO : STATE
 CNTY.                           Las Animas : COUNTY
 CTRY.                                  USA : COUNTRY
 API.                       05-071-08070-00 : API NUMBER
 STRT.FT                             803.00 : START DEPTH
 STOP.FT                            2673.00 : STOP DEPTH
 STEP.FT                               1.00 : DEPTH INCREMENT
 NULL.                                -9999 : NULL VALUE
~Curve information
 DEPTH.FT                                   :
 ROP.MIN/FT                                 :
 GAS.UNITS                                  :
~ASCII Log data
# ...
      1803.0          0.6          6.2 
      1804.0          0.3          6.4 
      1805.0          0.4          6.3 
      1806.0          0.4          6.1 
      1807.0          0.4          6.5 
      1808.0          0.4          6.4 
      1809.0          0.4          6.4 
      1810.0          0.4          6.8 
      1811.0          0.4          6.6 
      1812.0          0.4          6.4 
      1813.0          0.4          6.3 
      1814.0          0.3          6.7 
      1815.0          0.3          6.3 
      1816.0          0.4          6.1 
      1817.0          0.4          6.0 
      1818.0          0.2          5.9 
      1819.0          0.4          5.8 
      1820.0          0.4          6.2 
      1821.0          0.3          6.2 
      1822.0          0.6          6.1 
      1823.0          0.3          5.9 
      1824.0          0.3          5.9 
      1825.0          0.4          5.9 
      1826.0          0.5          6.2 
      1827.0          0.4         10.2 
      1828.0          0.4         10.2 
      1829.0          0.2          6.6 
      1830.0          0.3          5.3 
      1831.0          0.3          5.2 
      1832.0          6.7         69.9 
      1833.0          0.6          5.8 
      1834.0          0.4          6.1 
      1835.0          0.4          6.1 
      1836.0          0.6          6.4 
      1837.0          0.3          6.4 
      1838.0          0.2          5.8 
      1839.0          0.3          5.5 
      1840.0          0.3          5.8 
      1841.0          0.3          5.9 
      1842.0          0.3          6.1 
      1843.0          0.3          5.7 
      1844.0          0.3          5.7 
      1845.0          0.4          5.9 
      1846.0          0.4          6.2 
      1847.0          0.6          6.4 
      1848.0          0.7          6.5 
      1849.0          0.5          6.5 
      1850.0          0.4          6.6 
      1851.0          0.4          6.7 
      1852.0          0.3          6.8 
      1853.0          0.6          6.7 
      1854.0          0.4          6.3 
      1855.0          0.4          6.4 
      1856.0          0.3          6.2 
      1857.0          0.4          8.3 
      1858.0          0.3         10.4 
      1859.0          0.3         10.3 
      1860.0          0.2          6.9 
      1861.0          0.1          6.0 
      1862.0          4.9          9.6 
      1863.0          0.6          8.3 
      1864.0          0.6          7.5 
      1865.0          0.5          5.8 
      1866.0          0.4          5.9 
      1867.0          0.5          6.0 
      1868.0          0.3          6.2 
      1869.0          0.6          6.3 
      1870.0          1.0          7.3 
      1871.0          0.5          7.2 
      1872.0          0.5          6.9 
      1873.0          0.4          6.4 
      1874.0          0.3          6.1 
      1875.0          0.3          5.8 
      1876.0          0.2          5.8 
      1877.0          0.2          5.5 
      1878.0          0.3          5.7 
      1879.0          0.3          5.8 
      1880.0          0.2          5.4 
      1881.0          0.2          5.7 
      1882.0          0.3          5.8 
      1883.0          0.5          6.1 
      1884.0          0.4          6.0 
      1885.0          0.6          6.0 
      1886.0          0.5          6.2 
      1887.0          0.3          6.1 
      1888.0          0.5          8.3 
      1889.0          0.5         10.8 
      1890.0          0.3          8.3 
      1891.0          0.1          6.0 
      1892.0          5.5         12.7 
      1893.0          0.7         10.4 
      1894.0          0.4          8.3 
      1895.0          0.5          7.0 
      1896.0          0.4          6.7 
      1897.0          0.4          6.7 
      1898.0          0.3          6.2 
      1899.0          0.3          6.1 
      1900.0          0.3          5.9 
      1901.0          0.3          5.9 
      1902.0          0.3          6.0 
      1903.0          0.2          5.8 
      1904.0          0.3          5.7 
      1905.0          0.3          6.2 
      1906.0          0.3          5.9 
      1907.0          0.3          5.8 
      1908.0          0.3          5.8 
      1909.0          0.3          5.8 
      1910.0          0.3          6.0 
      1911.0          0.3          5.9 
      1912.0          0.3          6.2 
      1913.0          0.3          5.8 
      1914.0          0.4          5.9 
      1915.0          0.4          5.9 
      1916.0          0.4          6.1 
      1917.0          0.4          6.0 
      1918.0          0.5          6.1 
      1919.0          0.5         15.0 
      1920.0          0.4         19.4 
      1921.0          0.1         13.3 
      1922.0          8.9         20.8 
      1923.0          0.5         14.2 
      1924.0          0.5          7.0 
      1925.0          0.4          5.8 
      1926.0          0.4          5.7 
      1927.0          0.5          6.0 
      1928.0          0.6          6.3 
      1929.0          0.5          7.5 
      1930.0          0.5          8.0 
      1931.0         10.4         79.4 
      1932.0        227.8        713.4 
      1933.0          0.1         21.4 
      1934.0          0.3         17.3 
      1935.0          0.3          8.6 
      1936.0          0.3          6.4 
      1937.0          0.3          6.4 
      1938.0          0.5          6.8 
      1939.0          0.3          7.8 
      1940.0          0.4         10.0 
      1941.0          0.3         10.4 
      1942.0          0.4         12.2 
      1943.0          0.5         12.8 
      1944.0          0.6          8.3 
      1945.0          0.3          5.7 
      1946.0          0.4          6.5 
      1947.0          0.3          7.9 
      1948.0          0.3         11.3 
      1949.0          0.2         12.5 
      1950.0          0.3         13.3 
      1951.0          0.3         13.2 
      1952.0          0.3         11.6 
      1953.0          0.4          9.7 
      1954.0          0.5          8.7 
      1955.0          0.3          8.9 
      1956.0          0.2          7.8 
      1957.0         14.2        237.6 
      1958.0          0.4          5.0 
      1959.0          0.4          5.4 
      1960.0          0.4          8.6 
      1961.0          0.3         12.0 
      1962.0          0.4         12.6 
      1963.0          0.4         10.9 
      1964.0          0.3         11.0 
      1965.0          0.5          8.7 
      1966.0          0.4          9.1 
      1967.0          0.5          9.6 
      1968.0          0.4          9.0 
      1969.0          0.4         11.3 
      1970.0          0.4         10.7 
      1971.0          0.4          9.3 
      1972.0          0.5          9.8 
      1973.0          0.6          8.2 
      1974.0          0.2          7.5 
      1975.0          0.3          7.7 
      1976.0          0.2          7.9 
      1977.0          0.4          8.3 
      1978.0          0.4         11.4 
      1979.0          0.3         12.9 
      1980.0          0.3         12.8 
      1981.0          0.3         10.1 
      1982.0          0.2         10.9 
      1983.0          0.3         13.1 
      1984.0          0.4         12.8 
      1985.0          0.3         10.7 
      1986.0          0.1         10.4 
      1987.0         16.0        260.7 
      1988.0          0.5          4.3 
      1989.0          0.4          4.6 
      1990.0          0.5          7.2 
      1991.0          1.1         23.4 
      1992.0          0.9         14.0 
      1993.0          0.8          9.5 
      1994.0          0.7          7.6 
      1995.0          0.7          9.4 
      1996.0          0.6         11.6 
      1997.0          0.5         12.9 
      1998.0          0.6         12.7 
      1999.0          0.8         11.6 
      2000.0          0.7         11.3 
      2001.0          0.7         10.9 
      2002.0          1.1         11.5 
