~Version Information
VERS.                      2.0: CWLS Log ASCII Standard - VERSION 2.0
WRAP.                       NO: One line per depth step
~Well Information Block
STRT.FT               -11.0000: 
STOP.FT              2634.5000: 
STEP.FT                 0.2500: 
NULL.                -999.2500: 
COMP.          Evergreen Operating Corporation: COMPANY
WELL.          Sand PebbleS 13-33: WELL
FLD.           Purgatorie River: FIELD
LOC.           1883' FSL & 63' FWL--: LOCATION
PROV.                 Colorado: PROVINCE
CNTY.               Las Animas: COUNTRY
SRVC.          Patterson Wireline: SERVICE COMPANY
DATE.          Fri Mar 18 09:37:20 2005: LOG DATE
UWI.          005 071 08224 : UNIQUE WELL ID
~Curve Information Block
DEPT.FT            0 000 00 00: Depth
CCL.                          : Casing Collar Locator
TT3.usec                      : CBL 3' Travel Time
AMP3.mV                       : CBL 3' Amplitude
GR.GAPI                       : Gamma Ray
~Parameter Information Block
~A  Depth       CCL         TT3         AMP3         GR     
# ...
   324.0000      0.0000    710.6558      5.1573     67.2307
   324.2500      0.0000    709.8668      5.0636     76.7813
   324.5000      0.0000    711.0715      4.9784     84.9210
   324.7500      0.0000    712.7768      4.9295     89.0966
   325.0000      0.0000    713.4838      4.9129     89.9120
   325.2500      0.0000    712.5598      4.9136     89.8363
   325.5000      0.0000    710.5505      4.9151     90.4198
   325.7500      0.0000    708.4962      4.9022     91.0940
   326.0000      0.0000    707.0324      4.8646     90.1760
   326.2500      0.0000    706.1865      4.8049     86.5469
   326.5000      0.0000    705.7215      4.7410     80.7657
   326.7500      0.0000    705.4363      4.6979     74.9955
   327.0000      0.0000    705.2492      4.6924     71.4662
   327.2500      0.0000    705.1805      4.7243     70.5844
   327.5000      0.0000    705.2901      4.7784     70.7618
   327.7500      0.0000    705.5837      4.8389     70.3317
   328.0000      0.0000    705.9767      4.9020     69.3086
   328.2500      0.0000    706.3459      4.9731     69.0442
   328.5000      0.0000    706.6192      5.0495     70.5441
   328.7500      0.0000    706.8748      5.1114     73.3495
   329.0000      0.0000    707.4889      5.1349     75.6392
   329.2500      0.0000    709.2802      5.1114     75.3606
   329.5000      0.0000    713.3959      5.0527     71.7041
   329.7500      0.0000    720.5634      4.9816     65.6133
   330.0000      0.0000    730.0331      4.9197     58.8368
   330.2500      0.0000    739.6008      4.8805     52.8485
   330.5000      0.0000    747.3229      4.8657     48.7124
   330.7500      0.0000    752.9341      4.8652     47.2825
   331.0000      0.0000    756.8057      4.8630     48.8997
   331.2500      0.0000    757.9713      4.8482     52.9676
   331.5000      0.0000    754.3967      4.8215     58.1013
   331.7500      0.0000    745.3696      4.7906     62.7151
   332.0000      0.0000    732.8655      4.7603     65.6049
   332.2500      0.0000    720.0959      4.7292     66.3518
   332.5000      0.0000    708.9147      4.6936     65.3726
   332.7500      0.0000    698.9757      4.6496     63.5930
   333.0000      0.0000    689.2568      4.5935     62.1882
   333.2500      0.0000    679.8398      4.5285     62.6239
   333.5000      0.0000    671.9666      4.4685     66.4422
   333.7500      0.0000    666.8869      4.4313     74.4542
   334.0000      0.0000    665.3091      4.4242     86.0152
   334.2500      0.0000    668.0685      4.4396     99.1809
   334.5000      0.0000    676.6618      4.4612    111.4104
   334.7500      0.0000    692.1168      4.4737    120.2812
   335.0000      0.0000    712.8067      4.4723    124.4997
   335.2500      0.0000    734.1173      4.4675    124.8779
   335.5000      0.0000    751.3591      4.4773    123.6891
   335.7500      0.0000    762.9879      4.5112    122.4848
   336.0000      0.0000    770.7502      4.5624    121.1573
   336.2500      0.0000    777.4503      4.6127    119.3676
   336.5000      0.0000    784.8079      4.6453    117.6378
   336.7500      0.0000    792.2828      4.6549    116.2378
   337.0000      0.0000    797.3031      4.6451    114.1072
   337.2500      0.0000    797.4029      4.6197    110.0571
   337.5000      0.0000    792.6946      4.5803    104.6937
   337.7500      0.0000    785.9177      4.5333    100.4447
   338.0000      0.0000    780.0367      4.4904     99.8043
   338.2500      0.0000    776.2753      4.4590    103.5455
   338.5000      0.0000    774.1610      4.4400    109.9258
   338.7500      0.0000    772.5862      4.4347    115.4106
   339.0000      0.0000    770.4387      4.4457    116.9532
   339.2500      0.0000    766.6346      4.4695    114.1838
   339.5000      0.0000    760.0485      4.4933    109.2560
   339.7500      0.0000    749.6736      4.5032    104.6449
   340.0000      0.0000    735.0985      4.4949    101.4547
   340.2500      0.0000    717.2312      4.4749     99.5240
   340.5000      0.0000    698.6819      4.4537     98.3496
   340.7500      0.0000    682.8541      4.4391     97.5301
   341.0000      0.0000    672.0028      4.4319     96.6509
   341.2500      0.0000    666.1208      4.4259     95.2621
   341.5000      0.0000    663.6656      4.4124     93.3386
   341.7500      0.0000    662.9989      4.3900     91.6117
   342.0000      0.0000    663.2136      4.3735     91.0946
   342.2500      0.0000    664.3174      4.3901     92.1360
   342.5000      0.0000    667.3378      4.4605     93.9648
   342.7500      0.0000    674.2570      4.5796     95.0668
   343.0000      0.0000    686.9509      4.7186     94.0686
   343.2500      0.0000    705.0754      4.8424     90.5894
   343.5000      0.0000    724.7565      4.9271     85.4274
   343.7500      0.0000    740.2173      4.9663     80.0335
   344.0000      0.0000    747.4881      4.9679     75.8941
   344.2500      0.0000    746.8752      4.9474     73.9974
   344.5000      0.0000    742.3251      4.9175     74.1744
   344.7500      0.0000    738.7700      4.8837     74.9931
   345.0000      0.0000    739.5171      4.8481     75.0225
   345.2500      0.0000    745.0186      4.8129     74.3625
   345.5000      0.0000    753.4268      4.7756     74.3840
   345.7500      0.0000    762.4250      4.7254     75.8318
   346.0000      0.0000    770.7974      4.6489     77.7358
   346.2500      0.0000    778.0953      4.5425     78.4095
   346.5000      0.0000    782.9216      4.4182     77.1411
   346.7500      0.0000    782.8585      4.3004     74.7115
   347.0000      0.0000    777.4380      4.2124     72.5105
   347.2500      0.0000    770.3820      4.1635     71.2543
   347.5000      0.0000    766.8593      4.1482     70.3849
   347.7500      0.0000    768.6531      4.1558     68.7002
   348.0000      0.0000    773.7706      4.1726     65.6900
   348.2500      0.0000    780.3022      4.1808     62.2174
   348.5000      0.0000    788.4285      4.1667     59.7780
   348.7500      0.0000    798.4238      4.1296     59.1716
   349.0000      0.0000    808.3344      4.0805     59.8851
   349.2500      0.0000    814.4683      4.0355     60.5314
   349.5000      0.0000    813.9533      4.0133     59.8376
   349.7500      0.0000    806.8419      4.0300     57.4865
   350.0000      0.0000    796.1081      4.0866     54.2752
   350.2500      0.0000    785.6614      4.1641     51.5906
   350.5000      0.0000    778.0356      4.2361     50.6554
   350.7500      0.0000    773.5651      4.2860     51.8401
   351.0000      0.0000    771.2318      4.3136     54.2122
   351.2500      0.0000    769.9078      4.3286     55.9039
   351.5000      0.0000    768.9194      4.3379     55.5918
   351.7500      0.0000    767.9174      4.3433     53.8451
   352.0000      0.0000    766.6176      4.3481     52.6250
   352.2500      0.0000    764.8042      4.3595     53.3237
   352.5000      0.0000    762.7016      4.3817     55.6562
   352.7500      0.0000    761.5405      4.4117     58.4348
   353.0000      0.0000    763.4952      4.4444     60.9226
   353.2500      0.0000    770.2454      4.4793     63.3324
   353.5000      0.0000    781.2145      4.5219     66.3316
   353.7500      0.0000    793.7171      4.5757     70.2359
   354.0000      0.0000    804.9197      4.6339     74.8423
   354.2500      0.0000    812.9296      4.6807     80.1890
   354.5000      0.0000    816.4827      4.7013     87.0312
   354.7500      0.0000    815.4375      4.6916     95.8350
   355.0000      0.0000    812.0446      4.6582    105.4251
   355.2500      0.0000    810.0736      4.6148    113.3607
   355.5000      0.0000    811.3124      4.5790    117.6117
   355.7500      0.0000    813.4585      4.5667    117.5452
   356.0000      0.0000    812.2892      4.5832    114.0068
   356.2500      0.0000    805.4005      4.6183    109.0469
   356.5000      0.0000    793.3996      4.6548    104.8186
   356.7500      0.0000    778.6262      4.6845    102.0991
   357.0000      0.0000    764.0040      4.7130    100.3030
   357.2500      0.0000    752.4043      4.7473     99.0094
