~Version Information
VERS.                      2.0: CWLS Log ASCII Standard - VERSION 2.0
WRAP.                       NO: One line per depth step
~Well Information Block
STRT.FT                60.5000: 
STOP.FT              1875.7500: 
STEP.FT                 0.2500: 
NULL.                -999.2500: 
COMP.          Petrogulf Corporation: COMPANY
WELL.             State 16-14R: WELL
FLD.           Purgatorie River: FIELD
LOC.           598' FSL & 682' FWL--: LOCATION
PROV.                       CO: PROVINCE
CNTY.               Las Animas: COUNTRY
SRVC.                         : SERVICE COMPANY
DATE.          Fri Nov 12 08:50:45 2004: LOG DATE
UWI.            005 071 08034 : UNIQUE WELL ID
~Curve Information Block
DEPT.FT            0 000 00 00: Depth
GR.GAPI                       : Gamma Ray
CCL.                          : Casing Collar Locator
TT3.usec                      : CBL 3' Travel Time
AMP3.mV                       : CBL 3' Amplitude
~Parameter Information Block
~A  Depth        GR         CCL         TT3         AMP3    
# ...
   764.0000    105.7976      0.0000    750.2951      9.2947
   764.2500    109.1002      0.0000    753.2308      9.2199
   764.5000    111.2482      0.0000    756.2823      9.1236
   764.7500    111.3190      0.0000    761.3314      9.0304
   765.0000    111.1457      0.0000    769.9010      8.9569
   765.2500    113.3093      0.0000    781.5397      8.9067
   765.5000    118.2130      0.0000    792.9005      8.8826
   765.7500    123.4464      0.0000    799.4687      8.8996
   766.0000    126.0880      0.0000    799.1211      8.9817
   766.2500    125.2380      0.0000    793.5226      9.1431
   766.5000    122.2479      0.0000    785.7423      9.3729
   766.7500    119.0400      0.0000    777.6476      9.6428
   767.0000    116.5745      0.0000    770.0492      9.9295
   767.2500    114.4031      0.0000    763.8425     10.2249
   767.5000    111.1172      0.0000    759.6423     10.5271
   767.7500    105.4944      0.0000    756.7355     10.8303
   768.0000     97.8688      0.0000    753.4507     11.1232
   768.2500     90.4670      0.0000    748.9774     11.3904
   768.5000     86.0187      0.0000    744.5013     11.6122
   768.7500     85.8038      0.0000    742.1638     11.7647
   769.0000     89.0155      0.0000    743.1181     11.8175
   769.2500     93.9012      0.0000    746.6475     11.7376
   769.5000     99.3467      0.0000    750.4812     11.5114
   769.7500    105.3547      0.0000    751.9476     11.1712
   770.0000    112.0766      0.0000    749.8924     10.7915
   770.2500    118.5776      0.0000    745.7979     10.4491
   770.5000    122.8494      0.0000    742.5060     10.1860
   770.7500    123.1261      0.0000    741.7783     10.0072
   771.0000    119.0771      0.0000    743.0632      9.9019
   771.2500    111.7255      0.0000    743.9458      9.8571
   771.5000    102.5348      0.0000    741.3380      9.8587
   771.7500     92.7012      0.0000    732.9633      9.8919
   772.0000     82.8820      0.0000    718.9221      9.9520
   772.2500     73.2286      0.0000    702.2581     10.0554
   772.5000     63.8781      0.0000    687.3420     10.2349
   772.7500     55.5143      0.0000    677.0684     10.5115
   773.0000     49.1000      0.0000    671.5146     10.8648
   773.2500     44.9312      0.0000    668.9868     11.2312
   773.5000     42.3791      0.0000    667.7876     11.5397
   773.7500     40.8281      0.0000    667.0112     11.7601
   774.0000     40.4874      0.0000    666.3690     11.9211
   774.2500     41.8711      0.0000    665.8146     12.0819
   774.5000     44.6426      0.0000    665.3641     12.2870
   774.7500     47.3325      0.0000    665.0464     12.5459
   775.0000     48.2767      0.0000    664.8827     12.8451
   775.2500     46.7722      0.0000    664.9769     13.1645
   775.5000     43.5319      0.0000    665.8517     13.4737
   775.7500     40.2922      0.0000    668.9519     13.7245
   776.0000     38.8870      0.0000    676.7283     13.8655
   776.2500     40.3008      0.0000    691.4512     13.8729
   776.5000     44.2369      0.0000    712.9346     13.7664
   776.7500     49.3367      0.0000    737.3060     13.5958
   777.0000     53.7724      0.0000    758.8621     13.4191
   777.2500     55.9833      0.0000    773.4414     13.2895
   777.5000     55.3249      0.0000    779.5806     13.2436
   777.7500     52.3733      0.0000    776.4557     13.2832
   778.0000     48.7373      0.0000    762.2078     13.3678
   778.2500     46.4232      0.0000    736.6302     13.4263
   778.5000     47.0413      0.0000    706.4333     13.3882
   778.7500     51.2694      0.0000    685.0409     13.2222
   779.0000     58.8231      0.0000    683.0963     12.9545
   779.2500     68.7490      0.0000    699.0638     12.6398
   779.5000     79.8251      0.0000    721.4520     12.3088
   779.7500     91.0489      0.0000    739.4560     11.9508
   780.0000    101.9975      0.0000    749.5527     11.5473
   780.2500    112.6137      0.0000    753.7781     11.1065
   780.5000    122.5443      0.0000    755.2181     10.6622
   780.7500    130.7987      0.0000    755.6908     10.2495
   781.0000    136.1597      0.0000    755.7643      9.8875
   781.2500    137.8047      0.0000    755.3782      9.5800
   781.5000    135.5888      0.0000    754.2935      9.3246
   781.7500    130.3371      0.0000    752.4332      9.1201
   782.0000    124.3305      0.0000    750.1895      8.9665
   782.2500    120.8895      0.0000    748.2729      8.8601
   782.5000    122.3496      0.0000    747.1272      8.7904
   782.7500    128.0477      0.0000    746.6085      8.7443
   783.0000    134.6241      0.0000    746.1923      8.7137
   783.2500    138.6129      0.0000    745.2056      8.6949
   783.5000    138.8318      0.0000    743.1399      8.6826
   783.7500    136.4795      0.0000    740.3833      8.6667
   784.0000    133.4677      0.0000    738.6042      8.6362
   784.2500    131.1337      0.0000    739.7161      8.5874
   784.5000    130.2035      0.0000    744.0685      8.5309
   784.7500    130.9655      0.0000    749.9029      8.4900
   785.0000    133.0554      0.0000    754.8303      8.4960
   785.2500    135.5448      0.0000    757.5345      8.5891
   785.5000    137.6415      0.0000    757.9171      8.8214
   785.7500    138.9314      0.0000    756.1241      9.2360
   786.0000    138.7563      0.0000    752.1700      9.8108
   786.2500    135.9491      0.0000    747.0566     10.4340
   786.5000    129.7082      0.0000    744.1667     10.9747
   786.7500    120.6325      0.0000    748.4061     11.3805
   787.0000    110.8027      0.0000    762.7462     11.6809
   787.2500    102.8460      0.0000    785.2867     11.9334
   787.5000     98.5271      0.0000    809.9254     12.2001
   787.7500     97.8896      0.0000    829.9793     12.5200
   788.0000     99.9199      0.0000    842.0832     12.8563
   788.2500    104.0799      0.0000    847.3657     13.1267
   788.5000    110.5857     -2.0000    848.8436     13.3011
   788.7500    118.8756     -2.0000    847.9702     13.4048
   789.0000    126.5514      0.0000    843.7657     13.4237
   789.2500    130.7579      0.0000    834.0586     13.2840
   789.5000    130.6841      0.0000    817.1943     12.9614
   789.7500    128.2490      0.0000    794.1788     12.5640
   790.0000    126.3265      0.0000    769.9016     12.2596
   790.2500    126.3938      0.0000    750.8566     12.1224
   790.5000    127.5585      0.0000    740.7676     12.0567
   790.7500    127.6254      0.0000    738.7980     11.8758
   791.0000    125.2483      0.0000    741.4944     11.4704
   791.2500    121.1046      0.0000    745.2718     10.9116
   791.5000    117.2151      0.0000    747.3810     10.3803
   791.7500    115.5908      0.0000    746.0928      9.9930
   792.0000    117.4221      0.0000    741.0444      9.7042
   792.2500    122.7240      0.0000    733.1387      9.3652
   792.5000    130.1690      0.0000    723.6096      8.8561
   792.7500    137.3969      0.0000    713.1755      8.1541
   793.0000    142.0717      0.0000    702.4983      7.3013
   793.2500    143.0917      0.0000    693.5604      6.3500
   793.5000    140.9785      0.0000    690.1951      5.3589
   793.7500    137.1656      0.0000    696.8359      4.4088
   794.0000    132.9294      0.0000    716.1885      3.5846
   794.2500    128.8470      0.0000    747.3666      2.9395
   794.5000    124.8604      0.0000    785.8000      2.4848
   794.7500    120.5933      0.0000    825.0492      2.2018
   795.0000    115.9249      0.0000    859.2154      2.0532
   795.2500    111.8188      0.0000    884.3295      1.9969
   795.5000    110.5158      0.0000    898.4771      2.0063
   795.7500    114.1823      0.0000    901.3577      2.0850
   796.0000    122.8571      0.0000    893.7157      2.2632
   796.2500    133.8422      0.0000    876.8242      2.5820
   796.5000    143.5899      0.0000    852.4715      3.0760
   796.7500    150.3253      0.0000    823.4624      3.7544
   797.0000    154.6689      0.0000    793.6635      4.5850
   797.2500    157.9645      0.0000    767.0305      5.4950
