~Version Information
VERS.                      2.0: CWLS Log ASCII Standard - VERSION 2.0
WRAP.                       NO: One line per depth step
~Well Information Block
STRT.FT               780.0000: 
STOP.FT              3152.2000: 
STEP.FT                 0.1000: 
NULL.                -999.2500: 
COMP.          Pioneer Natural Resources: COMPANY
WELL.            Paradise 13-8: WELL
FLD.           Purgatoire River: FIELD
LOC.           1896' FSL & 1120' FWL: LOCATION
PROV.                 Colorado: PROVINCE
CNTY.               Las Animas: COUNTRY
SRVC.                Patterson: SERVICE COMPANY
DATE.          Sat Jan 22 20:51:32 2005: LOG DATE
UWI.           05 071 07946 00: UNIQUE WELL ID
~Curve Information Block
DEPT.FT            0 000 00 00: Depth
DCAL.in                       : CDL Caliper
RHOB.g/cc                     : CDL Bulk Density
RHOC.g/cc                     : CDL Density Correction
DPOR.pu                       : CDL Density Porosity
NPOR.pu                       : Neutron Porosity
GR.GAPI                       : Gamma Ray
~Parameter Information Block
~A  Depth       DCAL        RHOB        RHOC        DPOR        NPOR         GR     
# ...
  2652.0000      7.8787      2.6068      0.0847      2.6189     24.6797    150.8266
  2652.1000      7.8787      2.6328      0.1024      1.0397     24.1271    143.8371
  2652.2000      7.8787      2.6521      0.1220     -0.1301     23.1829    140.2966
  2652.3000      7.8783      2.6521      0.1015     -0.1275     22.6791    134.8569
  2652.4000      7.8783      2.6311      0.0355      1.1446     22.7112    122.3073
  2652.5000      7.8782      2.6083      0.0680      2.5293     22.9121    111.0376
  2652.6000      7.8782      2.5961      0.0657      3.2657     22.7648    107.3267
  2652.7000      7.8782      2.5867      0.0435      3.8377     21.6109    102.3733
  2652.8000      7.8787      2.5732      0.0390      4.6548     19.3691     89.8458
  2652.9000      7.8787      2.5546      0.0617      5.7818     17.1997     76.4363
  2653.0000      7.8790      2.5323      0.0043      7.1351     16.3829     68.8935
  2653.1000      7.8790      2.5144      0.0217      8.2189     16.9259     64.9957
  2653.2000      7.8790      2.5033      0.0285      8.8932     17.8021     59.6725
  2653.3000      7.8757      2.4949      0.0124      9.3994     17.7211     51.6636
  2653.4000      7.8757      2.4918      0.0317      9.5857     16.5610     42.5185
  2653.5000      7.8681      2.4941      0.0752      9.4475     15.4963     34.6968
  2653.6000      7.8681      2.4987      0.0459      9.1707     15.2690     41.3597
  2653.7000      7.8681      2.5026      0.0944      8.9340     15.4170     42.2052
  2653.8000      7.8640      2.4984      0.0992      9.1853     15.1769     45.6167
  2653.9000      7.8640      2.4873      0.0876      9.8625     14.5995     47.9964
  2654.0000      7.8695      2.4765      0.0731     10.5148     14.2089     47.6574
  2654.1000      7.8695      2.4701      0.0795     10.9052     14.5246     48.2127
  2654.2000      7.8695      2.4736      0.0376     10.6912     15.2594     51.9021
  2654.3000      7.8753      2.4879      0.0879      9.8273     15.4320     55.9472
  2654.4000      7.8753      2.4964      0.1081      9.3119     15.0775     59.5871
  2654.5000      7.8780      2.4883      0.0766      9.7976     14.7793     63.0234
  2654.6000      7.8780      2.4746      0.0856     10.6302     14.3875     64.3348
  2654.7000      7.8780      2.4694      0.0485     10.9480     13.7177     63.7794
  2654.8000      7.8781      2.4740      0.0939     10.6669     13.3238     62.3770
  2654.9000      7.8781      2.4810      0.0800     10.2443     13.8856     61.4151
  2655.0000      7.8767      2.4918      0.0991      9.5862     15.1659     63.4877
  2655.1000      7.8767      2.5066      0.0946      8.6904     15.9558     68.5445
  2655.2000      7.8767      2.5108      0.1116      8.4358     15.8586     72.9295
  2655.3000      7.8757      2.4960      0.0883      9.3362     15.5839     73.4553
  2655.4000      7.8757      2.4775      0.0668     10.4535     15.4249     72.0382
  2655.5000      7.8761      2.4687      0.0827     10.9898     15.2212     72.0325
  2655.6000      7.8761      2.4629      0.0539     11.3365     14.7477     74.0537
  2655.7000      7.8761      2.4585      0.0669     11.6081     14.0795     78.2169
  2655.8000      7.8778      2.4604      0.0495     11.4937     13.6005     82.6536
  2655.9000      7.8778      2.4638      0.0793     11.2823     13.4912     84.6051
  2656.0000      7.8792      2.4640      0.0865     11.2701     13.4647     83.6057
  2656.1000      7.8792      2.4668      0.0794     11.1056     13.1152     78.5754
  2656.2000      7.8792      2.4743      0.0823     10.6513     12.7313     69.4780
  2656.3000      7.8788      2.4751      0.0859     10.6029     12.7387     58.7405
  2656.4000      7.8788      2.4620      0.0598     11.3909     13.0408     48.9804
  2656.5000      7.8773      2.4413      0.0653     12.6464     13.3526     42.4974
  2656.6000      7.8773      2.4210      0.0194     13.8784     13.3722     40.5199
  2656.7000      7.8773      2.4113      0.0000     14.4672     12.9061     43.6480
  2656.8000      7.8765      2.4175      0.0459     14.0907     12.2305     50.3312
  2656.9000      7.8765      2.4307      0.0613     13.2903     11.6336     55.4408
  2657.0000      7.8767      2.4380      0.0755     12.8506     10.9741     56.2894
  2657.1000      7.8767      2.4351      0.0736     13.0268     10.2673     56.0261
  2657.2000      7.8767      2.4297      0.0646     13.3537      9.7933     58.2592
  2657.3000      7.8767      2.4300      0.0757     13.3346      9.5915     61.5811
  2657.4000      7.8767      2.4315      0.1154     13.2406      9.6105     62.8178
  2657.5000      7.8771      2.4308      0.0731     13.2831     10.2327     60.4459
  2657.6000      7.8771      2.4351      0.0661     13.0242     11.5584     55.5947
  2657.7000      7.8771      2.4405      0.0913     12.6971     12.8415     53.1693
  2657.8000      7.8768      2.4351      0.0803     13.0269     13.5518     54.6553
  2657.9000      7.8768      2.4250      0.0489     13.6333     13.8276     57.4582
  2658.0000      7.8750      2.4308      0.0540     13.2838     13.8036     62.2257
  2658.1000      7.8750      2.4583      0.0775     11.6172     13.5907     69.4877
  2658.2000      7.8750      2.4943      0.1242      9.4370     13.4330     75.1850
  2658.3000      7.8747      2.5255      0.1197      7.5476     13.3444     77.3307
  2658.4000      7.8747      2.5382      0.1388      6.7749     13.1015     78.4138
  2658.5000      7.8753      2.5216      0.1286      7.7798     13.0280     80.2041
  2658.6000      7.8753      2.4941      0.0488      9.4495     13.6697     79.9143
  2658.7000      7.8753      2.4853      0.0985      9.9800     14.5991     74.2905
  2658.8000      7.8761      2.4921      0.0935      9.5705     14.8774     67.1954
  2658.9000      7.8761      2.4940      0.0979      9.4525     14.5627     66.9562
  2659.0000      7.8772      2.4869      0.0989      9.8862     14.4099     75.4715
  2659.1000      7.8772      2.4831      0.0992     10.1144     14.7367     84.0717
  2659.2000      7.8772      2.4934      0.0950      9.4935     15.2096     83.6504
  2659.3000      7.8771      2.5076      0.1208      8.6323     15.1272     77.7274
  2659.4000      7.8771      2.5116      0.1125      8.3899     14.3941     75.0355
  2659.5000      7.8774      2.5116      0.0877      8.3862     13.9724     75.2105
  2659.6000      7.8774      2.5199      0.0955      7.8819     14.5035     73.7905
  2659.7000      7.8774      2.5346      0.1153      6.9947     15.4633     73.1475
  2659.8000      7.8797      2.5416      0.1026      6.5670     15.8440     78.4835
  2659.9000      7.8797      2.5317      0.0715      7.1694     15.5974     84.4492
  2660.0000      7.8829      2.5065      0.0938      8.6956     15.0829     81.9162
  2660.1000      7.8829      2.4733      0.0483     10.7095     14.2232     72.0524
  2660.2000      7.8829      2.4458      0.0228     12.3743     13.3488     62.0733
  2660.3000      7.8843      2.4353      0.0174     13.0135     13.0533     55.8416
  2660.4000      7.8843      2.4457      0.0327     12.3789     13.2756     52.1176
  2660.5000      7.8821      2.4762      0.0415     10.5358     13.5641     47.7268
  2660.6000      7.8821      2.5059      0.1249      8.7329     13.7701     42.8219
  2660.7000      7.8821      2.5073      0.0924      8.6469     13.8175     41.3850
  2660.8000      7.8772      2.4869      0.0656      9.8864     13.4699     47.4046
  2660.9000      7.8772      2.4727      0.0544     10.7469     12.9971     57.5170
  2661.0000      7.8725      2.4697      0.0712     10.9244     12.9029     63.7227
  2661.1000      7.8725      2.4640      0.0611     11.2738     13.1512     65.5070
  2661.2000      7.8725      2.4539      0.0539     11.8822     13.4404     66.0792
  2661.3000      7.8719      2.4533      0.0380     11.9189     13.7223     64.4663
  2661.4000      7.8719      2.4717      0.0625     10.8055     14.0178     62.3032
  2661.5000      7.8728      2.4974      0.1177      9.2487     14.4884     63.1268
