~Version Information
 VERS.                                  2.0 : CWLS LAS VERSION
 WRAP.                                   NO : WRAPING MODE
 SWARE .                 MController 2.5.0J : SOFTWARE VERSION
~Well Information
 WELL.                       Montoya 01-41V : WELL
 COMP.                Petrogulf Corporation : COMPANY
 FLD.                      Purgatoire River : FIELD
 LOC.                NE/NE Sec 01 T33S R68W : LOCATION
 DATE.                             08/21/05 : DATE(S) LOGGED
 SRVC.       BLANCO Geological Services LLC : SERVICE COMPANY
 STAT.                                   CO : STATE
 CNTY.                           Las Animas : COUNTY
 CTRY.                                  USA : COUNTRY
 API.                       05-071-08144-00 : API NUMBER
 STRT.FT                             719.00 : START DEPTH
 STOP.FT                            2945.00 : STOP DEPTH
 STEP.FT                               1.00 : DEPTH INCREMENT
 NULL.                                -9999 : NULL VALUE
~Curve information
 DEPTH.FT                                   :
 ROP.MIN/FT                                 :
 GAS.UNITS                                  :
~ASCII Log data
# ...
      1719.0         0.52          7.3 
      1720.0         0.47          7.0 
      1721.0         0.50          7.1 
      1722.0         0.27          7.3 
      1723.0         0.47          7.2 
      1724.0         0.33          7.2 
      1725.0         0.30          7.9 
      1726.0         0.38          8.4 
      1727.0         0.43          8.7 
      1728.0         0.37          8.9 
      1729.0         0.33          8.1 
      1730.0         0.30          8.0 
      1731.0         0.33          8.2 
      1732.0         0.40          8.4 
      1733.0         0.33          7.4 
      1734.0         0.23          6.8 
      1735.0         0.27          6.3 
      1736.0         0.32          6.9 
      1737.0         0.30         11.1 
      1738.0         0.30         15.8 
      1739.0         0.33         31.3 
      1740.0         2.95        117.4 
      1741.0         0.43         11.7 
      1742.0         0.37         12.6 
      1743.0         0.37         12.1 
      1744.0         0.30          9.5 
      1745.0         0.33          9.2 
      1746.0         0.30          9.0 
      1747.0         0.50          8.5 
      1748.0         0.48          8.3 
      1749.0         0.33          8.7 
      1750.0         0.33          8.7 
      1751.0         0.30         11.6 
      1752.0         0.27         13.0 
      1753.0         0.27         12.1 
      1754.0         0.20         10.7 
      1755.0         0.23         11.7 
      1756.0         0.20         10.0 
      1757.0         0.23          9.0 
      1758.0         0.20          9.6 
      1759.0         0.28          9.0 
      1760.0         0.27          9.0 
      1761.0         0.27          8.8 
      1762.0         0.27          8.6 
      1763.0         0.33          9.3 
      1764.0         0.33          8.0 
      1765.0         0.33          7.6 
      1766.0         0.33          9.8 
      1767.0         0.47         11.8 
      1768.0         0.27         13.7 
      1769.0         0.27         15.4 
      1770.0         5.70        252.3 
      1771.0         0.50         10.9 
      1772.0         0.42         10.4 
      1773.0         0.43          9.1 
      1774.0         0.50          8.2 
      1775.0         0.47          8.2 
      1776.0         0.43          8.8 
      1777.0         0.40          9.0 
      1778.0         0.43          8.2 
      1779.0         0.42         10.0 
      1780.0         1.40         25.1 
      1781.0         0.13         26.4 
      1782.0         0.40         21.1 
      1783.0         0.37         15.1 
      1784.0         1.22         10.5 
      1785.0         0.33          9.0 
      1786.0         0.73          8.4 
      1787.0         0.60          9.1 
      1788.0         0.88          9.0 
      1789.0         0.43          7.9 
      1790.0         0.43          7.6 
      1791.0         0.43          8.3 
      1792.0         0.50          8.2 
      1793.0         0.33          7.7 
      1794.0         0.37          7.6 
      1795.0         0.42          7.4 
      1796.0         0.40          8.4 
      1797.0         0.40          7.2 
      1798.0         0.43          7.1 
      1799.0         0.50          7.7 
      1800.0         2.95         38.4 
      1801.0         0.43         11.6 
      1802.0         0.23         10.9 
      1803.0         0.30          9.5 
      1804.0         0.45         10.3 
      1805.0         0.33          9.6 
      1806.0         0.37          9.4 
      1807.0         0.37          8.8 
      1808.0         0.37          8.7 
      1809.0         0.40          8.9 
      1810.0         0.37         11.4 
      1811.0         0.37         10.8 
      1812.0         0.40         12.0 
      1813.0         0.42         11.5 
      1814.0         0.30         10.6 
      1815.0         0.20         12.1 
      1816.0         0.23         12.7 
      1817.0         0.23         13.6 
      1818.0         0.27         13.3 
      1819.0         0.27         11.5 
      1820.0         0.27         12.9 
      1821.0         0.23         13.3 
      1822.0         0.23         12.0 
      1823.0         0.23         11.1 
      1824.0         0.30         11.1 
      1825.0         0.35          8.8 
      1826.0         0.27          9.2 
      1827.0         0.50         21.6 
      1828.0         0.47         50.0 
      1829.0         0.47         90.3 
      1830.0         0.43        146.9 
      1831.0         0.63        209.9 
      1832.0         2.38        205.8 
      1833.0         0.47         10.9 
      1834.0         0.40          9.8 
      1835.0         0.68          9.8 
      1836.0         0.70          8.8 
      1837.0         0.53          9.6 
      1838.0         0.63          9.2 
      1839.0         0.57          9.5 
      1840.0         0.68          8.8 
      1841.0         0.83          9.9 
      1842.0         0.87         10.0 
      1843.0         0.83          9.5 
      1844.0         0.85          9.4 
      1845.0         0.93         10.7 
      1846.0         0.87         10.7 
      1847.0         0.50         10.3 
      1848.0         0.40          9.6 
      1849.0         0.45          9.9 
      1850.0         0.37          9.5 
      1851.0         0.43          9.7 
      1852.0         0.43          9.7 
      1853.0         0.37          9.9 
      1854.0         0.33         10.0 
      1855.0         0.30         10.3 
      1856.0         0.37         11.3 
      1857.0         0.33          9.0 
      1858.0         0.28          9.0 
      1859.0         0.27          9.3 
      1860.0         0.30          9.9 
      1861.0         0.37         13.0 
      1862.0         3.32         30.1 
      1863.0         0.40         13.2 
      1864.0         0.50         12.8 
      1865.0         0.52         13.2 
      1866.0         0.50         12.6 
      1867.0         0.53         11.7 
      1868.0         0.27         11.0 
      1869.0         0.27         11.9 
      1870.0         0.43         11.7 
      1871.0         0.33         11.4 
      1872.0         0.42         11.6 
      1873.0         0.30         11.2 
      1874.0         0.40         12.0 
      1875.0         0.40         11.2 
      1876.0         0.27         11.3 
      1877.0         0.27         11.2 
      1878.0         0.30         11.1 
      1879.0         0.33         11.9 
      1880.0         0.35         11.0 
      1881.0         0.33         11.9 
      1882.0         0.30         10.6 
      1883.0         0.27         11.3 
      1884.0         0.27         12.3 
      1885.0         0.27         11.2 
      1886.0         0.23         11.4 
      1887.0         0.20         11.3 
      1888.0         0.27         11.4 
      1889.0         0.23         11.6 
      1890.0         0.27         12.3 
      1891.0         0.20         13.0 
      1892.0         2.52         18.8 
      1893.0         0.27         14.6 
      1894.0         0.43         13.9 
      1895.0         0.42         13.9 
      1896.0         0.30         13.3 
      1897.0         0.33         13.4 
      1898.0         0.37         13.2 
      1899.0         0.43         12.9 
      1900.0         0.57         12.1 
      1901.0         0.83         12.6 
      1902.0         0.55         12.9 
      1903.0         0.37         11.6 
      1904.0         0.40         12.8 
      1905.0         0.40         12.3 
      1906.0         0.33         12.3 
      1907.0         0.33         12.9 
      1908.0         0.37         12.6 
      1909.0         0.30         13.7 
      1910.0         0.27         13.3 
      1911.0         0.32         12.3 
      1912.0         0.33         13.1 
      1913.0         0.43         13.4 
      1914.0         0.33         14.1 
      1915.0         0.67         14.6 
      1916.0         0.40         16.2 
      1917.0         0.40         15.7 
      1918.0         0.43         16.0 
