~Version Information
VERS.                      2.0: CWLS Log ASCII Standard - VERSION 2.0
WRAP.                       NO: One line per depth step
~Well Information Block
STRT.FT               750.3000: 
STOP.FT              1254.0000: 
STEP.FT                 0.1000: 
NULL.                -999.2500: 
COMP.          Petrogulf Corporation: COMPANY
WELL.           Montoya 13-41V: WELL
FLD.           Purgatorie River: FIELD
LOC.           449' FNL & 891' FEL: LOCATION
CNTY.               Las Animas: COUNTY
SRVC.                         : SERVICE COMPANY
DATE.          Tue Aug 17 15:47:43 2004: LOG DATE
UWI.           05 071 08021 00: UNIQUE WELL ID
STAT.                 Colorado: STATE
~Curve Information Block
DEPT.FT            0 000 00 00: Depth
DCAL.in                       : CDL Caliper
RHOB.g/cc                     : CDL Bulk Density
RHOC.g/cc                     : CDL Density Correction
DPOR.pu                       : CDL Density Porosity
GR.GAPI                       : Gamma Ray
NPOR.pu                       : Neutron Porosity
~Parameter Information Block
~A  Depth       DCAL        RHOB        RHOC        DPOR         GR         NPOR    
# ...
  1143.9000      8.1457      2.3203      0.1252     19.9828    158.7899     29.1706
  1144.0000      8.1749      2.3486      0.1352     18.2668    157.1770     28.4628
  1144.1000      8.1749      2.3775      0.0622     16.5143    158.4652     28.7924
  1144.2000      8.1749      2.4026      0.0535     14.9967    161.6674     29.4892
  1144.3000      8.1796      2.4040      0.0962     14.9107    164.7703     29.8796
  1144.4000      8.1796      2.3627      0.0835     17.4148    165.9111     29.8130
  1144.5000      8.1806      2.2907      0.0713     21.7768    163.3540     29.3523
  1144.6000      8.1806      2.2216      0.0610     25.9662    159.8392     28.8750
  1144.7000      8.1806      2.1756      0.0796     28.7520    157.9060     28.6426
  1144.8000      8.1866      2.1523      0.0612     30.1611    155.9527     28.6666
  1144.9000      8.1866      2.1458      0.0694     30.5581    154.0354     28.8436
  1145.0000      8.1873      2.1540      0.0643     30.0594    156.6653     28.8991
  1145.1000      8.1873      2.1835      0.0699     28.2730    165.7240     29.1475
  1145.2000      8.1873      2.2355      0.1351     25.1196    174.4577     30.0727
  1145.3000      8.1959      2.2977      0.2013     21.3495    177.6240     31.2027
  1145.4000      8.1959      2.3593      0.1679     17.6188    179.7788     31.8153
  1145.5000      8.1948      2.4130      0.0989     14.3630    185.4805     31.6200
  1145.6000      8.1948      2.4430      0.0989     12.5471    191.9839     30.8319
  1145.7000      8.1948      2.4328      0.0836     13.1657    189.3653     30.4126
  1145.8000      8.1999      2.3809      0.0626     16.3072    177.3928     30.6091
  1145.9000      8.1999      2.3011     -0.0192     21.1453    167.1878     30.9046
  1146.0000      8.2061      2.2054      0.0044     26.9472    160.4573     31.0538
  1146.1000      8.2061      2.1032     -0.0936     33.1370    155.2749     30.8440
  1146.2000      8.2061      2.0123     -0.0717     38.6460    152.6376     30.4479
  1146.3000      8.2086      1.9453     -0.0847     42.7119    149.4842     30.1841
  1146.4000      8.2086      1.9027     -0.0938     45.2886    143.5485     30.2919
  1146.5000      8.2057      1.8738     -0.0243     47.0416    138.0460     30.9177
  1146.6000      8.2057      1.8430      0.0365     48.9103    136.3704     31.7613
  1146.7000      8.2057      1.8036      0.0566     51.2960    138.9774     32.1751
  1146.8000      8.2398      1.7532      0.1139     54.3513    143.3814     31.7941
  1146.9000      8.2398      1.6950      0.1098     57.8813    143.9496     30.9856
  1147.0000      8.3575      1.6420      0.0646     61.0902    136.2172     30.4524
  1147.1000      8.3575      1.6043      0.0025     63.3727    125.0407     30.8971
  1147.2000      8.3575      1.5837     -0.1090     64.6246    117.6090     32.4239
  1147.3000      8.2308      1.5737     -0.0901     65.2284    115.4355     33.9037
  1147.4000      8.2308      1.5711     -0.0774     65.3899    116.7834     34.2404
  1147.5000      8.2258      1.5820      0.0227     64.7265    117.1139     33.6253
  1147.6000      8.2258      1.6003      0.0957     63.6192    113.6563     32.8166
  1147.7000      8.2258      1.6132      0.1124     62.8379    108.4360     32.3269
  1147.8000      8.3190      1.6166      0.1042     62.6295    103.2420     32.0103
  1147.9000      8.3190      1.6026      0.0855     63.4777     99.6335     31.5190
  1148.0000      8.3615      1.5631      0.0188     65.8741     98.3593     31.4458
  1148.1000      8.3615      1.5075     -0.0807     69.2411     97.4076     32.5519
  1148.2000      8.3615      1.4526     -0.0735     72.5681     96.9106     34.0979
  1148.3000      8.2460      1.4094     -0.0808     75.1906     96.3460     34.9126
  1148.4000      8.2460      1.3960     -0.0703     75.9972     90.0842     34.7353
  1148.5000      8.2786      1.4311     -0.0143     73.8711     78.8706     34.3676
  1148.6000      8.2786      1.5049      0.1090     69.3981     72.0167     34.6653
  1148.7000      8.2786      1.5886      0.1242     64.3290     74.1427     34.8858
  1148.8000      8.4287      1.6629      0.1510     59.8236     80.9333     34.3718
  1148.9000      8.4287      1.7262      0.1362     55.9898     86.9049     33.8399
  1149.0000      8.6529      1.7964      0.0811     51.7345     92.7694     33.4394
  1149.1000      8.6529      1.8872      0.1438     46.2275    102.6557     32.7207
  1149.2000      8.6529      1.9792      0.1939     40.6531    116.9557     31.7849
  1149.3000      8.6822      2.0514      0.1668     36.2811    129.4202     31.2368
  1149.4000      8.6822      2.1113      0.1230     32.6513    132.6463     31.1991
  1149.5000      8.2355      2.1678      0.0969     29.2248    129.1726     31.1986
  1149.6000      8.2355      2.2105      0.1172     26.6384    127.7169     30.9700
  1149.7000      8.2355      2.2365      0.0475     25.0613    129.3125     30.6264
  1149.8000      8.1725      2.2636      0.0643     23.4183    132.0609     30.3954
  1149.9000      8.1725      2.3010      0.1036     21.1501    138.1046     30.1995
  1150.0000      8.1797      2.3472      0.1418     18.3506    143.8490     29.8292
  1150.1000      8.1797      2.4015      0.1374     15.0635    142.8154     29.3358
  1150.2000      8.1797      2.4453      0.1940     12.4078    138.7529     29.2367
  1150.3000      8.1725      2.4525      0.1614     11.9682    138.8123     29.8011
  1150.4000      8.1725      2.4369      0.1124     12.9129    143.7255     30.5731
  1150.5000      8.1942      2.4349      0.1524     13.0392    152.1003     31.1552
  1150.6000      8.1942      2.4565      0.1189     11.7257    158.2810     31.0754
  1150.7000      8.1942      2.4936      0.0988      9.4763    156.9647     30.1807
  1150.8000      8.2055      2.5304      0.1814      7.2513    151.9353     28.9115
  1150.9000      8.2055      2.5479      0.1674      6.1906    151.3283     27.8381
  1151.0000      8.2016      2.5452      0.1334      6.3538    156.8307     27.2679
  1151.1000      8.2016      2.5329      0.1612      7.0998    161.2294     26.7102
  1151.2000      8.2016      2.5202      0.1142      7.8673    162.2772     26.1112
  1151.3000      8.1574      2.5173      0.1177      8.0395    165.8493     26.1825
  1151.4000      8.1574      2.5291      0.1119      7.3289    172.2295     26.7689
  1151.5000      8.1524      2.5481      0.1301      6.1734    172.0393     27.1252
  1151.6000      8.1524      2.5608      0.1089      5.4037    160.3731     27.1975
  1151.7000      8.1524      2.5602      0.1222      5.4414    145.8589     26.8859
  1151.8000      8.1427      2.5508      0.1003      6.0112    137.1488     26.1037
  1151.9000      8.1427      2.5453      0.0850      6.3441    137.9086     25.8758
  1152.0000      8.1389      2.5505      0.0911      6.0301    145.2884     27.0544
  1152.1000      8.1389      2.5566      0.1072      5.6612    147.7259     28.7648
  1152.2000      8.1389      2.5564      0.0614      5.6710    140.5807     29.6190
  1152.3000      8.1561      2.5572      0.0732      5.6267    132.7713     29.4947
  1152.4000      8.1561      2.5592      0.0812      5.5024    133.1680     29.2312
  1152.5000      8.1511      2.5537      0.0769      5.8376    139.4378     28.7587
  1152.6000      8.1511      2.5442      0.0226      6.4133    138.6924     27.4177
  1152.7000      8.1511      2.5415      0.0779      6.5739    127.3887     25.8475
  1152.8000      8.1653      2.5443      0.0378      6.4087    120.5093     25.3913
  1152.9000      8.1653      2.5448      0.0551      6.3786    127.7772     26.0185
  1153.0000      8.1735      2.5390      0.0405      6.7245    139.8888     26.6615
  1153.1000      8.1735      2.5287      0.0416      7.3530    145.8231     26.8848
  1153.2000      8.1735      2.5174      0.0112      8.0390    142.7808     26.7124
  1153.3000      8.1707      2.5115     -0.0482      8.3955    135.8169     26.1345
  1153.4000      8.1707      2.5137      0.0015      8.2614    129.0366     25.8071
