~Version Information
VERS.                      2.0: CWLS Log ASCII Standard - VERSION 2.0
WRAP.                       NO: One line per depth step
~Well Information Block
STRT.FT                15.0000: 
STOP.FT              1869.0000: 
STEP.FT                 0.2500: 
NULL.                -999.2500: 
COMP.          Pioneer Natural Resources: COMPANY
WELL.          Victory 12-14 Tr: WELL
FLD.           Purgatoire River: FIELD
LOC.           2522' FNL & 276' FWL: LOCATION
PROV.                 Colorado: PROVINCE
CNTY.               Las Animas: COUNTRY
SRVC.                Patterson: SERVICE COMPANY
DATE.          Fri Jul 22 14:39:41 2005: LOG DATE
UWI.           05 071 08433 00: UNIQUE WELL ID
~Curve Information Block
DEPT.FT            0 000 00 00: Depth
GR.GAPI                       : Gamma Ray
CCL.                          : Casing Collar Locator
TT3.usec                      : CBL 3' Travel Time
AMP3.mV                       : CBL 3' Amplitude
~Parameter Information Block
~A  Depth        GR         CCL         TT3         AMP3    
# ...
   249.5000     75.0576      0.0000    752.1709     17.0719
   249.7500     74.1131      0.0000    752.1993     17.0382
   250.0000     71.6129      0.0000    752.3045     17.0064
   250.2500     69.1203      0.0000    752.6075     16.9912
   250.5000     67.9503      0.0000    753.4805     16.9973
   250.7500     68.0965      0.0000    755.4896     17.0179
   251.0000     68.4417      0.0000    758.8920     17.0456
   251.2500     68.0315      0.0000    762.9146     17.0794
   251.5000     66.8598      0.0000    765.7259     17.1210
   251.7500     65.5078      0.0000    765.7001     17.1625
   252.0000     64.4203      0.0000    762.9951     17.1880
   252.2500     63.6287      0.0000    759.7348     17.1842
   252.5000     62.9359      0.0000    758.7397     17.1463
   252.7500     62.2359      0.0000    762.2460     17.0756
   253.0000     61.6704      0.0000    771.0747     16.9844
   253.2500     61.5364      0.0000    783.6757     16.9001
   253.5000     62.0814      0.0000    795.5149     16.8545
   253.7500     63.3601      0.0000    800.5580     16.8663
   254.0000     65.1860      0.0000    795.0988     16.9344
   254.2500     67.1362      0.0000    781.0873     17.0420
   254.5000     68.6705      0.0000    765.2967     17.1593
   254.7500     69.4616      0.0000    754.2827     17.2501
   255.0000     69.7257      0.0000    749.9579     17.2900
   255.2500     70.0776      0.0000    749.9819     17.2801
   255.5000     70.8079      0.0000    751.2694     17.2400
   255.7500     71.3149      0.0000    752.2448     17.1933
   256.0000     70.4753      0.0000    752.6582     17.1626
   256.2500     67.7423      0.0000    752.6742     17.1682
   256.5000     63.8419      0.0000    752.4678     17.2168
   256.7500     60.3103      0.0000    752.2059     17.2877
   257.0000     58.3508      0.0000    752.0328     17.3385
   257.2500     58.1935      0.0000    752.0375     17.3319
   257.5000     59.3771      0.0000    752.2993     17.2655
   257.7500     61.3223      0.0000    753.1014     17.1779
   258.0000     63.5184      0.0000    755.1876     17.1237
   258.2500     65.3948      0.0000    759.6838     17.1320
   258.5000     66.4846      0.0000    767.1281     17.1806
   258.7500     66.9484      0.0000    775.9139     17.2133
   259.0000     67.5947      0.0000    782.0983     17.1887
   259.2500     68.9282      0.0000    782.0334     17.1092
   259.5000     70.3778      0.0000    775.6585     17.0036
   259.7500     70.9677      0.0000    766.5718     16.8947
   260.0000     70.5466      0.0000    758.7985     16.7889
   260.2500     69.8921      0.0000    754.0720     16.6876
   260.5000     69.7688      0.0000    751.9105     16.5958
   260.7500     70.2677      0.0000    751.1520     16.5156
   261.0000     70.9230      0.0000    750.9819     16.4400
   261.2500     71.2459      0.0000    751.0493     16.3608
   261.5000     71.3144      0.0000    751.2461     16.2800
   261.7500     71.9987      0.0000    751.5563     16.2051
   262.0000     74.4190      0.0000    752.0695     16.1330
   262.2500     79.1271      0.0000    753.0718     16.0448
   262.5000     85.9057      0.0000    755.1631     15.9224
   262.7500     94.1280      0.0000    759.1555     15.7678
   263.0000    102.9548      0.0000    765.4233     15.6037
   263.2500    111.1560      0.0000    772.9875     15.4521
   263.5000    117.0621      0.0000    779.3815     15.3122
   263.7500    119.0502      0.0000    781.9988     15.1639
   264.0000    116.3385      0.0000    779.8986     14.9953
   264.2500    109.4951      0.0000    774.1912     14.8206
   264.5000    100.3314      0.0000    766.6131     14.6682
   264.7500     91.1564      0.0000    758.2703     14.5538
   265.0000     83.7428      0.0000    750.4871     14.4725
   265.2500     78.7555      0.0000    746.0555     14.4143
   265.5000     76.0668      0.0000    747.8076     14.3818
   265.7500     75.3946      0.0000    755.3423     14.3883
   266.0000     76.4400      0.0000    764.0051     14.4418
   266.2500     78.4782      0.0000    767.8994     14.5341
   266.5000     80.2513      0.0000    764.3651     14.6440
   266.7500     80.7205      0.0000    756.0341     14.7473
   267.0000     79.9649      0.0000    748.7302     14.8315
   267.2500     79.1123      0.0000    746.7093     14.9047
   267.5000     79.4133      0.0000    749.1626     14.9849
   267.7500     81.3172      0.0000    751.3373     15.0748
   268.0000     84.0048      0.0000    749.3329     15.1520
   268.2500     85.7517      0.0000    743.5681     15.1919
   268.5000     85.3111      0.0000    737.4194     15.1961
   268.7500     83.1398      0.0000    733.4012     15.1933
   269.0000     80.9366      0.0000    731.6506     15.2104
   269.2500     79.9107      0.0000    731.4864     15.2432
   269.5000     79.8560      0.0000    732.9704     15.2574
   269.7500     79.8323      0.0000    736.4126     15.2205
   270.0000     79.3159      0.0000    741.1033     15.1362
   270.2500     78.7073      0.0000    745.2598     15.0430
   270.5000     79.1017      0.0000    747.1143     14.9808
   270.7500     81.5560      0.0000    746.0504     14.9630
   271.0000     86.1343      0.0000    743.4277     14.9804
   271.2500     91.3117      0.0000    742.7200     15.0171
   271.5000     94.5400      0.0000    747.5297     15.0575
   271.7500     93.9091      0.0000    757.9254     15.0885
   272.0000     89.4025      0.0000    769.5607     15.1050
   272.2500     82.5706      0.0000    778.1165     15.1090
   272.5000     75.4215      0.0000    783.9196     15.1044
   272.7500     69.8694      0.0000    790.3987     15.1017
   273.0000     67.5774      0.0000    798.8267     15.1260
   273.2500     69.3771      0.0000    806.7164     15.2026
   273.5000     74.5947      0.0000    810.9601     15.3295
   273.7500     81.2364      0.0000    810.4701     15.4729
   274.0000     87.0327      0.0000    805.8512     15.5925
   274.2500     90.3767      0.0000    798.4729     15.6664
   274.5000     90.6440      0.0000    790.2325     15.6914
   274.7500     88.0571      0.0000    782.7019     15.6729
   275.0000     83.3249      0.0000    776.0787     15.6233
   275.2500     77.3975      0.0000    770.0257     15.5671
   275.5000     71.5763      0.0000    765.5969     15.5382
   275.7500     67.3875      0.0000    765.3854     15.5636
   276.0000     65.7634      0.0000    771.5145     15.6446
   276.2500     66.3519      0.0000    783.5708     15.7521
   276.5000     67.8658      0.0000    798.2498     15.8390
   276.7500     69.1161      0.0000    811.0004     15.8664
   277.0000     69.7823      0.0000    818.2705     15.8254
   277.2500     70.4254      0.0000    818.4633     15.7403
   277.5000     71.7476      0.0000    811.6086     15.6478
   277.7500     73.6553      0.0000    799.2436     15.5784
   278.0000     75.0892      0.0000    784.6226     15.5521
   278.2500     74.9398      0.0000    771.9203     15.5783
   278.5000     73.1285      0.0000    764.5777     15.6495
   278.7500     70.7460      0.0000    764.3729     15.7455
   279.0000     69.0914      0.0000    771.4484     15.8481
   279.2500     68.4943      0.0000    784.1089     15.9424
   279.5000     68.1383      0.0000    798.5463     16.0079
   279.7500     67.0932      0.0000    809.7329     16.0294
   280.0000     65.3579      0.0000    813.3325     16.0275
   280.2500     63.8055      0.0000    807.1735     16.0610
   280.5000     63.4409      0.0000    791.8871     16.1810
   280.7500     64.9983      0.0000    771.0980     16.3775
   281.0000     69.0327      0.0000    750.3333     16.5659
   281.2500     75.8575      0.0000    734.1356     16.6154
   281.5000     85.0245      0.0000    723.4445     16.3897
   281.7500     95.0010      0.0000    716.3023     15.8012
   282.0000    103.7542      0.0000    711.2725     14.8816
   282.2500    109.8567      0.0000    709.5611     13.8024
   282.5000    113.0929      0.0000    713.7488     12.7699
   282.7500    114.1788      0.0000    725.0842     11.8873
