~Version Information
VERS.                      2.0: CWLS Log ASCII Standard - VERSION 2.0
WRAP.                       NO: One line per depth step
~Well Information Block
STRT.FT               -12.5000: 
STOP.FT              1613.0000: 
STEP.FT                 0.2500: 
NULL.                -999.2500: 
COMP.          Pioneer Natural Resources: COMPANY
WELL.          Peregrine 12-20: WELL
FLD.           Purgatorie River: FIELD
LOC.           1722' FNL & 999' FWL--: LOCATION
PROV.                       CO: PROVINCE
CNTY.               Las Animas: COUNTRY
SRVC.          Patterson Wireline: SERVICE COMPANY
DATE.          Fri Jul 22 12:50:00 2005: LOG DATE
UWI.           05 071 08428 00: UNIQUE WELL ID
~Curve Information Block
DEPT.FT            0 000 00 00: Depth
CCL.                          : Casing Collar Locator
TT3.usec                      : CBL 3' Travel Time
AMP3.mV                       : CBL 3' Amplitude
GR.GAPI                       : Gamma Ray
~Parameter Information Block
~A  Depth       CCL         TT3         AMP3         GR     
# ...
   188.5000      0.0000    611.3776      5.3477     78.1216
   188.7500      0.0000    570.6606      5.4380     78.0292
   189.0000      0.0000    535.8578      5.5779     76.7721
   189.2500      0.0000    509.8626      5.7804     74.2756
   189.5000      0.0000    494.7862      6.0529     70.4976
   189.7500      0.0000    493.2891      6.3903     65.5503
   190.0000      0.0000    507.4361      6.7757     59.7767
   190.2500      0.0000    534.4048      7.1838     53.8779
   190.5000      0.0000    562.4910      7.5873     49.0331
   190.7500      0.0000    574.5220      7.9668     46.4364
   191.0000      0.0000    561.7592      8.3094     46.2540
   191.2500      0.0000    536.3190      8.5907     47.1276
   191.5000      0.0000    524.7280      8.7691     47.0595
   191.7500      0.0000    545.4435      8.8070     44.9918
   192.0000      0.0000    594.0604      8.6941     41.5837
   192.2500      0.0000    650.6243      8.4455     38.6300
   192.5000      0.0000    697.6873      8.0882     37.9287
   192.7500      0.0000    730.1086      7.6575     40.4943
   193.0000      0.0000    751.8264      7.1978     46.2136
   193.2500      0.0000    767.8649      6.7521     53.8913
   193.5000      0.0000    779.6203      6.3489     61.8193
   193.7500      0.0000    785.5310      5.9962     68.6383
   194.0000      0.0000    784.6755      5.6876     73.8837
   194.2500      0.0000    778.7971      5.4123     77.9362
   194.5000      0.0000    770.8050      5.1636     81.5043
   194.7500      0.0000    762.4904      4.9406     85.0423
   195.0000      0.0000    754.2627      4.7455     88.4044
   195.2500      0.0000    745.7906      4.5826     90.7570
   195.5000      0.0000    736.3814      4.4593     90.8661
   195.7500      0.0000    725.9163      4.3825     88.1025
   196.0000      0.0000    715.7507      4.3510     83.6370
   196.2500      0.0000    707.8488      4.3548     80.1858
   196.5000      0.0000    702.9656      4.3802     79.8443
   196.7500      0.0000    700.1546      4.4144     82.2265
   197.0000      0.0000    697.6593      4.4447     85.2070
   197.2500      0.0000    693.7487      4.4578     87.3256
   197.5000      0.0000    686.6472      4.4451     88.8484
   197.7500      0.0000    673.9497      4.4104     90.6021
   198.0000      0.0000    653.0862      4.3679     92.5554
   198.2500      0.0000    623.8781      4.3324     93.7819
   198.5000      0.0000    590.9991      4.3098     93.4446
   198.7500      0.0000    562.4425      4.3000     91.6443
   199.0000      0.0000    544.7607      4.3043     89.4809
   199.2500      0.0000    540.0461      4.3240     88.2604
   199.5000      0.0000    546.7301      4.3529     88.2653
   199.7500      0.0000    561.6376      4.3789     88.2410
   200.0000      0.0000    581.1854      4.3980     86.4797
   200.2500      0.0000    601.5067      4.4199     82.5170
   200.5000      0.0000    618.1935      4.4593     77.5366
   200.7500      0.0000    627.3751      4.5239     73.3372
   201.0000      0.0000    628.8390      4.6109     71.3833
   201.2500      0.0000    627.4934      4.7070     72.4103
   201.5000      0.0000    629.5009      4.7930     76.1044
   201.7500      0.0000    635.5986      4.8525     81.1351
   202.0000      0.0000    637.9494      4.8800     85.8570
   202.2500      0.0000    625.1948      4.8826     89.0624
   202.5000      0.0000    593.1602      4.8768     90.2860
   202.7500      0.0000    549.9991      4.8826     89.8245
   203.0000      0.0000    508.2944      4.9182     88.5999
   203.2500      0.0000    473.7267      4.9881     87.6152
   203.5000      0.0000    444.6657      5.0754     87.1975
   203.7500      0.0000    419.7783      5.1523     86.8451
   204.0000      0.0000    400.8711      5.2022     85.9236
   204.2500      0.0000    389.3417      5.2275     84.2818
   204.5000      0.0000    384.0435      5.2339     82.1516
   204.7500      0.0000    383.1102      5.2116     79.9067
   205.0000      0.0000    386.8471      5.1287     78.2615
   205.2500      0.0000    398.9689      4.9441     78.2435
   205.5000      0.0000    424.8380      4.6338     80.2736
   205.7500      0.0000    465.6709      4.2201     83.3370
   206.0000      0.0000    511.8246      3.7718     85.6659
   206.2500      0.0000    543.5384      3.3699     86.2204
   206.5000      0.0000    543.5161      3.0657     85.0282
   206.7500      0.0000    511.6677      2.8661     82.3810
   207.0000      0.0000    465.6704      2.7484     78.6364
   207.2500      0.0000    426.2398      2.6866     74.9607
   207.5000      0.0000    403.8701      2.6742     73.3636
   207.7500      0.0000    398.8540      2.7377     75.3068
   208.0000      0.0000    407.8969      2.9326     80.3194
   208.2500      0.0000    425.9551      3.3132     86.0953
   208.5000      0.0000    443.5023      3.8772     89.8884
   208.7500      0.0000    448.5425      4.5290     90.0499
   209.0000      0.0000    435.9310      5.1178     86.7973
   209.2500      0.0000    412.9122      5.5293     81.7404
   209.5000      0.0000    392.3718      5.7424     76.5530
   209.7500      0.0000    381.6497      5.8109     72.0506
   210.0000      0.0000    379.4474      5.8109     68.3947
   210.2500      0.0000    380.8455      5.7997     65.7112
   210.5000      0.0000    382.2664      5.7980     64.3460
   210.7500      0.0000    382.4114      5.7996     64.7899
   211.0000      0.0000    381.1409      5.7959     67.2275
   211.2500      0.0000    378.8577      5.7904     70.8084
   211.5000      0.0000    376.5616      5.7916     73.6333
   211.7500      0.0000    375.5856      5.8014     73.9890
   212.0000      0.0000    376.6308      5.8127     71.6522
   212.2500      0.0000    379.2947      5.8166     67.8873
   212.5000      0.0000    382.8964      5.8081     64.2383
   212.7500      0.0000    387.7792      5.7877     61.4400
   213.0000      0.0000    395.5573      5.7591     59.4509
   213.2500      0.0000    407.6429      5.7239     58.0680
   213.5000      0.0000    422.7917      5.6808     56.9724
   213.7500      0.0000    435.9954      5.6311     55.5019
   214.0000      0.0000    440.9656      5.5811     53.3358
   214.2500      0.0000    434.9435      5.5370     51.5596
   214.5000      0.0000    421.1420      5.5011     52.3562
   214.7500      0.0000    406.1126      5.4753     57.1592
   215.0000      0.0000    394.9028      5.4611     65.1073
   215.2500      0.0000    388.6638      5.4557     73.5073
   215.5000      0.0000    385.7364      5.4545     79.9340
   215.7500      0.0000    383.7470      5.4605     83.7365
   216.0000      0.0000    380.7403      5.4844     85.4631
   216.2500      0.0000    375.5382      5.5297     85.4844
   216.5000      0.0000    368.0922      5.5851     83.8511
   216.7500      0.0000    359.6529      5.6358     81.0790
   217.0000      0.0000    352.1070      5.6801     78.1471
   217.2500      0.0000    346.8039      5.7277     75.6576
   217.5000      0.0000    343.9340      5.7819     73.5506
   217.7500      0.0000    342.8612      5.8298     71.6191
   218.0000      0.0000    342.7849      5.8555     69.8999
   218.2500      0.0000    343.1632      5.8591     68.6617
   218.5000      0.0000    343.8806      5.8574     68.3139
   218.7500      0.0000    345.3115      5.8647     69.1318
   219.0000      0.0000    348.2087      5.8777     70.7549
   219.2500      0.0000    353.2297      5.8796     72.2717
   219.5000      0.0000    360.2269      5.8540     73.2166
   219.7500      0.0000    367.9530      5.7948     74.1881
   220.0000      0.0000    374.7196      5.7090     75.8987
   220.2500      0.0000    379.4955      5.6130     77.7984
   220.5000      0.0000    382.3460      5.5246     78.2090
   220.7500      0.0000    383.9519      5.4583     75.9695
   221.0000      0.0000    384.9383      5.4279     71.7672
   221.2500      0.0000    385.6249      5.4483     67.7759
   221.5000      0.0000    386.1395      5.5277     65.9242
   221.7500      0.0000    386.5707      5.6556     66.4146
