~Version Information
VERS.                      2.0: CWLS Log ASCII Standard - VERSION 2.0
WRAP.                       NO: One line per depth step
~Well Information Block
STRT.FT               675.0000: 
STOP.FT              2373.5000: 
STEP.FT                 0.2500: 
NULL.                -999.2500: 
COMP.          Pioneer Natural Resources: COMPANY
WELL.            Harrier 44-33: WELL
FLD.           Purgatoire River: FIELD
LOC.           456' FSL & 930' FEL: LOCATION
PROV.                 Colorado: PROVINCE
CNTY.               Las Animas: COUNTRY
SRVC.                Patterson: SERVICE COMPANY
DATE.          Mon Jun 20 07:40:56 2005: LOG DATE
UWI.           05 071 08398 00: UNIQUE WELL ID
~Curve Information Block
DEPT.FT            0 000 00 00: Depth
SN.Ohm-m                      : IEL Short Normal
SP.mV                         : IEL Spontaneous Potential
DIR.Ohm-m                     : IEL Induction Resistivity
GR.GAPI                       : Gamma Ray
~Parameter Information Block
~A  Depth        SN          SP         DIR          GR     
# ...
  1780.5000      7.4087    219.3154      7.5625    168.4652
  1780.7500      7.3106    219.1898      7.5339    169.7114
  1781.0000      7.2628    219.0765      7.4961    170.6635
  1781.2500      7.2457    218.9526      7.4513    170.6281
  1781.5000      7.2534    218.8064      7.4057    169.9370
  1781.7500      7.2774    218.6449      7.3666    169.1537
  1782.0000      7.3168    218.4818      7.3413    166.9187
  1782.2500      7.3708    218.3233      7.3363    164.1998
  1782.5000      7.4239    218.1666      7.3557    157.9582
  1782.7500      7.4279    218.0051      7.3992    152.6919
  1783.0000      7.3781    217.8340      7.4599    144.2904
  1783.2500      7.3688    217.6481      7.5251    139.0335
  1783.5000      7.4591    217.4333      7.5817    132.3577
  1783.7500      7.5813    217.1625      7.6225    128.8461
  1784.0000      7.6395    216.8099      7.6487    125.1064
  1784.2500      7.6360    216.3709      7.6682    123.6935
  1784.5000      7.6719    215.8638      7.6892    123.0734
  1784.7500      7.8436    215.3084      7.7163    123.4440
  1785.0000      8.1606    214.7092      7.7497    124.7841
  1785.2500      8.5320    214.0656      7.7868    125.9234
  1785.5000      8.8156    213.3880      7.8258    127.2076
  1785.7500      8.9306    212.7004      7.8657    127.3074
  1786.0000      8.8943    212.0280      7.9047    126.3289
  1786.2500      8.7275    211.3883      7.9401    125.5409
  1786.5000      8.4829    210.7944      7.9703    125.3679
  1786.7500      8.3216    210.2630      7.9979    126.0877
  1787.0000      8.3796    209.8162      8.0306    127.7124
  1787.2500      8.6238    209.4749      8.0799    128.7708
  1787.5000      8.9015    209.2549      8.1575    130.5293
  1787.7500      9.0759    209.1729      8.2720    132.3173
  1788.0000      9.0987    209.2556      8.4250    136.5657
  1788.2500      8.9936    209.5352      8.6104    140.2624
  1788.5000      8.8742    210.0253      8.8161    145.5223
  1788.7500      8.8839    210.6933      9.0288    147.4683
  1789.0000      8.9567    211.4556      9.2388    146.1319
  1789.2500      8.8869    212.2055      9.4426    142.1225
  1789.5000      8.6950    212.8565      9.6409    132.7510
  1789.7500      8.5995    213.3688      9.8353    125.7634
  1790.0000      8.7548    213.7469     10.0268    116.5732
  1790.2500      9.2594    214.0205     10.2145    111.9583
  1790.5000     10.1542    214.2254     10.3958    107.2459
  1790.7500     11.2699    214.3930     10.5644    105.3985
  1791.0000     12.2926    214.5471     10.7083    104.4989
  1791.2500     13.0185    214.7040     10.8109    105.0660
  1791.5000     13.4177    214.8709     10.8550    107.1674
  1791.7500     13.5003    215.0450     10.8282    109.0244
  1792.0000     13.2657    215.2194     10.7261    112.1103
  1792.2500     12.8180    215.3904     10.5541    114.3535
  1792.5000     12.4111    215.5574     10.3268    118.2400
  1792.7500     12.2267    215.7165     10.0659    121.4359
  1793.0000     12.1429    215.8599      9.7941    127.5332
  1793.2500     11.8635    215.9830      9.5278    132.3420
  1793.5000     11.2549    216.0882      9.2733    139.4780
  1793.7500     10.4644    216.1791      9.0298    143.2581
  1794.0000      9.7460    216.2538      8.7949    146.6192
  1794.2500      9.2515    216.3022      8.5693    147.5491
  1794.5000      8.9750    216.3117      8.3593    148.2992
  1794.7500      8.8189    216.2746      8.1758    149.2965
  1795.0000      8.6990    216.1929      8.0328    152.3761
  1795.2500      8.6089    216.0773      7.9452    154.9975
  1795.5000      8.6083    215.9431      7.9257    157.4923
  1795.7500      8.7566    215.8084      7.9828    156.9966
  1796.0000      9.0226    215.6900      8.1176    152.9080
  1796.2500      9.2865    215.5978      8.3243    148.8735
  1796.5000      9.4675    215.5313      8.5910    142.3144
  1796.7500      9.6094    215.4862      8.9040    137.7309
  1797.0000      9.8343    215.4639      9.2511    129.9495
  1797.2500     10.2562    215.4766      9.6241    123.9546
  1797.5000     10.9108    215.5438     10.0199    114.1218
  1797.7500     11.7173    215.6806     10.4412    107.4717
  1798.0000     12.5347    215.8849     10.8946     98.1731
  1798.2500     13.2802    216.1310     11.3874     92.8761
  1798.5000     13.9606    216.3821     11.9201     87.0857
  1798.7500     14.5939    216.6111     12.4817     85.1043
  1799.0000     15.1919    216.8132     13.0474     85.3501
  1799.2500     15.7732    216.9992     13.5820     87.4641
  1799.5000     16.2837    217.1787     14.0439     92.3283
  1799.7500     16.5810    217.3487     14.3883     95.6843
  1800.0000     16.5649    217.4974     14.5751     99.6246
  1800.2500     16.2585    217.6174     14.5803    101.4855
  1800.5000     15.7538    217.7119     14.4053    103.9727
  1800.7500     15.1547    217.7881     14.0775    105.8971
  1801.0000     14.5395    217.8421     13.6412    109.4299
  1801.2500     13.9008    217.8569     13.1452    112.2337
  1801.5000     13.2156    217.8184     12.6319    117.3236
  1801.7500     12.5570    217.7342     12.1338    121.3271
  1802.0000     11.9837    217.6360     11.6745    127.4978
  1802.2500     11.4544    217.5618     11.2720    130.9780
  1802.5000     10.9253    217.5326     10.9370    134.6536
  1802.7500     10.3978    217.5349     10.6699    136.5107
  1803.0000      9.9227    217.5207     10.4608    139.6469
  1803.2500      9.5654    217.4334     10.2934    142.2148
  1803.5000      9.3580    217.2484     10.1508    146.0633
  1803.7500      9.3100    216.9929     10.0211    147.9709
  1804.0000      9.3773    216.7224      9.8989    148.8537
  1804.2500      9.4573    216.4778      9.7842    147.6129
  1804.5000      9.5095    216.2646      9.6802    142.6546
  1804.7500      9.5867    216.0598      9.5922    137.7701
  1805.0000      9.7051    215.8305      9.5257    129.9666
  1805.2500      9.8192    215.5511      9.4865    125.6057
  1805.5000      9.8896    215.2125      9.4797    121.5952
  1805.7500      9.8772    214.8228      9.5084    120.8295
  1806.0000      9.8062    214.4081      9.5706    121.9600
  1806.2500      9.7819    214.0162      9.6533    123.4272
  1806.5000      9.8060    213.7055      9.7305    125.1994
  1806.7500      9.7567    213.5069      9.7678    125.5344
  1807.0000      9.5705    213.3906      9.7373    124.5110
  1807.2500      9.2905    213.2807      9.6316    123.0620
  1807.5000      9.0054    213.1055      9.4647    120.8157
  1807.7500      8.7783    212.8328      9.2610    120.0257
  1808.0000      8.6102    212.4695      9.0416    120.6326
  1808.2500      8.4705    212.0477      8.8194    122.2180
  1808.5000      8.3364    211.6098      8.6001    126.0423
  1808.7500      8.2344    211.1944      8.3866    129.3319
  1809.0000      8.2193    210.8257      8.1804    134.7056
  1809.2500      8.2718    210.5101      7.9818    138.1157
  1809.5000      8.3050    210.2408      7.7899    142.6926
  1809.7500      8.2526    210.0027      7.6033    145.4815
  1810.0000      8.0575    209.7792      7.4218    148.8575
  1810.2500      7.6894    209.5632      7.2468    149.7993
  1810.5000      7.2476    209.3637      7.0792    148.3453
  1810.7500      6.9051    209.2033      6.9190    146.0023
  1811.0000      6.7310    209.1082      6.7667    142.7855
  1811.2500      6.6732    209.0998      6.6241    141.9408
  1811.5000      6.6723    209.1946      6.4956    142.7008
  1811.7500      6.7270    209.4074      6.3856    143.9152
  1812.0000      6.8467    209.7549      6.2970    145.8186
  1812.2500      7.0027    210.2549      6.2291    146.7457
  1812.5000      7.1606    210.9135      6.1776    146.9946
  1812.7500      7.2676    211.7054      6.1364    146.3354
  1813.0000      7.2425    212.5629      6.1004    145.0669
  1813.2500      7.0807    213.3935      6.0668    144.8883
  1813.5000      6.8776    214.1151      6.0356    146.3819
  1813.7500      6.7059    214.6845      6.0088    148.3577
