~Version Information
VERS.                      2.0: CWLS Log ASCII Standard - VERSION 2.0
WRAP.                       NO: One line per depth step
~Well Information Block
STRT.FT               298.0000: 
STOP.FT              1302.0000: 
STEP.FT                 0.1000: 
NULL.                -999.2500: 
COMP.          Pioneer Natural Resources: COMPANY
WELL.          Bouncer 41-27 Tr: WELL
FLD.           Purgatoire River: FIELD
LOC.           292' FNL & 222' FEL: LOCATION
PROV.                 Colorado: PROVINCE
CNTY.               Las Animas: COUNTRY
SRVC.                Patterson: SERVICE COMPANY
DATE.          Mon Feb 07 12:55:19 2005: LOG DATE
UWI.           05 071 08291 00: UNIQUE WELL ID
~Curve Information Block
DEPT.FT            0 000 00 00: Depth
DCAL.in                       : CDL Caliper
RHOB.g/cc                     : CDL Bulk Density
RHOC.g/cc                     : CDL Density Correction
DPOR.pu                       : CDL Density Porosity
GR.GAPI                       : Gamma Ray
NPOR.pu                       : Neutron Porosity
~Parameter Information Block
~A  Depth       DCAL        RHOB        RHOC        DPOR         GR         NPOR    
# ...
  1085.2000      8.0479      2.1432      0.1284     30.7130    116.3451     28.6414
  1085.3000      8.0606      2.2382      0.1443     24.9567    114.5412     28.6438
  1085.4000      8.0606      2.3023      0.0985     21.0705    116.5727     28.4752
  1085.5000      8.1303      2.3515      0.1518     18.0921    122.0050     28.0120
  1085.6000      8.1303      2.4030      0.1622     14.9681    124.7598     27.2407
  1085.7000      8.1303      2.4570      0.1434     11.6964    123.0360     26.4106
  1085.8000      8.0027      2.4870      0.1742      9.8760    122.7391     26.1298
  1085.9000      8.0027      2.4653      0.0769     11.1963    126.1545     26.5324
  1086.0000      7.9672      2.4122      0.0504     14.4119    128.9392     27.0828
  1086.1000      7.9672      2.3816     -0.0179     16.2672    128.6993     27.3055
  1086.2000      7.9672      2.4014      0.0692     15.0644    126.6925     26.8757
  1086.3000      7.9358      2.4499      0.0539     12.1251    126.5753     25.7144
  1086.4000      7.9358      2.4983      0.0805      9.1927    129.3755     24.2262
  1086.5000      7.9215      2.5401      0.0987      6.6595    132.0356     23.3005
  1086.6000      7.9215      2.5640      0.1405      5.2136    134.5479     23.4587
  1086.7000      7.9215      2.5583      0.1306      5.5579    137.4782     23.7199
  1086.8000      7.9079      2.5443      0.0684      6.4082    138.0719     23.0897
  1086.9000      7.9079      2.5453      0.1034      6.3431    132.0840     22.1221
  1087.0000      7.9071      2.5550      0.1049      5.7592    120.1839     21.3671
  1087.1000      7.9071      2.5634      0.0730      5.2460    108.6850     20.8152
  1087.2000      7.9071      2.5729      0.0866      4.6699     99.9644     20.8241
  1087.3000      7.9267      2.5786      0.1139      4.3270     91.1187     21.3878
  1087.4000      7.9267      2.5725      0.0678      4.7000     81.4800     21.6435
  1087.5000      7.9255      2.5650      0.0567      5.1542     74.9142     21.1648
  1087.6000      7.9255      2.5694      0.0254      4.8834     73.7179     20.1496
  1087.7000      7.9255      2.5863      0.0311      3.8593     74.5531     18.6526
  1087.8000      7.9110      2.6093      0.0578      2.4688     73.1502     16.9832
  1087.9000      7.9110      2.6280      0.0594      1.3341     69.8428     16.1345
  1088.0000      7.9401      2.6322      0.0921      1.0797     66.7622     16.4507
  1088.1000      7.9401      2.6251      0.0208      1.5087     64.7437     16.9705
  1088.2000      7.9401      2.6246      0.0424      1.5374     64.1210     16.8620
  1088.3000      7.9368      2.6281      0.0868      1.3259     65.4771     16.2512
  1088.4000      7.9368      2.6125      0.0651      2.2716     67.1308     15.8900
  1088.5000      7.9099      2.5859     -0.0032      3.8866     65.5800     16.0528
  1088.6000      7.9099      2.5867      0.0014      3.8365     61.4467     16.0976
  1088.7000      7.9099      2.6269      0.0721      1.3986     58.8132     15.7413
  1088.8000      7.8981      2.6641      0.1297     -0.8549     59.0265     15.6526
  1088.9000      7.8981      2.6537      0.0551     -0.2220     59.8682     16.2502
  1089.0000      7.9038      2.6104      0.0705      2.4028     59.6605     17.1888
  1089.1000      7.9038      2.5687      0.0440      4.9269     60.0262     17.8592
  1089.2000      7.9038      2.5392      0.0318      6.7157     61.6122     18.0214
  1089.3000      7.9048      2.5246      0.0452      7.6029     62.2742     17.8370
  1089.4000      7.9048      2.5245      0.0545      7.6049     61.0263     17.2556
  1089.5000      7.9101      2.5310      0.0146      7.2093     59.5220     16.4317
  1089.6000      7.9101      2.5384     -0.0350      6.7662     60.8553     16.0327
  1089.7000      7.9101      2.5457     -0.0137      6.3223     64.9600     16.2012
  1089.8000      7.9198      2.5490      0.0099      6.1185     66.2504     16.4054
  1089.9000      7.9198      2.5424      0.0110      6.5226     62.7813     16.5872
  1090.0000      7.9255      2.5362      0.0029      6.8986     60.9411     16.8702
  1090.1000      7.9255      2.5446      0.0197      6.3891     64.1967     17.1361
  1090.2000      7.9255      2.5541      0.0400      5.8092     68.2070     17.5132
  1090.3000      7.9158      2.5448      0.0482      6.3774     69.5180     17.7671
  1090.4000      7.9158      2.5263     -0.0073      7.4979     70.1952     17.3149
  1090.5000      7.8947      2.5224      0.0303      7.7322     71.3090     16.5007
  1090.6000      7.8947      2.5316      0.0623      7.1766     71.2057     16.2403
  1090.7000      7.8947      2.5488      0.0003      6.1341     72.3606     16.7857
  1090.8000      7.9043      2.5806      0.0698      4.2086     76.0703     17.7915
  1090.9000      7.9043      2.6038      0.0912      2.8006     78.5818     18.7647
  1091.0000      7.9028      2.5884      0.0653      3.7310     82.0063     19.2540
  1091.1000      7.9028      2.5491      0.0364      6.1133     89.1568     19.3424
  1091.2000      7.9028      2.5204      0.0169      7.8537     93.8324     19.6284
  1091.3000      7.9021      2.5161      0.0426      8.1142     93.5061     20.1538
  1091.4000      7.9021      2.5253      0.0540      7.5550     93.0432     20.6203
  1091.5000      7.9030      2.5287      0.0602      7.3534     92.8261     21.0733
  1091.6000      7.9030      2.5153      0.0452      8.1609     92.0369     21.4957
  1091.7000      7.9030      2.4808      0.0368     10.2553     94.1702     21.8974
  1091.8000      7.9024      2.4254      0.0063     13.6131     99.2816     22.2473
  1091.9000      7.9024      2.3620      0.0236     17.4557    102.9190     22.2547
  1092.0000      7.9147      2.3030     -0.0092     21.0332    105.2654     22.1402
  1092.1000      7.9147      2.2430      0.0317     24.6680    106.9297     22.6084
  1092.2000      7.9147      2.1722     -0.0052     28.9576    104.0444     23.7811
  1092.3000      7.9030      2.1036     -0.0105     33.1138     96.7858     24.8446
  1092.4000      7.9030      2.0567     -0.0461     35.9595     91.1793     25.3481
  1092.5000      7.8924      2.0306      0.0393     37.5422     90.2451     25.7521
  1092.6000      7.8924      2.0283     -0.0405     37.6776     92.8743     26.3129
  1092.7000      7.8924      2.0713      0.0443     35.0722     97.0895     26.7548
  1092.8000      7.8854      2.1612      0.1603     29.6257    100.5622     26.9810
  1092.9000      7.8854      2.2727      0.2289     22.8657    103.1744     27.2496
  1093.0000      7.8994      2.3697      0.2546     16.9862    107.6239     27.6882
  1093.1000      7.8994      2.4142      0.2385     14.2939    112.1610     27.8972
  1093.2000      7.8994      2.3990      0.1169     15.2117    111.2210     27.7156
  1093.3000      7.9278      2.3521      0.0684     18.0532    106.0196     27.7243
  1093.4000      7.9278      2.3012      0.0353     21.1392    100.8032     27.9485
  1093.5000      7.9204      2.2675     -0.0110     23.1814     97.3137     27.7364
  1093.6000      7.9204      2.2622     -0.0179     23.5036     95.8414     27.0984
  1093.7000      7.9204      2.2715      0.0465     22.9420     94.0012     26.7021
  1093.8000      7.9174      2.2785     -0.0006     22.5131     91.2116     26.6446
  1093.9000      7.9174      2.2964      0.0066     21.4275     89.4268     26.7500
  1094.0000      7.9137      2.3469      0.0571     18.3716     88.2247     26.9494
  1094.1000      7.9137      2.4176      0.1669     14.0831     84.3086     26.7243
  1094.2000      7.9137      2.4742      0.1401     10.6558     78.1796     25.7845
  1094.3000      7.9423      2.5048      0.1203      8.8008     74.6664     24.8071
  1094.4000      7.9423      2.5224      0.0706      7.7341     72.4129     24.4214
  1094.5000      7.9272      2.5417      0.0423      6.5630     67.6471     24.5485
  1094.6000      7.9272      2.5707      0.0765      4.8086     61.8835     24.6560
  1094.7000      7.9272      2.6021      0.0982      2.9026     59.5868     24.1270
