~Version Information
VERS.                      2.0: CWLS Log ASCII Standard - VERSION 2.0
WRAP.                       NO: One line per depth step
~Well Information Block
STRT.FT                -9.0000: 
STOP.FT              2518.0000: 
STEP.FT                 0.2500: 
NULL.                -999.2500: 
COMP.          Petrogulf Corporation: COMPANY
WELL.            Montoya 7-12V: WELL
FLD.           Purgatorie River: FIELD
LOC.           1764' FNL & 728' FWL: LOCATION
CNTY.               Las Animas: COUNTY
SRVC.                         : SERVICE COMPANY
DATE.          Mon Mar 08 16:11:04 2004: LOG DATE
UWI.           05-071-07887-00: UNIQUE WELL ID
STAT.                 Colorado: STATE
~Curve Information Block
DEPT.FT            0 000 00 00: Depth
GR.GAPI                       : Gamma Ray
CCL.                          : Casing Collar Locator
TT3.usec                      : CBL 3' Travel Time
AMP3.mV                       : CBL 3' Amplitude
~Parameter Information Block
~A  Depth        GR         CCL         TT3         AMP3    
# ...
   326.0000    132.7363      0.0000    274.8571     64.0496
   326.2500    128.9181      0.0000    273.2702     67.3279
   326.5000    126.7917      0.0000    271.4583     69.9605
   326.7500    127.7474      0.0000    270.2325     72.0376
   327.0000    131.6164      0.0000    269.8365     74.2108
   327.2500    137.0840      0.0000    269.8698     75.9558
   327.5000    142.7192      0.0000    269.9469     76.8145
   327.7500    147.4049      0.0000    269.9473     77.1548
   328.0000    150.3113      0.0000    269.8535     77.3963
   328.2500    151.0134      0.0000    269.6776     77.5307
   328.5000    149.4135      0.0000    269.5211     77.4867
   328.7500    145.4432      0.0000    269.5211     77.3989
   329.0000    139.2140      0.0000    269.6776     77.3381
   329.2500    131.5622      0.0000    269.8535     77.2332
   329.5000    124.2173      0.0000    269.9477     77.1052
   329.7500    119.3677      0.0000    269.9467     77.0671
   330.0000    118.8126      0.0000    269.8459     77.1529
   330.2500    123.0409      0.0000    269.6416     77.2561
   330.5000    130.9104      0.0000    269.4117     77.2098
   330.7500    140.3539      0.0000    269.3081     76.9503
   331.0000    149.5081      0.0000    269.4117     76.6194
   331.2500    157.1758      0.0000    269.6417     76.4710
   331.5000    162.3436      0.0000    269.8471     76.6039
   331.7500    163.7836      0.0000    269.9553     76.8331
   332.0000    160.6445      0.0000    269.9902     76.9349
   332.2500    153.3380      0.0000    269.9902     76.9126
   332.5000    143.3937      0.0000    269.9553     76.9133
   332.7500    132.5564      0.0000    269.8470     76.9864
   333.0000    122.2217      0.0000    269.6407     77.0199
   333.2500    113.1712      0.0000    269.4041     76.9436
   333.5000    105.2930      0.0000    269.2721     76.8995
   333.7500     97.9832      0.0000    269.3024     77.0634
   334.0000     91.1994      0.0000    269.4287     77.3668
   334.2500     85.7673      0.0000    269.5811     77.5579
   334.5000     82.5052      0.0000    269.7423     77.5069
   334.7500     81.3609      0.0000    269.8808     77.3354
   335.0000     81.4492      0.0000    269.9542     77.2013
   335.2500     81.6899      0.0000    269.9476     77.1124
   335.5000     81.3946      0.0000    269.8450     77.0442
   335.7500     80.4481      0.0000    269.6340     77.0362
   336.0000     78.9817      0.0000    269.3757     77.1008
   336.2500     76.8496      0.0000    269.1988     77.1601
   336.5000     73.5751      0.0000    269.1988     77.1483
   336.7500     68.9400      0.0000    269.3757     77.1149
   337.0000     63.4305      0.0000    269.6341     77.1014
   337.2500     57.8979      0.0000    269.8460     77.0418
   337.5000     52.9914      0.0000    269.9553     76.9048
   337.7500     49.0425      0.0000    269.9913     76.7529
   338.0000     46.1446      0.0000    269.9989     76.6359
   338.2500     44.2126      0.0000    269.9999     76.6028
   338.5000     43.3446      0.0000    270.0000     76.6899
   338.7500     44.3085      0.0000    270.0000     76.8249
   339.0000     48.5599      0.0000    270.0000     76.9132
   339.2500     57.6512      0.0000    270.0000     76.9305
   339.5000     72.2900      0.0000    270.0000     76.8711
   339.7500     91.4715      0.0000    269.9999     76.7526
   340.0000    112.4584      0.0000    269.9989     76.6630
   340.2500    131.9398      0.0000    269.9913     76.6917
   340.5000    147.5008      0.0000    269.9553     76.8006
   340.7500    158.3776      0.0000    269.8459     76.8843
   341.0000    165.3222      0.0000    269.6330     76.9651
   341.2500    169.7529      0.0000    269.3671     77.1426
   341.5000    172.5697      0.0000    269.1551     77.4076
   341.7500    173.6139      0.0000    269.0523     77.6671
   342.0000    172.3358      0.0000    269.0447     77.8390
   342.2500    168.6818      0.0000    269.1105     77.8870
   342.5000    163.1760      0.0000    269.2130     77.8194
   342.7500    156.5682      0.0000    269.2660     77.6678
   343.0000    149.4935      0.0000    269.2130     77.5144
   343.2500    141.9512      0.0000    269.1094     77.4240
   343.5000    133.2672      0.0000    269.0371     77.3783
   343.7500    123.2196      0.0000    269.0163     77.3915
   344.0000    112.9636      0.0000    269.0457     77.4559
   344.2500    104.2114      0.0000    269.1530     77.4263
   344.5000     97.7885      0.0000    269.3584     77.2275
   344.7500     93.7480      0.0000    269.5893     77.0158
   345.0000     92.7462      0.0000    269.6995     76.9780
   345.2500     96.3324      0.0000    269.6243     77.0710
   345.5000    105.1959      0.0000    269.4677     77.0981
   345.7500    117.4566      0.0000    269.3660     77.0115
   346.0000    129.4772      0.0000    269.3116     76.9596
   346.2500    138.6025      0.0000    269.2293     77.0310
   346.5000    144.7512      0.0000    269.1465     77.1302
   346.7500    149.2639      0.0000    269.1454     77.1332
   347.0000    152.7680      0.0000    269.2206     77.0427
   347.2500    154.6279      0.0000    269.2671     76.9552
   347.5000    154.1331      0.0000    269.2142     76.8924
   347.7500    151.5075      0.0000    269.1180     76.7857
   348.0000    147.6967      0.0000    269.0807     76.6672
   348.2500    143.6314      0.0000    269.1617     76.6547
   348.5000    139.8190      0.0000    269.3680     76.7543
   348.7500    136.6148      0.0000    269.6331     76.8496
   349.0000    134.9229      0.0000    269.8459     76.8293
   349.2500    136.1639      0.0000    269.9553     76.6653
   349.5000    140.7905      0.0000    269.9913     76.4510
   349.7500    147.0220      0.0000    269.9989     76.3744
   350.0000    151.7583      0.0000    269.9999     76.5366
   350.2500    152.8004      0.0000    270.0000     76.8447
   350.5000    150.1465      0.0000    270.0000     77.1580
   350.7500    145.6191      0.0000    270.0000     77.4046
   351.0000    141.4104      0.0000    270.0000     77.5494
   351.2500    138.6291      0.0000    270.0000     77.5828
   351.5000    137.1152      0.0000    270.0000     77.5151
   351.7500    136.4039      0.0000    270.0000     77.3738
   352.0000    136.2254      0.0000    270.0000     77.2314
   352.2500    135.9540      0.0000    269.9999     77.2159
   352.5000    134.3297      0.0000    269.9991     77.3835
   352.7500    130.4622      0.0000    269.9938     77.5379
   353.0000    125.0790      0.0000    269.9762     77.3398
   353.2500    120.3144      0.0000    269.9628     76.3915
   353.5000    118.1168      0.0000    270.0862     73.8275
   353.7500    119.0773      0.0000    270.6253     68.7855
   354.0000    122.6278      0.0000    271.7644     62.7864
   354.2500    127.6159      0.0000    273.3096     59.5114
   354.5000    132.3156      0.0000    274.8155     59.7727
   354.7500    134.6949      0.0000    275.9168     60.7093
   355.0000    133.8935      0.0000    276.4659     60.7515
   355.2500    131.5732     -5.0000    276.5389     60.4243
   355.5000    130.9473     -5.0000    276.3842     60.0733
   355.7500    134.1118      0.0000    276.2608     59.7545
   356.0000    140.6993      0.0000    276.2540     59.6665
   356.2500    149.0045      0.0000    276.2461     59.8980
   356.5000    157.5296      0.0000    276.0604     60.3633
   356.7500    165.1284      0.0000    275.5415     61.5028
   357.0000    170.4819      0.0000    274.5461     64.4905
   357.2500    172.4888      0.0000    273.1112     69.2890
   357.5000    171.1767      0.0000    271.6172     73.7466
   357.7500    167.6509      0.0000    270.5434     76.1316
   358.0000    163.0997      0.0000    270.0566     76.7186
   358.2500    158.3801      0.0000    269.9561     76.6754
   358.5000    154.5490      0.0000    269.9742     76.7410
   358.7500    152.8546      0.0000    269.9861     76.9364
   359.0000    153.4597      0.0000    269.9631     77.0585
   359.2500    154.7583      0.0000    269.8906     77.0195
