~Version Information
VERS.                      2.0: CWLS Log ASCII Standard - VERSION 2.0
WRAP.                       NO: One line per depth step
~Well Information Block
STRT.FT               -19.5000: 
STOP.FT              2456.0000: 
STEP.FT                 0.2500: 
NULL.                -999.2500: 
COMP.          Petrogulf Corporation: COMPANY
WELL.           Montoya 12-44V: WELL
FLD.           Purgatorie River: FIELD
LOC.           698' FSL & 599' FEL: LOCATION
CNTY.               Las Animas: COUNTY
SRVC.                         : SERVICE COMPANY
DATE.          Mon Sep 13 13:44:10 2004: LOG DATE
UWI.           05-071-08094-00: UNIQUE WELL ID
STAT.                 Colorado: STATE
~Curve Information Block
DEPT.FT            0 000 00 00: Depth
TT3.usec                      : CBL 3' Travel Time
AMP3.mV                       : CBL 3' Amplitude
GR.GAPI                       : Gamma Ray
CCL.                          : Casing Collar Locator
~Parameter Information Block
~A  Depth       TT3         AMP3         GR         CCL     
# ...
  2091.0000    381.5587      2.8527     42.8945      0.0000
  2091.2500    388.9977      2.8909     43.9415      0.0000
  2091.5000    414.8759      2.9488     44.8111      0.0000
  2091.7500    472.9824      3.0000     45.6870      0.0000
  2092.0000    556.8838      2.9983     46.5688      0.0000
  2092.2500    626.5075      2.9136     47.5668      0.0000
  2092.5000    644.9562      2.7658     49.6701      0.0000
  2092.7500    630.8237      2.6172     54.4217      0.0000
  2093.0000    637.8468      2.5269     62.4875      0.0000
  2093.2500    681.1387      2.5049     72.8291      0.0000
  2093.5000    727.4199      2.5105     83.3529      0.0000
  2093.7500    753.5853      2.5108     92.1031      0.0000
  2094.0000    769.2328      2.5207     97.9321      0.0000
  2094.2500    787.3118      2.5540    100.7914      0.0000
  2094.5000    805.7932      2.5721    101.9126      0.0000
  2094.7500    817.3251      2.5193    103.1964      0.0000
  2095.0000    820.1739      2.3885    105.6894      0.0000
  2095.2500    817.9394      2.2260    108.7098      0.0000
  2095.5000    814.7444      2.0784    110.7276      0.0000
  2095.7500    811.3978      1.9647    110.8926      0.0000
  2096.0000    806.9084      1.8942    109.5977      0.0000
  2096.2500    803.9960      1.8588    107.8928      0.0000
  2096.5000    806.2206      1.8213    106.5282      0.0000
  2096.7500    810.9270      1.7573    105.5176      0.0000
  2097.0000    813.5915      1.6884    104.5322      0.0000
  2097.2500    812.6870      1.6534    103.4671      0.0000
  2097.5000    806.0250      1.6717    102.4151      0.0000
  2097.7500    789.8591      1.7349    101.1402      0.0000
  2098.0000    759.0988      1.8206     98.8811      0.0000
  2098.2500    704.7394      1.9055     94.9921      0.0000
  2098.5000    623.9061      1.9704     89.7463      0.0000
  2098.7500    534.7735      2.0082     84.2832      0.0000
  2099.0000    463.8867      2.0251     79.8090      0.0000
  2099.2500    422.7959      2.0258     77.1292      0.0000
  2099.5000    409.6620      2.0013     76.8599      0.0000
  2099.7500    422.7469      1.9382     79.3711      0.0000
  2100.0000    465.2950      1.8403     84.1661      0.0000
  2100.2500    538.9008      1.7356     89.8889      0.0000
  2100.5000    628.3943      1.6507     95.4653      0.0000
  2100.7500    702.2744      1.5837    100.9489      0.0000
  2101.0000    739.7739      1.5221    106.9331      0.0000
  2101.2500    747.4656      1.4716    113.4391      0.0000
  2101.5000    744.8322      1.4452    119.7066      0.0000
  2101.7500    745.3069      1.4422    124.8104      0.0000
  2102.0000    750.9663      1.4517    128.0834      0.0000
  2102.2500    754.0972      1.4676    129.1518      0.0000
  2102.5000    745.2751      1.4924    128.0934      0.0000
  2102.7500    726.4750      1.5264    125.6208      0.0000
  2103.0000    710.2803      1.5674    122.7402      0.0000
  2103.2500    706.0700      1.6228    120.0258      0.0000
  2103.5000    716.2792      1.6969    117.3670      0.0000
  2103.7500    739.5811      1.7624    114.4815      0.0000
  2104.0000    766.4825      1.7873    111.3442      0.0000
  2104.2500    780.5497      1.7903    107.8683      0.0000
  2104.5000    775.9059      1.8181    103.6352      0.0000
  2104.7500    766.3972      1.8781     98.5031      0.0000
  2105.0000    767.8829      1.9299     93.3848      0.0000
  2105.2500    779.2335      1.9274     90.0392      0.0000
  2105.5000    788.1730      1.8568     89.9302      0.0000
  2105.7500    786.7321      1.7440     93.2650      0.0000
  2106.0000    777.1906      1.6253     99.0009      0.0000
  2106.2500    766.9040      1.5331    105.5512      0.0000
  2106.5000    758.7514      1.4903    111.3675      0.0000
  2106.7500    753.0078      1.4720    115.1640      0.0000
  2107.0000    751.7792      1.4340    116.1150      0.0000
  2107.2500    751.6046      1.3837    114.2218      0.0000
  2107.5000    745.4030      1.3461    110.4944      0.0000
  2107.7500    734.4317      1.3171    106.4339      1.6663
  2108.0000    725.5411      1.2881    103.0778      3.7720
  2108.2500    721.4670      1.2611    100.5910      0.0000
  2108.5000    719.3539      1.2373     98.7680      0.0000
  2108.7500    714.0402      1.2154     97.6514      0.0000
  2109.0000    702.7411      1.2045     97.4869      0.0000
  2109.2500    688.8406      1.2054     98.1393      0.0000
  2109.5000    679.3499      1.1845     98.7784      0.0000
  2109.7500    678.0360      1.1221     98.4553      0.0000
  2110.0000    682.3593      1.0514     97.1542      0.0000
  2110.2500    686.5213      1.0049     96.1472      0.0000
  2110.5000    688.2653      0.9846     97.1224      0.0000
  2110.7500    690.7451      0.9864    100.7692      0.0000
  2111.0000    696.0994      1.0038    106.0241      0.0000
  2111.2500    703.5156      1.0193    110.7393      0.0000
  2111.5000    711.9202      1.0174    113.3051      0.0000
  2111.7500    719.0762      1.0037    113.6700      0.0000
  2112.0000    722.7666      0.9950    112.8268      0.0000
  2112.2500    723.5742      0.9963    111.6388      0.0000
  2112.5000    723.3261      1.0046    110.3922      0.0000
  2112.7500    722.2456      1.0221    109.1932      0.0000
  2113.0000    718.8011      1.0511    108.3287      0.0000
  2113.2500    712.4206      1.0784    108.1227      0.0000
  2113.5000    705.1913      1.0812    108.5671      0.0000
  2113.7500    699.1578      1.0558    109.0581      0.0000
  2114.0000    695.0912      1.0270    108.4165      0.0000
  2114.2500    693.5535      1.0183    105.3746      0.0000
  2114.5000    692.5424      1.0277     99.5569      0.0000
  2114.7500    689.9910      1.0422     92.3064      0.0000
  2115.0000    689.9732      1.0572     86.2909      0.0000
  2115.2500    697.7151      1.0732     83.6474      0.0000
  2115.5000    710.0623      1.0943     84.2747      0.0000
  2115.7500    716.9486      1.1250     86.0397      0.0000
  2116.0000    710.0346      1.1613     86.6374      0.0000
  2116.2500    687.0406      1.1914     85.2906      0.0000
  2116.5000    652.8162      1.2050     82.8893      0.0000
  2116.7500    616.1837      1.1998     80.7705      0.0000
  2117.0000    578.5112      1.1814     79.6190      0.0000
  2117.2500    535.6213      1.1595     79.5427      0.0000
  2117.5000    494.3985      1.1461     80.6884      0.0000
  2117.7500    467.2764      1.1432     83.2144      0.0000
  2118.0000    455.7523      1.1370     86.6274      0.0000
  2118.2500    453.2252      1.1194     89.6426      0.0000
  2118.5000    455.6333      1.1003     91.1557      0.0000
  2118.7500    466.5069      1.0865     91.3540      0.0000
  2119.0000    497.0335      1.0696     91.5818      0.0000
  2119.2500    554.4827      1.0447     92.9319      0.0000
  2119.5000    624.0290      1.0223     95.1441      0.0000
  2119.7500    676.6354      1.0129     96.9594      0.0000
  2120.0000    700.1108      1.0147     97.3768      0.0000
  2120.2500    704.5502      1.0220     96.4583      0.0000
  2120.5000    701.5939      1.0345     95.1410      0.0000
  2120.7500    695.7831      1.0527     94.4665      0.0000
  2121.0000    691.4355      1.0722     94.8568      0.0000
  2121.2500    694.9857      1.0897     95.9527      0.0000
  2121.5000    708.7093      1.1102     97.0645      0.0000
  2121.7500    726.8375      1.1451     97.6694      0.0000
  2122.0000    738.9153      1.2006     97.4973      0.0000
  2122.2500    737.3702      1.2703     96.3957      0.0000
  2122.5000    720.3763      1.3401     94.3345      0.0000
  2122.7500    684.4081      1.3974     91.5467      0.0000
  2123.0000    624.9044      1.4385     88.5633      0.0000
  2123.2500    553.1447      1.4623     86.0477      0.0000
  2123.5000    495.0448      1.4641     84.6083      0.0000
  2123.7500    464.1736      1.4491     84.6600      0.0000
  2124.0000    453.2756      1.4357     86.1152      0.0000
  2124.2500    450.6461      1.4401     87.9790      0.0000
