~Version Information
VERS.                      2.0: CWLS Log ASCII Standard - VERSION 2.0
WRAP.                       NO: One line per depth step
~Well Information Block
STRT.FT                 0.5000: 
STOP.FT              2891.5000: 
STEP.FT                 0.2500: 
NULL.                -999.2500: 
COMP.          Petrogulf Corporation: COMPANY
WELL.            Montoya 1-41V: WELL
FLD.           Purgatoire River: FIELD
LOC.           610' FNL & 1205' FEL--: LOCATION
PROV.                 Colorado: PROVINCE
CNTY.               Las Animas: COUNTRY
SRVC.                Patterson: SERVICE COMPANY
DATE.          Mon Sep 12 11:42:30 2005: LOG DATE
UWI.           05 071 08144 00: UNIQUE WELL ID
~Curve Information Block
DEPT.FT            0 000 00 00: Depth
CCL.                          : Casing Collar Locator
TT3.usec                      : CBL 3' Travel Time
AMP3.mV                       : CBL 3' Amplitude
GR.GAPI                       : Gamma Ray
~Parameter Information Block
~A  Depth       CCL         TT3         AMP3         GR     
# ...
  1910.0000      0.0000    841.7773      5.8718    100.5449
  1910.2500      0.0000    848.7508      5.9385     92.1391
  1910.5000      2.0000    842.0659      5.8636     87.2852
  1910.7500     -2.0000    831.8591      5.6481     87.0075
  1911.0000      0.0000    827.1331      5.3288     90.6426
  1911.2500      0.0000    831.2863      4.9575     95.9596
  1911.5000      0.0000    841.5878      4.5917    100.6337
  1911.7500      0.0000    850.5017      4.2756    103.9020
  1912.0000      0.0000    849.0044      4.0047    106.5466
  1912.2500      0.0000    831.6107      3.7291    109.4113
  1912.5000      0.0000    800.0427      3.4132    112.4184
  1912.7500      0.0000    762.4278      3.0828    114.8761
  1913.0000      0.0000    728.6176      2.7988    116.1200
  1913.2500      0.0000    705.1423      2.6009    115.8483
  1913.5000      0.0000    692.8823      2.4877    114.6150
  1913.7500      0.0000    687.9720      2.4348    114.2146
  1914.0000      0.0000    684.8856      2.4164    116.6514
  1914.2500      0.0000    679.8516      2.4124    121.9012
  1914.5000      0.0000    672.3110      2.4087    127.0022
  1914.7500      0.0000    663.5355      2.3975    128.1267
  1915.0000      0.0000    654.6611      2.3759    123.8133
  1915.2500      0.0000    646.5396      2.3437    116.1462
  1915.5000      0.0000    640.4846      2.3040    108.9536
  1915.7500      0.0000    638.0057      2.2629    105.2879
  1916.0000      0.0000    639.7009      2.2259    106.2945
  1916.2500      0.0000    644.6730      2.1947    111.1909
  1916.5000      0.0000    651.2434      2.1676    117.6602
  1916.7500      0.0000    658.5743      2.1417    123.1170
  1917.0000      0.0000    667.5116      2.1172    126.4183
  1917.2500      0.0000    679.2442      2.0984    127.9937
  1917.5000      0.0000    693.0734      2.0908    128.2313
  1917.7500      0.0000    706.0085      2.0948    126.6281
  1918.0000      0.0000    714.7132      2.1059    122.8289
  1918.2500      0.0000    717.6534      2.1211    117.4861
  1918.5000      0.0000    715.3275      2.1457    111.4033
  1918.7500      0.0000    708.9100      2.1913    104.6370
  1919.0000      0.0000    699.5535      2.2664     97.3598
  1919.2500      0.0000    689.8774      2.3655     91.0217
  1919.5000      0.0000    685.8510      2.4678     87.7299
  1919.7500      0.0000    695.9874      2.5491     88.7481
  1920.0000      0.0000    726.0131      2.5920     94.0972
  1920.2500      0.0000    771.1937      2.5901    103.1319
  1920.5000      0.0000    813.7093      2.5471    114.7314
  1920.7500      0.0000    832.3760      2.4756    127.1027
  1921.0000      0.0000    819.2610      2.3951    138.2263
  1921.2500      0.0000    785.0408      2.3245    146.7454
  1921.5000      0.0000    746.3699      2.2745    152.1403
  1921.7500      0.0000    712.0917      2.2469    154.1583
  1922.0000      0.0000    683.3015      2.2401    152.8217
  1922.2500      0.0000    660.2956      2.2546    149.1434
  1922.5000      0.0000    644.4067      2.2885    144.9756
  1922.7500      0.0000    635.5558      2.3313    141.7704
  1923.0000      0.0000    631.5984      2.3662    139.9388
  1923.2500      0.0000    630.0345      2.3812    139.2309
  1923.5000      0.0000    629.2423      2.3729    139.0039
  1923.7500      0.0000    628.5468      2.3399    138.2644
  1924.0000      0.0000    627.8362      2.2787    136.2437
  1924.2500      0.0000    627.4479      2.1891    133.0992
  1924.5000      0.0000    628.3150      2.0805    129.8337
  1924.7500      0.0000    631.9999      1.9709    127.4895
  1925.0000      0.0000    639.9788      1.8792    126.3293
  1925.2500      0.0000    652.1744      1.8213    125.4697
  1925.5000      0.0000    666.0341      1.8088    123.3573
  1925.7500      0.0000    677.5629      1.8506    118.9722
  1926.0000      0.0000    683.5625      1.9484    112.7432
  1926.2500      0.0000    682.9274      2.0880    106.3822
  1926.5000      0.0000    676.5967      2.2323    102.0007
  1926.7500      0.0000    667.2811      2.3288    101.1965
  1927.0000      0.0000    658.7430      2.3363    104.3197
  1927.2500      0.0000    653.7150      2.2547    110.0090
  1927.5000      0.0000    652.0293      2.1254    115.6435
  1927.7500      0.0000    651.4825      1.9983    118.9329
  1928.0000      0.0000    650.4411      1.8997    119.3865
  1928.2500      0.0000    648.9346      1.8298    118.2302
  1928.5000      0.0000    647.6655      1.7823    116.9486
  1928.7500      0.0000    646.9374      1.7575    115.8241
  1929.0000      0.0000    646.5780      1.7566    113.8044
  1929.2500      0.0000    646.3171      1.7702    109.9082
  1929.5000      0.0000    646.0178      1.7820    104.8068
  1929.7500      0.0000    645.7073      1.7836    100.7260
  1930.0000      0.0000    645.5097      1.7809     99.5450
  1930.2500      0.0000    645.5469      1.7816    101.0441
  1930.5000      0.0000    645.9088      1.7821    103.2146
  1930.7500      0.0000    646.7195      1.7726    104.2057
  1931.0000      0.0000    648.2407      1.7522    103.6563
  1931.2500      0.0000    650.7526      1.7351    102.2430
  1931.5000      0.0000    654.0293      1.7406    100.4736
  1931.7500      0.0000    656.8255      1.7777     98.2602
  1932.0000      0.0000    657.3510      1.8364     95.6289
  1932.2500      0.0000    654.8852      1.8905     93.3378
  1932.5000      0.0000    650.8978      1.9140     92.2488
  1932.7500      0.0000    648.1384      1.9011     92.3118
  1933.0000      0.0000    648.4670      1.8742     92.6897
  1933.2500      0.0000    651.5145      1.8698     92.7354
  1933.5000      0.0000    655.1104      1.9083     92.4562
  1933.7500      0.0000    656.8972      1.9749     92.2968
  1934.0000      0.0000    655.9504      2.0314     92.9806
  1934.2500      0.0000    653.2067      2.0492     95.2145
  1934.5000      0.0000    650.4704      2.0295     98.8048
  1934.7500      0.0000    649.2380      1.9946    102.2527
  1935.0000      0.0000    650.4290      1.9679    104.0544
  1935.2500      0.0000    654.5000      1.9635    104.4304
  1935.5000      0.0000    661.0927      1.9854    105.1144
  1935.7500      0.0000    668.5838      2.0241    107.4684
  1936.0000      0.0000    674.4979      2.0548    111.4019
  1936.2500      0.0000    676.6917      2.0499    116.1020
  1936.5000      0.0000    674.4822      1.9997    121.0768
  1936.7500      0.0000    669.2748      1.9201    126.1654
  1937.0000      0.0000    664.2225      1.8347    131.0145
  1937.2500      0.0000    662.2684      1.7572    135.1676
  1937.5000      0.0000    663.6469      1.6895    138.5730
  1937.7500      0.0000    665.7618      1.6332    141.4353
  1938.0000      0.0000    666.1945      1.5933    143.3105
  1938.2500      0.0000    665.6621      1.5764    142.7409
  1938.5000      0.0000    667.6893      1.5898    138.3812
  1938.7500      0.0000    675.1119      1.6404    130.5326
  1939.0000      0.0000    686.3527      1.7301    121.2089
  1939.2500      0.0000    695.2130      1.8481    112.6873
  1939.5000      0.0000    695.5308      1.9683    106.2369
  1939.7500      0.0000    686.6204      2.0555    101.9775
  1940.0000      0.0000    673.5174      2.0818     99.2404
  1940.2500      0.0000    662.1111      2.0447     96.9199
  1940.5000      0.0000    655.0621      1.9726     94.2134
  1940.7500      0.0000    651.9870      1.9072     91.6350
  1941.0000      0.0000    651.8602      1.8763     90.9462
  1941.2500      0.0000    654.2753      1.8791     93.5539
  1941.5000      0.0000    658.6288      1.8923     99.1588
  1941.7500      0.0000    663.0328      1.8900    106.3506
  1942.0000      0.0000    665.1730      1.8618    114.0226
  1942.2500      0.0000    664.5428      1.8164    121.5892
  1942.5000      0.0000    662.8412      1.7699    128.3057
  1942.7500      0.0000    661.4877      1.7348    133.2281
  1943.0000      0.0000    659.5270      1.7180    135.9671
  1943.2500      0.0000    654.9706      1.7197    137.2202
