~Version Information
VERS.                      2.0: CWLS Log ASCII Standard - VERSION 2.0
WRAP.                       NO: One line per depth step
~Well Information Block
STRT.FT                -8.2500: 
STOP.FT              2725.7500: 
STEP.FT                 0.2500: 
NULL.                -999.2500: 
COMP.          Pioneer Natural Resources: COMPANY
WELL.          Rabbit Bush Federal 44-19: WELL
FLD.           Purgatoire River: FIELD
LOC.           826' FSL & 1127' FEL: LOCATION
CNTY.               Las Animas: COUNTY
SRVC.                Patterson: SERVICE COMPANY
DATE.          Thu Sep 14 10:51:19 2006: LOG DATE
UWI.           05 071 08149 00: UNIQUE WELL ID
STAT.                       CO: STATE
~Curve Information Block
DEPT.FT            0 000 00 00: Depth
GR.GAPI                       : Gamma Ray
CCL.                          : Casing Collar Locator
TT3.usec                      : CBL 3' Travel Time
AMP3.mV                       : CBL 3' Amplitude
~Parameter Information Block
~A  Depth        GR         CCL         TT3         AMP3    
# ...
  1800.7500     83.3644      0.0000    505.6434      6.0423
  1801.0000     76.8052      0.0000    521.4280      5.8910
  1801.2500     72.3905      0.0000    517.5458      5.7774
  1801.5000     71.6350      0.0000    503.7207      5.7561
  1801.7500     74.6860      0.0000    494.4298      5.8579
  1802.0000     80.5965      0.0000    496.9477      6.0734
  1802.2500     87.6260      0.0000    505.7707      6.3562
  1802.5000     93.5247      0.0000    508.0936      6.6385
  1802.7500     96.2718      0.0000    497.6929      6.8506
  1803.0000     94.8229      0.0000    484.1936      6.9388
  1803.2500     89.2730      0.0000    485.9644      6.8812
  1803.5000     80.7334      0.0000    512.3531      6.6952
  1803.7500     71.2728      0.0000    553.7992      6.4313
  1804.0000     63.5479      0.0000    589.8749      6.1549
  1804.2500     59.8384      0.0000    606.0908      5.9237
  1804.5000     60.9536      0.0000    601.8840      5.7713
  1804.7500     65.9251      0.0000    583.7301      5.7010
  1805.0000     72.8832      0.0000    555.0676      5.6926
  1805.2500     80.2003      0.0000    516.3305      5.7124
  1805.5000     86.9123      0.0000    472.0604      5.7186
  1805.7500     92.5930      0.0000    432.3758      5.6737
  1806.0000     97.1307      0.0000    406.4172      5.5757
  1806.2500    100.3776      0.0000    397.1218      5.4772
  1806.5000    102.0360      0.0000    402.1680      5.4563
  1806.7500    102.0344      0.0000    416.5589      5.5639
  1807.0000    100.5610      0.0000    433.0199      5.8013
  1807.2500     97.6473      0.0000    443.3176      6.1320
  1807.5000     93.6283      0.0000    443.6365      6.4941
  1807.7500     90.0440     -1.4185    439.9394      6.8143
  1808.0000     88.7630      1.5182    445.9796      7.0318
  1808.2500     90.0330      0.0000    473.3056      7.1183
  1808.5000     92.6470      0.0000    521.0906      7.0903
  1808.7500     96.2807      0.0000    575.2651      7.0143
  1809.0000    102.2200      0.0000    618.8781      6.9733
  1809.2500    110.8262      0.0000    643.9619      6.9938
  1809.5000    119.3834      0.0000    653.2208      7.0143
  1809.7500    123.8898      0.0000    652.0536      6.9543
  1810.0000    122.8806      0.0000    641.6337      6.7978
  1810.2500    118.8291      0.0000    620.2277      6.5899
  1810.5000    115.9814      0.0000    590.2917      6.3748
  1810.7500    117.1523      0.0000    562.9532      6.1661
  1811.0000    122.2904      0.0000    553.2110      5.9595
  1811.2500    129.5675      0.0000    568.6338      5.7559
  1811.5000    137.3157      0.0000    602.6816      5.5705
  1811.7500    144.6542      0.0000    639.9650      5.4279
  1812.0000    150.9246      0.0000    667.6728      5.3489
  1812.2500    155.5354      0.0000    681.9133      5.3371
  1812.5000    158.2429      0.0000    685.7352      5.3714
  1812.7500    158.6781      0.0000    684.3937      5.4120
  1813.0000    155.6702      0.0000    682.4729      5.4192
  1813.2500    148.0302      0.0000    682.6264      5.3695
  1813.5000    136.2301      0.0000    685.0446      5.2533
  1813.7500    122.6727      0.0000    688.2312      5.0665
  1814.0000    110.2659      0.0000    691.2821      4.8138
  1814.2500    100.9981      0.0000    696.3403      4.5154
  1814.5000     95.3699      0.0000    709.8724      4.2036
  1814.7500     92.6325      0.0000    741.0115      3.9197
  1815.0000     91.7993      0.0000    794.5804      3.7111
  1815.2500     92.5207      0.0000    861.3110      3.6110
  1815.5000     94.7473      0.0000    916.4387      3.6070
  1815.7500     98.0438      0.0000    934.4824      3.6434
  1816.0000    101.8423      0.0000    908.4869      3.6627
  1816.2500    105.8273      0.0000    853.5293      3.6439
  1816.5000    109.4319      0.0000    792.9059      3.6047
  1816.7500    111.6430      0.0000    743.4735      3.5843
  1817.0000    112.2902      0.0000    710.9861      3.6267
  1817.2500    112.9657      0.0000    693.1596      3.7701
  1817.5000    115.4548      0.0000    684.8036      4.0409
  1817.7500    119.4006      0.0000    681.5778      4.4390
  1818.0000    122.5549      0.0000    680.9155      4.9145
  1818.2500    123.1199      0.0000    680.8719      5.3729
  1818.5000    120.7827      0.0000    679.2106      5.7262
  1818.7500    115.8112      0.0000    673.7743      5.9417
  1819.0000    108.7644      0.0000    662.7378      6.0364
  1819.2500    101.3055      0.0000    644.1512      6.0416
  1819.5000     95.9481      0.0000    617.3168      5.9902
  1819.7500     94.5954      0.0000    587.3200      5.9246
  1820.0000     97.7060      0.0000    566.8167      5.8899
  1820.2500    104.1976      0.0000    568.2854      5.9124
  1820.5000    111.3186      0.0000    592.4604      5.9914
  1820.7500    115.5186      0.0000    626.9180      6.1082
  1821.0000    114.8585      0.0000    656.7953      6.2362
  1821.2500    110.4915      0.0000    674.7829      6.3494
  1821.5000    105.2852      0.0000    681.5709      6.4300
  1821.7500    101.3988      0.0000    681.0530      6.4706
  1822.0000     99.4614      0.0000    677.2667      6.4725
  1822.2500     99.2566      0.0000    673.7347      6.4470
  1822.5000    100.2508      0.0000    672.3744      6.4131
  1822.7500    101.6267      0.0000    671.8297      6.3870
  1823.0000    102.7283      0.0000    667.6185      6.3726
  1823.2500    103.8951      0.0000    655.1292      6.3662
  1823.5000    106.4606      0.0000    633.9312      6.3656
  1823.7500    111.3826      0.0000    610.4198      6.3719
  1824.0000    117.5616      0.0000    595.4435      6.3885
  1824.2500    121.7024      0.0000    596.6390      6.4227
  1824.5000    120.4100      0.0000    612.1579      6.4842
  1824.7500    112.8952      0.0000    633.0810      6.5764
  1825.0000    101.7372      0.0000    651.5319      6.6887
  1825.2500     90.9658      0.0000    664.9013      6.8024
  1825.5000     83.3843      0.0000    673.6934      6.9055
  1825.7500     79.5532      0.0000    678.6107      6.9956
  1826.0000     78.8880      0.0000    680.3857      7.0679
  1826.2500     81.1453      0.0000    680.3015      7.1060
  1826.5000     86.4424      0.0000    679.4589      7.0982
  1826.7500     93.9782      0.0000    678.0228      7.0561
  1827.0000    101.4578      0.0000    675.2567      7.0045
  1827.2500    106.4409      0.0000    669.0381      6.9495
  1827.5000    108.2908      0.0000    655.6656      6.8698
  1827.7500    108.5584      0.0000    632.7609      6.7460
  1828.0000    109.3430      0.0000    603.2422      6.5902
  1828.2500    111.2051      0.0000    574.1789      6.4453
  1828.5000    112.6481      0.0000    551.4979      6.3585
  1828.7500    111.5781      0.0000    537.5445      6.3496
  1829.0000    107.1063      0.0000    531.9225      6.3969
  1829.2500    100.0443      0.0000    531.1154      6.4503
  1829.5000     92.3147      0.0000    528.8036      6.4662
  1829.7500     86.3533      0.0000    520.4823      6.4358
  1830.0000     84.3958      0.0000    507.6067      6.3821
  1830.2500     87.1038      0.0000    495.3163      6.3323
  1830.5000     92.6052      0.0000    487.1125      6.2995
  1830.7500     97.7319      0.0000    482.9914      6.2846
  1831.0000    100.8922      0.0000    481.2950      6.2864
  1831.2500    103.5882      0.0000    480.6446      6.3057
  1831.5000    108.7559      0.0000    480.3925      6.3427
  1831.7500    117.7315      0.0000    480.3293      6.3901
  1832.0000    129.0992      0.0000    480.6122      6.4302
  1832.2500    140.1584      0.0000    481.9942      6.4444
  1832.5000    148.6411      0.0000    486.0232      6.4295
  1832.7500    152.7887      0.0000    495.0517      6.4004
  1833.0000    151.1201      0.0000    511.8076      6.3747
  1833.2500    143.5177      0.0000    537.5832      6.3594
  1833.5000    132.3272      0.0000    568.9340      6.3532
  1833.7500    121.5735      0.0000    596.7802      6.3535
  1834.0000    114.6863      0.0000    612.3035      6.3584
