~Version Information
VERS.                      2.0: CWLS Log ASCII Standard - VERSION 2.0
WRAP.                       NO: One line per depth step
~Well Information Block
STRT.FT               555.6000: 
STOP.FT              2132.0000: 
STEP.FT                 0.1000: 
NULL.                -999.2500: 
COMP.          Petrogulf Corporation: COMPANY
WELL.           Montoya 12-41R: WELL
FLD.           Purgatorie River: FIELD
LOC.           1086' FNL & 610' FEL: LOCATION
CNTY.               Las Animas: COUNTY
SRVC.                         : SERVICE COMPANY
DATE.          Thu Nov 18 08:45:51 2004: LOG DATE
UWI.           05 071 08241 00: UNIQUE WELL ID
STAT.                 Colorado: STATE
~Curve Information Block
DEPT.FT            0 000 00 00: Depth
DCAL.in                       : CDL Caliper
RHOB.g/cc                     : CDL Bulk Density
RHOC.g/cc                     : CDL Density Correction
DPOR.pu                       : CDL Density Porosity
GR.GAPI                       : Gamma Ray
NPOR.pu                       : Neutron Porosity
~Parameter Information Block
~A  Depth       DCAL        RHOB        RHOC        DPOR         GR         NPOR    
# ...
  2014.8000      7.8676      2.4343      0.0106     13.0741    135.3862     23.3975
  2014.9000      7.8676      2.4463      0.0443     12.3462    145.4832     23.7106
  2015.0000      7.8745      2.4551      0.0255     11.8092    153.2852     24.4598
  2015.1000      7.8745      2.4741      0.0198     10.6589    152.0503     25.3086
  2015.2000      7.8745      2.5038      0.0675      8.8614    143.6751     25.7574
  2015.3000      7.8743      2.5295      0.0791      7.3060    137.8058     25.7111
  2015.4000      7.8743      2.5492      0.0614      6.1118    138.6495     25.4132
  2015.5000      7.8868      2.5679      0.0515      4.9757    142.6116     25.4001
  2015.6000      7.8868      2.5808      0.0690      4.1939    146.0603     25.8546
  2015.7000      7.8868      2.5792      0.0787      4.2889    146.0419     25.6681
  2015.8000      7.9024      2.5621      0.0747      5.3285    141.8471     24.1085
  2015.9000      7.9024      2.5401      0.0319      6.6631    140.3183     22.8946
  2016.0000      7.9081      2.5244      0.0371      7.6142    147.1063     23.7825
  2016.1000      7.9081      2.5176      0.0155      8.0220    154.4239     25.6321
  2016.2000      7.9081      2.5222      0.0050      7.7463    152.4234     26.4366
  2016.3000      7.9058      2.5377      0.0441      6.8045    146.6804     26.0187
  2016.4000      7.9058      2.5517      0.0435      5.9561    148.1784     25.0368
  2016.5000      7.9009      2.5536      0.0370      5.8398    153.9672     24.1281
  2016.6000      7.9009      2.5430      0.0679      6.4827    153.0955     24.2118
  2016.7000      7.9009      2.5298      0.0076      7.2859    144.9410     25.1906
  2016.8000      7.8945      2.5298     -0.0180      7.2841    138.9473     25.5923
  2016.9000      7.8945      2.5396      0.0175      6.6903    138.9349     24.9124
  2017.0000      7.8866      2.5351      0.0425      6.9613    142.9099     24.5425
  2017.1000      7.8866      2.5137     -0.0000      8.2634    148.7314     24.8931
  2017.2000      7.8866      2.4994     -0.0211      9.1284    152.1060     24.7943
  2017.3000      7.8755      2.5062      0.0146      8.7180    152.3866     23.9432
  2017.4000      7.8755      2.5212      0.0383      7.8057    154.5843     22.8840
  2017.5000      7.8628      2.5232      0.0420      7.6850    157.2668     22.3826
  2017.6000      7.8628      2.5131      0.0106      8.2961    154.3820     22.8806
  2017.7000      7.8628      2.5121      0.0220      8.3590    146.9220     23.5067
  2017.8000      7.8587      2.5248      0.0529      7.5860    139.2109     23.4613
  2017.9000      7.8587      2.5342      0.0582      7.0159    134.8646     23.1537
  2018.0000      7.8665      2.5291      0.0378      7.3247    136.2723     23.1342
  2018.1000      7.8665      2.5163      0.0443      8.1008    139.5190     23.6255
  2018.2000      7.8665      2.5036      0.0162      8.8701    139.0854     24.1957
  2018.3000      7.8799      2.4943      0.0340      9.4343    135.7899     24.2004
  2018.4000      7.8799      2.4997     -0.0260      9.1090    133.2149     23.7249
  2018.5000      7.8884      2.5215      0.0346      7.7870    132.3582     23.1762
  2018.6000      7.8884      2.5347      0.0535      6.9854    129.9406     22.5485
  2018.7000      7.8884      2.5269      0.0083      7.4603    124.7290     21.6557
  2018.8000      7.8843      2.5170      0.0104      8.0594    121.7769     21.0568
  2018.9000      7.8843      2.5224      0.0091      7.7307    125.8724     21.0946
  2019.0000      7.8859      2.5382      0.0613      6.7756    130.9067     21.1523
  2019.1000      7.8859      2.5488      0.0550      6.1317    129.5720     21.0712
  2019.2000      7.8859      2.5525      0.0513      5.9098    126.6356     20.9875
  2019.3000      7.9079      2.5570      0.0453      5.6338    124.4128     20.4882
  2019.4000      7.9079      2.5634      0.0698      5.2477    120.8462     19.6773
  2019.5000      7.9301      2.5662      0.0633      5.0774    119.1317     19.1954
  2019.6000      7.9301      2.5610      0.0724      5.3951    120.6433     19.0767
  2019.7000      7.9301      2.5572      0.0261      5.6239    123.5868     19.3032
  2019.8000      7.9230      2.5698      0.0508      4.8605    124.7585     19.9973
  2019.9000      7.9230      2.5890      0.0877      3.6961    121.8894     20.9572
  2020.0000      7.8907      2.5901      0.1029      3.6299    120.0832     21.9102
  2020.1000      7.8907      2.5690      0.0697      4.9091    126.6577     22.4052
  2020.2000      7.8907      2.5438      0.0541      6.4340    138.7486     22.3715
  2020.3000      7.8580      2.5251      0.0959      7.5681    148.9716     22.7297
  2020.4000      7.8580      2.5089      0.0530      8.5490    152.8579     23.8048
  2020.5000      7.8431      2.4968      0.0523      9.2829    146.8739     24.7668
  2020.6000      7.8431      2.4880      0.0314      9.8154    135.8923     25.1970
  2020.7000      7.8431      2.4765      0.0048     10.5172    129.2528     25.6610
  2020.8000      7.8500      2.4628      0.0238     11.3456    128.4351     26.4595
  2020.9000      7.8500      2.4439      0.0234     12.4896    131.1397     27.3387
  2021.0000      7.8708      2.4130      0.0276     14.3663    135.3955     28.2157
  2021.1000      7.8708      2.3778     -0.0251     16.4994    139.1566     28.7500
  2021.2000      7.8708      2.3544     -0.0334     17.9172    137.6364     28.3310
  2021.3000      7.8736      2.3428     -0.0004     18.6191    129.2735     27.2718
  2021.4000      7.8736      2.3334      0.0098     19.1849    123.7378     26.7944
  2021.5000      7.8579      2.3277      0.0188     19.5317    128.6629     27.2410
  2021.6000      7.8579      2.3333      0.0224     19.1959    139.0254     27.6543
  2021.7000      7.8579      2.3473      0.0728     18.3436    145.2885     27.1953
  2021.8000      7.8521      2.3543      0.1107     17.9208    142.2064     26.0750
  2021.9000      7.8521      2.3534      0.0757     17.9756    133.2155     25.3973
  2022.0000      7.8584      2.3617      0.1460     17.4730    129.8246     25.7265
  2022.1000      7.8584      2.3775      0.1687     16.5175    141.1760     26.2178
  2022.2000      7.8584      2.3861      0.1917     15.9922    161.2924     26.4665
  2022.3000      7.8689      2.3865      0.1515     15.9702    176.8118     26.7023
  2022.4000      7.8689      2.3886      0.0995     15.8446    181.9486     26.8582
  2022.5000      7.8842      2.4027      0.1150     14.9887    180.3978     26.9484
  2022.6000      7.8842      2.4313      0.1466     13.2558    181.9890     27.0242
  2022.7000      7.8842      2.4648      0.1689     11.2217    190.0889     27.0926
  2022.8000      7.8885      2.4905      0.2136      9.6687    197.6660     27.0524
  2022.9000      7.8885      2.5031      0.1945      8.9016    201.1620     26.7205
  2023.0000      7.8705      2.5099      0.2030      8.4897    201.3235     26.2855
  2023.1000      7.8705      2.5187      0.1710      7.9587    198.2589     26.0221
  2023.2000      7.8705      2.5276      0.1802      7.4170    195.9336     25.8021
  2023.3000      7.8539      2.5284      0.1495      7.3687    196.1985     25.7369
  2023.4000      7.8539      2.5172      0.1453      8.0485    193.5976     26.3070
  2023.5000      7.8540      2.5026      0.1202      8.9349    189.1526     27.2606
  2023.6000      7.8540      2.5025      0.0820      8.9420    190.3843     27.9804
  2023.7000      7.8540      2.5168      0.1519      8.0757    197.5018     28.6461
  2023.8000      7.8507      2.5236      0.1166      7.6602    206.6917     28.9471
  2023.9000      7.8507      2.5150      0.0988      8.1838    212.3943     27.8661
  2024.0000      7.8468      2.5003      0.0641      9.0756    209.1960     25.9994
  2024.1000      7.8468      2.4851      0.0901      9.9930    201.0181     24.7138
  2024.2000      7.8468      2.4722      0.0464     10.7769    197.1265     24.6756
  2024.3000      7.8691      2.4682      0.0453     11.0156    197.4848     25.7379
