~Version Information
VERS.                      2.0: CWLS Log ASCII Standard - VERSION 2.0
WRAP.                       NO: One line per depth step
~Well Information Block
STRT.FT               440.0000: 
STOP.FT              1003.5000: 
STEP.FT                 0.2500: 
NULL.                -999.2500: 
COMP.          Pioneer Natural Resources: COMPANY
WELL.              Dylan 42-25: WELL
FLD.           Purgatoire River: FIELD
LOC.           2160' FNL & 855' FEL: LOCATION
PROV.                 Colorado: PROVINCE
CNTY.               Las Animas: COUNTRY
SRVC.                Patterson: SERVICE COMPANY
DATE.          Sat Apr 23 11:21:51 2005: LOG DATE
UWI.           05 071 08229 00: UNIQUE WELL ID
~Curve Information Block
DEPT.FT            0 000 00 00: Depth
SN.Ohm-m                      : IEL Short Normal
SP.mV                         : IEL Spontaneous Potential
DIR.Ohm-m                     : IEL Induction Resistivity
GR.GAPI                       : Gamma Ray
~Parameter Information Block
~A  Depth        SN          SP         DIR          GR     
# ...
   674.5000     27.1434    -12.0006     26.7404     93.3381
   674.7500     26.8150    -12.2672     26.8470     95.5231
   675.0000     26.5976    -12.5321     26.9656     97.0101
   675.2500     26.4771    -12.8291     27.0921     97.0137
   675.5000     26.4384    -13.1821     27.2417     95.9911
   675.7500     26.4705    -13.5954     27.4324     94.7851
   676.0000     26.5952    -14.0509     27.6725     92.4145
   676.2500     26.8679    -14.5148     27.9608     90.7375
   676.5000     27.3195    -14.9499     28.2950     88.6585
   676.7500     27.9171    -15.3257     28.6751     87.6718
   677.0000     28.5955    -15.6201     29.0962     86.4469
   677.2500     29.2906    -15.8160     29.5404     85.5403
   677.5000     29.9488    -15.9014     29.9790     83.8872
   677.7500     30.5433    -15.8729     30.3856     82.6770
   678.0000     31.0785    -15.7395     30.7468     81.0189
   678.2500     31.5528    -15.5201     31.0640     80.2633
   678.5000     31.9154    -15.2372     31.3483     80.1475
   678.7500     32.0976    -14.9093     31.6165     80.9606
   679.0000     32.1011    -14.5436     31.8873     83.2819
   679.2500     32.0246    -14.1331     32.1730     84.9911
   679.5000     31.9862    -13.6637     32.4694     86.6374
   679.7500     32.0297    -13.1245     32.7504     86.7618
   680.0000     32.1034    -12.5163     32.9735     85.6685
   680.2500     32.1210    -11.8531     33.0927     84.4988
   680.5000     32.0495    -11.1579     33.0757     82.8104
   680.7500     31.9390    -10.4534     32.9128     81.9524
   681.0000     31.8571     -9.7547     32.6155     81.0434
   681.2500     31.8024     -9.0672     32.2071     80.5053
   681.5000     31.6998     -8.3924     31.7182     79.3296
   681.7500     31.4796     -7.7357     31.1875     78.0438
   682.0000     31.1350     -7.1082     30.6573     75.1776
   682.2500     30.7024     -6.5243     30.1625     72.7194
   682.5000     30.2131     -5.9978     29.7215     68.5455
   682.7500     29.6804     -5.5403     29.3384     65.6443
   683.0000     29.1331     -5.1603     29.0127     61.4557
   683.2500     28.6384     -4.8620     28.7469     59.0948
   683.5000     28.2640     -4.6417     28.5481     56.9696
   683.7500     28.0283     -4.4862     28.4228     56.7430
   684.0000     27.9103     -4.3777     28.3732     57.6343
   684.2500     27.8868     -4.3036     28.3942     58.2868
   684.5000     27.9380     -4.2626     28.4730     58.1960
   684.7500     28.0512     -4.2607     28.5907     57.1649
   685.0000     28.2518     -4.3008     28.7225     54.3422
   685.2500     28.5956     -4.3737     28.8354     51.8642
   685.5000     29.1095     -4.4602     28.8909     47.6979
   685.7500     29.7621     -4.5407     28.8599     44.8809
   686.0000     30.4842     -4.6077     28.7500     41.1516
   686.2500     31.1836     -4.6697     28.6147     39.3314
   686.5000     31.7428     -4.7428     28.5243     37.8087
   686.7500     32.0290     -4.8372     28.5133     37.4156
   687.0000     31.9245     -4.9489     28.5485     37.3958
   687.2500     31.3949     -5.0629     28.5482     37.8444
   687.5000     30.5532     -5.1655     28.4386     39.7706
   687.7500     29.6160     -5.2567     28.1980     42.0717
   688.0000     28.7633     -5.3508     27.8515     46.5434
   688.2500     28.0464     -5.4656     27.4326     49.4890
   688.5000     27.4131     -5.6079     26.9574     52.6239
   688.7500     26.7954     -5.7651     26.4314     53.5444
   689.0000     26.1777     -5.9077     25.8713     53.5690
   689.2500     25.6104     -6.0011     25.3222     53.3296
   689.5000     25.1769     -6.0224     24.8492     53.8701
   689.7500     24.9254     -5.9746     24.5077     55.1896
   690.0000     24.8131     -5.8872     24.3040     57.7015
   690.2500     24.7720     -5.8032     24.1806     58.5087
   690.5000     24.8024     -5.7577     24.0424     56.9457
   690.7500     24.9161     -5.7569     23.8150     54.3623
   691.0000     25.0560     -5.7709     23.4879     50.2447
   691.2500     25.1134     -5.7505     23.1046     48.5594
   691.5000     24.9738     -5.6592     22.7152     48.7805
   691.7500     24.5854     -5.4926     22.3385     50.9161
   692.0000     24.0294     -5.2718     21.9581     56.6639
   692.2500     23.4562     -5.0226     21.5419     61.5844
   692.5000     22.9153     -4.7650     21.0629     69.3351
   692.7500     22.3122     -4.5128     20.5069     74.1549
   693.0000     21.5436     -4.2763     19.8681     80.1885
   693.2500     20.6013     -4.0646     19.1453     83.1353
   693.5000     19.5561     -3.8843     18.3482     85.8326
   693.7500     18.5149     -3.7378     17.5056     86.7575
   694.0000     17.6051     -3.6176     16.6629     87.4523
   694.2500     16.9223     -3.5075     15.8668     87.5306
   694.5000     16.4329     -3.3907     15.1486     86.8580
   694.7500     15.9919     -3.2614     14.5191     86.0223
   695.0000     15.5076     -3.1296     13.9754     85.1559
   695.2500     15.0220     -3.0141     13.5097     85.4376
   695.5000     14.6277     -2.9316     13.1139     87.3767
   695.7500     14.3641     -2.8881     12.7779     89.2911
   696.0000     14.1928     -2.8784     12.4880     92.1369
   696.2500     14.0453     -2.8908     12.2283     93.6364
   696.5000     13.8816     -2.9116     11.9879     95.2497
   696.7500     13.6912     -2.9239     11.7676     96.1764
   697.0000     13.4433     -2.9057     11.5815     97.7520
   697.2500     13.0634     -2.8368     11.4492     98.8042
   697.5000     12.4981     -2.7112     11.3849     99.7222
   697.7500     11.8141     -2.5435     11.3920     99.6096
   698.0000     11.2086     -2.3595     11.4661     98.3541
   698.2500     10.9134     -2.1811     11.6007     97.0868
   698.5000     11.1016     -2.0193     11.7922     95.6367
   698.7500     11.8131     -1.8758     12.0397     95.7111
   699.0000     12.8723     -1.7469     12.3433     97.7321
   699.2500     13.9382     -1.6258     12.7005     99.7755
   699.5000     14.7532     -1.5059     13.1039    102.4259
   699.7500     15.3141     -1.3880     13.5405    103.3709
   700.0000     15.7798     -1.2843     13.9951    103.4592
   700.2500     16.2921     -1.2139     14.4552    102.9498
   700.5000     16.8993     -1.1925     14.9147    102.1581
   700.7500     17.5785     -1.2240     15.3730    101.9943
   701.0000     18.2841     -1.2985     15.8315    102.4176
   701.2500     18.9727     -1.3987     16.2928    102.9285
   701.5000     19.6046     -1.5097     16.7648    103.4026
   701.7500     20.1439     -1.6224     17.2631    103.0799
   702.0000     20.5591     -1.7297     17.8075    101.0195
   702.2500     20.8390     -1.8225     18.4094     98.6201
   702.5000     21.0202     -1.8947     19.0557     94.4748
   702.7500     21.1633     -1.9485     19.6989     92.1301
   703.0000     21.2707     -1.9931     20.2624     89.8692
   703.2500     21.2596     -2.0360     20.6637     88.9501
   703.5000     21.0377     -2.0723     20.8480     87.5743
   703.7500     20.5744     -2.0817     20.8130     86.3306
   704.0000     19.8914     -2.0344     20.6090     84.0720
   704.2500     19.0767     -1.9066     20.3110     82.6289
   704.5000     18.3395     -1.6952     19.9853     81.1181
   704.7500     17.9502     -1.4241     19.6706     80.7141
   705.0000     18.0602     -1.1368     19.3827     81.0275
   705.2500     18.5819     -0.8779     19.1289     81.7287
   705.5000     19.2303     -0.6763     18.9179     83.0730
   705.7500     19.6963     -0.5380     18.7551     83.8492
   706.0000     19.8397     -0.4530     18.6339     84.6002
   706.2500     19.7540     -0.4105     18.5345     85.0095
   706.5000     19.6585     -0.4064     18.4371     86.0174
   706.7500     19.7188     -0.4400     18.3380     87.0360
   707.0000     19.9459     -0.5072     18.2551     88.7033
   707.2500     20.2426     -0.6021     18.2174     89.7111
   707.5000     20.5262     -0.7233     18.2488     91.1083
   707.7500     20.8001     -0.8773     18.3590     91.8804
