~Version Information
VERS.                      2.0: CWLS Log ASCII Standard - VERSION 2.0
WRAP.                       NO: One line per depth step
~Well Information Block
STRT.FT                -7.5000: 
STOP.FT              1716.7500: 
STEP.FT                 0.2500: 
NULL.                -999.2500: 
COMP.          Pioneer Natural Resources: COMPANY
WELL.          Lookout Point 31-23 Tr: WELL
FLD.           Purgatorie River: FIELD
LOC.           541' FNL & 1786' FEL--------: LOCATION
PROV.                       CO: PROVINCE
CNTY.               Las Animas: COUNTRY
SRVC.                         : SERVICE COMPANY
DATE.          Fri Jan 28 08:30:47 2005: LOG DATE
UWI.         005 071 08260 : UNIQUE WELL ID
~Curve Information Block
DEPT.FT            0 000 00 00: Depth
CCL.                          : Casing Collar Locator
TT3.usec                      : CBL 3' Travel Time
AMP3.mV                       : CBL 3' Amplitude
GR.GAPI                       : Gamma Ray
~Parameter Information Block
~A  Depth       CCL         TT3         AMP3         GR     
# ...
   428.0000      0.0000    733.6121      3.5594     70.3401
   428.2500      0.0000    731.3925      3.3993     73.2287
   428.5000      0.0000    730.9451      3.2795     75.6705
   428.7500      0.0000    735.8224      3.2609     76.3539
   429.0000      0.0000    745.2897      3.3585     74.7689
   429.2500      0.0000    754.4708      3.5421     72.0278
   429.5000      0.0000    758.6494      3.7624     70.0717
   429.7500      0.0000    757.0418      3.9778     69.6747
   430.0000      0.0000    752.5450      4.1634     69.5326
   430.2500      0.0000    748.6623      4.3059     67.6922
   430.5000      0.0000    747.2577      4.3921     63.5234
   430.7500      0.0000    748.5754      4.4029     58.0922
   431.0000      0.0000    752.0701      4.3222     53.1234
   431.2500      0.0000    756.7787      4.1571     49.9735
   431.5000      0.0000    761.7101      3.9517     49.3695
   431.7500      0.0000    766.5310      3.7747     51.7145
   432.0000      0.0000    771.3979      3.6889     57.1147
   432.2500      0.0000    775.6605      3.7255     64.6284
   432.5000      0.0000    777.4140      3.8784     71.7838
   432.7500      0.0000    775.0203      4.1144     75.6972
   433.0000      0.0000    768.5855      4.3860     75.1457
   433.2500      0.0000    759.3777      4.6416     71.5477
   433.5000      0.0000    748.3917      4.8313     67.8776
   433.7500      0.0000    736.3034      4.9134     66.5673
   434.0000      0.0000    724.4669      4.8621     68.1235
   434.2500      0.0000    714.9257      4.6801     71.2155
   434.5000      0.0000    709.2516      4.4101     73.8500
   434.7500      0.0000    707.7783      4.1282     74.7425
   435.0000      0.0000    709.8629      3.9161     74.0001
   435.2500      0.0000    714.5308      3.8287     72.6188
   435.5000      0.0000    721.0208      3.8800     71.2857
   435.7500      0.0000    728.7055      4.0470     69.8987
   436.0000      0.0000    735.8278      4.2836     68.2729
   436.2500      0.0000    738.6909      4.5343     66.6553
   436.5000      0.0000    734.0286      4.7478     65.2116
   436.7500      0.0000    722.9163      4.8844     63.6131
   437.0000      0.0000    710.8364      4.9173     61.5821
   437.2500      0.0000    703.1251      4.8350     59.4674
   437.5000      0.0000    701.3568      4.6480     57.9046
   437.7500      0.0000    704.1550      4.3935     57.1712
   438.0000      0.0000    709.5952      4.1300     57.1831
   438.2500      0.0000    715.7394      3.9220     57.8495
   438.5000      0.0000    720.1422      3.8200     59.0926
   438.7500      0.0000    720.7052      3.8421     60.7503
   439.0000      0.0000    717.3374      3.9694     62.8616
   439.2500      0.0000    711.9369      4.1595     65.7512
   439.5000      0.0000    706.4600      4.3689     69.3189
   439.7500      0.0000    701.4763      4.5673     72.5660
   440.0000      0.0000    696.8192      4.7397     74.2355
   440.2500      0.0000    693.2115      4.8813     73.6667
   440.5000      0.0000    692.4815      4.9924     71.1760
   440.7500      0.0000    695.7310      5.0779     68.3774
   441.0000      0.0000    701.7058      5.1494     67.9507
   441.2500      0.0000    707.7578      5.2224     72.0591
   441.5000      0.0000    712.3813      5.3073     80.5230
   441.7500      0.0000    716.3770      5.4009     90.7406
   442.0000      0.0000    721.6702      5.4879     99.6310
   442.2500      0.0000    729.3203      5.5466    105.7000
   442.5000      0.0000    738.6258      5.5522    109.2023
   442.7500      0.0000    747.7800      5.4808    110.5707
   443.0000      0.0000    755.0381      5.3211    109.4536
   443.2500      0.0000    759.5132      5.0945    105.7720
   443.5000      0.0000    761.5622      4.8614    101.2132
   443.7500      0.0000    762.4153      4.6943     98.7659
   444.0000      0.0000    762.9088      4.6272    100.4032
   444.2500      0.0000    762.0209      4.6268    105.4348
   444.5000      0.0000    756.4282      4.6207    111.0991
   444.7500      0.0000    741.8958      4.5537    114.3406
   445.0000      0.0000    716.3541      4.4175    113.0959
   445.2500      0.0000    682.7621      4.2378    106.9425
   445.5000      0.0000    649.3228      4.0506     97.3646
   445.7500      0.0000    626.1171      3.8883     87.0904
   446.0000      0.0000    619.7472      3.7725     78.6999
   446.2500      0.0000    629.8000      3.7109     73.6786
   446.5000      0.0000    649.8088      3.6978     72.1814
   446.7500      0.0000    671.3124      3.7180     72.9379
   447.0000      0.0000    687.8896      3.7517     73.6237
   447.2500      0.0000    697.3165      3.7832     72.2402
   447.5000      0.0000    701.3350      3.8092     68.4359
   447.7500      0.0000    703.3782      3.8390     63.2929
   448.0000      0.0000    705.8240      3.8833     57.9464
   448.2500      0.0000    708.7967      3.9404     52.7627
   448.5000      0.0000    711.0070      3.9939     47.7900
   448.7500      0.0000    710.9843      4.0294     43.5323
   449.0000      0.0000    707.2963      4.0630     40.9739
   449.2500      0.0000    698.6638      4.1523     40.9592
   449.5000      0.0000    685.7913      4.3555     43.7185
   449.7500      0.0000    673.7059      4.6601     48.8664
   450.0000      0.0000    670.3652      4.9657     55.5373
   450.2500      0.0000    680.7244      5.1639     62.3923
   450.5000      0.0000    702.2693      5.2278     67.8890
   450.7500      0.0000    726.9265      5.2075     71.0927
   451.0000      0.0000    746.4940      5.1582     72.4391
   451.2500     -2.0000    756.5737      5.0999     73.4835
   451.5000      0.0000    757.6797      5.0347     75.6821
   451.7500      0.0000    753.9009      4.9761     79.4005
   452.0000      0.0000    749.9381      4.9533     84.0907
   452.2500      0.0000    748.5502      4.9866     89.1781
   452.5000      0.0000    749.9755      5.0555     94.4285
   452.7500      0.0000    752.8193      5.0940     99.5265
   453.0000      0.0000    755.1686      5.0367    103.8005
   453.2500      0.0000    755.7004      4.8710    106.5252
   453.5000      0.0000    754.3785      4.6393    107.3170
   453.7500      0.0000    751.9572      4.3970    106.1889
   454.0000      0.0000    748.7508      4.1811    103.1668
   454.2500      0.0000    744.2026      4.0039     97.9508
   454.5000      0.0000    737.7198      3.8572     90.5812
   454.7500      0.0000    729.5690      3.7209     82.7020
   455.0000      0.0000    720.7418      3.5784     77.3438
   455.2500      0.0000    712.2529      3.4268     76.6625
   455.5000      0.0000    704.9640      3.2729     79.9662
   455.7500      0.0000    699.8382      3.1264     84.2354
   456.0000      0.0000    697.7680      2.9980     86.6321
   456.2500      0.0000    698.9091      2.8979     86.5389
   456.5000      0.0000    702.3110      2.8307     85.3004
   456.7500      0.0000    706.3422      2.7931     84.2636
   457.0000      0.0000    709.6208      2.7805     83.3869
   457.2500      0.0000    711.6644      2.7905     81.7884
   457.5000      0.0000    712.8550      2.8205     79.2539
   457.7500      0.0000    714.0955      2.8630     76.7335
   458.0000      0.0000    716.6706      2.9082     75.3526
   458.2500      0.0000    722.0911      2.9485     75.3384
   458.5000      0.0000    731.2487      2.9791     76.0975
   458.7500      0.0000    742.9773      2.9994     77.0533
   459.0000      0.0000    753.7956      3.0123     78.0843
   459.2500      0.0000    760.1923      3.0218     79.2769
   459.5000      0.0000    761.4640      3.0299     80.6161
   459.7500      0.0000    759.4841      3.0392     81.9660
   460.0000      0.0000    755.7511      3.0560     83.0752
   460.2500      0.0000    749.9542      3.0868     83.4488
   460.5000      0.0000    741.6836      3.1311     82.4454
   460.7500      0.0000    732.2363      3.1813     79.7914
   461.0000      0.0000    723.9972      3.2276     76.1569
   461.2500      0.0000    718.6336      3.2642     73.1497
