~Version Information
VERS.                      2.0: CWLS Log ASCII Standard - VERSION 2.0
WRAP.                       NO: One line per depth step
~Well Information Block
STRT.FT               605.6000: 
STOP.FT              1938.0000: 
STEP.FT                 0.1000: 
NULL.                -999.2500: 
COMP.          Petrogulf Corporation: COMPANY
WELL.              Graff 9-31R: WELL
FLD.           Purgatorie River: FIELD
LOC.           707' FNL & 1713' FEL: LOCATION
CNTY.               Las Animas: COUNTY
SRVC.                         : SERVICE COMPANY
DATE.          Mon Oct 25 06:13:30 2004: LOG DATE
UWI.           05 071 08037 00: UNIQUE WELL ID
STAT.                 Colorado: STATE
~Curve Information Block
DEPT.FT            0 000 00 00: Depth
DCAL.in                       : CDL Caliper
RHOB.g/cc                     : CDL Bulk Density
RHOC.g/cc                     : CDL Density Correction
DPOR.pu                       : CDL Density Porosity
GR.GAPI                       : Gamma Ray
NPOR.pu                       : Neutron Porosity
~Parameter Information Block
~A  Depth       DCAL        RHOB        RHOC        DPOR         GR         NPOR    
# ...
  1402.4000      7.9254      2.4641      0.0199     11.2665    147.6536     25.6097
  1402.5000      7.9156      2.4805      0.0892     10.2734    147.1426     24.8053
  1402.6000      7.9156      2.4986      0.1341      9.1739    155.5652     24.8457
  1402.7000      7.9156      2.5155      0.1548      8.1486    165.7498     25.4974
  1402.8000      7.9105      2.5286      0.1251      7.3556    170.2734     25.8294
  1402.9000      7.9105      2.5410      0.0929      6.6055    168.9159     25.8735
  1403.0000      7.9042      2.5524      0.1628      5.9173    166.1357     26.0987
  1403.1000      7.9042      2.5410      0.1884      6.6063    161.9543     26.3588
  1403.2000      7.9042      2.4972      0.1116      9.2580    156.4287     26.2736
  1403.3000      7.9092      2.4398      0.0947     12.7371    152.5868     25.7651
  1403.4000      7.9092      2.3868      0.0371     15.9487    149.4945     25.1944
  1403.5000      7.9073      2.3517     -0.0348     18.0800    145.8644     24.9225
  1403.6000      7.9073      2.3415     -0.0191     18.6975    145.0928     24.8400
  1403.7000      7.9073      2.3475     -0.0012     18.3336    147.5819     24.5181
  1403.8000      7.9066      2.3634     -0.0302     17.3687    150.0377     23.9305
  1403.9000      7.9066      2.3870      0.0768     15.9400    152.4480     23.4707
  1404.0000      7.9256      2.4108      0.0681     14.4965    155.8609     23.4133
  1404.1000      7.9256      2.4392      0.0864     12.7742    158.3055     23.6931
  1404.2000      7.9256      2.4747      0.1611     10.6256    158.2018     23.7502
  1404.3000      7.9330      2.5039      0.1598      8.8571    157.6786     23.0759
  1404.4000      7.9330      2.5212      0.1458      7.8066    158.6014     22.1696
  1404.5000      7.9354      2.5290      0.1803      7.3336    160.3645     21.7398
  1404.6000      7.9354      2.5281      0.1457      7.3894    160.2416     21.4770
  1404.7000      7.9354      2.5247      0.1225      7.5935    158.3627     21.2206
  1404.8000      7.9432      2.5231      0.1358      7.6932    161.3486     21.2874
  1404.9000      7.9432      2.5186      0.1298      7.9639    171.2002     21.6478
  1405.0000      7.9585      2.5055      0.1263      8.7550    182.1500     22.3511
  1405.1000      7.9585      2.4822      0.0798     10.1689    188.5638     23.0479
  1405.2000      7.9585      2.4575      0.0240     11.6697    188.1697     22.8335
  1405.3000      7.9638      2.4451      0.0224     12.4155    185.1097     21.9962
  1405.4000      7.9638      2.4518      0.0292     12.0145    182.0773     21.6405
  1405.5000      7.9571      2.4741      0.0674     10.6621    177.1812     21.9402
  1405.6000      7.9571      2.4942      0.1214      9.4420    172.0735     22.3524
  1405.7000      7.9571      2.4934      0.0958      9.4889    169.8926     22.3255
  1405.8000      7.9530      2.4731      0.0755     10.7202    170.6499     21.8034
  1405.9000      7.9530      2.4436      0.1219     12.5100    171.5499     21.0674
  1406.0000      7.9584      2.4126      0.0568     14.3860    170.6638     20.1817
  1406.1000      7.9584      2.3886      0.0414     15.8413    172.0995     19.2746
  1406.2000      7.9584      2.3624      0.0806     17.4315    178.1921     18.6914
  1406.3000      7.9398      2.3152      0.0704     20.2938    183.0398     18.6088
  1406.4000      7.9398      2.2609      0.0329     23.5805    182.1595     18.8888
  1406.5000      7.9367      2.2277      0.0911     25.5920    173.3304     19.2435
  1406.6000      7.9367      2.2127      0.1204     26.5037    159.8643     19.7125
  1406.7000      7.9367      2.2028      0.1086     27.1043    151.3436     20.6842
  1406.8000      7.9367      2.2008      0.1108     27.2273    150.6087     22.0598
  1406.9000      7.9367      2.2187      0.1634     26.1414    151.2452     23.2290
  1407.0000      7.9370      2.2675      0.1609     23.1815    148.1102     23.7037
  1407.1000      7.9370      2.3428      0.2378     18.6165    140.9186     23.6563
  1407.2000      7.9370      2.4171      0.2190     14.1161    133.4690     23.8288
  1407.3000      7.9327      2.4562      0.2496     11.7457    127.5393     24.5733
  1407.4000      7.9327      2.4561      0.0637     11.7521    121.6011     25.4708
  1407.5000      7.9376      2.4524      0.0490     11.9784    118.1996     25.8878
  1407.6000      7.9376      2.4719      0.0510     10.7932    119.5999     25.7267
  1407.7000      7.9376      2.5120      0.0593      8.3663    121.3474     25.5033
  1407.8000      7.9337      2.5530      0.1199      5.8768    119.4733     25.7058
  1407.9000      7.9337      2.5720      0.0994      4.7287    114.9859     26.1062
  1408.0000      7.9330      2.5676      0.0539      4.9951    109.6754     26.2589
  1408.1000      7.9330      2.5542      0.0762      5.8047    107.8736     26.2033
  1408.2000      7.9330      2.5367      0.0499      6.8694    113.0399     26.1320
  1408.3000      7.9262      2.5205      0.0300      7.8462    122.6488     26.0727
  1408.4000      7.9262      2.5129      0.0272      8.3097    132.3567     26.1329
  1408.5000      7.8993      2.5095      0.0596      8.5153    137.7595     26.1181
  1408.6000      7.8993      2.5104      0.0228      8.4601    137.0399     25.8638
  1408.7000      7.8993      2.5264      0.0598      7.4927    135.9364     25.7638
  1408.8000      7.8948      2.5535      0.1099      5.8493    140.2636     26.0339
  1408.9000      7.8948      2.5762      0.0657      4.4705    147.3086     26.6029
  1409.0000      7.8876      2.5895      0.0908      3.6691    152.5073     27.1590
  1409.1000      7.8876      2.5923      0.0840      3.4943    154.3352     27.2068
  1409.2000      7.8876      2.5877      0.0949      3.7761    153.6963     26.7801
  1409.3000      7.8867      2.5901      0.0793      3.6305    157.1179     26.4345
  1409.4000      7.8867      2.6137      0.1016      2.2027    164.8902     26.5896
  1409.5000      7.8842      2.6433      0.1582      0.4060    166.3192     26.9558
  1409.6000      7.8842      2.6466      0.1187      0.2086    158.0349     27.0179
  1409.7000      7.8842      2.6210      0.0880      1.7599    146.4666     26.6104
  1409.8000      7.8906      2.5884      0.0519      3.7310    139.6928     25.9072
  1409.9000      7.8906      2.5642      0.0579      5.2006    138.9035     25.3075
  1410.0000      7.8942      2.5500      0.0144      6.0602    138.9123     25.1933
  1410.1000      7.8942      2.5438      0.0147      6.4386    139.0078     25.5777
  1410.2000      7.8942      2.5487      0.0310      6.1394    138.8604     25.9988
  1410.3000      7.8840      2.5651      0.0599      5.1438    135.1530     26.2849
  1410.4000      7.8840      2.5767      0.0918      4.4424    133.4500     26.7610
  1410.5000      7.8883      2.5698      0.0519      4.8595    139.6372     27.3450
  1410.6000      7.8883      2.5528      0.0527      5.8923    145.7463     27.6792
  1410.7000      7.8883      2.5420      0.0510      6.5460    146.5445     27.6820
  1410.8000      7.8894      2.5471      0.0127      6.2367    146.7081     27.5545
  1410.9000      7.8894      2.5580      0.0772      5.5772    148.3565     27.4682
  1411.0000      7.8889      2.5554      0.0293      5.7317    149.0464     27.5775
  1411.1000      7.8889      2.5444      0.0142      6.3992    145.8350     27.6806
  1411.2000      7.8889      2.5443      0.0146      6.4054    138.5508     27.4166
  1411.3000      7.8904      2.5681     -0.0233      4.9646    131.7337     26.8757
  1411.4000      7.8904      2.6154      0.0616      2.0965    131.3274     26.0261
  1411.5000      7.8849      2.6553      0.0982     -0.3205    134.8593     24.8930
  1411.6000      7.8849      2.6529      0.0387     -0.1756    136.1805     23.9545
  1411.7000      7.8849      2.6155      0.0242      2.0915    135.8785     23.4272
  1411.8000      7.8799      2.5672     -0.0441      5.0192    134.6889     23.0666
  1411.9000      7.8799      2.5170     -0.0047      8.0631    130.9122     22.4635
