~Version Information
VERS.                      2.0: CWLS Log ASCII Standard - VERSION 2.0
WRAP.                       NO: One line per depth step
~Well Information Block
STRT.FT               583.0000: 
STOP.FT              1701.5000: 
STEP.FT                 0.2500: 
NULL.                -999.2500: 
COMP.          Pioneer Natural Resources: COMPANY
WELL.          Scott Canyon 11-18 Tr: WELL
FLD.           Purgatoire River: FIELD
LOC.           411' FNL & 580' FWL: LOCATION
PROV.                 Colorado: PROVINCE
CNTY.               Las Animas: COUNTRY
SRVC.                Patterson: SERVICE COMPANY
DATE.          Thu Feb 17 02:07:21 2005: LOG DATE
UWI.           05 071 08286 00: UNIQUE WELL ID
~Curve Information Block
DEPT.FT            0 000 00 00: Depth
SN.Ohm-m                      : IEL Short Normal
SP.mV                         : IEL Spontaneous Potential
DIR.Ohm-m                     : IEL Induction Resistivity
GR.GAPI                       : Gamma Ray
~Parameter Information Block
~A  Depth        SN          SP         DIR          GR     
# ...
  1286.5000     28.3454    -10.1094     20.9215     87.8219
  1286.7500     27.9602     -9.8325     20.6358     87.7999
  1287.0000     27.7015     -9.6401     20.4827     88.3443
  1287.2500     27.5384     -9.5058     20.3473     89.0607
  1287.5000     27.3543     -9.3880     20.1666     90.6129
  1287.7500     27.0037     -9.2558     19.9296     91.7116
  1288.0000     26.4145     -9.1088     19.6533     92.8754
  1288.2500     25.6321     -8.9723     19.3617     93.1845
  1288.5000     24.7792     -8.8725     19.0747     93.2279
  1288.7500     23.9889     -8.8184     18.7984     93.4178
  1289.0000     23.3354     -8.7981     18.5208     94.9807
  1289.2500     22.7878     -8.7875     18.2193     97.2994
  1289.5000     22.2483     -8.7657     17.8834    102.2711
  1289.7500     21.6654     -8.7294     17.5309    105.6672
  1290.0000     21.1085     -8.6954     17.2037    109.1669
  1290.2500     20.7227     -8.6889     16.9427    109.8045
  1290.5000     20.5887     -8.7238     16.7650    107.8045
  1290.7500     20.6234     -8.7913     16.6596    104.6708
  1291.0000     20.6429     -8.8608     16.5998     98.7357
  1291.2500     20.5373     -8.8903     16.5627     95.4945
  1291.5000     20.3570     -8.8473     16.5413     94.2464
  1291.7500     20.2355     -8.7293     16.5459     96.2695
  1292.0000     20.2678     -8.5678     16.5971    101.7897
  1292.2500     20.4338     -8.4054     16.7148    105.1820
  1292.5000     20.5950     -8.2674     16.9065    107.3019
  1292.7500     20.6027     -8.1507     17.1592    106.6398
  1293.0000     20.4464     -8.0313     17.4389    104.2916
  1293.2500     20.2763     -7.8793     17.7026    102.8626
  1293.5000     20.2791     -7.6743     17.9161    101.2214
  1293.7500     20.5573     -7.4176     18.0680     99.9798
  1294.0000     21.0801     -7.1335     18.1697     97.4476
  1294.2500     21.6865     -6.8574     18.2411     95.6530
  1294.5000     22.1827     -6.6187     18.2925     93.7777
  1294.7500     22.4938     -6.4288     18.3134     93.4210
  1295.0000     22.6855     -6.2792     18.2786     94.2495
  1295.2500     22.8200     -6.1478     18.1684     95.4602
  1295.5000     22.8442     -6.0098     17.9883     97.5666
  1295.7500     22.6416     -5.8461     17.7659     98.7765
  1296.0000     22.1539     -5.6484     17.5312    100.0099
  1296.2500     21.4436     -5.4200     17.3007    100.6274
  1296.5000     20.6644     -5.1742     17.0824    102.1447
  1296.7500     19.9555     -4.9283     16.8898    104.0928
  1297.0000     19.3491     -4.6963     16.7433    108.4193
  1297.2500     18.7918     -4.4890     16.6564    111.5481
  1297.5000     18.2634     -4.3175     16.6221    115.1332
  1297.7500     17.8423     -4.1955     16.6139    116.2909
  1298.0000     17.6043     -4.1348     16.6017    115.9652
  1298.2500     17.5490     -4.1424     16.5659    114.4304
  1298.5000     17.6849     -4.2193     16.5039    110.6292
  1298.7500     18.0509     -4.3597     16.4262    107.5484
  1299.0000     18.6401     -4.5462     16.3487    102.6419
  1299.2500     19.3781     -4.7466     16.2850     99.3494
  1299.5000     20.1359     -4.9193     16.2390     95.0811
  1299.7500     20.7603     -5.0319     16.1992     93.3739
  1300.0000     21.1349     -5.0734     16.1411     93.3846
  1300.2500     21.1856     -5.0507     16.0372     95.0997
  1300.5000     20.8626     -4.9751     15.8719     99.4452
  1300.7500     20.1992     -4.8575     15.6489    102.8291
  1301.0000     19.3497     -4.7086     15.3876    107.5047
  1301.2500     18.5062     -4.5349     15.1145    109.9586
  1301.5000     17.7995     -4.3316     14.8556    112.6000
  1301.7500     17.2640     -4.0833     14.6299    113.9343
  1302.0000     16.8519     -3.7762     14.4448    115.8612
  1302.2500     16.5007     -3.4142     14.2953    117.2354
  1302.5000     16.2063     -3.0253     14.1684    119.1118
  1302.7500     16.0206     -2.6545     14.0534    119.8097
  1303.0000     15.9971     -2.3461     13.9497    119.2851
  1303.2500     16.1500     -2.1228     13.8665    117.6583
  1303.5000     16.4396     -1.9755     13.8135    113.3838
  1303.7500     16.7977     -1.8745     13.7897    109.5897
  1304.0000     17.1761     -1.7942     13.7773    103.2093
  1304.2500     17.5576     -1.7303     13.7453     98.9422
  1304.5000     17.9238     -1.6935     13.6595     93.1207
  1304.7500     18.2358     -1.6916     13.4952     89.9334
  1305.0000     18.4479     -1.7173     13.2463     86.8518
  1305.2500     18.5239     -1.7532     12.9261     86.3061
  1305.5000     18.4421     -1.7827     12.5597     88.0175
  1305.7500     18.1814     -1.7967     12.1727     90.7689
  1306.0000     17.6903     -1.7940     11.7838     96.9391
  1306.2500     16.9123     -1.7799     11.4042    102.0156
  1306.5000     15.8784     -1.7634     11.0391    109.9861
  1306.7500     14.7284     -1.7464     10.6898    114.9261
  1307.0000     13.6193     -1.7115     10.3550    121.5221
  1307.2500     12.6515     -1.6237     10.0322    125.6813
  1307.5000     11.8652     -1.4509      9.7193    131.8249
  1307.7500     11.2619     -1.1909      9.4159    135.4508
  1308.0000     10.8284     -0.8821      9.1240    139.0575
  1308.2500     10.5349     -0.5873      8.8465    139.9066
  1308.5000     10.3106     -0.3604      8.5865    139.2159
  1308.7500     10.0395     -0.2198      8.3478    137.9976
  1309.0000      9.6114     -0.1462      8.1353    135.9699
  1309.2500      9.0222     -0.0996      7.9566    134.8347
  1309.5000      8.4225     -0.0391      7.8215    133.5218
  1309.7500      8.0063      0.0629      7.7389    132.6125
  1310.0000      7.8704      0.2120      7.7122    130.5767
  1310.2500      8.0343      0.3895      7.7344    128.7113
  1310.5000      8.4851      0.5599      7.7872    125.7168
  1310.7500      9.1029      0.6884      7.8462    124.0703
  1311.0000      9.7018      0.7601      7.8892    122.7922
  1311.2500     10.2032      0.7903      7.9034    122.9276
  1311.5000     10.6176      0.8184      7.8887    124.5028
  1311.7500     10.9112      0.8842      7.8560    126.2315
  1312.0000     11.0393      1.0056      7.8226    129.4094
  1312.2500     11.0341      1.1774      7.8069    131.6814
  1312.5000     10.9722      1.3849      7.8220    134.8673
  1312.7500     10.9068      1.6140      7.8719    136.5111
  1313.0000     10.8503      1.8478      7.9498    137.5202
  1313.2500     10.7746      2.0594      8.0392    136.7734
  1313.5000     10.6171      2.2134      8.1186    133.2095
  1313.7500     10.3091      2.2807      8.1697    129.4256
  1314.0000      9.8136      2.2578      8.1858    122.4616
  1314.2500      9.1596      2.1719      8.1731    117.6130
  1314.5000      8.4833      2.0658      8.1463    111.7195
  1314.7500      8.0451      1.9790      8.1192    109.9594
  1315.0000      8.1213      1.9368      8.0993    111.8923
  1315.2500      8.7804      1.9461      8.0864    115.7477
  1315.5000      9.7803      1.9919      8.0743    122.6773
  1315.7500     10.7421      2.0432      8.0535    126.5030
  1316.0000     11.4070      2.0679      8.0148    130.2663
  1316.2500     11.7166      2.0456      7.9534    132.0232
  1316.5000     11.7399      1.9721      7.8730    134.6623
  1316.7500     11.5926      1.8588      7.7857    136.5787
  1317.0000     11.3771      1.7294      7.7067    139.4145
  1317.2500     11.1484      1.6112      7.6497    141.2446
  1317.5000     10.9113      1.5262      7.6233    144.0063
  1317.7500     10.6407      1.4875      7.6300    145.6228
  1318.0000     10.3446      1.5068      7.6666    146.6722
  1318.2500     10.1207      1.5990      7.7261    145.9319
  1318.5000     10.0598      1.7741      7.7998    142.5548
  1318.7500     10.1355      2.0201      7.8819    138.9780
  1319.0000     10.3003      2.2980      7.9717    131.7942
  1319.2500     10.5919      2.5589      8.0746    125.9064
  1319.5000     11.0766      2.7703      8.2005    116.1071
  1319.7500     11.7497      2.9307      8.3622    109.6398
