~Version Information
 VERS.                                  2.0 : CWLS LAS VERSION
 WRAP.                                   NO : WRAPING MODE
 SWARE .                 MController 2.5.0H : SOFTWARE VERSION
~Well Information
 WELL.                Scott Canyon 11-18 TR : WELL
 COMP.    Pioneer Natural Resources USA Inc : COMPANY
 FLD.                      Purgatoire River : FIELD
 LOC.                NW/NW Sec 18 T32S R65W : LOCATION
 DATE.                              2/16/05 : DATE(S) LOGGED
 SRVC.       Blanco Geological Services LLC : SERVICE COMPANY
 STAT.                                   CO : STATE
 CNTY.                           Las Animas : COUNTY
 CTRY.                                  USA : COUNTRY
 API.                       05-071-08286-00 : API NUMBER
 STRT.FT                             569.00 : START DEPTH
 STOP.FT                            1700.00 : STOP DEPTH
 STEP.FT                               1.00 : DEPTH INCREMENT
 NULL.                                -9999 : NULL VALUE
~Curve information
 DEPTH.FT                                   :
 ROP.MIN/FT                                 :
 GAS.UNITS                                  :
~ASCII Log data
# ...
      769.00        0.133          4.3 
      770.00        0.167          4.3 
      771.00        0.133          3.5 
      772.00        0.133          3.5 
      773.00        0.200          4.0 
      774.00        0.133          4.0 
      775.00        0.200          3.8 
      776.00        2.950          6.7 
      777.00        0.167          6.2 
      778.00        0.133          6.2 
      779.00        0.200          6.5 
      780.00        0.200          6.1 
      781.00        0.167          6.5 
      782.00        0.200          5.4 
      783.00        0.233          5.0 
      784.00        0.200          5.0 
      785.00        0.267          5.9 
      786.00        0.333          4.9 
      787.00        0.233          5.0 
      788.00        0.250          5.3 
      789.00        0.267          5.5 
      790.00        0.167          5.4 
      791.00        0.133          4.7 
      792.00        0.133          4.6 
      793.00        0.133          4.6 
      794.00        0.233          5.0 
      795.00        0.233          5.0 
      796.00        0.233          5.1 
      797.00        0.200          4.9 
      798.00        0.167          4.9 
      799.00        0.200          5.0 
      800.00        0.200          4.6 
      801.00        0.333          4.9 
      802.00        0.267          5.2 
      803.00        0.200          4.8 
      804.00        0.167          4.2 
      805.00        0.217          4.3 
      806.00        1.100          5.6 
      807.00        0.200          5.7 
      808.00        0.133          6.4 
      809.00        0.233          7.0 
      810.00        0.400          6.3 
      811.00        0.267          6.6 
      812.00        0.233          6.6 
      813.00        0.167          6.6 
      814.00        0.400          6.2 
      815.00        0.217          6.0 
      816.00        0.167          6.7 
      817.00        0.200          6.4 
      818.00        0.233          7.5 
      819.00        0.133          7.4 
      820.00        0.167          7.4 
      821.00        0.133          7.1 
      822.00        0.167          7.6 
      823.00        0.167          7.6 
      824.00        0.133          6.3 
      825.00        0.233          5.9 
      826.00        0.267          5.6 
      827.00        0.200          5.6 
      828.00        0.133          5.8 
      829.00        0.133          5.6 
      830.00        0.133          5.6 
      831.00        0.167          4.8 
      832.00        0.100          4.8 
      833.00        0.100          4.7 
      834.00        0.133          4.7 
      835.00        0.150          5.1 
      836.00        2.867         10.8 
      837.00        0.133         11.9 
      838.00        0.167         12.5 
      839.00        0.150         12.5 
      840.00        0.233         11.5 
      841.00        0.167         11.3 
      842.00        0.167         10.8 
      843.00        0.200          9.6 
      844.00        0.267          9.5 
      845.00        0.233          8.7 
      846.00        0.200          8.0 
      847.00        0.267          7.5 
      848.00        0.233          6.5 
      849.00        0.200          6.1 
      850.00        0.267          6.1 
      851.00        0.200          5.8 
      852.00        0.200          6.3 
      853.00        0.233          5.3 
      854.00        0.217          5.3 
      855.00        0.233          5.3 
      856.00        0.200          5.3 
      857.00        0.200          5.0 
      858.00        0.200          5.7 
      859.00        0.167          5.6 
      860.00        0.200          5.1 
      861.00        0.200          5.2 
      862.00        0.167          5.3 
      863.00        0.200          5.2 
      864.00        0.200          5.3 
      865.00        0.167          5.0 
      866.00        0.267          5.4 
      867.00        1.317         16.4 
      868.00        0.333         24.3 
      869.00        0.100         27.0 
      870.00        0.133         29.5 
      871.00        0.200         35.3 
      872.00        0.267         42.3 
      873.00        0.233         46.7 
      874.00        0.200         48.6 
      875.00        0.200         49.0 
      876.00        0.200         49.0 
      877.00        0.233         49.0 
      878.00        0.167         48.8 
      879.00        0.167         48.5 
      880.00        0.167         47.9 
      881.00        0.167         47.1 
      882.00        0.133         46.4 
      883.00        0.150         46.1 
      884.00        0.267         48.5 
      885.00        0.100         48.9 
      886.00        0.133         48.9 
      887.00        0.167         48.4 
      888.00        0.200         47.4 
      889.00        0.233         45.6 
      890.00        0.200         43.5 
      891.00        0.200         42.1 
      892.00        0.233         41.3 
      893.00        0.200         40.3 
      894.00        0.300         39.3 
      895.00        0.133         38.2 
      896.00        1.783        100.1 
      897.00        0.300        104.3 
      898.00        0.267        104.5 
      899.00        0.233        103.2 
      900.00        0.233         98.7 
      901.00        0.200         92.1 
      902.00        0.200         85.5 
      903.00        0.233         78.5 
      904.00        0.233         70.2 
      905.00        0.200         62.6 
      906.00        0.200         57.2 
      907.00        0.217         52.5 
      908.00        0.200         48.3 
      909.00        0.200         45.0 
      910.00        0.233         42.1 
      911.00        0.200         40.3 
      912.00        0.200         38.2 
      913.00        0.200         36.8 
      914.00        0.200         36.0 
      915.00        0.200         35.5 
      916.00        0.167         35.9 
      917.00        0.200         35.7 
      918.00        0.200         35.0 
      919.00        0.233         33.3 
      920.00        0.200         31.3 
      921.00        0.167         30.0 
      922.00        0.200         28.7 
      923.00        0.250         27.7 
      924.00        0.167         26.5 
      925.00        0.500         25.7 
      926.00        1.800         98.2 
      927.00        0.200        105.0 
      928.00        0.300        108.1 
      929.00        0.283        108.0 
      930.00        0.200        104.7 
      931.00        0.200         99.9 
      932.00        0.167         93.1 
      933.00        0.100         86.6 
      934.00        0.133         82.9 
      935.00        0.133         79.5 
      936.00        0.100         75.3 
      937.00        0.200         71.9 
      938.00        0.167         64.6 
      939.00        0.233         58.8 
      940.00        0.167         52.0 
      941.00        0.167         47.8 
      942.00        0.167         44.1 
      943.00        0.200         41.5 
      944.00        0.200         38.4 
      945.00        0.167         36.9 
      946.00        0.267         36.0 
      947.00        0.167         33.3 
      948.00        0.217         31.4 
      949.00        0.200         28.9 
      950.00        0.200         27.8 
      951.00        0.200         26.9 
      952.00        0.167         26.1 
      953.00        0.200         25.6 
      954.00        0.167         25.1 
      955.00        0.167         24.4 
      956.00        1.033         61.2 
      957.00        0.400         85.9 
      958.00        0.300         98.1 
      959.00        0.350        106.9 
      960.00        0.267        111.3 
      961.00        0.167        111.3 
      962.00        0.133        108.1 
      963.00        0.100        102.8 
      964.00        0.333         98.1 
      965.00        0.167         84.2 
      966.00        0.133         77.3 
      967.00        0.200         72.1 
      968.00        0.267         64.8 
