~Version Information
VERS.                      2.0: CWLS Log ASCII Standard - VERSION 2.0
WRAP.                       NO: One line per depth step
~Well Information Block
STRT.FT               425.0000: 
STOP.FT              2461.0000: 
STEP.FT                 0.2500: 
NULL.                -999.2500: 
COMP.          Evergreen Operating Corporation: COMPANY
WELL.              Nomad 32-10: WELL
FLD.           Purgatorie River: FIELD
LOC.           2281' FNL & 1585' FEL: LOCATION
PROV.                 Colorado: PROVINCE
CNTY.               Las Animas: COUNTRY
SRVC.                Patterson: SERVICE COMPANY
DATE.          Thu Aug 12 02:01:07 2004: LOG DATE
UWI.           05 071 08127 00: UNIQUE WELL ID
~Curve Information Block
DEPT.FT            0 000 00 00: Depth
SN.Ohm-m                      : IEL Short Normal
SP.mV                         : IEL Spontaneous Potential
DIR.Ohm-m                     : IEL Induction Resistivity
GR.GAPI                       : Gamma Ray
~Parameter Information Block
~A  Depth        SN          SP         DIR          GR     
# ...
  1765.0000     15.4520    120.2993     11.7732    146.1539
  1765.2500     15.1631    119.9311     11.9441    149.6574
  1765.5000     14.9881    119.4751     12.1165    152.6992
  1765.7500     14.9105    119.0319     12.2752    152.8756
  1766.0000     14.9033    118.6927     12.4114    150.1411
  1766.2500     15.0241    118.4950     12.5216    146.5528
  1766.5000     15.4107    118.4233     12.6077    139.3432
  1766.7500     16.1792    118.4434     12.6800    134.0044
  1767.0000     17.3244    118.5282     12.7585    126.7045
  1767.2500     18.6754    118.6578     12.8688    123.1546
  1767.5000     19.9199    118.8151     13.0310    120.8036
  1767.7500     20.7471    118.9882     13.2488    121.5527
  1768.0000     21.0427    119.1713     13.5074    126.1713
  1768.2500     20.9100    119.3585     13.7826    130.9451
  1768.5000     20.5081    119.5379     14.0541    138.4747
  1768.7500     19.9366    119.6935     14.3133    142.4864
  1769.0000     19.2625    119.8123     14.5587    146.1451
  1769.2500     18.5782    119.8957     14.7876    147.3181
  1769.5000     17.9931    119.9650     14.9968    148.0885
  1769.7500     17.6102    120.0574     15.1932    148.1270
  1770.0000     17.5155    120.2039     15.3976    146.9281
  1770.2500     17.7840    120.4050     15.6343    144.7718
  1770.5000     18.5377    120.6249     15.9163    138.8690
  1770.7500     19.9712    120.8130     16.2431    132.9847
  1771.0000     22.2071    120.9363     16.6119    121.1757
  1771.2500     25.0918    120.9992     17.0304    111.6245
  1771.5000     28.1578    121.0400     17.5196     96.4739
  1771.7500     30.7722    121.1126     18.1048     87.3116
  1772.0000     32.3080    121.2673     18.8039     77.0171
  1772.2500     32.4192    121.5418     19.6133     72.8699
  1772.5000     31.4167    121.9551     20.4995     70.7224
  1772.7500     30.1526    122.4974     21.3979     72.0848
  1773.0000     29.3369    123.1215     22.2180     78.3182
  1773.2500     29.1174    123.7522     22.8487     84.7342
  1773.5000     29.2476    124.3141     23.1636     95.8080
  1773.7500     29.4008    124.7604     23.0448    102.7055
  1774.0000     29.3503    125.0840     22.4339    109.8102
  1774.2500     29.0194    125.3049     21.3805    111.2665
  1774.5000     28.4527    125.4467     20.0364    108.2305
  1774.7500     27.7428    125.5260     18.5906    103.8548
  1775.0000     26.9282    125.5621     17.1988     97.3042
  1775.2500     25.9436    125.5873     15.9499     94.9476
  1775.5000     24.6772    125.6382     14.8722     96.0210
  1775.7500     23.0718    125.7310     13.9563     99.5273
  1776.0000     21.1987    125.8496     13.1772    107.4891
  1776.2500     19.2410    125.9603     12.5088    113.7303
  1776.5000     17.3916    126.0384     11.9297    123.3581
  1776.7500     15.7809    126.0816     11.4224    129.4558
  1777.0000     14.4688    126.1047     10.9736    137.4819
  1777.2500     13.4606    126.1282     10.5749    141.8302
  1777.5000     12.7294    126.1690     10.2237    146.6337
  1777.7500     12.2394    126.2323      9.9215    148.6356
  1778.0000     11.9514    126.3098      9.6711    149.6790
  1778.2500     11.8311    126.3883      9.4747    149.0464
  1778.5000     11.8592    126.4573      9.3343    146.6908
  1778.7500     12.0096    126.5057      9.2514    144.8041
  1779.0000     12.2283    126.5186      9.2261    141.8132
  1779.2500     12.4666    126.4891      9.2531    138.9958
  1779.5000     12.7229    126.4334      9.3218    131.8446
  1779.7500     13.0324    126.3878      9.4188    125.0030
  1780.0000     13.4319    126.3851      9.5360    113.7412
  1780.2500     13.9154    126.4325      9.6764    107.5457
  1780.5000     14.3956    126.5087      9.8538    102.8608
  1780.7500     14.7353    126.5773     10.0850    103.1141
  1781.0000     14.8465    126.6079     10.3776    107.0610
  1781.2500     14.7654    126.5960     10.7223    110.8289
  1781.5000     14.6329    126.5622     11.0931    116.9041
  1781.7500     14.5675    126.5311     11.4576    121.1056
  1782.0000     14.5611    126.5126     11.7898    127.5248
  1782.2500     14.5869    126.5006     12.0739    131.3927
  1782.5000     14.7291    126.4820     12.3020    135.1454
  1782.7500     15.0680    126.4445     12.4726    135.4811
  1783.0000     15.5620    126.3844     12.5961    131.7742
  1783.2500     16.1394    126.3177     12.7015    126.2685
  1783.5000     16.8209    126.2796     12.8347    114.1551
  1783.7500     17.7154    126.2955     13.0483    104.7592
  1784.0000     18.9046    126.3491     13.3877     91.8474
  1784.2500     20.3121    126.3864     13.8770     85.9028
  1784.5000     21.7057    126.3562     14.5066     83.0386
  1784.7500     22.8572    126.2458     15.2222     85.1665
  1785.0000     23.6447    126.0828     15.9226     92.1580
  1785.2500     23.9846    125.9136     16.4777     97.1664
  1785.5000     23.7820    125.7802     16.7718    101.5519
  1785.7500     23.0420    125.7046     16.7524    101.2895
  1786.0000     22.0015    125.6837     16.4482     96.9730
  1786.2500     21.0671    125.6969     15.9437     93.2515
  1786.5000     20.5292    125.7180     15.3348     89.7682
  1786.7500     20.2975    125.7255     14.6965     90.0757
  1787.0000     19.9941    125.7079     14.0730     94.6718
  1787.2500     19.3293    125.6660     13.4820     99.6520
  1787.5000     18.3083    125.6131     12.9262    107.6426
  1787.7500     17.1110    125.5713     12.4050    111.8642
  1788.0000     15.9058    125.5721     11.9195    115.0277
  1788.2500     14.8138    125.6580     11.4715    115.3373
  1788.5000     13.9352    125.8729     11.0598    115.6294
  1788.7500     13.2869    126.2313     10.6796    117.2567
  1789.0000     12.7752    126.6904     10.3261    122.3574
  1789.2500     12.3304    127.1579      9.9992    126.4990
  1789.5000     11.9983    127.5278      9.7035    131.6151
  1789.7500     11.7922    127.7148      9.4464    133.6397
  1790.0000     11.5808    127.6737      9.2336    134.7287
  1790.2500     11.2504    127.4119      9.0669    134.6534
  1790.5000     10.8277    126.9928      8.9426    134.5000
  1790.7500     10.3950    126.5123      8.8530    134.9859
  1791.0000     10.0137    126.0592      8.7891    136.8952
  1791.2500      9.7159    125.6877      8.7436    138.4935
  1791.5000      9.5041    125.4154      8.7120    139.9312
  1791.7500      9.3830    125.2308      8.6918    139.5004
  1792.0000      9.3754    125.1022      8.6811    136.2353
  1792.2500      9.4695    124.9937      8.6774    132.4806
  1792.5000      9.6023    124.8844      8.6774    125.4748
  1792.7500      9.7056    124.7799      8.6768    120.8437
  1793.0000      9.7178    124.7043      8.6704    115.9769
  1793.2500      9.5880    124.6813      8.6528    115.1342
  1793.5000      9.3383    124.7196      8.6199    118.0162
  1793.7500      9.0870    124.8103      8.5699    122.0438
  1794.0000      8.9336    124.9309      8.5039    128.9679
  1794.2500      8.8560    125.0542      8.4248    132.9304
  1794.5000      8.7745    125.1606      8.3356    137.0654
  1794.7500      8.6525    125.2453      8.2379    138.8115
  1795.0000      8.5081    125.3140      8.1328    140.4490
  1795.2500      8.3557    125.3710      8.0224    141.1020
  1795.5000      8.1661    125.4141      7.9098    141.7921
  1795.7500      7.9236    125.4405      7.7976    142.1137
  1796.0000      7.6842    125.4524      7.6857    141.8658
  1796.2500      7.5134    125.4546      7.5724    140.9644
  1796.5000      7.4045    125.4488      7.4584    139.1888
  1796.7500      7.3070    125.4323      7.3510    138.5131
  1797.0000      7.1969    125.4031      7.2627    138.7795
  1797.2500      7.0778    125.3678      7.2023    139.4411
  1797.5000      6.9579    125.3455      7.1647    140.7102
  1797.7500      6.8579    125.3594      7.1290    142.0989
  1798.0000      6.7963    125.4222      7.0703    145.6840
  1798.2500      6.7652    125.5271      6.9785    148.6521
