~Version Information
VERS.                      2.0: CWLS Log ASCII Standard - VERSION 2.0
WRAP.                       NO: One line per depth step
~Well Information Block
STRT.FT               423.0000: 
STOP.FT              2308.2500: 
STEP.FT                 0.2500: 
NULL.                -999.2500: 
COMP.          Pioneer Natural Resources: COMPANY
WELL.             Culver 14-12: WELL
FLD.           Purgatoire River: FIELD
LOC.           913' FSL & 1140' FWL: LOCATION
PROV.                 Colorado: PROVINCE
CNTY.               Las Animas: COUNTRY
SRVC.                Patterson: SERVICE COMPANY
DATE.          Tue Jun 07 00:21:41 2005: LOG DATE
UWI.           05 071 08386 00: UNIQUE WELL ID
~Curve Information Block
DEPT.FT            0 000 00 00: Depth
SN.Ohm-m                      : IEL Short Normal
SP.mV                         : IEL Spontaneous Potential
DIR.Ohm-m                     : IEL Induction Resistivity
GR.GAPI                       : Gamma Ray
~Parameter Information Block
~A  Depth        SN          SP         DIR          GR     
# ...
  1026.0000   2000.0000   2000.0000     19.2583    136.9054
  1026.2500   2000.0000   2000.0000     19.2977    136.9261
  1026.5000   2000.0000   2000.0000     19.5577    133.0814
  1026.7500   2000.0000   2000.0000     19.9943    128.3874
  1027.0000   2000.0000   2000.0000     20.5436    119.3758
  1027.2500   2000.0000   2000.0000     21.1327    112.5180
  1027.5000   2000.0000   2000.0000     21.6866    101.0319
  1027.7500   2000.0000   2000.0000     22.1280     92.5676
  1028.0000   2000.0000   2000.0000     22.3797     79.3401
  1028.2500   2000.0000   2000.0000     22.3793     70.9967
  1028.5000   2000.0000   2000.0000     22.1066     60.9255
  1028.7500   2000.0000   2000.0000     21.5967     56.8373
  1029.0000   2000.0000   2000.0000     20.9222     56.1096
  1029.2500   2000.0000   2000.0000     20.1631     59.6923
  1029.5000   2000.0000   2000.0000     19.3863     70.6419
  1029.7500   2000.0000   2000.0000     18.6392     80.5060
  1030.0000   2000.0000   2000.0000     17.9454     96.4999
  1030.2500   2000.0000   2000.0000     17.3015    106.5944
  1030.5000   2000.0000   2000.0000     16.6839    119.3902
  1030.7500   2000.0000   2000.0000     16.0709    126.0088
  1031.0000   2000.0000   2000.0000     15.4657    133.2383
  1031.2500   2000.0000   2000.0000     14.9037    136.6079
  1031.5000   2000.0000   2000.0000     14.4309    139.9649
  1031.7500   2000.0000   2000.0000     14.0725    141.1587
  1032.0000   2000.0000   2000.0000     13.8139    141.6456
  1032.2500   2000.0000   2000.0000     13.6100    141.5375
  1032.5000   2000.0000   2000.0000     13.4170    141.5456
  1032.7500   2000.0000   2000.0000     13.2262    141.8233
  1033.0000   2000.0000   2000.0000     13.0724    142.3603
  1033.2500   2000.0000   2000.0000     13.0088    142.5187
  1033.5000   2000.0000   2000.0000     13.0757    141.8980
  1033.7500   2000.0000   2000.0000     13.2830    140.4880
  1034.0000   2000.0000   2000.0000     13.6129    136.2523
  1034.2500   2000.0000   2000.0000     14.0335    132.1164
  1034.5000   2000.0000   2000.0000     14.5141    125.3475
  1034.7500   2000.0000   2000.0000     15.0323    121.5137
  1035.0000   2000.0000   2000.0000     15.5695    117.5050
  1035.2500   2000.0000   2000.0000     16.0990    115.6414
  1035.5000   2000.0000   2000.0000     16.5817    113.2683
  1035.7500   2000.0000   2000.0000     16.9771    111.8745
  1036.0000   2000.0000   2000.0000     17.2638    110.2292
  1036.2500   2000.0000   2000.0000     17.4525    109.3177
  1036.5000   2000.0000   2000.0000     17.5749    107.4369
  1036.7500   2000.0000   2000.0000     17.6551    105.3215
  1037.0000   2000.0000   2000.0000     17.6849    100.7522
  1037.2500   2000.0000   2000.0000     17.6270     97.3923
  1037.5000   2000.0000   2000.0000     17.4468     93.6073
  1037.7500   2000.0000   2000.0000     17.1446     92.8017
  1038.0000   2000.0000   2000.0000     16.7546     94.8101
  1038.2500   2000.0000   2000.0000     16.3172     98.1402
  1038.5000   2000.0000   2000.0000     15.8542    105.3716
  1038.7500   2000.0000   2000.0000     15.3654    111.2001
  1039.0000   2000.0000   2000.0000     14.8367    120.5208
  1039.2500   2000.0000   2000.0000     14.2521    126.3357
  1039.5000   2000.0000   2000.0000     13.6045    133.0598
  1039.7500   2000.0000   2000.0000     12.9053    136.0057
  1040.0000   2000.0000   2000.0000     12.1865    139.2376
  1040.2500   2000.0000   2000.0000     11.4907    141.4226
  1040.5000   2000.0000   2000.0000     10.8564    144.9762
  1040.7500   2000.0000   2000.0000     10.3065    146.9945
  1041.0000   2000.0000   2000.0000      9.8477    148.5862
  1041.2500   2000.0000   2000.0000      9.4754    148.6123
  1041.5000   2000.0000   2000.0000      9.1808    147.6173
  1041.7500   2000.0000   2000.0000      8.9545    146.5891
  1042.0000   2000.0000   2000.0000      8.7888    144.7540
  1042.2500   2000.0000   2000.0000      8.6762    143.5296
  1042.5000   2000.0000   2000.0000      8.6088    142.4038
  1042.7500   2000.0000   2000.0000      8.5777    142.3952
  1043.0000   2000.0000   2000.0000      8.5725    142.8667
  1043.2500   2000.0000   2000.0000      8.5835    142.7298
  1043.5000   2000.0000   2000.0000      8.6061    141.1140
  1043.7500   2000.0000   2000.0000      8.6446    139.2661
  1044.0000   2000.0000   2000.0000      8.7114    136.0369
  1044.2500   2000.0000   2000.0000      8.8212    133.9022
  1044.5000   2000.0000   2000.0000      8.9822    131.0638
  1044.7500   2000.0000   2000.0000      9.1920    129.4644
  1045.0000   2000.0000   2000.0000      9.4378    127.1596
  1045.2500   2000.0000   2000.0000      9.7039    125.2575
  1045.5000   2000.0000   2000.0000      9.9792    121.2152
  1045.7500   2000.0000   2000.0000     10.2636    117.8608
  1046.0000   2000.0000   2000.0000     10.5672    113.5306
  1046.2500   2000.0000   2000.0000     10.9048    112.6433
  1046.5000   2000.0000   2000.0000     11.2872    116.0684
  1046.7500   2000.0000   2000.0000     11.7169    121.1853
  1047.0000   2000.0000   2000.0000     12.1890    130.3976
  1047.2500   2000.0000   2000.0000     12.6968    135.7663
  1047.5000   2000.0000   2000.0000     13.2362    141.1588
  1047.7500   2000.0000   2000.0000     13.8047    143.2429
  1048.0000   2000.0000   2000.0000     14.3967    145.2298
  1048.2500   2000.0000   2000.0000     15.0027    146.0455
  1048.5000   2000.0000   2000.0000     15.6130    146.0031
  1048.7500   2000.0000   2000.0000     16.2219    144.7299
  1049.0000   2000.0000   2000.0000     16.8260    140.7955
  1049.2500   2000.0000   2000.0000     17.4224    137.1418
  1049.5000   2000.0000   2000.0000     18.0103    131.2941
  1049.7500   2000.0000   2000.0000     18.5951    128.0390
  1050.0000   2000.0000   2000.0000     19.1921    125.3429
  1050.2500   2000.0000   2000.0000     19.8256    125.2052
  1050.5000   2000.0000   2000.0000     20.5244    126.8116
  1050.7500   2000.0000   2000.0000     21.3138    128.2173
  1051.0000   2000.0000   2000.0000     22.2041    129.0691
  1051.2500   2000.0000   2000.0000     23.1750    128.1891
  1051.5000   2000.0000   2000.0000     24.1664    125.2474
  1051.7500   2000.0000   2000.0000     25.0940    123.2804
  1052.0000   2000.0000   2000.0000     25.8929    122.0275
  1052.2500   2000.0000   2000.0000     26.5643    122.5232
  1052.5000   2000.0000   2000.0000     27.1822    123.9672
  1052.7500   2000.0000   2000.0000     27.8489    124.1953
  1053.0000   2000.0000   2000.0000     28.6309    122.2581
  1053.2500   2000.0000   2000.0000     29.5191    119.8618
  1053.5000   2000.0000   2000.0000     30.4248    116.4932
  1053.7500   2000.0000   2000.0000     31.2109    115.0894
  1054.0000   2000.0000   2000.0000     31.7451    113.6469
  1054.2500   2000.0000   2000.0000     31.9576    112.3060
  1054.5000   2000.0000   2000.0000     31.8659    109.3207
  1054.7500   2000.0000   2000.0000     31.5505    107.3008
  1055.0000   2000.0000   2000.0000     31.1054    105.7006
  1055.2500   2000.0000   2000.0000     30.6105    106.0040
  1055.5000   2000.0000   2000.0000     30.1360    108.0966
  1055.7500   2000.0000   2000.0000     29.7563    109.9821
  1056.0000   2000.0000   2000.0000     29.5476    112.8966
  1056.2500   2000.0000   2000.0000     29.5692    115.0776
  1056.5000   2000.0000   2000.0000     29.8414    119.5330
  1056.7500   2000.0000   2000.0000     30.3325    123.4328
  1057.0000   2000.0000   2000.0000     30.9637    129.4837
  1057.2500   2000.0000   2000.0000     31.6309    132.3333
  1057.5000   2000.0000   2000.0000     32.2319    132.7776
  1057.7500   2000.0000   2000.0000     32.6741    129.9980
  1058.0000   2000.0000   2000.0000     32.8645    121.6472
  1058.2500   2000.0000   2000.0000     32.7200    114.1719
  1058.5000   2000.0000   2000.0000     32.2154    102.3275
  1058.7500   2000.0000   2000.0000     31.4272     95.4779
  1059.0000   2000.0000   2000.0000     30.5113     88.9729
  1059.2500   2000.0000   2000.0000     29.6256     87.8725
