~Version Information
VERS.                      2.0: CWLS Log ASCII Standard - VERSION 2.0
WRAP.                       NO: One line per depth step
~Well Information Block
STRT.FT               840.0000: 
STOP.FT              2450.0000: 
STEP.FT                 0.1000: 
NULL.                -999.2500: 
COMP.          Petrogulf Corporation: COMPANY
WELL.             Leier 17-42V: WELL
FLD.           Purgatorie River: FIELD
LOC.           2309' FNL & 1062' FEL SENE 17 33S 67W: LOCATION
PROV.                 Colorado: PROVINCE
CNTY.               Las Animas: COUNTRY
SRVC.                Patterson: SERVICE COMPANY
DATE.          Thu Sep 22 09:35:36 2005: LOG DATE
UWI.           071 08409 : UNIQUE WELL ID
~Curve Information Block
DEPT.FT            0 000 00 00: Depth
DCAL.in                       : CDL Caliper
RHOB.g/cc                     : CDL Bulk Density
RHOC.g/cc                     : CDL Density Correction
DPOR.pu                       : CDL Density Porosity
GR.GAPI                       : Gamma Ray
NPOR.pu                       : Neutron Porosity
~Parameter Information Block
~A  Depth       DCAL        RHOB        RHOC        DPOR         GR         NPOR    
# ...
  2328.0000      7.9314      2.4925      0.0348      9.5470     58.3129     22.7142
  2328.1000      7.9314      2.5010      0.0739      9.0323     63.0087     22.2783
  2328.2000      7.9314      2.5030      0.0158      8.9105     68.4949     21.7775
  2328.3000      7.9313      2.5066      0.0468      8.6882     69.6882     21.4323
  2328.4000      7.9313      2.5172      0.0377      8.0458     69.4347     21.2590
  2328.5000      7.9242      2.5352      0.0766      6.9585     70.4008     20.9478
  2328.6000      7.9242      2.5499      0.0896      6.0658     69.8224     20.5390
  2328.7000      7.9242      2.5475      0.0776      6.2106     66.6612     20.4267
  2328.8000      7.9304      2.5362      0.0303      6.8990     63.2582     20.8754
  2328.9000      7.9304      2.5360      0.0500      6.9065     60.7928     21.6078
  2329.0000      7.9321      2.5434      0.1055      6.4608     59.5290     22.2756
  2329.1000      7.9321      2.5405      0.0791      6.6381     61.0082     22.8787
  2329.2000      7.9321      2.5323      0.0270      7.1320     64.0113     23.1908
  2329.3000      7.9313      2.5336      0.0765      7.0524     64.9568     22.9790
  2329.4000      7.9313      2.5372      0.0433      6.8388     63.8998     22.5357
  2329.5000      7.9388      2.5269      0.0315      7.4593     63.3009     22.1187
  2329.6000      7.9388      2.5059      0.0044      8.7352     63.7871     21.5738
  2329.7000      7.9388      2.4917      0.0176      9.5942     64.1357     20.8239
  2329.8000      7.9358      2.4925      0.0553      9.5484     64.2286     20.0329
  2329.9000      7.9358      2.5018      0.0341      8.9805     66.1131     19.3213
  2330.0000      7.9351      2.5110      0.0415      8.4252     69.1795     18.9519
  2330.1000      7.9351      2.5199      0.0617      7.8828     71.0870     19.1233
  2330.2000      7.9351      2.5354      0.0475      6.9435     70.6791     19.5885
  2330.3000      7.9342      2.5546      0.1028      5.7795     68.4891     20.0557
  2330.4000      7.9342      2.5626      0.1156      5.2945     67.5020     20.4721
  2330.5000      7.9351      2.5520      0.0725      5.9374     68.8642     20.7772
  2330.6000      7.9351      2.5284      0.0543      7.3687     70.4949     20.8400
  2330.7000      7.9351      2.5026      0.0471      8.9310     69.9695     20.7518
  2330.8000      7.9352      2.4840      0.0352     10.0606     67.5066     20.7688
  2330.9000      7.9352      2.4717      0.0288     10.8064     66.4193     20.9601
  2331.0000      7.9348      2.4627      0.0290     11.3495     68.2286     21.2168
  2331.1000      7.9348      2.4622      0.0056     11.3816     70.8824     21.4649
  2331.2000      7.9348      2.4738      0.0393     10.6770     72.5247     21.8879
  2331.3000      7.9321      2.4919      0.0518      9.5827     73.2903     22.4539
  2331.4000      7.9321      2.5073      0.0571      8.6494     72.6445     22.6903
  2331.5000      7.9349      2.5140      0.0830      8.2403     68.9263     22.6636
  2331.6000      7.9349      2.5101      0.0621      8.4810     64.0161     22.7565
  2331.7000      7.9349      2.5014      0.0515      9.0088     61.8174     23.0863
  2331.8000      7.9358      2.4975      0.0428      9.2421     63.4354     23.4001
  2331.9000      7.9358      2.5022      0.0000      8.9574     67.0491     23.4078
  2332.0000      7.9317      2.5081      0.0638      8.6010     69.8642     23.2978
  2332.1000      7.9317      2.5052      0.0476      8.7762     70.6908     23.2366
  2332.2000      7.9317      2.5014      0.0081      9.0034     69.8794     23.0148
  2332.3000      7.9309      2.5108      0.0305      8.4382     67.3866     22.5610
  2332.4000      7.9309      2.5236      0.0630      7.6636     64.0966     22.1125
  2332.5000      7.9364      2.5108      0.0792      8.4372     62.5570     21.7971
  2332.6000      7.9364      2.4690     -0.0155     10.9719     62.6804     21.5116
  2332.7000      7.9364      2.4373     -0.0697     12.8912     63.9100     21.0866
  2332.8000      7.9337      2.4410     -0.0313     12.6676     67.5556     20.5079
  2332.9000      7.9337      2.4672     -0.0227     11.0766     73.3538     19.9465
  2333.0000      7.9374      2.4975      0.0512      9.2453     78.0626     19.6134
  2333.1000      7.9374      2.5177      0.0479      8.0182     79.2404     19.5428
  2333.2000      7.9374      2.5232      0.0532      7.6823     77.0998     19.3759
  2333.3000      7.9383      2.5248      0.0243      7.5882     71.7263     18.8860
  2333.4000      7.9383      2.5314      0.0656      7.1905     65.0621     18.3842
  2333.5000      7.9343      2.5287      0.0994      7.3491     61.6223     18.1889
  2333.6000      7.9343      2.5053      0.0334      8.7715     61.4850     18.2999
  2333.7000      7.9343      2.4887     -0.0476      9.7778     61.7634     18.6679
  2333.8000      7.9401      2.5085      0.0053      8.5779     62.9238     19.3686
  2333.9000      7.9401      2.5429      0.0880      6.4920     65.8912     20.3565
  2334.0000      7.9360      2.5540      0.0921      5.8187     68.9912     21.2554
  2334.1000      7.9360      2.5459      0.0575      6.3062     70.7312     21.7563
  2334.2000      7.9360      2.5453      0.0402      6.3461     70.3124     21.8899
  2334.3000      7.9358      2.5503      0.1069      6.0431     69.3147     21.7362
  2334.4000      7.9358      2.5422      0.0608      6.5339     70.6538     21.2286
  2334.5000      7.9324      2.5272      0.0416      7.4439     74.1440     20.5453
  2334.6000      7.9324      2.5165      0.0655      8.0939     75.5000     20.1734
  2334.7000      7.9324      2.5071      0.0502      8.6579     71.9197     20.2159
  2334.8000      7.9360      2.5023      0.0191      8.9493     68.1061     20.1296
  2334.9000      7.9360      2.5060      0.0426      8.7263     68.1586     19.6176
  2335.0000      7.9360      2.5180      0.0233      8.0026     70.0872     19.0879
  2335.1000      7.9360      2.5396      0.0508      6.6902     72.1258     18.8636
  2335.2000      7.9360      2.5638      0.0661      5.2253     72.7911     18.6562
  2335.3000      7.9320      2.5756      0.0766      4.5070     71.5398     18.1819
  2335.4000      7.9320      2.5655      0.0976      5.1215     69.8356     17.6873
  2335.5000      7.9324      2.5416      0.0653      6.5701     67.4579     17.6448
  2335.6000      7.9324      2.5279      0.0112      7.4022     62.9281     18.2369
  2335.7000      7.9324      2.5290      0.0686      7.3312     58.2503     19.2129
  2335.8000      7.9324      2.5231      0.0636      7.6885     58.0167     19.9890
  2335.9000      7.9324      2.5070      0.0156      8.6663     61.2988     20.1575
  2336.0000      7.9314      2.5007      0.0063      9.0469     63.6155     19.9746
  2336.1000      7.9314      2.5066      0.0398      8.6908     63.7826     19.7998
  2336.2000      7.9314      2.5074      0.0700      8.6429     64.4181     19.8093
  2336.3000      7.9313      2.5038      0.0021      8.8620     67.1447     19.9929
  2336.4000      7.9313      2.5076      0.0500      8.6303     70.0253     20.1550
  2336.5000      7.9322      2.5111      0.0516      8.4203     72.2178     20.3497
  2336.6000      7.9322      2.5090      0.0216      8.5429     73.1345     20.7882
  2336.7000      7.9322      2.5048      0.0312      8.8010     71.7524     21.2951
  2336.8000      7.9392      2.4942      0.0309      9.4450     70.3989     21.4388
  2336.9000      7.9392      2.4879     -0.0291      9.8252     72.2584     21.0883
  2337.0000      7.9383      2.5029      0.0284      8.9169     75.8752     20.5280
  2337.1000      7.9383      2.5250      0.0351      7.5770     75.8830     19.9537
  2337.2000      7.9383      2.5369      0.0166      6.8560     71.2996     19.5387
  2337.3000      7.9396      2.5429      0.0625      6.4899     67.7939     19.6589
  2337.4000      7.9396      2.5474      0.0479      6.2174     67.8921     20.1836
  2337.5000      7.9433      2.5544      0.0411      5.7957     67.3834     20.4814
