~Version Information
VERS.                      2.0: CWLS Log ASCII Standard - VERSION 2.0
WRAP.                       NO: One line per depth step
~Well Information Block
STRT.FT               557.0000: 
STOP.FT              2136.0000: 
STEP.FT                 0.2500: 
NULL.                -999.2500: 
COMP.          Petrogulf Corporation: COMPANY
WELL.           Montoya 12-41R: WELL
FLD.           Purgatorie River: FIELD
LOC.           1086' FNL & 610' FEL: LOCATION
CNTY.               Las Animas: COUNTY
SRVC.                         : SERVICE COMPANY
DATE.          Thu Nov 18 06:03:03 2004: LOG DATE
UWI.           05 071 08241 00: UNIQUE WELL ID
STAT.                 Colorado: STATE
~Curve Information Block
DEPT.FT            0 000 00 00: Depth
SP.mV                         : DIL Spontaneous Potential
RILD.Ohm-m                    : DIL Deep Resistivity
RILM.Ohm-m                    : DIL Medium Resistivity
RLL3.Ohm-m                    : DIL Shallow Resistivity
GR.GAPI                       : Gamma Ray
~Parameter Information Block
~A  Depth        SP         RILD        RILM        RLL3         GR     
# ...
   781.0000   2000.0000     19.7061     20.2943   2000.0000    117.4543
   781.2500   2000.0000     19.1776     19.2165   2000.0000    119.6429
   781.5000   2000.0000     18.6260     18.2436   2000.0000    124.8776
   781.7500   2000.0000     18.0650     17.3817   2000.0000    129.3251
   782.0000   2000.0000     17.5119     16.6321   2000.0000    135.8754
   782.2500   2000.0000     16.9860     15.9933   2000.0000    138.9557
   782.5000   2000.0000     16.5050     15.4622   2000.0000    140.3750
   782.7500   2000.0000     16.0837     15.0345   2000.0000    139.5697
   783.0000   2000.0000     15.7323     14.7050   2000.0000    138.0558
   783.2500   2000.0000     15.4561     14.4684   2000.0000    138.1400
   783.5000   2000.0000     15.2561     14.3184   2000.0000    140.2235
   783.7500   2000.0000     15.1299     14.2488   2000.0000    142.0690
   784.0000   2000.0000     15.0721     14.2527   2000.0000    144.0670
   784.2500   2000.0000     15.0763     14.3235   2000.0000    144.6501
   784.5000   2000.0000     15.1358     14.4543   2000.0000    144.4767
   784.7500   2000.0000     15.2444     14.6388   2000.0000    143.5672
   785.0000   2000.0000     15.3959     14.8713   2000.0000    140.9138
   785.2500   2000.0000     15.5852     15.1461   2000.0000    138.5116
   785.5000   2000.0000     15.8063     15.4586   2000.0000    134.6486
   785.7500   2000.0000     16.0518     15.8040   2000.0000    132.3669
   786.0000   2000.0000     16.3122     16.1777   2000.0000    130.3593
   786.2500   2000.0000     16.5757     16.5740   2000.0000    130.4519
   786.5000   2000.0000     16.8286     16.9858   2000.0000    132.6653
   786.7500   2000.0000     17.0566     17.4032   2000.0000    134.8715
   787.0000   2000.0000     17.2474     17.8131   2000.0000    137.9646
   787.2500   2000.0000     17.3925     18.1991   2000.0000    139.4840
   787.5000   2000.0000     17.4891     18.5429   2000.0000    140.8771
   787.7500   2000.0000     17.5400     18.8259   2000.0000    141.1909
   788.0000   2000.0000     17.5527     19.0324   2000.0000    140.5359
   788.2500   2000.0000     17.5368     19.1521   2000.0000    139.4015
   788.5000   2000.0000     17.5016     19.1828   2000.0000    137.3831
   788.7500   2000.0000     17.4534     19.1292   2000.0000    136.4384
   789.0000   2000.0000     17.3953     19.0030   2000.0000    136.3621
   789.2500   2000.0000     17.3275     18.8189   2000.0000    137.2726
   789.5000   2000.0000     17.2481     18.5933   2000.0000    139.6945
   789.7500   2000.0000     17.1557     18.3416   2000.0000    141.7507
   790.0000   2000.0000     17.0514     18.0775   2000.0000    145.3507
   790.2500   2000.0000     16.9392     17.8130   2000.0000    147.9694
   790.5000   2000.0000     16.8263     17.5582   2000.0000    151.3204
   790.7500   2000.0000     16.7215     17.3222   2000.0000    152.4809
   791.0000   2000.0000     16.6334     17.1131   2000.0000    152.3686
   791.2500   2000.0000     16.5689     16.9382   2000.0000    151.5888
   791.5000   2000.0000     16.5315     16.8029   2000.0000    150.4621
   791.7500   2000.0000     16.5215     16.7108   2000.0000    150.1443
   792.0000   2000.0000     16.5358     16.6623   2000.0000    150.6391
   792.2500   2000.0000     16.5692     16.6541   2000.0000    151.5116
   792.5000   2000.0000     16.6156     16.6795   2000.0000    152.8239
   792.7500   2000.0000     16.6688     16.7277   2000.0000    153.1683
   793.0000   2000.0000     16.7240     16.7857   2000.0000    152.6695
   793.2500   2000.0000     16.7765     16.8393   2000.0000    151.9476
   793.5000   2000.0000     16.8227     16.8757   2000.0000    150.7705
   793.7500   2000.0000     16.8597     16.8858   2000.0000    149.8915
   794.0000   2000.0000     16.8841     16.8658   2000.0000    147.9827
   794.2500   2000.0000     16.8938     16.8176   2000.0000    146.2970
   794.5000   2000.0000     16.8866     16.7484   2000.0000    144.2004
   794.7500   2000.0000     16.8619     16.6691   2000.0000    143.9990
   795.0000   2000.0000     16.8202     16.5914   2000.0000    145.9907
   795.2500   2000.0000     16.7643     16.5267   2000.0000    148.1476
   795.5000   2000.0000     16.6987     16.4841   2000.0000    150.9351
   795.7500   2000.0000     16.6300     16.4702   2000.0000    152.1326
   796.0000   2000.0000     16.5668     16.4885   2000.0000    153.5041
   796.2500   2000.0000     16.5188     16.5399   2000.0000    154.3788
   796.5000   2000.0000     16.4964     16.6228   2000.0000    154.8846
   796.7500   2000.0000     16.5085     16.7329   2000.0000    153.9825
   797.0000   2000.0000     16.5615     16.8637   2000.0000    150.5517
   797.2500   2000.0000     16.6576     17.0067   2000.0000    147.4772
   797.5000   2000.0000     16.7942     17.1524   2000.0000    143.0449
   797.7500   2000.0000     16.9635     17.2916   2000.0000    140.8129
   798.0000   2000.0000     17.1533     17.4176   2000.0000    139.1808
   798.2500   2000.0000     17.3491     17.5258   2000.0000    139.2205
   798.5000   2000.0000     17.5360     17.6150   2000.0000    139.9050
   798.7500   2000.0000     17.7012     17.6849   2000.0000    139.8142
   799.0000   2000.0000     17.8357     17.7355   2000.0000    137.9645
   799.2500   2000.0000     17.9347     17.7646   2000.0000    135.9198
   799.5000   2000.0000     17.9979     17.7678   2000.0000    132.9705
   799.7500   2000.0000     18.0276     17.7394   2000.0000    131.6783
   800.0000   2000.0000     18.0284     17.6753   2000.0000    131.1493
   800.2500   2000.0000     18.0066     17.5754   2000.0000    131.8277
   800.5000   2000.0000     17.9695     17.4457   2000.0000    134.3442
   800.7500   2000.0000     17.9250     17.2983   2000.0000    136.7215
   801.0000   2000.0000     17.8820     17.1494   2000.0000    140.5498
   801.2500   2000.0000     17.8490     17.0166   2000.0000    142.9325
   801.5000   2000.0000     17.8336     16.9152   2000.0000    145.9073
   801.7500   2000.0000     17.8404     16.8559   2000.0000    147.2771
   802.0000   2000.0000     17.8712     16.8430   2000.0000    147.9649
   802.2500   2000.0000     17.9234     16.8735   2000.0000    147.3231
   802.5000   2000.0000     17.9913     16.9379   2000.0000    144.8401
   802.7500   2000.0000     18.0665     17.0209   2000.0000    142.6826
   803.0000   2000.0000     18.1404     17.1037   2000.0000    140.0742
   803.2500   2000.0000     18.2056     17.1672   2000.0000    139.3375
   803.5000   2000.0000     18.2588     17.1959   2000.0000    139.5701
   803.7500   2000.0000     18.3009     17.1819   2000.0000    140.0051
   804.0000   2000.0000     18.3390     17.1281   2000.0000    140.2443
   804.2500   2000.0000     18.3845     17.0486   2000.0000    140.2030
   804.5000   2000.0000     18.4515     16.9672   2000.0000    140.6109
   804.7500   2000.0000     18.5557     16.9136   2000.0000    141.4412
   805.0000   2000.0000     18.7101     16.9182   2000.0000    142.9387
   805.2500   2000.0000     18.9236     17.0094   2000.0000    143.3825
   805.5000   2000.0000     19.1982     17.2087   2000.0000    142.3482
   805.7500   2000.0000     19.5280     17.5300   2000.0000    140.6550
   806.0000   2000.0000     19.8978     17.9779   2000.0000    137.7044
   806.2500   2000.0000     20.2850     18.5470   2000.0000    135.9988
   806.5000   2000.0000     20.6614     19.2209   2000.0000    133.6544
   806.7500   2000.0000     20.9976     19.9718   2000.0000    131.6779
   807.0000   2000.0000     21.2677     20.7608   2000.0000    127.4441
   807.2500   2000.0000     21.4528     21.5392   2000.0000    123.7681
   807.5000   2000.0000     21.5420     22.2523   2000.0000    117.0254
   807.7500   2000.0000     21.5325     22.8441   2000.0000    111.6624
   808.0000   2000.0000     21.4261     23.2656   2000.0000    102.7854
   808.2500   2000.0000     21.2270     23.4815   2000.0000     97.1407
   808.5000   2000.0000     20.9404     23.4772   2000.0000     90.9473
   808.7500   2000.0000     20.5725     23.2586   2000.0000     89.2910
