~Version Information
VERS.                      2.0: CWLS Log ASCII Standard - VERSION 2.0
WRAP.                       NO: One line per depth step
~Well Information Block
STRT.FT               -12.5000: 
STOP.FT              2200.2500: 
STEP.FT                 0.2500: 
NULL.                -999.2500: 
COMP.          Pioneer Natural Resources: COMPANY
WELL.           Ogallela 44-12: WELL
FLD.           Purgatorie River: FIELD
LOC.           610' FSL & 671' FEL------: LOCATION
PROV.                       CO: PROVINCE
CNTY.               Las Animas: COUNTRY
SRVC.          Patterson Wireline: SERVICE COMPANY
DATE.          Tue Mar 22 17:18:22 2005: LOG DATE
UWI.           05 071 08283 00: UNIQUE WELL ID
~Curve Information Block
DEPT.FT            0 000 00 00: Depth
CCL.                          : Casing Collar Locator
TT3.usec                      : CBL 3' Travel Time
AMP3.mV                       : CBL 3' Amplitude
GR.GAPI                       : Gamma Ray
~Parameter Information Block
~A  Depth       CCL         TT3         AMP3         GR     
# ...
   121.5000      0.0000    267.4919     79.7537     88.7087
   121.7500      0.0000    267.5017     79.4811     88.7838
   122.0000      0.0000    267.5173     79.2865     88.0602
   122.2500      0.0000    267.5298     79.2595     86.7064
   122.5000      0.0000    267.5331     79.4011     85.6291
   122.7500      0.0000    267.5280     79.6407     86.2027
   123.0000      0.0000    267.5200     79.8923     89.1304
   123.2500      0.0000    267.5134     80.1053     93.6088
   123.5000      0.0000    267.5095     80.2776     98.0142
   123.7500      0.0000    267.5096     80.4245    101.3493
   124.0000      0.0000    267.5168     80.5354    103.7860
   124.2500      0.0000    267.5327     80.5632    105.9143
   124.5000      0.0000    267.5533     80.4696    107.6938
   124.7500      0.0000    267.5736     80.2874    108.2484
   125.0000      0.0000    267.5999     80.1096    106.8240
   125.2500      0.0000    267.6959     79.9534    103.9225
   125.5000      0.0000    268.0671     79.5764    101.2127
   125.7500      0.0000    269.1440     78.3878    100.2630
   126.0000      0.0000    271.4540     75.6680    101.4893
   126.2500      0.0000    275.0813     71.1592    104.0699
   126.5000      0.0000    279.0834     65.5888    106.5196
   126.7500      0.0000    281.7950     60.4055    107.4748
   127.0000      0.0000    282.1565     56.7861    106.4709
   127.2500      0.0000    280.6371     54.9426    104.2161
   127.5000      0.0000    278.6251     54.3467    101.9519
   127.7500      0.0000    277.1602     54.3519    100.4220
   128.0000      2.0000    276.4412     54.5424     99.5816
   128.2500      0.0000    276.1875     54.7639     99.3739
   128.5000     -2.0000    276.0838     55.0658    100.5382
   128.7500      0.0000    275.9275     55.7007    104.3048
   129.0000      0.0000    275.5895     57.1228    111.1236
   129.2500      0.0000    274.9709     59.7794    119.7010
   129.5000      0.0000    274.0180     63.6856    127.4417
   129.7500      0.0000    272.7910     68.2251    132.2423
   130.0000      0.0000    271.4853     72.5282    134.1076
   130.2500      0.0000    270.3501     76.0020    134.6790
   130.5000      0.0000    269.5510     78.4570    135.1409
   130.7500      0.0000    269.0994     79.9497    135.2630
   131.0000      0.0000    268.8970     80.6850    134.7636
   131.2500      0.0000    268.8275     80.9546    134.6448
   131.5000      0.0000    268.8127     81.0190    136.2410
   131.7500      0.0000    268.8162     81.0175    139.2435
   132.0000      0.0000    268.8257     80.9824    141.4730
   132.2500      0.0000    268.8371     80.9224    140.6992
   132.5000      0.0000    268.8471     80.8787    136.3230
   132.7500      0.0000    268.8519     80.9016    129.3246
   133.0000      0.0000    268.8510     80.9832    121.0268
   133.2500      0.0000    268.8476     81.0561    112.1756
   133.5000      0.0000    268.8443     81.0660    103.0059
   133.7500      0.0000    268.8418     81.0274     93.8528
   134.0000      0.0000    268.8380     81.0082     85.4238
   134.2500      0.0000    268.8303     81.0724     78.4266
   134.5000      0.0000    268.8179     81.2229     73.1541
   134.7500      0.0000    268.8049     81.3913     69.5449
   135.0000      0.0000    268.7986     81.4947     67.4765
   135.2500      0.0000    268.8018     81.5075     66.7965
   135.5000      0.0000    268.8113     81.4680     67.0818
   135.7500      0.0000    268.8212     81.4289     67.5860
   136.0000      0.0000    268.8286     81.4126     67.7095
   136.2500      0.0000    268.8339     81.3964     67.5958
   136.5000      0.0000    268.8391     81.3285     68.0588
   136.7500      0.0000    268.8453     81.1769     69.8468
   137.0000      0.0000    268.8526     80.9698     73.1738
   137.2500      0.0000    268.8614     80.7751     77.9973
   137.5000      0.0000    268.8717     80.6366     84.4916
   137.7500      0.0000    268.8829     80.5498     93.0591
   138.0000      0.0000    268.8922     80.4957    103.6682
   138.2500      0.0000    268.8971     80.4667    115.0135
   138.5000      0.0000    268.8969     80.4556    124.5361
   138.7500      0.0000    268.8937     80.4469    129.7883
   139.0000      0.0000    268.8911     80.4270    130.1177
   139.2500      0.0000    268.8916     80.3923    127.1676
   139.5000      0.0000    268.8947     80.3504    123.7208
   139.7500      0.0000    268.8965     80.3197    121.7961
   140.0000      0.0000    268.8942     80.3241    121.4464
   140.2500      0.0000    268.8893     80.3822    121.0574
   140.5000      0.0000    268.8848     80.5049    118.8569
   140.7500      0.0000    268.8819     80.6896    114.5217
   141.0000      0.0000    268.8786     80.9077    109.5585
   141.2500      0.0000    268.8733     81.1117    106.1548
   141.5000      0.0000    268.8665     81.2648    105.6436
   141.7500      0.0000    268.8594     81.3559    107.9501
   142.0000      0.0000    268.8537     81.3863    112.1910
   142.2500      0.0000    268.8499     81.3603    117.5567
   142.5000      0.0000    268.8488     81.2956    123.6346
   142.7500      0.0000    268.8501     81.2294    130.0780
   143.0000      0.0000    268.8530     81.1962    136.0705
   143.2500      0.0000    268.8567     81.1978    140.3135
   143.5000      0.0000    268.8622     81.1999    141.8829
   143.7500      0.0000    268.8715     81.1676    141.1376
   144.0000      0.0000    268.8852     81.1067    139.3747
   144.2500      0.0000    268.9014     81.0642    137.3328
   144.5000      0.0000    268.9167     81.0870    134.3993
   144.7500      0.0000    268.9281     81.1807    129.7146
   145.0000      0.0000    268.9337     81.3123    123.8126
   145.2500      0.0000    268.9338     81.4476    118.6166
   145.5000      0.0000    268.9300     81.5751    115.8880
   145.7500      0.0000    268.9242     81.6944    116.0982
   146.0000      0.0000    268.9182     81.7993    118.5404
   146.2500      0.0000    268.9144     81.8781    121.8453
   146.5000      0.0000    268.9146     81.9249    124.5262
   146.7500      0.0000    268.9191     81.9423    125.8800
   147.0000      0.0000    268.9265     81.9383    126.6095
   147.2500      0.0000    268.9343     81.9256    128.0374
   147.5000      0.0000    268.9406     81.9136    130.4867
   147.7500      0.0000    268.9455     81.8948    132.9543
   148.0000      0.0000    268.9502     81.8470    134.4904
   148.2500      0.0000    268.9535     81.7615    135.2734
   148.5000      0.0000    268.9513     81.6631    136.1171
   148.7500      0.0000    268.9400     81.5931    137.4797
   149.0000      0.0000    268.9218     81.5744    139.1292
   149.2500      0.0000    268.9047     81.5928    140.4301
   149.5000      0.0000    268.8968     81.6094    140.7979
   149.7500      0.0000    268.9008     81.5926    139.9948
   150.0000      0.0000    268.9136     81.5376    138.1862
   150.2500      0.0000    268.9289     81.4536    136.0335
   150.5000      0.0000    268.9413     81.3515    134.7314
   150.7500      0.0000    268.9481     81.2549    135.2811
   151.0000      0.0000    268.9492     81.1984    137.1923
   151.2500      0.0000    268.9458     81.1948    138.3374
   151.5000      0.0000    268.9395     81.2236    136.7352
   151.7500      0.0000    268.9315     81.2624    132.4653
   152.0000      0.0000    268.9228     81.3066    127.4153
   152.2500      0.0000    268.9138     81.3476    123.2367
   152.5000      0.0000    268.9047     81.3529    120.0471
   152.7500      0.0000    268.8964     81.2844    117.0998
   153.0000      0.0000    268.8903     81.1333    113.9168
   153.2500      0.0000    268.8857     80.9362    110.4866
   153.5000      0.0000    268.8793     80.7649    107.0286
   153.7500      0.0000    268.8693     80.6876    104.0334
   154.0000      0.0000    268.8609     80.7195    102.1403
   154.2500      0.0000    268.8624     80.8065    101.6157
   154.5000      0.0000    268.8766     80.8662    102.0265
   154.7500      0.0000    268.8970     80.8527    102.5047
