~Version Information
 VERS.                                  2.0 : CWLS LAS VERSION
 WRAP.                                   NO : WRAPING MODE
 SWARE .                 MController 2.5.0N : SOFTWARE VERSION
~Well Information
 WELL.                                  N/A : WELL
 COMP.                                  N/A : COMPANY
 FLD.                                   N/A : FIELD
 LOC.                                   N/A : LOCATION
 DATE.                                  N/A : DATE(S) LOGGED
 SRVC.                                  N/A : SERVICE COMPANY
 STAT.                                  N/A : STATE
 CNTY.                                  N/A : COUNTY
 CTRY.                                  N/A : COUNTRY
 API.                                   N/A : API NUMBER
 STRT.FT                               0.00 : START DEPTH
 STOP.FT                            2050.00 : STOP DEPTH
 STEP.FT                               1.00 : DEPTH INCREMENT
 NULL.                                -9999 : NULL VALUE
~Curve information
 DEPTH.FT                                   :
 ROP.MIN/FT                                 :
 GAS.UNITS                                  :
~ASCII Log data
# ...
       200.0         0.23          3.5 
       201.0         0.23          3.3 
       202.0         0.20          3.4 
       203.0         0.23          3.3 
       204.0         0.27          3.4 
       205.0         0.30          3.3 
       206.0         1.18          3.5 
       207.0         0.33          3.3 
       208.0         0.27          3.4 
       209.0         0.30          3.6 
       210.0         0.27          3.4 
       211.0         0.27          3.4 
       212.0         0.27          3.6 
       213.0         0.30          3.4 
       214.0         0.30          3.5 
       215.0         0.33          3.7 
       216.0         0.28          3.7 
       217.0         0.30          3.7 
       218.0         0.27          3.7 
       219.0         0.30          3.7 
       220.0         0.30          3.6 
       221.0         0.30          3.6 
       222.0         0.30          3.7 
       223.0         0.37          3.8 
       224.0         0.30          3.4 
       225.0         0.27          3.5 
       226.0         0.27          3.6 
       227.0         0.25          3.7 
       228.0         0.33          3.6 
       229.0         0.23          3.4 
       230.0         0.27          3.7 
       231.0         0.23          3.7 
       232.0         0.27          3.7 
       233.0         0.20          3.6 
       234.0         0.23          3.5 
       235.0         0.23          3.7 
       236.0         1.55          3.6 
       237.0         0.23          3.3 
       238.0         0.23          3.4 
       239.0         0.27          3.5 
       240.0         0.23          3.4 
       241.0         0.23          3.4 
       242.0         0.23          3.4 
       243.0         0.23          3.3 
       244.0         0.23          3.4 
       245.0         0.23          3.6 
       246.0         0.27          3.4 
       247.0         0.28          3.6 
       248.0         0.30          3.4 
       249.0         0.27          3.3 
       250.0         0.20          3.5 
       251.0         0.23          3.4 
       252.0         0.30          3.4 
       253.0         0.33          3.4 
       254.0         0.30          3.3 
       255.0         0.33          3.5 
       256.0         0.33          3.3 
       257.0         0.30          3.5 
       258.0         0.28          3.0 
       259.0         0.27          3.3 
       260.0         0.27          3.5 
       261.0         0.27          3.3 
       262.0         0.27          3.3 
       263.0         0.27          3.5 
       264.0         0.30          3.3 
       265.0         0.27          3.3 
       266.0         1.82          3.5 
       267.0         0.27          3.2 
       268.0         0.30          3.3 
       269.0         0.30          3.3 
       270.0         0.27          3.3 
       271.0         0.30          3.1 
       272.0         0.27          3.2 
       273.0         0.23          3.4 
       274.0         0.30          3.3 
       275.0         0.35          3.3 
       276.0         0.27          3.1 
       277.0         0.30          3.1 
       278.0         0.30          3.2 
       279.0         0.27          3.1 
       280.0         0.30          3.0 
       281.0         0.30          3.1 
       282.0         0.30          3.3 
       283.0         0.37          3.1 
       284.0         0.33          3.3 
       285.0         0.32          3.3 
       286.0         0.27          3.2 
       287.0         0.30          3.3 
       288.0         0.33          3.3 
       289.0         0.30          3.1 
       290.0         0.33          3.2 
       291.0         0.30          3.3 
       292.0         0.33          3.2 
       293.0         0.33          3.2 
       294.0         0.30          3.2 
       295.0         0.30          3.1 
       296.0         1.62          3.2 
       297.0         0.37          3.1 
       298.0         0.30          3.1 
       299.0         0.33          2.8 
       300.0         0.30          2.6 
       301.0         0.32          2.7 
       302.0         0.27          2.8 
       303.0         0.37          2.9 
       304.0         0.30          3.0 
       305.0         0.30          2.8 
       306.0         0.30          2.8 
       307.0         0.33          2.9 
       308.0         0.30          2.9 
       309.0         0.27          2.9 
       310.0         0.30          3.0 
       311.0         0.33          3.1 
       312.0         0.28          2.9 
       313.0         0.30          3.0 
       314.0         0.30          2.9 
       315.0         0.27          2.8 
       316.0         0.30          3.0 
       317.0         0.33          2.7 
       318.0         0.30          2.9 
       319.0         0.30          3.1 
       320.0         0.30          2.9 
       321.0         0.30          2.7 
       322.0         0.33          3.0 
       323.0         0.32          2.7 
       324.0         0.30          3.0 
       325.0         0.33          2.9 
       326.0         1.73          3.0 
       327.0         0.33          2.8 
       328.0         0.38          2.9 
       329.0         0.40          3.0 
       330.0         0.30          2.9 
       331.0         0.30          2.9 
       332.0         0.30          2.8 
       333.0         0.30          2.8 
       334.0         0.30          2.9 
       335.0         0.27          2.9 
       336.0         0.33          2.9 
       337.0         0.27          2.7 
       338.0         0.30          3.0 
       339.0         0.28          3.0 
       340.0         0.30          3.0 
       341.0         0.30          3.0 
       342.0         0.23          2.9 
       343.0         0.30          3.1 
       344.0         0.30          2.9 
       345.0         0.33          2.8 
       346.0         0.27          3.0 
       347.0         0.30          2.9 
       348.0         0.27          2.8 
       349.0         0.30          3.0 
       350.0         0.28          3.0 
       351.0         0.30          2.9 
       352.0         0.27          3.0 
       353.0         0.27          3.1 
       354.0         0.20          3.0 
       355.0         0.30          2.9 
       356.0         1.00          3.1 
       357.0         0.27          3.0 
       358.0         0.33          3.0 
       359.0         0.35          3.1 
       360.0         0.30          3.1 
       361.0         0.30          3.0 
       362.0         0.40          2.9 
       363.0         0.40          3.1 
       364.0         0.40          3.1 
       365.0         0.30          3.1 
       366.0         0.30          2.7 
       367.0         0.30          3.0 
       368.0         0.28          2.8 
       369.0         0.30          2.7 
       370.0         0.27          3.0 
       371.0         0.30          3.0 
       372.0         0.30          3.0 
       373.0         0.27          2.9 
       374.0         0.27          3.0 
       375.0         0.30          3.1 
       376.0         0.23          2.8 
       377.0         0.23          3.2 
       378.0         0.27          3.0 
       379.0         0.30          2.8 
       380.0         0.32          2.9 
       381.0         0.27          2.9 
       382.0         0.30          2.8 
       383.0         0.30          2.9 
       384.0         0.30          2.9 
       385.0         0.30          2.8 
       386.0         2.02          3.0 
       387.0         0.40          2.9 
       388.0         0.37          3.0 
       389.0         0.37          2.8 
       390.0         0.37          3.0 
       391.0         0.33          2.9 
       392.0         0.92          2.9 
       393.0         0.63          2.9 
       394.0         0.27          2.7 
       395.0         0.23          2.8 
       396.0         0.27          2.6 
       397.0         0.27          2.8 
       398.0         0.23          2.3 
       399.0         0.27          2.9 
