~Version Information
VERS.                      2.0: CWLS Log ASCII Standard - VERSION 2.0
WRAP.                       NO: One line per depth step
~Well Information Block
STRT.FT               430.0000: 
STOP.FT              2827.0000: 
STEP.FT                 0.1000: 
NULL.                -999.2500: 
COMP.          Pioneer Natural Resources: COMPANY
WELL.           Ei-ei-oh 31-24: WELL
FLD.           Purgatoire River: FIELD
LOC.           235' FNL & 2001' FEL--: LOCATION
PROV.                 Colorado: PROVINCE
CNTY.               Las Animas: COUNTRY
SRVC.                Patterson: SERVICE COMPANY
DATE.          Thu Jun 16 07:14:41 2005: LOG DATE
UWI.           05 071 08403 00: UNIQUE WELL ID
~Curve Information Block
DEPT.FT            0 000 00 00: Depth
DCAL.in                       : CDL Caliper
DPOR.pu                       : CDL Density Porosity
NPOR.pu                       : Neutron Porosity
RHOB.g/cc                     : CDL Bulk Density
RHOC.g/cc                     : CDL Density Correction
GR.GAPI                       : Gamma Ray
~Parameter Information Block
~A  Depth       DCAL        DPOR        NPOR        RHOB        RHOC         GR     
   430.0000      1.1523     45.2000     41.6132      1.9042     -0.2024     88.8341
   430.1000      1.1523     50.0486     40.1360      1.8242     -0.2141     92.0142
   430.2000      1.1523     57.1991     38.2907      1.7062     -0.2173     92.0175
   430.3000      1.5362     65.0322     36.3283      1.5770     -0.2828     88.6336
   430.4000      1.5362     68.2155     34.0408      1.5244     -0.3098     87.8183
   430.5000      3.2067     63.5519     31.3659      1.6014     -0.1756     89.2681
   430.6000      3.2067     54.0804     28.8052      1.7577     -0.0814     89.4728
   430.7000      3.2067     43.7471     26.7438      1.9282      0.0820     89.4278
   430.8000      5.9832     33.9829     24.9472      2.0893      0.2439     90.4240
   430.9000      5.9832     25.4208     23.1456      2.2306      0.3728     91.2952
   431.0000      7.8027     19.6029     21.5245      2.3266      0.5900     91.4000
   431.1000      7.8027     17.3431     20.3464      2.3638      0.3881     92.6858
   431.2000      7.8027     16.5416     19.6932      2.3771      0.3693     96.0761
   431.3000      8.5286     15.3252     19.5336      2.3971      0.3690     99.4912
   431.4000      8.5286     14.1734     19.5261      2.4161      0.3761    100.9883
   431.5000      9.0077     14.3273     19.2644      2.4136      0.3928     99.4367
   431.6000      9.0077     16.0730     18.7278      2.3848      0.3309     94.4683
   431.7000      9.0077     18.3346     17.8797      2.3475      0.3036     87.7013
   431.8000      9.3249     19.9767     16.8539      2.3204      0.2774     84.0399
   431.9000      9.3249     20.7331     16.2194      2.3079      0.2874     87.4225
   432.0000      9.4535     20.6073     16.1650      2.3100      0.2661     97.3416
   432.1000      9.4535     19.3291     16.4424      2.3311      0.2795    109.2356
   432.2000      9.4535     17.0671     16.6450      2.3684      0.2953    114.9519
   432.3000      9.4815     14.9270     16.6243      2.4037      0.2973    109.9864
   432.4000      9.4815     13.7190     16.7854      2.4236      0.2928    101.1039
   432.5000      9.4604     12.7366     17.5057      2.4398      0.2654     97.6189
   432.6000      9.4604     11.2809     18.6315      2.4639      0.2954     99.3182
   432.7000      9.4604     10.1267     19.5341      2.4829      0.2964    100.7960
   432.8000      9.4098      9.9746     19.8548      2.4854      0.2577     99.2343
   432.9000      9.4098     10.5931     20.0277      2.4752      0.2398     95.6087
   433.0000      9.3631     11.7681     20.3835      2.4558      0.2200     92.7049
   433.1000      9.3631     13.4209     20.7346      2.4286      0.1876     93.0922
   433.2000      9.3631     15.2942     21.0355      2.3976      0.1778     96.1193
   433.3000      9.3244     16.7672     21.2042      2.3733      0.1313     96.8851
   433.4000      9.3244     16.8132     21.0036      2.3726      0.1263     92.4382
   433.5000      9.2915     15.0791     20.5333      2.4012      0.1379     86.0507
   433.6000      9.2915     12.9073     19.9382      2.4370      0.2021     84.4811
   433.7000      9.2915     12.6873     19.4481      2.4407      0.2558     87.6828
   433.8000      9.2743     14.9673     19.3454      2.4030      0.2004     89.1640
   433.9000      9.2743     17.4793     19.3278      2.3616      0.1709     85.6924
   434.0000      9.2510     18.4043     19.0755      2.3463      0.1901     80.0650
   434.1000      9.2510     17.8944     18.8700      2.3547      0.1895     76.9908
   434.2000      9.2510     16.4395     18.8974      2.3787      0.1501     76.9220
   434.3000      9.1685     14.6430     18.7549      2.4084      0.1786     77.4088
   434.4000      9.1685     13.4603     18.0295      2.4279      0.1864     78.7002
   434.5000      9.0410     13.1396     16.8347      2.4332      0.2018     78.5791
   434.6000      9.0410     13.2394     15.6704      2.4315      0.2202     73.3353
   434.7000      9.0410     13.2920     15.0685      2.4307      0.2051     67.9447
   434.8000      8.9841     13.1959     14.9550      2.4323      0.2349     69.1337
   434.9000      8.9841     12.9944     14.9183      2.4356      0.2038     73.2904
   435.0000      9.0226     12.3041     15.0927      2.4470      0.1939     73.9307
   435.1000      9.0226     10.9943     15.6075      2.4686      0.2276     73.1399
   435.2000      9.0226      9.5564     16.0283      2.4923      0.2340     75.4184
   435.3000      9.0981      8.4352     16.3863      2.5108      0.2404     78.9096
   435.4000      9.0981      7.9382     17.0406      2.5190      0.2344     79.9492
   435.5000      9.1664      8.1304     17.8922      2.5158      0.2212     79.0903
   435.6000      9.1664      8.5130     18.7432      2.5095      0.2161     79.7209
   435.7000      9.1664      8.6978     19.4708      2.5065      0.2172     82.6198
   435.8000      9.2095      8.9940     19.9892      2.5016      0.1947     85.6884
   435.9000      9.2095      9.8862     20.2991      2.4869      0.1972     88.9137
   436.0000      9.2300     11.4856     20.4480      2.4605      0.1668     93.9710
   436.1000      9.2300     13.2266     20.5103      2.4318      0.1428    101.3758
   436.2000      9.2300     14.3855     20.6231      2.4126      0.1812    108.7239
   436.3000      9.2343     15.0791     20.6403      2.4012      0.1605    114.2314
   436.4000      9.2343     15.9822     20.3385      2.3863      0.1589    118.8516
   436.5000      9.2211     17.4061     20.0384      2.3628      0.1708    124.0321
   436.6000      9.2211     19.1675     20.1639      2.3337      0.1911    129.8651
   436.7000      9.2211     20.7355     20.7325      2.3079      0.1593    134.3928
   436.8000      9.1788     21.1204     21.1242      2.3015      0.1346    134.8307
   436.9000      9.1788     19.6868     20.7731      2.3252      0.1455    131.6899
   437.0000      9.1185     16.7808     19.9004      2.3731      0.1754    128.7480
   437.1000      9.1185     13.4189     18.8909      2.4286      0.2437    125.4144
   437.2000      9.1185     11.2661     18.0659      2.4641      0.2752    118.2794
   437.3000      9.0776     11.4739     17.7043      2.4607      0.2199    108.7384
   437.4000      9.0776     13.3267     17.6855      2.4301      0.1909    101.9534
   437.5000      9.0520     15.6993     17.7272      2.3910      0.1786    100.9090
   437.6000      9.0520     18.1276     17.5779      2.3509      0.1598    100.7724
   437.7000      9.0520     20.0715     17.2022      2.3188      0.1062     95.1652
   437.8000      9.0122     21.1996     16.7395      2.3002      0.1146     86.2947
   437.9000      9.0122     21.9575     16.2503      2.2877      0.0981     80.0112
   438.0000      8.9285     22.8183     15.7540      2.2735      0.0969     76.8075
   438.1000      8.9285     23.7409     15.4995      2.2583      0.1162     74.6141
   438.2000      8.9285     24.2832     15.6288      2.2493      0.1192     74.4893
   438.3000      8.7959     24.0408     15.7321      2.2533      0.1544     79.1149
   438.4000      8.7959     23.3509     15.5936      2.2647      0.1843     87.2206
   438.5000      8.6756     22.8084     15.4497      2.2737      0.1816     94.3795
   438.6000      8.6756     22.2115     15.3060      2.2835      0.1778     96.7853
   438.7000      8.6756     21.1715     15.0541      2.3007      0.1973     94.0191
   438.8000      8.6258     20.3364     14.9086      2.3144      0.2352     90.0094
   438.9000      8.6258     20.5481     14.9098      2.3110      0.2396     88.3507
   439.0000      8.6336     21.2368     14.8569      2.2996      0.1901     88.6912
   439.1000      8.6336     21.8099     14.7985      2.2901      0.2358     90.3230
   439.2000      8.6336     23.2696     14.9077      2.2661      0.2396     94.0915
   439.3000      8.6603     26.1643     15.0517      2.2183      0.1967     98.6091
   439.4000      8.6603     29.3317     14.8866      2.1660      0.1649    101.2863
   439.5000      8.7069     31.6925     14.3458      2.1271      0.1539    101.3039
