~Version Information
VERS.                      2.0: CWLS Log ASCII Standard - VERSION 2.0
WRAP.                       NO: One line per depth step
~Well Information Block
STRT.FT               340.0000: 
STOP.FT              1731.0000: 
STEP.FT                 0.1000: 
NULL.                -999.2500: 
COMP.          Pioneer Natural Resources: COMPANY
WELL.          Rancher 12-35 Tr: WELL
FLD.           Purgatoire River: FIELD
LOC.           2242' FNL & 308' FWL SWNW 35 32S 67W: LOCATION
PROV.                 Colorado: PROVINCE
CNTY.               Las Animas: COUNTRY
SRVC.                Patterson: SERVICE COMPANY
DATE.          Tue Jul 05 07:18:22 2005: LOG DATE
UWI.              05 071 08430 00: UNIQUE WELL ID
~Curve Information Block
DEPT.FT            0 000 00 00: Depth
DCAL.in                       : CDL Caliper
RHOB.g/cc                     : CDL Bulk Density
RHOC.g/cc                     : CDL Density Correction
DPOR.pu                       : CDL Density Porosity
GR.GAPI                       : Gamma Ray
NPOR.pu                       : Neutron Porosity
~Parameter Information Block
~A  Depth       DCAL        RHOB        RHOC        DPOR         GR         NPOR    
# ...
  1712.8000      7.7820      2.5827      0.0927      4.0792    140.1292     21.6303
  1712.9000      7.7820      2.5792      0.0914      4.2890    146.4635     22.0478
  1713.0000      7.7495      2.5888      0.0442      3.7080    150.7413     22.8442
  1713.1000      7.7495      2.5984      0.0721      3.1297    158.1285     23.7259
  1713.2000      7.7495      2.5905      0.0868      3.6054    168.0341     24.1574
  1713.3000      7.7735      2.5597      0.0817      5.4710    173.2917     24.0467
  1713.4000      7.7735      2.5277      0.0021      7.4141    173.1584     23.6837
  1713.5000      7.8399      2.5238     -0.0263      7.6472    171.5351     23.1858
  1713.6000      7.8399      2.5467      0.0624      6.2598    170.2483     22.5796
  1713.7000      7.8399      2.5728      0.0067      4.6768    170.1469     22.2158
  1713.8000      7.8851      2.5850      0.0569      3.9404    170.9692     22.2130
  1713.9000      7.8851      2.5734      0.0351      4.6428    171.7073     22.1529
  1714.0000      7.8940      2.5544      0.0138      5.7967    169.0563     21.8241
  1714.1000      7.8940      2.5478      0.0885      6.1937    159.7439     21.3213
  1714.2000      7.8940      2.5504      0.0519      6.0372    146.3675     20.2370
  1714.3000      7.8853      2.5653      0.0307      5.1321    134.1226     18.8638
  1714.4000      7.8853      2.5911      0.0928      3.5683    122.0838     18.4451
  1714.5000      7.8797      2.6068      0.0467      2.6196    102.5916     19.1001
  1714.6000      7.8797      2.6047      0.0994      2.7430     70.7754     19.6523
  1714.7000      7.8797      2.5926      0.0369      3.4792     34.8929     19.3191
  1714.8000      7.8766      2.5682      0.1049      4.9577     10.8684     18.3203
  1714.9000      7.8766      2.5252      0.0550      7.5610      1.9691     16.9665
  1715.0000      7.8626      2.4815      0.0155     10.2129      0.1977     16.0238
  1715.1000      7.8626      2.4663     -0.0306     11.1328      0.0104     16.3001
  1715.2000      7.8626      2.4848      0.0286     10.0123      0.0000     17.2536
  1715.3000      7.8464      2.5150      0.0543      8.1801   -999.2500     17.6389
  1715.4000      7.8464      2.5347      0.0749      6.9861   -999.2500     17.4260
  1715.5000      7.8513      2.5351      0.0683      6.9664   -999.2500     17.3348
  1715.6000      7.8513      2.5192      0.0399      7.9302   -999.2500     17.4379
  1715.7000      7.8513      2.4955      0.0708      9.3633   -999.2500     17.6565
  1715.8000      7.8590      2.4769      0.0102     10.4914   -999.2500     18.2409
  1715.9000      7.8590      2.4767      0.0410     10.5043   -999.2500     19.1074
  1716.0000      7.8629      2.4912      0.0174      9.6233   -999.2500     20.4422
  1716.1000      7.8629      2.5113      0.0119      8.4061   -999.2500     23.4518
  1716.2000      7.8629      2.5355      0.0364      6.9412   -999.2500     30.5358
  1716.3000      7.8681      2.5537      0.0726      5.8335   -999.2500     41.0519
  1716.4000      7.8681      2.5537      0.0531      5.8386   -999.2500     48.6812
  1716.5000      7.8656      2.5380      0.0688      6.7864   -999.2500     51.4554
  1716.6000      7.8656      2.5166      0.0568      8.0877   -999.2500     52.0033
  1716.7000      7.8656      2.5025      0.0221      8.9366   -999.2500     52.0618
  1716.8000      7.8578      2.5052      0.0542      8.7754   -999.2500     52.0651
  1716.9000      7.8578      2.5143      0.0457      8.2265   -999.2500   -999.2500
  1717.0000      7.8484      2.5088      0.0662      8.5586   -999.2500   -999.2500
  1717.1000      7.8484      2.4798      0.0348     10.3135   -999.2500   -999.2500
  1717.2000      7.8484      2.4423      0.0036     12.5874   -999.2500   -999.2500
  1717.3000      7.8610      2.4255     -0.0036     13.6080   -999.2500   -999.2500
  1717.4000      7.8610      2.4417      0.0229     12.6218   -999.2500   -999.2500
  1717.5000      7.8684      2.4728      0.0452     10.7376   -999.2500   -999.2500
  1717.6000      7.8684      2.5029      0.0580      8.9168   -999.2500   -999.2500
  1717.7000      7.8684      2.5350      0.0707      6.9710   -999.2500   -999.2500
  1717.8000      7.8644      2.5655      0.0859      5.1197   -999.2500   -999.2500
  1717.9000      7.8644      2.5824      0.1144      4.0993   -999.2500   -999.2500
  1718.0000      7.8492      2.5863      0.0943      3.8587   -999.2500   -999.2500
  1718.1000      7.8492      2.5843      0.1216      3.9844   -999.2500   -999.2500
  1718.2000      7.8492      2.5762      0.0838      4.4735   -999.2500   -999.2500
  1718.3000      7.8219      2.5750      0.0518      4.5471   -999.2500   -999.2500
  1718.4000      7.8219      2.5879      0.0990      3.7622   -999.2500   -999.2500
  1718.5000      7.8225      2.5896      0.1534      3.6613   -999.2500   -999.2500
  1718.6000      7.8225      2.5636      0.0749      5.2359   -999.2500   -999.2500
  1718.7000      7.8225      2.5316      0.0541      7.1760   -999.2500   -999.2500
  1718.8000      7.8259      2.5186      0.0133      7.9642   -999.2500   -999.2500
  1718.9000      7.8259      2.5345      0.0010      7.0025   -999.2500   -999.2500
  1719.0000      7.8325      2.5699      0.0228      4.8531   -999.2500   -999.2500
  1719.1000      7.8325      2.5937      0.0716      3.4114   -999.2500   -999.2500
  1719.2000      7.8325      2.5894      0.0835      3.6744   -999.2500   -999.2500
  1719.3000      7.8739      2.5773      0.0201      4.4065   -999.2500   -999.2500
  1719.4000      7.8739      2.5770      0.0218      4.4237   -999.2500   -999.2500
  1719.5000      7.9014      2.5672      0.1137      5.0167   -999.2500   -999.2500
  1719.6000      7.9014      2.5293      0.0263      7.3149   -999.2500   -999.2500
  1719.7000      7.9014      2.4935      0.0088      9.4829   -999.2500   -999.2500
  1719.8000      7.9118      2.4879      0.0063      9.8261   -999.2500   -999.2500
  1719.9000      7.9118      2.5073      0.0116      8.6485   -999.2500   -999.2500
  1720.0000      7.9005      2.5347      0.0459      6.9874   -999.2500   -999.2500
  1720.1000      7.9005      2.5571      0.0496      5.6314   -999.2500   -999.2500
  1720.2000      7.9005      2.5629      0.1123      5.2758   -999.2500   -999.2500
  1720.3000      7.8853      2.5456      0.0566      6.3299   -999.2500   -999.2500
  1720.4000      7.8853      2.5250      0.0012      7.5767   -999.2500   -999.2500
  1720.5000      7.8824      2.5242      0.0653      7.6269   -999.2500   -999.2500
  1720.6000      7.8824      2.5342      0.0508      7.0166   -999.2500   -999.2500
  1720.7000      7.8824      2.5443      0.0793      6.4031   -999.2500   -999.2500
  1720.8000      7.9171      2.5576      0.0875      5.5996   -999.2500   -999.2500
  1720.9000      7.9171      2.5780      0.1074      4.3617   -999.2500   -999.2500
  1721.0000      7.8431      2.6085      0.0832      2.5160   -999.2500   -999.2500
  1721.1000      7.8431      2.6439      0.1355      0.3708   -999.2500   -999.2500
  1721.2000      7.8431      2.6686      0.1565     -1.1263   -999.2500   -999.2500
  1721.3000      7.8267      2.6767      0.1287     -1.6162   -999.2500   -999.2500
  1721.4000      7.8267      2.6651      0.1937     -0.9158   -999.2500   -999.2500
  1721.5000      7.8349      2.6325      0.1015      1.0623   -999.2500   -999.2500
  1721.6000      7.8349      2.6057      0.0223      2.6835   -999.2500   -999.2500
  1721.7000      7.8349      2.6078      0.0358      2.5553   -999.2500   -999.2500
  1721.8000      7.8330      2.6212      0.0857      1.7451   -999.2500   -999.2500
  1721.9000      7.8330      2.6175      0.0756      1.9698   -999.2500   -999.2500
  1722.0000      7.8481      2.5976      0.0389      3.1777   -999.2500   -999.2500
  1722.1000      7.8481      2.5779      0.0454      4.3705   -999.2500   -999.2500
  1722.2000      7.8481      2.5658      0.0426      5.1052   -999.2500   -999.2500
  1722.3000      7.8840      2.5679      0.0321      4.9783   -999.2500   -999.2500
