~Version Information
VERS.                      2.0: CWLS Log ASCII Standard - VERSION 2.0
WRAP.                       NO: One line per depth step
~Well Information Block
STRT.FT               234.0000: 
STOP.FT              1773.2000: 
STEP.FT                 0.1000: 
NULL.                -999.2500: 
COMP.          Pioneer Natural Resources: COMPANY
WELL.             Tami J 23-18: WELL
FLD.           Purgatorie River: FIELD
LOC.           2250' FSL & 2400' FWL: LOCATION
PROV.                 Colorado: PROVINCE
CNTY.               Las Animas: COUNTRY
SRVC.                         : SERVICE COMPANY
DATE.          Mon Dec 13 07:02:50 2004: LOG DATE
UWI.           05 071 08073 00: UNIQUE WELL ID
~Curve Information Block
DEPT.FT            0 000 00 00: Depth
LTEN.lb                       : Surface Line Tension
DCAL.in                       : CDL Caliper
RHOB.g/cc                     : CDL Bulk Density
RHOC.g/cc                     : CDL Density Correction
DPOR.pu                       : CDL Density Porosity
GR.GAPI                       : Gamma Ray
NPOR.pu                       : Neutron Porosity
~Parameter Information Block
~A  Depth       LTEN        DCAL        RHOB        RHOC        DPOR         GR         NPOR    
# ...
  1351.2000   1107.9164      7.9294      2.5285      0.0810      7.3608    148.2816     25.6660
  1351.3000   1065.8922      7.9296      2.5554      0.0924      5.7320    140.5590     25.3241
  1351.4000   1065.8922      7.9296      2.5604      0.0399      5.4287    139.4077     24.8353
  1351.5000   1033.2407      7.9290      2.5529      0.0545      5.8868    139.0030     24.5525
  1351.6000   1033.2407      7.9290      2.5475      0.0334      6.2118    139.3246     24.4720
  1351.7000   1033.2407      7.9290      2.5603      0.0031      5.4337    145.7585     24.5760
  1351.8000   1110.0842      7.9284      2.5893      0.0696      3.6788    155.1567     24.7324
  1351.9000   1110.0842      7.9284      2.6104      0.0809      2.3982    156.1925     24.8040
  1352.0000   1048.0121      7.9278      2.6120      0.0878      2.3013    145.9484     24.9617
  1352.1000   1048.0121      7.9278      2.6034      0.0495      2.8241    135.2497     25.2299
  1352.2000   1048.0121      7.9278      2.5952      0.0432      3.3197    131.4336     25.5015
  1352.3000   1071.7292      7.9264      2.5888      0.0465      3.7071    130.2383     25.6316
  1352.4000   1071.7292      7.9264      2.5796      0.0831      4.2688    129.2204     25.5061
  1352.5000   1112.2695      7.9246      2.5693      0.0089      4.8921    130.1630     25.1920
  1352.6000   1112.2695      7.9246      2.5684      0.0142      4.9458    133.1123     24.9812
  1352.7000   1112.2695      7.9246      2.5732      0.0451      4.6544    137.4120     25.1721
  1352.8000   1052.1476      7.9235      2.5696      0.0395      4.8699    140.0134     25.5340
  1352.9000   1052.1476      7.9235      2.5590      0.0484      5.5128    137.9120     25.5863
  1353.0000   1077.1614      7.9231      2.5492      0.0488      6.1073    133.9855     25.2739
  1353.1000   1077.1614      7.9231      2.5397      0.0317      6.6853    131.7088     24.8770
  1353.2000   1077.1614      7.9231      2.5322      0.0251      7.1366    132.6607     24.6635
  1353.3000   1079.9021      7.9228      2.5341     -0.0065      7.0243    140.2373     24.6725
  1353.4000   1079.9021      7.9228      2.5427      0.0492      6.5021    153.9923     24.8776
  1353.5000   1033.3423      7.9222      2.5523      0.0038      5.9184    163.2437     25.2677
  1353.6000   1033.3423      7.9222      2.5686      0.0324      4.9325    162.1743     25.7073
  1353.7000   1033.3423      7.9222      2.5826      0.0930      4.0841    158.5011     26.0715
  1353.8000   1109.1176      7.9214      2.5777      0.0728      4.3790    157.9286     26.2261
  1353.9000   1109.1176      7.9214      2.5652      0.0621      5.1399    157.8927     25.9437
  1354.0000   1058.1068      7.9209      2.5618      0.0743      5.3455    156.4646     25.4728
  1354.1000   1058.1068      7.9209      2.5628      0.1078      5.2859    156.7100     25.4176
  1354.2000   1058.1068      7.9209      2.5637      0.0483      5.2286    161.1304     25.7810
  1354.3000   1122.1049      7.9204      2.5708      0.0853      4.7983    167.3158     25.9541
  1354.4000   1122.1049      7.9204      2.5845      0.0650      3.9727    170.2671     25.5946
  1354.5000   1117.2103      7.9200      2.5958      0.1126      3.2855    168.3181     25.0904
  1354.6000   1117.2103      7.9200      2.5863      0.1069      3.8592    163.0028     24.8166
  1354.7000   1117.2103      7.9200      2.5578      0.0415      5.5899    156.0845     24.7340
  1354.8000   1066.2429      7.9197      2.5404      0.0371      6.6452    151.4610     24.7008
  1354.9000   1066.2429      7.9197      2.5404      0.0630      6.6441    152.9801     24.4974
  1355.0000   1100.1439      7.9197      2.5296      0.0654      7.2955    157.5458     24.1433
  1355.1000   1100.1439      7.9197      2.4937      0.0250      9.4713    159.4832     23.9395
  1355.2000   1100.1439      7.9197      2.4579     -0.0174     11.6429    162.1035     23.8233
  1355.3000   1076.0802      7.9200      2.4522      0.0081     11.9854    170.0240     23.4571
  1355.4000   1076.0802      7.9200      2.4682      0.0678     11.0166    173.5401     22.9248
  1355.5000   1061.3082      7.9205      2.4759      0.0583     10.5527    169.7036     22.5109
  1355.6000   1061.3082      7.9205      2.4702      0.0458     10.8962    171.1307     22.3340
  1355.7000   1061.3082      7.9205      2.4686      0.0710     10.9953    173.5687     22.4667
  1355.8000   1116.7030      7.9212      2.4789      0.1491     10.3719    165.4878     22.8334
  1355.9000   1116.7030      7.9212      2.5006      0.1318      9.0571    159.0092     23.1569
  1356.0000   1066.3766      7.9220      2.5317      0.1506      7.1696    164.7918     23.3538
  1356.1000   1066.3766      7.9220      2.5570      0.1928      5.6383    171.3023     23.6091
  1356.2000   1066.3766      7.9220      2.5617      0.1573      5.3501    168.3921     23.8029
  1356.3000   1074.4946      7.9216      2.5569      0.1099      5.6411    162.9360     23.7218
  1356.4000   1074.4946      7.9216      2.5527      0.1596      5.8951    164.2534     23.5619
  1356.5000   1085.0044      7.9201      2.5464      0.1020      6.2817    168.3662     23.5806
  1356.6000   1085.0044      7.9201      2.5476      0.0933      6.2052    168.4210     23.7410
  1356.7000   1085.0044      7.9201      2.5581      0.1252      5.5683    165.5191     23.8200
  1356.8000   1049.5165      7.9218      2.5623      0.1129      5.3163    161.9908     23.6591
  1356.9000   1049.5165      7.9218      2.5610      0.0795      5.3910    158.0105     23.5308
  1357.0000   1124.8755      7.9263      2.5697      0.0901      4.8660    152.6995     23.7776
  1357.1000   1124.8755      7.9263      2.5886      0.1282      3.7204    147.3846     24.1019
  1357.2000   1124.8755      7.9263      2.6001      0.1514      3.0259    146.3024     23.9830
  1357.3000   1026.9016      7.9287      2.5927      0.1303      3.4713    147.9333     23.4687
  1357.4000   1026.9016      7.9287      2.5761      0.1173      4.4766    146.9288     23.0450
  1357.5000   1103.0397      7.9288      2.5648      0.0757      5.1609    146.7634     22.9185
  1357.6000   1103.0397      7.9288      2.5625      0.0648      5.3036    149.5650     22.9343
  1357.7000   1103.0397      7.9288      2.5598      0.0612      5.4641    150.3157     22.9368
  1357.8000   1095.0730      7.9284      2.5479      0.0145      6.1895    150.1729     22.9249
  1357.9000   1095.0730      7.9284      2.5292      0.0172      7.3221    152.2389     22.9938
  1358.0000   1059.8541      7.9279      2.5131      0.0200      8.2968    151.7015     23.1513
  1358.1000   1059.8541      7.9279      2.5092      0.0049      8.5308    146.4957     23.4345
  1358.2000   1059.8541      7.9279      2.5164      0.1024      8.0954    142.3094     23.8847
  1358.3000   1095.3274      7.9280      2.5208      0.0728      7.8332    142.0567     24.1410
  1358.4000   1095.3274      7.9280      2.5131      0.0610      8.2988    143.0881     24.0493
  1358.5000   1058.8479      7.9286      2.4954      0.0275      9.3674    142.1613     24.0738
  1358.6000   1058.8479      7.9286      2.4792      0.0291     10.3510    141.2723     24.2761
  1358.7000   1058.8479      7.9286      2.4755      0.0246     10.5740    145.5769     24.3599
  1358.8000   1070.6405      7.9291      2.4885     -0.0036      9.7868    153.3131     24.3304
  1358.9000   1070.6405      7.9291      2.5148      0.0567      8.1914    155.9083     24.3825
  1359.0000   1073.0173      7.9289      2.5412      0.0566      6.5920    156.4021     24.5592
  1359.1000   1073.0173      7.9289      2.5547      0.0741      5.7750    164.0735     24.7584
  1359.2000   1073.0173      7.9289      2.5569      0.1061      5.6416    170.9928     24.9234
  1359.3000   1067.6721      7.9288      2.5610      0.0777      5.3950    168.7021     25.0225
  1359.4000   1067.6721      7.9288      2.5715      0.0913      4.7547    163.2929     25.1946
  1359.5000   1081.9131      7.9288      2.5776      0.0856      4.3874    157.5403     25.7248
