~Version Information
VERS.                      2.0: CWLS Log ASCII Standard - VERSION 2.0
WRAP.                       NO: One line per depth step
~Well Information Block
STRT.FT               664.0000: 
STOP.FT              1113.5000: 
STEP.FT                 0.1000: 
NULL.                -999.2500: 
COMP.          Petrogulf Corporation: COMPANY
WELL.          Great Plains 22-21R: WELL
FLD.           Purgatorie River: FIELD
LOC.           73' FNL & 1992' FWL: LOCATION
PROV.                 Colorado: PROVINCE
CNTY.               Las Animas: COUNTRY
SRVC.                Patterson: SERVICE COMPANY
DATE.          Thu Sep 08 08:02:28 2005: LOG DATE
UWI.                          : UNIQUE WELL ID
~Curve Information Block
DEPT.FT            0 000 00 00: Depth
DCAL.in                       : CDL Caliper
RHOB.g/cc                     : CDL Bulk Density
RHOC.g/cc                     : CDL Density Correction
DPOR.pu                       : CDL Density Porosity
GR.GAPI                       : Gamma Ray
NPOR.pu                       : Neutron Porosity
~Parameter Information Block
~A  Depth       DCAL        RHOB        RHOC        DPOR         GR         NPOR    
# ...
   721.6000      7.9417      2.6344      0.0535      0.9443     62.4246     16.0228
   721.7000      7.9417      2.6323      0.0751      1.0731     62.3705     17.0719
   721.8000      7.9264      2.6264      0.0805      1.4302     62.4060     17.6339
   721.9000      7.9264      2.6111      0.0468      2.3579     63.8681     17.4513
   722.0000      7.9090      2.5967     -0.0135      3.2295     67.2727     16.8212
   722.1000      7.9090      2.5950      0.0134      3.3360     71.4017     16.3158
   722.2000      7.9090      2.6032      0.0417      2.8372     74.0510     16.1234
   722.3000      7.8643      2.6176      0.0475      1.9654     73.3061     16.0344
   722.4000      7.8643      2.6398      0.0583      0.6196     69.5072     16.0766
   722.5000      7.8222      2.6696      0.0945     -1.1884     65.7101     16.4099
   722.6000      7.8222      2.6988      0.0978     -2.9546     64.1827     16.7235
   722.7000      7.8222      2.7088      0.1245     -3.5618     66.3536     16.7663
   722.8000      7.8281      2.6870      0.0965     -2.2405     70.5762     16.8156
   722.9000      7.8281      2.6535      0.0235     -0.2147     71.0452     16.8163
   723.0000      7.9096      2.6412      0.0496      0.5324     65.7747     16.3673
   723.1000      7.9096      2.6453      0.0719      0.2821     60.1352     15.5477
   723.2000      7.9096      2.6411      0.0631      0.5399     61.4279     14.7948
   723.3000      8.0281      2.6285      0.0019      1.3024     67.5823     14.3697
   723.4000      8.0281      2.6187      0.0719      1.8947     69.8000     14.0866
   723.5000      7.9733      2.6194     -0.0045      1.8546     67.0618     13.6796
   723.6000      7.9733      2.6376      0.0313      0.7536     64.3237     13.2448
   723.7000      7.9733      2.6532      0.1389     -0.1920     62.8179     13.0210
   723.8000      7.9433      2.6406      0.0693      0.5689     61.9757     13.1773
   723.9000      7.9433      2.6063      0.0533      2.6510     63.2477     13.6476
   724.0000      7.9317      2.5744     -0.0317      4.5793     66.1119     14.2731
   724.1000      7.9317      2.5647     -0.0194      5.1683     67.3410     14.9380
   724.2000      7.9317      2.5741     -0.0164      4.6014     67.3744     15.3614
   724.3000      7.9235      2.5876      0.0276      3.7843     68.6512     15.3897
   724.4000      7.9235      2.5974      0.0964      3.1851     70.3687     15.4397
   724.5000      7.9041      2.6073      0.0321      2.5887     71.7457     15.8679
   724.6000      7.9041      2.6182      0.0564      1.9282     75.3396     16.4101
   724.7000      7.9041      2.6133      0.0754      2.2256     81.1762     16.7137
   724.8000      7.8655      2.5857      0.0555      3.8992     84.3376     16.9048
   724.9000      7.8655      2.5488      0.0520      6.1349     84.4504     17.1618
   725.0000      7.8807      2.5137      0.0436      8.2610     85.3373     17.2898
   725.1000      7.8807      2.4926      0.0325      9.5393     86.4619     17.2119
   725.2000      7.8807      2.4931      0.0394      9.5111     86.5337     17.0640
   725.3000      7.9011      2.5073      0.0347      8.6463     89.2703     16.9682
   725.4000      7.9011      2.5274      0.0206      7.4287     96.4661     17.1709
   725.5000      7.9270      2.5533      0.0177      5.8603    102.1414     17.6186
   725.6000      7.9270      2.5890      0.1184      3.6974    101.0195     17.8022
   725.7000      7.9270      2.6274      0.1943      1.3700     96.8363     17.6334
   725.8000      7.9250      2.6474      0.2317      0.1553     97.0402     17.6059
   725.9000      7.9250      2.6432      0.2133      0.4136    102.6009     17.8504
   726.0000      7.9301      2.6301      0.1837      1.2041    110.2293     18.1746
   726.1000      7.9301      2.6130      0.1606      2.2450    118.4954     18.6613
   726.2000      7.9301      2.5846      0.1088      3.9663    127.5785     19.2243
   726.3000      7.9306      2.5547      0.0734      5.7777    135.6799     19.9073
   726.4000      7.9306      2.5407      0.0940      6.6262    141.1619     21.0615
   726.5000      7.9426      2.5491      0.0996      6.1167    144.3902     22.2301
   726.6000      7.9426      2.5791      0.1408      4.2991    145.1463     22.8685
   726.7000      7.9426      2.6208      0.1174      1.7684    143.9809     23.4065
   726.8000      7.9438      2.6559      0.1672     -0.3546    144.0616     24.2148
   726.9000      7.9438      2.6719      0.1326     -1.3273    145.4834     25.0169
   727.0000      7.9479      2.6739      0.1296     -1.4460    144.6295     25.6094
   727.1000      7.9479      2.6659      0.1406     -0.9648    142.1953     26.0187
   727.2000      7.9479      2.6460      0.1391      0.2422    142.7317     26.3090
   727.3000      7.9490      2.6253      0.0716      1.4957    147.6203     26.4185
   727.4000      7.9490      2.6201      0.0775      1.8115    151.4987     26.2998
   727.5000      7.9497      2.6268      0.0944      1.4032    149.4282     26.2858
   727.6000      7.9497      2.6303      0.0140      1.1934    145.1884     26.5178
   727.7000      7.9497      2.6231      0.0106      1.6312    144.2554     26.5551
   727.8000      7.9856      2.6075      0.0232      2.5765    144.7077     26.3869
   727.9000      7.9856      2.5966      0.0040      3.2355    142.0425     26.4876
   728.0000      8.0038      2.6071      0.0316      2.5978    140.5581     26.7799
   728.1000      8.0038      2.6321      0.1029      1.0870    146.5744     26.9008
   728.2000      8.0038      2.6425      0.0805      0.4533    153.8597     26.7916
   728.3000      8.0374      2.6277      0.0538      1.3534    152.6952     26.4104
   728.4000      8.0374      2.5991      0.0427      3.0842    148.7055     25.9182
   728.5000      8.0652      2.5615      0.0732      5.3622    151.7329     25.8524
   728.6000      8.0652      2.5188     -0.0289      7.9524    158.2122     26.4937
   728.7000      8.0652      2.4867     -0.0341      9.8979    160.6788     27.3729
   728.8000      8.1088      2.4716     -0.0334     10.8109    160.3621     27.7173
   728.9000      8.1088      2.4649     -0.0344     11.2154    161.9814     27.5542
   729.0000      8.0750      2.4595     -0.0196     11.5452    166.3581     27.4163
   729.1000      8.0750      2.4548      0.0147     11.8326    170.4841     27.3346
   729.2000      8.0750      2.4546     -0.0052     11.8419    171.5388     27.1288
   729.3000      8.0095      2.4654      0.0526     11.1871    170.2441     27.1383
   729.4000      8.0095      2.4889      0.0903      9.7661    169.3044     27.6425
   729.5000      7.9790      2.5197      0.1530      7.8964    168.2148     28.2360
   729.6000      7.9790      2.5524      0.1550      5.9141    163.0361     28.3804
   729.7000      7.9790      2.5894      0.1570      3.6728    154.4094     27.9977
   729.8000      7.9846      2.6334      0.1494      1.0045    149.3537     27.4782
   729.9000      7.9846      2.6736      0.1719     -1.4289    149.4560     27.1224
   730.0000      7.9896      2.6924      0.1280     -2.5667    149.3645     26.7476
   730.1000      7.9896      2.6878      0.1345     -2.2884    146.3796     26.2831
   730.2000      7.9896      2.6715      0.0987     -1.3006    142.0614     25.9528
   730.3000      7.9882      2.6527      0.0530     -0.1651    139.0640     25.7210
   730.4000      7.9882      2.6265      0.0428      1.4253    141.5256     25.4541
   730.5000      7.9943      2.5837     -0.0196      4.0176    148.1043     25.1865
   730.6000      7.9943      2.5377     -0.0985      6.8077    150.4132     25.0618
   730.7000      7.9943      2.5100     -0.1055      8.4855    146.4458     25.0167
   730.8000      8.0402      2.5004     -0.0411      9.0644    143.4801     24.9084
   730.9000      8.0402      2.5021     -0.0970      8.9610    145.0193     24.8240
   731.0000      8.0871      2.5196     -0.0277      7.9024    148.4970     24.9043
   731.1000      8.0871      2.5406      0.0619      6.6325    152.2277     25.2642
