~Version Information
VERS.                      2.0: CWLS Log ASCII Standard - VERSION 2.0
WRAP.                       NO: One line per depth step
~Well Information Block
STRT.FT               245.0000: 
STOP.FT              1919.7000: 
STEP.FT                 0.1000: 
NULL.                -999.2500: 
COMP.          Pioneer Natural Resources: COMPANY
WELL.          Oink Oink 14-36 Tr: WELL
FLD.           Purgatoire River: FIELD
LOC.           236' FSL & 164' FWL--: LOCATION
PROV.                 Colorado: PROVINCE
CNTY.               Las Animas: COUNTRY
SRVC.                Patterson: SERVICE COMPANY
DATE.          Fri Jun 10 08:23:18 2005: LOG DATE
UWI.           05 071 08393 00: UNIQUE WELL ID
~Curve Information Block
DEPT.FT            0 000 00 00: Depth
DCAL.in                       : CDL Caliper
RHOB.g/cc                     : CDL Bulk Density
RHOC.g/cc                     : CDL Density Correction
DPOR.pu                       : CDL Density Porosity
NPOR.pu                       : Neutron Porosity
GR.GAPI                       : Gamma Ray
~Parameter Information Block
~A  Depth       DCAL        RHOB        RHOC        DPOR        NPOR         GR     
# ...
   897.8000      8.0348      2.6575      0.0343     -0.4536     29.0349     82.2972
   897.9000      8.0348      2.6683      0.0712     -1.1078     28.7151     78.9614
   898.0000      8.0345      2.6688      0.0786     -1.1385     28.5046     73.3167
   898.1000      8.0345      2.6602      0.0336     -0.6194     28.8319     69.5788
   898.2000      8.0345      2.6519      0.0375     -0.1175     29.7608     69.3615
   898.3000      8.0361      2.6393      0.0381      0.6475     30.6217     70.4932
   898.4000      8.0361      2.6227     -0.0027      1.6521     30.7201     70.2971
   898.5000      8.0365      2.6165      0.0027      2.0281     30.1816     69.3389
   898.6000      8.0365      2.6267      0.0196      1.4109     29.5523     71.3830
   898.7000      8.0365      2.6502      0.0124     -0.0141     29.1560     76.4716
   898.8000      8.0360      2.6814      0.0406     -1.9034     28.8734     79.6493
   898.9000      8.0360      2.7071      0.0435     -3.4592     28.5499     77.4756
   899.0000      8.0368      2.7154      0.0729     -3.9645     28.4849     70.3276
   899.1000      8.0368      2.7085      0.0148     -3.5443     29.0681     62.5943
   899.2000      8.0368      2.7030      0.0489     -3.2116     29.9420     59.0732
   899.3000      8.0360      2.7120      0.0389     -3.7567     30.2176     59.8293
   899.4000      8.0360      2.7313      0.0653     -4.9283     29.7142     62.6952
   899.5000      8.0353      2.7510      0.0273     -6.1211     29.1081     65.5174
   899.6000      8.0353      2.7712      0.0582     -7.3429     28.9423     68.9988
   899.7000      8.0353      2.7876      0.0803     -8.3364     29.1929     73.5327
   899.8000      8.0382      2.7815      0.1088     -7.9708     29.5684     73.6769
   899.9000      8.0382      2.7436      0.0306     -5.6748     30.1537     68.5228
   900.0000      8.0388      2.6922      0.0119     -2.5568     30.9743     64.9787
   900.1000      8.0388      2.6489      0.0059      0.0653     31.5687     66.2228
   900.2000      8.0388      2.6174      0.0035      1.9734     31.7525     69.1618
   900.3000      8.0353      2.5961     -0.0132      3.2676     32.0017     71.3420
   900.4000      8.0353      2.5851     -0.0028      3.9311     32.7038     74.6358
   900.5000      8.0327      2.5789      0.0048      4.3098     33.4220     78.5544
   900.6000      8.0327      2.5659      0.0590      5.0984     33.5637     79.4422
   900.7000      8.0327      2.5470      0.0023      6.2442     33.1696     78.0477
   900.8000      8.0332      2.5376      0.0308      6.8097     32.9714     77.7406
   900.9000      8.0332      2.5446      0.0430      6.3885     33.4244     78.5369
   901.0000      8.0352      2.5617      0.0783      5.3516     33.7154     78.2819
   901.1000      8.0352      2.5776      0.1080      4.3853     33.2303     77.5151
   901.2000      8.0352      2.5805      0.0699      4.2114     32.6761     79.6734
   901.3000      8.0373      2.5647      0.0928      5.1675     32.5757     88.0295
   901.4000      8.0373      2.5391      0.0679      6.7211     32.4860     99.2296
   901.5000      8.0381      2.5215      0.0488      7.7861     31.8212    107.3153
   901.6000      8.0381      2.5215      0.0599      7.7908     30.6117    114.6240
   901.7000      8.0381      2.5408      0.0581      6.6209     29.3350    123.1243
   901.8000      8.0374      2.5733      0.1223      4.6467     28.6615    128.3655
   901.9000      8.0374      2.6072      0.0898      2.5926     28.7536    128.2664
   902.0000      8.0361      2.6339      0.1244      0.9733     29.0306    124.5641
   902.1000      8.0361      2.6372      0.1387      0.7779     29.2525    120.9248
   902.2000      8.0361      2.6070      0.0957      2.6058     29.6974    119.6438
   902.3000      8.0346      2.5660      0.0312      5.0903     30.2775    118.5922
   902.4000      8.0346      2.5476      0.0188      6.2084     30.7078    116.2108
   902.5000      8.0347      2.5556      0.0720      5.7236     30.9894    115.9234
   902.6000      8.0347      2.5671      0.0481      5.0239     31.3013    119.8981
   902.7000      8.0347      2.5639      0.0578      5.2173     31.5647    125.5841
   902.8000      8.0360      2.5433      0.0064      6.4639     31.4083    129.9434
   902.9000      8.0360      2.5145     -0.0046      8.2140     30.8162    132.0999
   903.0000      8.0348      2.4889     -0.0244      9.7658     30.3164    134.1879
   903.1000      8.0348      2.4764     -0.0381     10.5195     30.2894    136.5686
   903.2000      8.0348      2.4782      0.0175     10.4144     30.3363    136.2673
   903.3000      8.0337      2.4806      0.0506     10.2694     30.1119    134.1581
   903.4000      8.0337      2.4737      0.0390     10.6837     29.6971    134.1978
   903.5000      8.0346      2.4630      0.0533     11.3326     29.0273    136.1734
   903.6000      8.0346      2.4575      0.0121     11.6669     28.3430    139.0779
   903.7000      8.0346      2.4607      0.0480     11.4736     27.9911    144.9909
   903.8000      8.0348      2.4671      0.0751     11.0877     27.7802    152.0057
   903.9000      8.0348      2.4686      0.0995     10.9954     27.2887    155.9069
   904.0000      8.0342      2.4602      0.0684     11.5002     26.5269    155.5740
   904.1000      8.0342      2.4432      0.0906     12.5329     26.0564    151.5472
   904.2000      8.0342      2.4263      0.0588     13.5600     26.2209    144.2807
   904.3000      8.0346      2.4190      0.0623     14.0012     26.5362    135.0127
   904.4000      8.0346      2.4261      0.0205     13.5688     26.3030    127.7934
   904.5000      8.0343      2.4528      0.0622     11.9505     25.7016    123.9909
   904.6000      8.0343      2.4940      0.0947      9.4527     25.3699    122.2719
   904.7000      8.0343      2.5285      0.1680      7.3638     25.2503    124.6804
   904.8000      8.0334      2.5423      0.1403      6.5243     25.0963    131.7626
   904.9000      8.0334      2.5428      0.1513      6.4988     25.1086    137.9387
   905.0000      8.0355      2.5448      0.1086      6.3756     25.4490    138.5806
   905.1000      8.0355      2.5558      0.1156      5.7084     25.7923    134.2292
   905.2000      8.0355      2.5614      0.1492      5.3670     26.0124    129.7202
   905.3000      8.0407      2.5505      0.0795      6.0333     26.5185    128.8798
   905.4000      8.0407      2.5322      0.0821      7.1382     27.1560    129.4192
   905.5000      8.0469      2.5091      0.0708      8.5371     27.3880    131.3560
   905.6000      8.0469      2.4850      0.0159     10.0003     27.3190    133.8394
   905.7000      8.0469      2.4746      0.0354     10.6276     27.1213    133.0831
   905.8000      8.0480      2.4755      0.0617     10.5765     26.6478    130.5790
   905.9000      8.0480      2.4744      0.0287     10.6416     26.1312    129.6666
   906.0000      8.0413      2.4723      0.0760     10.7696     26.1318    130.5010
   906.1000      8.0413      2.4815      0.0405     10.2112     26.7143    128.4959
   906.2000      8.0413      2.5159      0.0671      8.1255     27.2418    121.5564
   906.3000      8.0349      2.5741      0.0891      4.6015     27.2431    113.9313
   906.4000      8.0349      2.6395      0.1401      0.6387     26.8810    106.6722
   906.5000      8.0346      2.6996      0.1796     -3.0062     26.6081    100.0539
   906.6000      8.0346      2.7386      0.2752     -5.3691     26.9613     97.3571
   906.7000      8.0346      2.7367      0.2248     -5.2517     27.9730     97.1270
   906.8000      8.0378      2.6969      0.1418     -2.8446     28.9322     97.2107
   906.9000      8.0378      2.6460      0.0373      0.2433     29.3666     98.8596
   907.0000      8.0422      2.6097      0.0466      2.4418     29.4341    100.6692
   907.1000      8.0422      2.5935      0.0632      3.4255     29.2413    101.2170
   907.2000      8.0422      2.5885      0.0458      3.7264     28.8417    103.8575
   907.3000      8.0479      2.5898      0.0067      3.6491     28.7713    110.3990
