~Version Information
VERS.                      2.0: CWLS Log ASCII Standard - VERSION 2.0
WRAP.                       NO: One line per depth step
~Well Information Block
STRT.FT                 5.5000: 
STOP.FT              1635.7500: 
STEP.FT                 0.2500: 
NULL.                -999.2500: 
COMP.          Pioneer Natural Resources: COMPANY
WELL.                Mead 11-9: WELL
FLD.           Purgatoire River: FIELD
LOC.           1127' FNL & 668' FWL: LOCATION
PROV.                 Colorado: PROVINCE
CNTY.               Las Animas: COUNTRY
SRVC.                Patterson: SERVICE COMPANY
DATE.          Wed Mar 02 13:48:38 2005: LOG DATE
UWI.           05 071 08160 00: UNIQUE WELL ID
~Curve Information Block
DEPT.FT            0 000 00 00: Depth
CCL.                          : Casing Collar Locator
TT3.usec                      : CBL 3' Travel Time
AMP3.mV                       : CBL 3' Amplitude
GR.GAPI                       : Gamma Ray
~Parameter Information Block
~A  Depth       CCL         TT3         AMP3         GR     
# ...
  1613.5000      0.0000    809.5332      7.9766     77.1051
  1613.7500      0.0000    790.8140      7.9106     79.2058
  1614.0000      0.0000    784.3875      7.8672     81.1718
  1614.2500      0.0000    790.4141      7.8389     82.5375
  1614.5000      0.0000    807.7259      7.8088     82.6083
  1614.7500      0.0000    830.0499      7.7599     81.1409
  1615.0000      0.0000    849.7490      7.6851     78.9075
  1615.2500      0.0000    866.2757      7.5904     77.0651
  1615.5000      0.0000    886.7500      7.4901     76.0883
  1615.7500      0.0000    916.3619      7.3952     75.7498
  1616.0000      0.0000    950.5449      7.3086     76.0604
  1616.2500      0.0000    977.3779      7.2318     77.5663
  1616.5000      0.0000    986.1561      7.1713     80.4074
  1616.7500      0.0000    974.6615      7.1335     83.5011
  1617.0000      0.0000    950.8589      7.1170     85.2071
  1617.2500      0.0000    927.6740      7.1130     84.8865
  1617.5000      0.0000    913.7690      7.1136     83.5792
  1617.7500      0.0000    908.0305      7.1140     82.9203
  1618.0000      0.0000    903.0788      7.1107     83.3806
  1618.2500      0.0000    893.8867      7.0997     83.7616
  1618.5000      0.0000    882.2243      7.0777     82.5269
  1618.7500      0.0000    873.3207      7.0429     79.3598
  1619.0000      0.0000    869.4534      6.9987     75.0055
  1619.2500      0.0000    867.1055      6.9567     69.6829
  1619.5000      0.0000    860.0803      6.9330     62.3037
  1619.7500      0.0000    845.9821      6.9372     51.6651
  1620.0000      0.0000    830.2521      6.9648     38.2367
  1620.2500      0.0000    822.9952      7.0023     24.4590
  1620.5000      0.0000    830.7136      7.0383     13.1899
  1620.7500      0.0000    850.7610      7.0689      5.8819
  1621.0000      0.0000    873.7671      7.0951      2.1371
  1621.2500      0.0000    891.4359      7.1186      0.6253
  1621.5000      0.0000    901.9504      7.1404      0.1457
  1621.7500      0.0000    908.4100      7.1633      0.0265
  1622.0000      0.0000    913.6649      7.1925      0.0034
  1622.2500      0.0000    917.7949      7.2330      0.0000
  1622.5000      0.0000    919.7682      7.2861   -999.2500
  1622.7500      0.0000    919.8837      7.3478   -999.2500
  1623.0000      0.0000    919.8893      7.4079   -999.2500
  1623.2500      0.0000    921.2751      7.4522   -999.2500
  1623.5000      0.0000    924.0748      7.4688   -999.2500
  1623.7500      0.0000    927.4214      7.4527   -999.2500
  1624.0000      0.0000    929.9756      7.3977   -999.2500
  1624.2500      0.0000    927.7960      7.2773   -999.2500
  1624.5000      0.0000    909.7247      7.0194   -999.2500
  1624.7500      0.0000    855.6249      6.4984   -999.2500
  1625.0000      0.0000    745.6187      5.5927   -999.2500
  1625.2500      0.0000    579.5383      4.3113   -999.2500
  1625.5000      0.0000    388.1367      2.8738   -999.2500
  1625.7500      0.0000    217.8865      1.6094   -999.2500
  1626.0000      0.0000    100.4373      0.7410   -999.2500
  1626.2500      0.0000     37.4589      0.2762   -999.2500
  1626.5000      0.0000     11.1830      0.0825   -999.2500
  1626.7500      0.0000      2.6488      0.0195   -999.2500
  1627.0000      0.0000      0.4903      0.0036   -999.2500
  1627.2500      0.0000      0.0652      0.0005   -999.2500
  1627.5000      0.0000   -999.2500   -999.2500   -999.2500
  1627.7500      0.0000   -999.2500   -999.2500   -999.2500
  1628.0000      0.0000   -999.2500   -999.2500   -999.2500
  1628.2500      0.0000   -999.2500   -999.2500   -999.2500
  1628.5000      0.0000   -999.2500   -999.2500   -999.2500
  1628.7500      0.0000   -999.2500   -999.2500   -999.2500
  1629.0000      0.0000   -999.2500   -999.2500   -999.2500
  1629.2500      0.0000   -999.2500   -999.2500   -999.2500
  1629.5000      0.0000   -999.2500   -999.2500   -999.2500
  1629.7500      0.0000   -999.2500   -999.2500   -999.2500
  1630.0000      0.0000   -999.2500   -999.2500   -999.2500
  1630.2500      0.0000   -999.2500   -999.2500   -999.2500
  1630.5000      0.0000   -999.2500   -999.2500   -999.2500
  1630.7500      0.0000   -999.2500   -999.2500   -999.2500
  1631.0000      0.0000   -999.2500   -999.2500   -999.2500
  1631.2500      0.0000   -999.2500   -999.2500   -999.2500
  1631.5000      0.0000   -999.2500   -999.2500   -999.2500
  1631.7500      0.0000   -999.2500   -999.2500   -999.2500
  1632.0000      0.0000   -999.2500   -999.2500   -999.2500
  1632.2500      0.0000   -999.2500   -999.2500   -999.2500
  1632.5000     -2.2678   -999.2500   -999.2500   -999.2500
  1632.7500      3.0000   -999.2500   -999.2500   -999.2500
  1633.0000      0.0000   -999.2500   -999.2500   -999.2500
  1633.2500   -999.2500   -999.2500   -999.2500   -999.2500
  1633.5000   -999.2500   -999.2500   -999.2500   -999.2500
  1633.7500   -999.2500   -999.2500   -999.2500   -999.2500
  1634.0000   -999.2500   -999.2500   -999.2500   -999.2500
  1634.2500   -999.2500   -999.2500   -999.2500   -999.2500
  1634.5000   -999.2500   -999.2500   -999.2500   -999.2500
  1634.7500   -999.2500   -999.2500   -999.2500   -999.2500
  1635.0000   -999.2500   -999.2500   -999.2500   -999.2500
  1635.2500   -999.2500   -999.2500   -999.2500   -999.2500
  1635.5000   -999.2500   -999.2500   -999.2500   -999.2500
  1635.7500   -999.2500   -999.2500   -999.2500   -999.2500
