~Version Information
VERS.                      2.0: CWLS Log ASCII Standard - VERSION 2.0
WRAP.                       NO: One line per depth step
~Well Information Block
STRT.FT               732.2500: 
STOP.FT              2476.0000: 
STEP.FT                 0.2500: 
NULL.                -999.2500: 
COMP.          Petrogulf Corporation: COMPANY
WELL.            Montoya 7-14V: WELL
FLD.           Purgatorie River: FIELD
LOC.           535' FSL & 491' FWL: LOCATION
CNTY.               Las Animas: COUNTY
SRVC.                         : SERVICE COMPANY
DATE.          Mon Aug 23 05:51:43 2004: LOG DATE
UWI.           05 071 08019 00: UNIQUE WELL ID
STAT.                 Colorado: STATE
~Curve Information Block
DEPT.FT            0 000 00 00: Depth
SP.mV                         : DIL Spontaneous Potential
RILD.Ohm-m                    : DIL Deep Resistivity
RILM.Ohm-m                    : DIL Medium Resistivity
RLL3.Ohm-m                    : DIL Shallow Resistivity
GR.GAPI                       : Gamma Ray
~Parameter Information Block
~A  Depth        SP         RILD        RILM        RLL3         GR     
# ...
  2440.2500     -8.7593     10.9414     10.4297     11.0456     96.2240
  2440.5000     -8.5685     10.7787     10.2125     10.4522     98.1529
  2440.7500     -8.3835     10.6481     10.0453      9.9188    100.4036
  2441.0000     -8.2092     10.5277      9.9214      9.5886    103.4556
  2441.2500     -8.0469     10.4020      9.8305      9.5705    104.1524
  2441.5000     -7.8944     10.2661      9.7602      9.9070    102.6309
  2441.7500     -7.7474     10.1254      9.6977     10.5601    100.6192
  2442.0000     -7.6013      9.9921      9.6328     11.4162     98.0084
  2442.2500     -7.4534      9.8794      9.5604     12.2996     97.1861
  2442.5000     -7.3046      9.7973      9.4814     12.9964     97.0034
  2442.7500     -7.1597      9.7513      9.4027     13.2983     96.9203
  2443.0000     -7.0263      9.7426      9.3348     13.0771     96.1934
  2443.2500     -6.9132      9.7705      9.2894     12.3670     95.5612
  2443.5000     -6.8280      9.8330      9.2765     11.3922     95.2735
  2443.7500     -6.7745      9.9274      9.3031     10.4875     95.5650
  2444.0000     -6.7527     10.0499      9.3726      9.9431     95.4867
  2444.2500     -6.7589     10.1971      9.4851      9.8771     94.1832
  2444.5000     -6.7870     10.3677      9.6390     10.2221     90.1074
  2444.7500     -6.8305     10.5650      9.8326     10.8172     86.7902
  2445.0000     -6.8834     10.7979     10.0653     11.5119     82.6175
  2445.2500     -6.9404     11.0792     10.3394     12.2091     80.7886
  2445.5000     -6.9976     11.4212     10.6603     12.8462     79.1468
  2445.7500     -7.0515     11.8310     11.0356     13.3836     78.4503
  2446.0000     -7.0992     12.3060     11.4741     13.8434     77.7110
  2446.2500     -7.1382     12.8309     11.9824     14.3739     77.3180
  2446.5000     -7.1669     13.3768     12.5615     15.2597     76.3615
  2446.7500     -7.1850     13.9034     13.2026     16.8248     74.9033
  2447.0000     -7.1938     14.3649     13.8829     19.2618     70.1240
  2447.2500     -7.1968     14.7191     14.5618     22.4875     64.3271
  2447.5000     -7.1988     14.9385     15.1829     26.1153     50.9431
  2447.7500     -7.2052     15.0173     15.6806     29.5581     39.6406
  2448.0000     -7.2203     14.9723     15.9945     32.2032     22.6358
  2448.2500     -7.2460     14.8344     16.0860     33.5805     13.5181
  2448.5000     -7.2806     14.6366     15.9500     33.4668      4.9186
  2448.7500     -7.3193     14.4015     15.6150     31.9115      2.1171
  2449.0000     -7.3548     14.1349     15.1321     29.1947      0.4577
  2449.2500     -7.3790     13.8254     14.5592     25.7439      0.1365
  2449.5000     -7.3855     13.4501     13.9470     22.0390      0.0159
  2449.7500     -7.3706     12.9869     13.3316     18.5332      0.0021
  2450.0000     -7.3349     12.4289     12.7335     15.5997   -999.2500
  2450.2500     -7.2830     11.7933     12.1605     13.4969   -999.2500
  2450.5000     -7.2231     11.1209     11.6129     12.3342   -999.2500
  2450.7500     -7.1649     10.4635     11.0890     12.0394   -999.2500
  2451.0000     -7.1180      9.8677     10.5889     12.3465   -999.2500
  2451.2500     -7.0888      9.3644     10.1175     12.8393   -999.2500
  2451.5000     -7.0790      8.9653      9.6832     13.0692   -999.2500
  2451.7500     -7.0847      8.6660      9.2965     12.7217   -999.2500
  2452.0000     -7.0961      8.4508      8.9666     11.7521   -999.2500
  2452.2500     -7.1001      8.2986      8.6996     10.4071   -999.2500
  2452.5000     -7.0828      8.1882      8.4964      9.1065   -999.2500
  2452.7500     -7.0333      8.1028      8.3538      8.2490   -999.2500
  2453.0000     -6.9456      8.0327      8.2645      8.0463   -999.2500
  2453.2500     -6.8207      7.9768      8.2192      8.4554   -999.2500
  2453.5000     -6.6657      7.9416      8.2087      9.2214   -999.2500
  2453.7500     -6.4923      7.9385      8.2254     10.0005   -999.2500
  2454.0000     -6.3140      8.0164      8.2651     10.5108   -999.2500
  2454.2500     -6.1435      8.1509      8.3273     10.6435   -999.2500
  2454.5000     -5.9898      8.3091      8.4145     10.4820   -999.2500
  2454.7500     -5.8573      8.5259      8.5307     10.2263   -999.2500
  2455.0000     -5.7444      8.7931      8.6804     10.0729   -999.2500
  2455.2500     -5.6444      9.0990      8.8668     10.1264   -999.2500
  2455.5000     -5.5452      9.4336      9.0913     10.3850   -999.2500
  2455.7500     -5.4304      9.7972      9.3532     10.7953   -999.2500
  2456.0000     -5.2799     10.2101      9.6494     11.3224   -999.2500
  2456.2500     -5.0719     10.7245      9.9749     11.9750   -999.2500
  2456.5000     -4.7860     11.4366     10.3232     12.7653   -999.2500
  2456.7500     -4.4085     12.5056     10.6865     13.6439   -999.2500
  2457.0000     -3.9379     14.1896     11.0565     14.4768   -999.2500
  2457.2500     -3.3889     16.9270     11.4257     15.1025   -999.2500
  2457.5000     -2.7927     21.5281     11.7879     15.4292   -999.2500
  2457.7500     -2.1913     29.1185     12.1395     15.4899   -999.2500
  2458.0000     -1.6291     44.0223     12.4797     15.4090   -999.2500
  2458.2500     -1.1427     76.0779     12.8106     15.3107   -999.2500
  2458.5000     -0.7534    165.7370     13.1377     15.2549   -999.2500
  2458.7500     -0.4655    798.1053     13.4694     15.2464   -999.2500
  2459.0000     -0.2689 100000.0000     13.8186     15.2905   -999.2500
  2459.2500     -0.1449 100000.0000     14.2046     15.4255   -999.2500
  2459.5000     -0.0726 100000.0000     14.6561     15.6964   -999.2500
  2459.7500     -0.0339 100000.0000     15.2154     16.1020   -999.2500
  2460.0000     -0.0146 100000.0000     15.9424     16.5700   -999.2500
  2460.2500     -0.0058 100000.0000     16.9198     16.9877   -999.2500
  2460.5000     -0.0021 100000.0000     18.2602     17.2678   -999.2500
  2460.7500     -0.0007    606.0343     20.1168     17.4013   -999.2500
  2461.0000     -0.0002   1013.1750     22.7011     17.4572   -999.2500
  2461.2500   -999.2500   2293.3872     26.3067     17.5272   -999.2500
  2461.5000   -999.2500  40777.6484     31.3420     17.6603   -999.2500
  2461.7500   -999.2500 100000.0000     38.3602     17.8378   -999.2500
  2462.0000   -999.2500 100000.0000     48.0639     18.0033   -999.2500
  2462.2500   -999.2500 100000.0000     61.2207     18.1103   -999.2500
  2462.5000   -999.2500 100000.0000     78.3894     18.1449   -999.2500
  2462.7500   -999.2500 100000.0000     99.0294     18.1146   -999.2500
  2463.0000   -999.2500 100000.0000    122.7473     18.0241   -999.2500
  2463.2500   -999.2500 100000.0000    145.6813     17.8632   -999.2500
  2463.5000   -999.2500 100000.0000    165.2636     17.6072   -999.2500
  2463.7500   -999.2500 100000.0000    179.8784     17.2236   -999.2500
  2464.0000   -999.2500 100000.0000    189.6940     16.6807   -999.2500
  2464.2500   -999.2500 100000.0000    195.9624     15.9635   -999.2500
  2464.5000   -999.2500 100000.0000    200.1182     15.0950   -999.2500
  2464.7500   -999.2500 100000.0000    203.3081     14.1491   -999.2500
  2465.0000   -999.2500 100000.0000    206.3128     13.2431   -999.2500
  2465.2500   -999.2500 100000.0000    209.6316     12.5161   -999.2500
  2465.5000   -999.2500 100000.0000    939.3480     12.1088   -999.2500
  2465.7500   -999.2500 100000.0000   1037.1709     12.1405   -999.2500
  2466.0000   -999.2500 100000.0000   1174.3921     12.6728   -999.2500
  2466.2500   -999.2500 100000.0000   1367.8547     13.6602   -999.2500
  2466.5000   -999.2500 100000.0000   1641.8892     14.9214   -999.2500
  2466.7500   -999.2500 100000.0000   2031.3893     16.1642   -999.2500
  2467.0000   -999.2500 100000.0000   2584.6118     17.0642   -999.2500
  2467.2500   -999.2500   -999.2500   3362.6519     17.3737   -999.2500
  2467.5000   -999.2500   -999.2500   4428.1816     17.0254   -999.2500
  2467.7500   -999.2500   -999.2500   5812.7949     16.1930   -999.2500
  2468.0000   -999.2500   -999.2500   7461.6748     15.2641   -999.2500
