~Version Information
VERS.                      2.0: CWLS Log ASCII Standard - VERSION 2.0
WRAP.                       NO: One line per depth step
~Well Information Block
STRT.FT                -7.2500: 
STOP.FT               862.2500: 
STEP.FT                 0.2500: 
NULL.                -999.2500: 
COMP.          Pioneer Natural Resources: COMPANY
WELL.          Santisteven 13-22: WELL
FLD.           Purgatorie River: FIELD
LOC.           1861' FSL & 992' FWL--: LOCATION
PROV.                       CO: PROVINCE
CNTY.               Las Animas: COUNTRY
SRVC.          Patterson Wireline: SERVICE COMPANY
DATE.          Thu Apr 07 09:08:11 2005: LOG DATE
UWI.           05 071 08337 00: UNIQUE WELL ID
~Curve Information Block
DEPT.FT            0 000 00 00: Depth
CCL.                          : Casing Collar Locator
TT3.usec                      : CBL 3' Travel Time
AMP3.mV                       : CBL 3' Amplitude
GR.GAPI                       : Gamma Ray
~Parameter Information Block
~A  Depth       CCL         TT3         AMP3         GR     
# ...
   327.7500      0.0000    776.6888      7.1335    146.5788
   328.0000      0.0000    776.7199      7.1756    136.8136
   328.2500      0.0000    777.4610      7.2248    127.4627
   328.5000      0.0000    779.5571      7.2966    120.2704
   328.7500      0.0000    783.2988      7.4007    115.6427
   329.0000      0.0000    788.0704      7.5284    113.0657
   329.2500      0.0000    792.3457      7.6601    111.6381
   329.5000      0.0000    794.6045      7.7784    110.6690
   329.7500      0.0000    794.4204      7.8724    110.2698
   330.0000      0.0000    792.5878      7.9378    111.3217
   330.2500      0.0000    790.2659      7.9769    114.6395
   330.5000      0.0000    788.0935      7.9941    120.0188
   330.7500      0.0000    786.0711      7.9787    125.9352
   331.0000      0.0000    784.2438      7.8973    130.1558
   331.2500      0.0000    783.1989      7.7157    131.2019
   331.5000      0.0000    783.4716      7.4416    129.6265
   331.7500      0.0000    784.5754      7.1484    127.4745
   332.0000      0.0000    785.1548      6.9440    126.2573
   332.2500      0.0000    784.2874      6.8903    126.1239
   332.5000      0.0000    782.3378      6.9339    127.1921
   332.7500      0.0000    780.4053      6.9280    130.3494
   333.0000      0.0000    779.2598      6.7534    135.9858
   333.2500      0.0000    778.9468      6.4211    143.0735
   333.5000      0.0000    779.0793      6.0504    150.2864
   333.7500      0.0000    779.2366      5.7554    156.9826
   334.0000      0.0000    779.1807      5.5782    162.3854
   334.2500      0.0000    778.9097      5.5159    165.0306
   334.5000      0.0000    778.5811      5.5700    164.1614
   334.7500      0.0000    778.3700      5.7468    161.2118
   335.0000      0.0000    778.3718      6.0249    159.0107
   335.2500      0.0000    778.5718      6.3436    159.4104
   335.5000      0.0000    778.8832      6.6217    161.8655
   335.7500      0.0000    779.2330      6.7842    164.2469
   336.0000      0.0000    779.6041      6.7858    164.7882
   336.2500      0.0000    779.9402      6.6353    163.2899
   336.5000      0.0000    779.9645      6.4058    161.0013
   336.7500      0.0000    779.1730      6.1996    159.7835
   337.0000      0.0000    777.2043      6.0822    161.1307
   337.2500      0.0000    774.2933      6.0462    165.1659
   337.5000      0.0000    771.1879      6.0437    169.9334
   337.7500      0.0000    768.6522      6.0489    171.8187
   338.0000      0.0000    767.3900      6.0842    167.5784
   338.2500      0.0000    768.2462      6.1826    156.7902
   338.5000      0.0000    771.6420      6.3290    142.4315
   338.7500      0.0000    776.7906      6.4523    128.9345
   339.0000      0.0000    782.3120      6.4892    119.7893
   339.2500      0.0000    787.4794      6.4523    116.8248
   339.5000      0.0000    791.9764      6.4154    120.5731
   339.7500      0.0000    794.7639      6.4268    130.1427
   340.0000      0.0000    794.3882      6.4551    142.8344
   340.2500      0.0000    790.4452      6.4305    154.9081
   340.5000      0.0000    783.8538      6.3252    163.5975
   340.7500      0.0000    775.7260      6.1776    168.5279
   341.0000      0.0000    766.8494      6.0418    170.9948
   341.2500      0.0000    758.3205      5.9306    172.1163
   341.5000      0.0000    751.8539      5.8157    172.2541
   341.7500      0.0000    749.0648      5.6826    171.8456
   342.0000      0.0000    750.6755      5.5635    171.5634
   342.2500      0.0000    756.3845      5.5044    171.4559
   342.5000      0.0000    765.0991      5.5077    171.0396
   342.7500      0.0000    775.0580      5.5275    170.5411
   343.0000      0.0000    783.8789      5.5237    171.0219
   343.2500      0.0000    788.9491      5.5052    172.8961
   343.5000      0.0000    788.3508      5.5131    174.9895
   343.7500      0.0000    781.8880      5.5728    175.3656
   344.0000      0.0000    771.5365      5.6732    172.7657
   344.2500      0.0000    760.8757      5.7818    167.3827
   344.5000      0.0000    753.5476      5.8659    160.6405
   344.7500      0.0000    751.3909      5.9018    154.2537
   345.0000      0.0000    753.3602      5.8777    149.3544
   345.2500      0.0000    756.2675      5.7989    146.4514
   345.5000      0.0000    757.2756      5.6893    145.8707
   345.7500      0.0000    756.2889      5.5857    147.6557
   346.0000      0.0000    755.9409      5.5217    150.9424
   346.2500      0.0000    758.9933      5.5091    153.8631
   346.5000      0.0000    765.6589      5.5269    154.4930
   346.7500      0.0000    773.5067      5.5332    152.0807
   347.0000      0.0000    779.8760      5.4976    147.4688
   347.2500      0.0000    783.9114      5.4317    142.3493
   347.5000      0.0000    786.1440      5.3835    138.0734
   347.7500      0.0000    787.1243      5.3918    135.1242
   348.0000      0.0000    787.3351      5.4488    133.5971
   348.2500      0.0000    787.6672      5.5185    133.8664
   348.5000      0.0000    788.8700      5.5905    136.4744
   348.7500      0.0000    790.7626      5.6964    141.4052
   349.0000      0.0000    792.5460      5.8724    147.6064
   349.2500      0.0000    793.5289      6.1251    153.2377
   349.5000      0.0000    793.3381      6.4362    156.5500
   349.7500      0.0000    792.1515      6.7739    156.9994
   350.0000      0.0000    790.9373      7.0840    155.7697
   350.2500      0.0000    790.7703      7.2951    154.9446
   350.5000      0.0000    791.6804      7.3642    155.8078
   350.7500      0.0000    792.7360      7.3141    157.9712
   351.0000      0.0000    793.3469      7.2121    160.2421
   351.2500      0.0000    793.6891      7.1114    161.9697
   351.5000      0.0000    793.4164      7.0283    163.1851
   351.7500      0.0000    790.9481      6.9691    163.7197
   352.0000      0.0000    785.2625      6.9502    162.6718
   352.2500      0.0000    778.0569      6.9774    158.8116
   352.5000      0.0000    772.8060      7.0233    151.4999
   352.7500      0.0000    771.5273      7.0543    141.5078
   353.0000      0.0000    773.3697      7.0735    131.0498
   353.2500      0.0000    776.3478      7.1107    122.6326
   353.5000      0.0000    779.4263      7.1667    117.4403
   353.7500      0.0000    782.6412      7.1964    114.8389
   354.0000      0.0000    785.9050      7.1704    113.5864
   354.2500      0.0000    788.3450      7.1272    113.2360
   354.5000      0.0000    788.8435      7.1298    113.9270
   354.7500      0.0000    787.0102      7.1803    115.1145
   355.0000      0.0000    783.5728      7.2203    115.3673
   355.2500      0.0000    779.8833      7.2185    113.7458
   355.5000      0.0000    777.0298      7.2077    110.9605
   355.7500      0.0000    775.3679      7.2100    108.9272
   356.0000      0.0000    774.8312      7.1754    109.4761
   356.2500      0.0000    775.5881      7.0407    113.5613
   356.5000      0.0000    778.3314      6.8223    120.9559
   356.7500      0.0000    783.8287      6.6059    130.1035
   357.0000      0.0000    791.9603      6.4540    138.7319
   357.2500      0.0000    801.1100      6.3597    145.3021
   357.5000      0.0000    808.6788      6.2900    149.7695
   357.7500      0.0000    812.4479      6.2359    152.7675
   358.0000      0.0000    811.7795      6.1989    154.5198
   358.2500      0.0000    808.0129      6.1561    154.7731
   358.5000      0.0000    803.7671      6.0795    153.2130
   358.7500      0.0000    801.1302      5.9837    149.7488
   359.0000      0.0000    799.9504      5.9110    144.8445
   359.2500      0.0000    798.1580      5.8553    139.5041
   359.5000      0.0000    794.1193      5.7428    134.3544
   359.7500      0.0000    788.5833      5.5210    128.9029
   360.0000      0.0000    784.2408      5.2478    122.3696
   360.2500      0.0000    783.5500      5.0634    115.2278
   360.5000      0.0000    786.9141      5.0728    109.3267
   360.7500      0.0000    792.5286      5.2635    106.4467
   361.0000      0.0000    797.5999      5.5260    107.0615
