~Version Information
 VERS.                                  2.0 : CWLS LAS VERSION
 WRAP.                                   NO : WRAPING MODE
 SWARE .                 MController 2.5.0J : SOFTWARE VERSION
~Well Information
 WELL.                     Old Yeller 31-32 : WELL
 COMP.    Pioneer Natural Resources USA Inc : COMPANY
 FLD.                      Purgatoire River : FIELD
 LOC.                NW/NE Sec 32 T32S R67W : LOCATION
 DATE.                           8/23-28/05 : DATE(S) LOGGED
 SRVC.       BLANCO Geological Services LLC : SERVICE COMPANY
 STAT.                                   CO : STATE
 CNTY.                           Las Animas : COUNTY
 CTRY.                                  USA : COUNTRY
 API.                       05-071-08356-00 : API NUMBER
 STRT.FT                            1664.00 : START DEPTH
 STOP.FT                            2951.00 : STOP DEPTH
 STEP.FT                               1.00 : DEPTH INCREMENT
 NULL.                                -9999 : NULL VALUE
~Curve information
 DEPTH.FT                                   :
 ROP.MIN/FT                                 :
 GAS.UNITS                                  :
~ASCII Log data
# ...
      2264.0         0.82        -11.3 
      2265.0         0.80        -11.3 
      2266.0         0.77        -11.1 
      2267.0         0.80        -11.3 
      2268.0         0.75        -11.3 
      2269.0         0.70        -11.3 
      2270.0         0.57        -11.2 
      2271.0         0.50        -11.2 
      2272.0         0.50        -11.2 
      2273.0         0.62        -11.3 
      2274.0         0.57        -11.2 
      2275.0         0.57        -11.3 
      2276.0         0.60        -11.3 
      2277.0         0.67        -11.3 
      2278.0         0.75        -11.3 
      2279.0         0.83        -11.3 
      2280.0         0.73        -11.3 
      2281.0         6.93        -11.3 
      2282.0         0.83        -11.3 
      2283.0         1.18        -11.3 
      2284.0         1.63        -11.2 
      2285.0         0.60        -11.3 
      2286.0         0.78        -11.3 
      2287.0         0.80        -11.3 
      2288.0         1.53        -11.3 
      2289.0         1.38        -11.3 
      2290.0         0.90        -11.1 
      2291.0         1.00        -11.3 
      2292.0         0.62        -11.3 
      2293.0         1.03        -11.3 
      2294.0         0.63        -11.3 
      2295.0         0.50        -11.3 
      2296.0         0.53        -11.1 
      2297.0         0.42        -11.3 
      2298.0         0.33        -11.1 
      2299.0         0.40        -11.3 
      2300.0         0.33        -11.2 
      2301.0         0.27        -11.3 
      2302.0         0.30        -11.3 
      2303.0         0.50        -11.3 
      2304.0         0.47        -11.3 
      2305.0         0.43        -11.3 
      2306.0         0.45        -11.3 
      2307.0         0.40        -11.1 
      2308.0         0.33        -11.3 
      2309.0         0.30        -11.3 
      2310.0         0.37        -11.3 
      2311.0         4.88        -11.3 
      2312.0         0.32        -11.3 
      2313.0         0.30        -11.1 
      2314.0         0.30        -11.3 
      2315.0         0.37        -11.3 
      2316.0         0.53        -11.3 
      2317.0         0.50        -11.3 
      2318.0         0.33        -11.3 
      2319.0         0.47        -11.3 
      2320.0         0.82        -11.3 
      2321.0         0.90        -11.2 
      2322.0         0.90        -11.3 
      2323.0         0.73        -11.3 
      2324.0         0.65        -11.1 
      2325.0         0.73        -11.1 
      2326.0         0.90        -11.3 
      2327.0         0.83        -11.2 
      2328.0         0.43        -11.3 
      2329.0         0.38        -11.3 
      2330.0         0.43        -11.3 
      2331.0         0.30        -11.3 
      2332.0         0.27        -11.3 
      2333.0         0.27        -11.2 
      2334.0         0.33        -11.3 
      2335.0         0.30        -11.3 
      2336.0         0.43        -11.3 
      2337.0         0.48        -11.3 
      2338.0         0.47        -11.3 
      2339.0         0.37        -11.4 
      2340.0         0.30        -11.3 
      2341.0        18.57        -11.3 
      2342.0         0.47        -11.3 
      2343.0         1.63        -11.3 
      2344.0         1.75        -11.3 
      2345.0         2.00        -11.3 
      2346.0         2.12        -11.3 
      2347.0         2.68        -11.3 
      2348.0         2.98        -11.3 
      2349.0         2.47        -11.4 
      2350.0         1.52        -11.3 
      2351.0         3.38        -11.3 
      2352.0         1.37        -11.3 
      2353.0         1.28        -11.3 
      2354.0         1.20        -11.3 
      2355.0         1.05        -11.3 
      2356.0         1.80        -11.3 
      2357.0         1.25        -11.3 
      2358.0         0.57        -11.3 
      2359.0         0.93        -11.3 
      2360.0         0.93        -11.1 
      2361.0         0.78        -11.1 
      2362.0         0.60        -11.3 
      2363.0         0.60        -11.3 
      2364.0         0.53        -11.3 
      2365.0         0.47        -11.3 
      2366.0         0.53        -11.3 
      2367.0         0.55        -11.3 
      2368.0         0.50        -11.3 
      2369.0         0.63        -11.3 
      2370.0         0.67        -11.3 
      2371.0        12.00        -11.3 
      2372.0         1.80        -11.3 
      2373.0         1.48        -11.2 
      2374.0         1.27        -11.2 
      2375.0         1.35        -11.3 
      2376.0         1.00        -11.3 
      2377.0         0.73        -11.4 
      2378.0         0.77        -11.2 
      2379.0         0.82        -11.3 
      2380.0         0.83        -11.3 
      2381.0         0.87        -11.3 
      2382.0         0.80        -11.1 
      2383.0         0.78        -11.3 
      2384.0         0.60        -11.3 
      2385.0         0.60        -11.3 
      2386.0         0.77        -11.3 
      2387.0         0.75        -11.3 
      2388.0         0.67        -11.3 
      2389.0         0.80        -11.3 
      2390.0         0.90        -11.3 
      2391.0         0.78        -11.4 
      2392.0         0.87        -11.3 
      2393.0         0.93        -11.3 
      2394.0         0.83        -11.3 
      2395.0         0.68        -11.3 
      2396.0         0.77        -11.3 
      2397.0         0.70        -11.3 
      2398.0         0.70        -11.3 
      2399.0         0.57        -11.2 
      2400.0         0.38        -11.3 
      2401.0        17.45        -11.1 
      2402.0         0.93        -11.3 
      2403.0         0.98        -11.3 
      2404.0         1.23        -11.3 
      2405.0         1.13        -11.1 
      2406.0         1.18        -11.2 
      2407.0         1.17        -11.3 
      2408.0         0.97        -11.3 
      2409.0         1.05        -11.1 
      2410.0         1.07        -11.3 
      2411.0         0.87        -11.3 
      2412.0         0.78        -11.3 
      2413.0         1.07        -11.3 
      2414.0         1.47        -11.3 
      2415.0        15.68        -11.3 
      2416.0         0.95        -11.3 
      2417.0         1.07        -11.3 
      2418.0         1.00        -11.2 
      2419.0         1.02        -11.3 
      2420.0         1.10        -11.4 
      2421.0         0.87        -11.2 
      2422.0         0.73        -11.4 
      2423.0         0.85        -11.3 
      2424.0         0.63        -11.3 
      2425.0         0.53        -11.3 
      2426.0         0.63        -11.3 
      2427.0         0.40        -11.3 
      2428.0         0.48        -11.3 
      2429.0         0.57        -11.3 
      2430.0         0.70        -11.3 
      2431.0         8.92        -11.3 
      2432.0         0.73        -11.4 
      2433.0         0.77        -11.3 
      2434.0         0.60        -11.3 
      2435.0         0.50        -11.3 
      2436.0         0.92        -11.3 
      2437.0         0.77        -11.3 
      2438.0         0.73        -11.3 
      2439.0         0.87        -11.3 
      2440.0         0.78        -11.3 
      2441.0         0.77        -11.3 
      2442.0         0.63        -11.3 
      2443.0         0.60        -11.3 
      2444.0         0.55        -11.3 
      2445.0         0.63        -11.3 
      2446.0         0.70        -11.3 
      2447.0         0.67        -11.2 
      2448.0         1.15        -11.3 
      2449.0         0.53        -11.3 
      2450.0         0.60        -11.3 
      2451.0         0.63        -11.3 
      2452.0         0.80        -11.3 
      2453.0         0.75        -11.4 
      2454.0         0.47        -11.3 
      2455.0         0.40        -11.3 
      2456.0         0.50        -11.3 
      2457.0         0.50        -11.3 
      2458.0         0.47        -11.3 
      2459.0         0.60        -11.3 
      2460.0         0.42        -11.3 
      2461.0        15.85        -11.3 
      2462.0         0.90        -11.3 
      2463.0         0.90        -11.3 
