~Version Information
VERS.                      2.0: CWLS Log ASCII Standard - VERSION 2.0
WRAP.                       NO: One line per depth step
~Well Information Block
STRT.FT                -4.7500: 
STOP.FT              1784.7500: 
STEP.FT                 0.2500: 
NULL.                -999.2500: 
COMP.          Pioneer Natural Resources: COMPANY
WELL.          Buckeye 11-13 Tr: WELL
FLD.           Purgatorie River: FIELD
LOC.           211' FNL & 1054' FWL--: LOCATION
STAT.                       CO: State
CNTY.               Las Animas: COUNTY
CTRY. USA : Country
SECT. 13 : Section
TOWN. 33S : Township
RANG. 67W : range
SRVC.          Patterson Wireline: SERVICE COMPANY
DATE.          Wed Mar 16 09:19:21 2005: LOG DATE
API.           05 071 08317 00: UNIQUE WELL ID
~Curve Information Block
DEPT.FT            0 000 00 00: Depth
CCL.                          : Casing Collar Locator
TT3.usec                      : CBL 3' Travel Time
AMP3.mV                       : CBL 3' Amplitude
GR.GAPI                       : Gamma Ray
~Parameter Information Block
~A  Depth       CCL         TT3         AMP3         GR     
    -4.7500   -999.2500   -999.2500   -999.2500     83.4413
    -4.5000   -999.2500   -999.2500   -999.2500     86.7821
    -4.2500   -999.2500   -999.2500   -999.2500     88.1264
    -4.0000   -999.2500   -999.2500   -999.2500     87.0668
    -3.7500   -999.2500   -999.2500   -999.2500     84.4419
    -3.5000   -999.2500   -999.2500   -999.2500     81.9615
    -3.2500   -999.2500   -999.2500   -999.2500     81.0133
    -3.0000   -999.2500   -999.2500   -999.2500     81.7966
    -2.7500   -999.2500   -999.2500   -999.2500     83.5114
    -2.5000   -999.2500   -999.2500   -999.2500     85.1428
    -2.2500   -999.2500   -999.2500   -999.2500     85.9375
    -2.0000   -999.2500   -999.2500   -999.2500     85.4218
    -1.7500   -999.2500   -999.2500   -999.2500     83.5227
    -1.5000   -999.2500   -999.2500   -999.2500     80.8059
    -1.2500   -999.2500   -999.2500   -999.2500     78.1406
    -1.0000   -999.2500   -999.2500   -999.2500     75.9578
    -0.7500   -999.2500   -999.2500   -999.2500     74.3342
    -0.5000   -999.2500   -999.2500   -999.2500     73.8625
    -0.2500   -999.2500   1167.0000      1.8898     79.3764
     0.0000   -999.2500   1167.0000      1.8865     83.4415
     0.2500   -999.2500   1167.0000      1.8922     85.4293
     0.5000   -999.2500   1167.0000      1.9045     84.4565
     0.7500   -999.2500   1167.0000      1.9156     81.2996
     1.0000   -999.2500   1167.0000      1.9185     77.0634
     1.2500   -999.2500   1167.0000      1.9125     72.0118
     1.5000   -999.2500   1167.0000      1.9014     65.6731
     1.7500   -999.2500   1167.0000      1.8882     57.8486
     2.0000   -999.2500   1167.0000      1.8732     49.3313
     2.2500   -999.2500   1167.0000      1.8568     41.6490
     2.5000   -999.2500   1167.0000      1.8429     36.2436
     2.7500   -999.2500   1167.0000      1.8369     33.8077
     3.0000   -999.2500   1167.0000      1.8417     34.0934
     3.2500   -999.2500   1167.0000      1.8539     36.1184
     3.5000   -999.2500   1167.0000      1.8666     38.6082
     3.7500   -999.2500   1167.0000      1.8756     40.6298
     4.0000   -999.2500   1167.0000      1.8825     42.2411
     4.2500   -999.2500   1167.0000      1.8919     44.4757
     4.5000   -999.2500   1167.0000      1.9048     48.2993
     4.7500   -999.2500   1167.0000      1.9177     53.4545
     5.0000      0.0000   1167.0000      1.9257     58.5959
     5.2500      0.0000   1167.0000      1.9257     62.6426
     5.5000      0.0000   1167.0000      1.9172     65.6649
     5.7500      0.0000   1167.0000      1.9025     68.2401
     6.0000      0.0000   1167.0000      1.8870     70.3889
     6.2500      0.0000   1167.0000      1.8777     71.6184
     6.5000      0.0000   1167.0000      1.8804     71.8030
     6.7500      0.0000   1167.0000      1.8969     71.4989
     7.0000      0.0000   1167.0000      1.9223     71.3776
     7.2500      0.0000   1167.0000      1.9457     71.6910
     7.5000      0.0000   1167.0000      1.9571     72.2295
     7.7500      0.0000   1167.0000      1.9549     72.3790
     8.0000      0.0000   1167.0000      1.9456     71.2050
     8.2500      0.0000   1167.0000      1.9357     68.0842
     8.5000      0.0000   1167.0000      1.9269     63.6658
     8.7500      0.0000   1167.0000      1.9190     59.8026
     9.0000      0.0000   1166.9426      1.9195     58.0302
     9.2500      0.0000   1166.5688      1.9565     58.1825
     9.5000     -2.0000   1164.6702      2.1236     58.6902
     9.7500      0.0000   1157.1606      2.6811     58.0981
    10.0000      0.0000   1134.0260      4.1756     56.2500
    10.2500      0.0000   1078.5142      7.3831     54.2608
    10.5000      0.0000    974.7391     12.8569     53.5168
    10.7500      0.0000    823.5065     20.2676     54.6315
    11.0000      0.0000    651.4246     28.2328     57.2204
    11.2500      0.0000    497.8873     35.0577     60.5417
    11.5000      0.0000    389.2668     39.7687     64.2044
    11.7500      0.0000    326.6476     42.4537     68.1520
    12.0000      0.0000    295.4787     43.7894     72.0002
    12.2500      0.0000    280.8763     44.4456     74.8416
    12.5000      0.0000    274.0589     44.8451     76.1968
    12.7500      0.0000    270.9608     45.1985     76.9545
    13.0000      0.0000    269.6333     45.5799     78.7287
    13.2500      0.0000    269.0626     45.9724     82.3085
    13.5000      0.0000    268.7686     46.3174     87.1573
    13.7500      0.0000    268.6010     46.5689     92.1469
    14.0000      0.0000    268.5166     46.7284     96.3474
    14.2500      0.0000    268.4795     46.8454     99.3146
    14.5000      0.0000    268.4375     46.9911    100.9491
    14.7500      0.0000    268.3513     47.2124    101.1591
    15.0000      0.0000    268.2324     47.4884     99.9252
    15.2500      0.0000    268.1778     47.7349     97.7838
    15.5000      0.0000    268.4293     47.8510     95.6826
    15.7500      0.0000    269.5047     47.7206     94.0452
    16.0000      0.0000    272.2774     47.1298     92.3823
    16.2500      0.0000    277.6603     45.7274     90.1428
    16.5000      0.0000    285.7892     43.2181     87.6824
    16.7500      0.0000    295.3948     39.7483     85.9955
    17.0000      0.0000    304.2874     36.0786     85.4574
    17.2500      0.0000    310.7334     33.1970     85.3154
    17.5000      0.0000    314.3764     31.6479     84.6716
    17.7500      0.0000    315.9596     31.2526     83.5050
    18.0000      0.0000    316.4634     31.4359     82.4353
    18.2500      2.0000    316.5485     31.7157     81.9257
    18.5000      0.0000    316.4941     31.9070     81.9372
    18.7500      0.0000    316.3506     32.0757     81.8858
    19.0000      0.0000    316.0419     32.4531     80.7140
    19.2500      0.0000    315.3242     33.3383     77.5460
    19.5000      0.0000    313.6332     34.9469     72.8833
    19.7500      0.0000    310.0678     37.3036     69.0379
    20.0000      0.0000    303.8517     40.2654     68.7813
    20.2500      0.0000    295.1877     43.5536     73.2671
    20.5000      0.0000    285.6551     46.7353     81.2156
    20.7500      0.0000    277.4194     49.3320     89.8771
    21.0000      0.0000    271.8520     51.0760     96.6533
    21.2500      0.0000    268.9222     52.0339    100.1245
    21.5000      0.0000    267.7323     52.4717    100.0506
    21.7500      0.0000    267.3538     52.6530     96.7606
    22.0000      0.0000    267.2259     52.7435     90.8174
    22.2500      0.0000    267.1265     52.8136     83.5795
    22.5000      0.0000    267.0158     52.8748     77.7815
    22.7500      0.0000    266.9187     52.9247     76.5976
    23.0000      0.0000    266.8586     52.9736     81.5583
    23.2500      0.0000    266.8388     53.0396     91.4169
    23.5000      0.0000    266.8464     53.1341    102.8550
    23.7500      0.0000    266.8639     53.2664    112.0620
    24.0000      0.0000    266.8754     53.4578    116.2966
    24.2500      0.0000    266.8716     53.7295    115.1625
    24.5000      0.0000    266.8528     54.0663    110.7321
    24.7500      0.0000    266.8267     54.4048    105.8068
    25.0000      0.0000    266.7980     54.6759    101.7468
    25.2500      0.0000    266.7659     54.8584     98.1401
    25.5000      0.0000    266.7318     54.9872     94.2582
    25.7500      0.0000    266.7022     55.1196     90.1736
    26.0000      0.0000    266.6814     55.2949     86.5124
    26.2500      0.0000    266.6675     55.5096     83.6995
    26.5000      0.0000    266.6557     55.7285     81.5735
    26.7500      0.0000    266.6417     55.9257     79.4328
    27.0000      0.0000    266.6241     56.1067     76.4339
    27.2500      0.0000    266.6057     56.2912     72.3948
    27.5000      0.0000    266.5908     56.4921     68.4326
    27.7500      0.0000    266.5811     56.7090     66.3883
    28.0000      0.0000    266.5772     56.9204     67.1269
    28.2500      0.0000    266.5808     57.0880     69.5615
    28.5000      0.0000    266.5900     57.1942     71.8647
