~Version Information
VERS.                      2.0: CWLS Log ASCII Standard - VERSION 2.0
WRAP.                       NO: One line per depth step
~Well Information Block
STRT.FT               575.0000: 
STOP.FT              2016.2500: 
STEP.FT                 0.2500: 
NULL.                -999.2500: 
COMP.          Pioneer Natural Resources: COMPANY
WELL.          Bucksnort 41-35: WELL
FLD.           Purgatoire River: FIELD
LOC.           117' FNL & 463' FEL--: LOCATION
PROV.                 Colorado: PROVINCE
CNTY.               Las Animas: COUNTRY
SRVC.                Patterson: SERVICE COMPANY
DATE.          Thu Jul 21 10:13:55 2005: LOG DATE
UWI.           05 071 08401 00: UNIQUE WELL ID
~Curve Information Block
DEPT.FT            0 000 00 00: Depth
SN.Ohm-m                      : IEL Short Normal
SP.mV                         : IEL Spontaneous Potential
DIR.Ohm-m                     : IEL Induction Resistivity
GR.GAPI                       : Gamma Ray
~Parameter Information Block
~A  Depth        SN          SP         DIR          GR     
# ...
   843.0000   2000.0000   2000.0000     12.2540    116.1015
   843.2500   2000.0000   2000.0000     12.0907    118.0420
   843.5000   2000.0000   2000.0000     11.8725    120.7949
   843.7500   2000.0000   2000.0000     11.6218    122.2020
   844.0000   2000.0000   2000.0000     11.3639    123.0388
   844.2500   2000.0000   2000.0000     11.1198    122.7589
   844.5000   2000.0000   2000.0000     10.9026    121.5688
   844.7500   2000.0000   2000.0000     10.7168    120.4437
   845.0000   2000.0000   2000.0000     10.5604    118.4381
   845.2500   2000.0000   2000.0000     10.4285    117.2405
   845.5000   2000.0000   2000.0000     10.3185    116.5692
   845.7500   2000.0000   2000.0000     10.2337    117.0640
   846.0000   2000.0000   2000.0000     10.1822    118.5250
   846.2500   2000.0000   2000.0000     10.1732    119.4348
   846.5000   2000.0000   2000.0000     10.2124    120.4407
   846.7500   2000.0000   2000.0000     10.3002    120.9522
   847.0000   2000.0000   2000.0000     10.4311    121.1970
   847.2500   2000.0000   2000.0000     10.5957    120.6110
   847.5000   2000.0000   2000.0000     10.7828    118.3870
   847.7500   2000.0000   2000.0000     10.9825    116.4447
   848.0000   2000.0000   2000.0000     11.1905    114.0363
   848.2500   2000.0000   2000.0000     11.4078    113.1917
   848.5000   2000.0000   2000.0000     11.6372    112.9186
   848.7500   2000.0000   2000.0000     11.8775    113.0214
   849.0000   2000.0000   2000.0000     12.1182    113.1187
   849.2500   2000.0000   2000.0000     12.3393    113.1793
   849.5000   2000.0000   2000.0000     12.5155    113.7180
   849.7500   2000.0000   2000.0000     12.6256    114.4906
   850.0000   2000.0000   2000.0000     12.6640    115.6657
   850.2500   2000.0000   2000.0000     12.6482    115.8633
   850.5000   2000.0000   2000.0000     12.6112    114.9022
   850.7500   2000.0000   2000.0000     12.5813    113.8938
   851.0000   2000.0000   2000.0000     12.5623    113.1812
   851.2500   2000.0000   2000.0000     12.5298    113.6453
   851.5000   2000.0000   2000.0000     12.4479    115.2213
   851.7500   2000.0000   2000.0000     12.2926    116.2747
   852.0000   2000.0000   2000.0000     12.0645    117.4790
   852.2500   2000.0000   2000.0000     11.7835    118.1665
   852.5000   2000.0000   2000.0000     11.4748    119.1376
   852.7500   2000.0000   2000.0000     11.1611    119.6403
   853.0000   2000.0000   2000.0000     10.8628    120.0984
   853.2500   2000.0000   2000.0000     10.6013    120.3286
   853.5000   2000.0000   2000.0000     10.3982    120.8934
   853.7500   2000.0000   2000.0000     10.2702    121.5417
   854.0000   2000.0000   2000.0000     10.2239    122.7933
   854.2500   2000.0000   2000.0000     10.2548    123.5674
   854.5000   2000.0000   2000.0000     10.3503    124.4103
   854.7500   2000.0000   2000.0000     10.4971    124.9045
   855.0000   2000.0000   2000.0000     10.6870    125.7807
   855.2500   2000.0000   2000.0000     10.9195    126.1630
   855.5000   2000.0000   2000.0000     11.2013    125.3802
   855.7500   2000.0000   2000.0000     11.5437    123.6400
   856.0000   2000.0000   2000.0000     11.9607    119.9259
   856.2500   2000.0000   2000.0000     12.4688    117.5316
   856.5000   2000.0000   2000.0000     13.0867    114.8100
   856.7500   2000.0000   2000.0000     13.8326    113.2865
   857.0000   2000.0000   2000.0000     14.7889    110.3624
   857.2500   2000.0000   2000.0000     15.8319    107.6979
   857.5000   2000.0000   2000.0000     17.0126    103.2938
   857.7500   2000.0000   2000.0000     18.3097    100.8068
   858.0000   2000.0000   2000.0000     19.7003     98.4128
   858.2500   2000.0000   2000.0000     21.1777     97.5103
   858.5000   2000.0000   2000.0000     22.7666     96.4259
   858.7500   2000.0000   2000.0000     24.5229     95.5742
   859.0000   2000.0000   2000.0000     26.5116     93.8776
   859.2500   2000.0000   2000.0000     28.7658     92.3775
   859.5000   2000.0000   2000.0000     31.2324     89.5001
   859.7500   2000.0000   2000.0000     33.7094     87.2240
   860.0000   2000.0000   2000.0000     35.7803     83.3333
   860.2500   2000.0000   2000.0000     36.8113     80.2603
   860.5000   2000.0000   2000.0000     35.7015     74.3452
   860.7500   2000.0000   2000.0000     33.2781     69.2899
   861.0000   2000.0000   2000.0000     29.6463     60.4045
   861.2500   2000.0000   2000.0000     25.7874     67.9183
   861.5000   2000.0000   2000.0000     22.4793     58.1758
   861.7500   2000.0000   2000.0000     20.0911     53.5787
   862.0000   2000.0000   2000.0000     18.7669     49.8561
   862.2500     37.5094   2000.0000     18.7334     58.9969
   862.5000     37.4300   2000.0000     20.7886     59.9379
   862.7500     36.8207   2000.0000     28.1674     61.4929
   863.0000     35.8014   2000.0000     68.3076     64.4417
   863.2500     34.5887   2000.0000 100000.0000     66.3283
   863.5000     33.4137   2000.0000 100000.0000     68.1751
   863.7500     32.4726   -186.0733 100000.0000     68.3729
   864.0000     31.8909   -185.9129 100000.0000     66.9071
   864.2500     31.6762   -185.8843 100000.0000     64.9511
   864.5000     31.6916   -186.0849 100000.0000     61.4924
   864.7500     31.7205   -186.5939 100000.0000     59.5722
   865.0000     31.6136   -187.4606 100000.0000     58.1150
   865.2500     31.3878   -188.7044 100000.0000     58.0366
   865.5000     31.1397   -190.3220 100000.0000     58.5544
   865.7500     30.8745   -192.3028 100000.0000     59.0568
   866.0000     30.5030   -194.6452     62.7292     60.2398
   866.2500     30.0067   -197.3706     20.0234     61.4642
   866.5000     29.5121   -200.5314     12.2754     63.5182
   866.7500     29.1758   -204.2172      9.5563     64.4534
   867.0000     29.0492   -208.5519      9.0132     64.5814
   867.2500     29.0610   -213.6925     11.1762     64.0488
   867.5000     29.1069   -219.8251     29.5465     63.4315
   867.7500     29.1222   -227.1602 100000.0000     63.6313
   868.0000     29.0357   -235.9313 100000.0000     64.6510
   868.2500     28.6788   -246.3954 100000.0000     65.2489
   868.5000     27.8061   -258.8322 100000.0000     65.2366
   868.7500     26.2549   -273.5348 100000.0000     64.6307
   869.0000     24.0853   -290.7793 100000.0000     63.6350
   869.2500     21.5417   -310.7653 100000.0000     63.6353
   869.5000     18.8414   -333.5299      3.8741     65.8139
   869.7500     16.0414   -358.8525      0.9239     68.9884
   870.0000     13.1625   -386.1845      0.3962     75.2654
   870.2500     10.3630   -414.6385      0.1996     78.9863
   870.5000      7.8882   -443.0632      0.1164     81.3643
   870.7500      5.9035   -470.1973      0.0837     80.3405
   871.0000      4.4445   -494.8683      0.0762     76.3597
   871.2500      3.4688   -516.1821      0.0872     73.7661
   871.5000      2.8937   -533.6464      0.1219     72.6685
   871.7500      2.6072   -547.2020      0.1991     74.4898
   872.0000      2.4945   -557.1603      0.3589     80.1309
   872.2500      2.4663   -564.0800      0.7035     84.3377
   872.5000      2.4663   -568.6248      1.6642     88.5222
   872.7500      2.4661   -571.4410      7.8225     88.9598
   873.0000      2.4552   -573.0790 100000.0000     86.3348
   873.2500      2.4355   -573.9574 100000.0000     83.3985
   873.5000      2.4150   -574.3614 100000.0000     79.5784
   873.7500      2.3999   -574.4619 100000.0000     78.8397
   874.0000      2.3916   -574.3365 100000.0000     82.3975
   874.2500      2.3896   -573.9877 100000.0000     88.2482
   874.5000      2.3961   -573.3533      8.7178    100.5629
   874.7500      2.4197   -572.3136      1.7057    108.8383
   875.0000      2.4841   -570.6969      0.7288    116.8144
   875.2500      2.6566   -568.2926      0.3863    117.4030
   875.5000      3.1083   -564.8698      0.2314    110.9622
   875.7500      4.2097   -560.2131      0.1620    103.1812
   876.0000      6.5831   -554.1653      0.1424     89.9671
   876.2500     10.9394   -546.6699      0.1641     82.1098
