~Version Information
VERS.                      2.0: CWLS Log ASCII Standard - VERSION 2.0
WRAP.                       NO: One line per depth step
~Well Information Block
STRT.FT               650.0000: 
STOP.FT              2000.5000: 
STEP.FT                 0.1000: 
NULL.                -999.2500: 
COMP.          Pioneer Natural Resources: COMPANY
WELL.           Firehawk 34-26: WELL
FLD.           Purgatoire River: FIELD
LOC.           1196' FSL & 1595' FEL--: LOCATION
STAT.                 Colorado: State
CNTY.               Las Animas: COUNTY
CTRY. USA : Country
SECT. 26 : Section
TOWN. 32S : Township
RANG. 66W : Range
SRVC.                Patterson: SERVICE COMPANY
DATE.          Mon Oct 17 07:23:34 2005: LOG DATE
API.           05 071 08389 00: UNIQUE WELL ID
~Curve Information Block
DEPT.FT            0 000 00 00: Depth
DCAL.in                       : CDL Caliper
RHOB.g/cc                     : CDL Bulk Density
RHOC.g/cc                     : CDL Density Correction
DPOR.pu                       : CDL Density Porosity
NPOR.pu                       : Neutron Porosity
GR.GAPI                       : Gamma Ray
~Parameter Information Block
~A  Depth       DCAL        RHOB        RHOC        DPOR        NPOR         GR     
# ...
   909.2000      8.0521      2.5867      0.0250      3.8344     69.7587     96.5853
   909.3000      8.0518      2.5544     -0.0233      5.7947     69.7587     92.9130
   909.4000      8.0518      2.5384     -0.0384      6.7638     69.7587     87.8065
   909.5000      8.0523      2.5414     -0.0449      6.5838     69.7587     85.9169
   909.6000      8.0523      2.5472     -0.0217      6.2329     69.7587     88.4574
   909.7000      8.0523      2.5483     -0.0128      6.1651     69.7587     92.9209
   909.8000      8.0542      2.5492     -0.0103      6.1079     69.7587     97.0079
   909.9000      8.0542      2.5583      0.0037      5.5568     69.7587    102.0147
   910.0000      8.0582      2.5833      0.0184      4.0446     69.7587    104.7516
   910.1000      8.0582      2.6197      0.0485      1.8349     69.7587    100.1635
   910.2000      8.0582      2.6461      0.1249      0.2378     69.7587     91.0722
   910.3000      8.0635      2.6510      0.0623     -0.0582     69.7587     84.3266
   910.4000      8.0635      2.6520      0.0430     -0.1189     69.7587     83.2625
   910.5000      8.0684      2.6570      0.0875     -0.4257     69.7587     84.6029
   910.6000      8.0684      2.6552      0.0152     -0.3122     69.7587     83.7569
   910.7000      8.0684      2.6507      0.0438     -0.0452     69.7587     79.7878
   910.8000      8.0688      2.6558      0.0390     -0.3536     69.7587     73.9788
   910.9000      8.0688      2.6739      0.0124     -1.4483     69.7587     69.1191
   911.0000      8.0643      2.6975      0.0154     -2.8783     69.7587     69.4311
   911.1000      8.0643      2.7166     -0.0070     -4.0333     69.7587     75.0820
   911.2000      8.0643      2.7271      0.0493     -4.6751     69.7587     81.2465
   911.3000      8.0609      2.7225      0.0400     -4.3920     69.7587     84.7623
   911.4000      8.0609      2.7113     -0.0132     -3.7178     69.7587     85.5132
   911.5000      8.0622      2.7109      0.0395     -3.6932     69.7587     84.1191
   911.6000      8.0622      2.7139      0.0306     -3.8705     69.7587     83.5259
   911.7000      8.0622      2.7024      0.0476     -3.1780     69.7587     85.4103
   911.8000      8.0647      2.6703      0.0358     -1.2294     69.7587     87.1544
   911.9000      8.0647      2.6302      0.0010      1.1993     69.7587     87.7001
   912.0000      8.0662      2.6044      0.0264      2.7662     69.7587     91.8308
   912.1000      8.0662      2.5929      0.0422      3.4609     69.7587    100.3524
   912.2000      8.0662      2.5752      0.0689      4.5361     69.7587    104.5507
   912.3000      8.0690      2.5482      0.0284      6.1713     69.7587     99.9409
   912.4000      8.0690      2.5298      0.0445      7.2877     69.7587     92.9552
   912.5000      8.0743      2.5223      0.0395      7.7372     69.7587     87.9185
   912.6000      8.0743      2.5169      0.0064      8.0685     69.7587     84.8901
   912.7000      8.0743      2.5145      0.0127      8.2110     69.7587     86.8924
   912.8000      8.0773      2.5127      0.0416      8.3230     69.7587     93.8285
   912.9000      8.0773      2.4991      0.0206      9.1450     69.7587    100.8471
   913.0000      8.0776      2.4793     -0.0361     10.3460     69.7587    105.6522
   913.1000      8.0776      2.4760     -0.0396     10.5466     69.7587    106.6426
   913.2000      8.0776      2.4918      0.0040      9.5883     69.7587    103.2992
   913.3000      8.0783      2.5087      0.0383      8.5639     69.7587     98.6617
   913.4000      8.0783      2.5252      0.0027      7.5662     69.7587     96.3386
   913.5000      8.0800      2.5491      0.0931      6.1142     69.7587     96.2940
   913.6000      8.0800      2.5641      0.0941      5.2066     69.7587     96.4390
   913.7000      8.0800      2.5535      0.0710      5.8456     69.7587     96.4750
   913.8000      8.0811      2.5305      0.0186      7.2436     69.7587     94.8193
   913.9000      8.0811      2.5183     -0.0093      7.9817     69.7587     93.0243
   914.0000      8.0840      2.5222      0.0461      7.7425     69.7587     93.5573
   914.1000      8.0840      2.5338      0.0198      7.0416     69.7587     94.5148
   914.2000      8.0840      2.5478      0.0329      6.1967     69.7587     92.8579
   914.3000      8.0879      2.5559      0.0516      5.7039     69.7587     88.2665
   914.4000      8.0879      2.5455      0.0403      6.3328     69.7587     84.5359
   914.5000      8.0854      2.5189      0.0396      7.9451     69.7587     84.0332
   914.6000      8.0854      2.4964      0.0240      9.3063     69.7587     85.3912
   914.7000      8.0854      2.4957     -0.0304      9.3521     69.7587     87.1331
   914.8000      8.0792      2.5124      0.0296      8.3396     69.7587     87.3031
   914.9000      8.0792      2.5245      0.0127      7.6074     69.7587     86.1856
   915.0000      8.0755      2.5170      0.0330      8.0579     69.7587     86.4192
   915.1000      8.0755      2.4968      0.0102      9.2859     69.7587     88.9896
   915.2000      8.0755      2.4900     -0.0063      9.6951     69.7587     94.0175
   915.3000      8.0756      2.5142      0.0169      8.2305     69.7587     99.8340
   915.4000      8.0756      2.5545      0.0337      5.7883     69.7587    100.9768
   915.5000      8.0706      2.5839      0.0469      4.0075     69.7587     95.1785
   915.6000      8.0706      2.5855      0.0534      3.9089     69.7587     87.7467
   915.7000      8.0706      2.5586      0.0489      5.5410     69.7587     84.7056
   915.8000      8.0585      2.5169      0.0050      8.0687     69.7587     84.6531
   915.9000      8.0585      2.4817     -0.0258     10.1995     69.7587     84.1261
   916.0000      8.0493      2.4677      0.0153     11.0514     69.7587     84.5008
   916.1000      8.0493      2.4712      0.0009     10.8365     69.7587     89.2724
   916.2000      8.0493      2.4854     -0.0020      9.9732     69.7587     98.5277
   916.3000      8.0460      2.5065      0.0005      8.6946     69.7587    107.0796
   916.4000      8.0460      2.5194      0.0174      7.9143     69.7587    109.2924
   916.5000      8.0469      2.5061      0.0296      8.7182     69.7587    106.1137
   916.6000      8.0469      2.4802     -0.0534     10.2939     69.7587    102.9019
   916.7000      8.0469      2.4780     -0.0414     10.4244     69.7587    101.2033
   916.8000      8.0471      2.5003      0.0316      9.0755     69.7587    100.1455
   916.9000      8.0471      2.5165      0.0329      8.0892     69.7587     99.8979
   917.0000      8.0413      2.5159      0.0619      8.1284     69.7587    100.3074
   917.1000      8.0413      2.5081     -0.0065      8.5997     69.7587    102.8689
   917.2000      8.0413      2.4994      0.0282      9.1254     69.7587    110.8867
   917.3000      8.0297      2.4898      0.0016      9.7077     69.7587    122.1018
   917.4000      8.0297      2.4793      0.0191     10.3431     69.7587    128.4844
   917.5000      8.0216      2.4645      0.0013     11.2442     69.7587    125.7182
   917.6000      8.0216      2.4505     -0.0360     12.0922     69.7587    117.4519
   917.7000      8.0216      2.4463     -0.0383     12.3466     69.7587    110.2084
   917.8000      8.0199      2.4460      0.0179     12.3627     69.7587    107.9719
   917.9000      8.0199      2.4453     -0.0516     12.4053     69.7587    110.3596
   918.0000      8.0200      2.4503      0.0000     12.1046     69.7587    113.3587
   918.1000      8.0200      2.4528      0.0340     11.9538     69.7587    115.7780
   918.2000      8.0200      2.4480      0.0113     12.2450     69.7587    119.8427
   918.3000      8.0182      2.4542      0.0037     11.8643     69.7587    123.7806
   918.4000      8.0182      2.4766      0.0592     10.5112     69.7587    122.2794
   918.5000      8.0161      2.4930      0.0972      9.5129     69.7587    114.7152
   918.6000      8.0161      2.4926      0.0907      9.5413     69.7587    109.1273
   918.7000      8.0161      2.4874      0.0835      9.8531     69.7587    111.0174
