~Version Information
VERS.                      2.0: CWLS Log ASCII Standard - VERSION 2.0
WRAP.                       NO: One line per depth step
~Well Information Block
STRT.FT                 5.5000: 
STOP.FT              1635.7500: 
STEP.FT                 0.2500: 
NULL.                -999.2500: 
COMP.          Pioneer Natural Resources: COMPANY
WELL.                Mead 11-9: WELL
FLD.           Purgatoire River: FIELD
LOC.           1127' FNL & 668' FWL: LOCATION
PROV.                 Colorado: PROVINCE
CNTY.               Las Animas: COUNTRY
SRVC.                Patterson: SERVICE COMPANY
DATE.          Wed Mar 02 13:48:38 2005: LOG DATE
UWI.           05 071 08160 00: UNIQUE WELL ID
~Curve Information Block
DEPT.FT            0 000 00 00: Depth
CCL.                          : Casing Collar Locator
TT3.usec                      : CBL 3' Travel Time
AMP3.mV                       : CBL 3' Amplitude
GR.GAPI                       : Gamma Ray
~Parameter Information Block
~A  Depth       CCL         TT3         AMP3         GR     
# ...
   206.5000      0.0000   1396.5759      4.9231     98.6539
   206.7500      0.0000   1414.3571      5.0628     97.5141
   207.0000      0.0000   1420.1455      5.1696     95.6235
   207.2500      0.0000   1421.4406      5.2208     94.4139
   207.5000      0.0000   1420.7966      5.2197     94.1731
   207.7500      0.0000   1417.3171      5.1984     94.0064
   208.0000      0.0000   1407.1116      5.2058     93.0206
   208.2500      0.0000   1384.3397      5.2861     91.3042
   208.5000      0.0000   1345.2202      5.4547     89.5477
   208.7500      0.0000   1293.5573      5.6810     88.1795
   209.0000      0.0000   1242.0216      5.8973     87.5224
   209.2500      0.0000   1207.1276      6.0308     88.3959
   209.5000      0.0000   1202.1722      6.0385     91.4893
   209.7500      0.0000   1230.8687      5.9216     95.9569
   210.0000      0.0000   1283.1877      5.7165     99.3165
   210.2500      0.0000   1339.3394      5.4732     99.1563
   210.5000      0.0000   1382.2139      5.2339     94.9189
   210.7500      0.0000   1406.5024      5.0220     88.1546
   211.0000      0.0000   1416.1731      4.8452     81.3620
   211.2500      0.0000   1416.1626      4.7032     76.5240
   211.5000      0.0000   1406.8009      4.5914     74.2623
   211.7500      0.0000   1384.2599      4.5000     73.9481
   212.0000      0.0000   1346.1259      4.4176     74.4772
   212.2500      0.0000   1298.5784      4.3404     75.1217
   212.5000      0.0000   1257.7192      4.2750     75.8675
   212.7500      0.0000   1240.9764      4.2311     76.9190
   213.0000      0.0000   1254.7340      4.2100     77.9254
   213.2500      0.0000   1288.4786      4.1997     78.0567
   213.5000      0.0000   1321.2667      4.1824     77.0300
   213.7500      0.0000   1337.3224      4.1467     75.6422
   214.0000      0.0000   1337.7510      4.0964     74.9444
   214.2500      0.0000   1335.6210      4.0481     75.2028
   214.5000      0.0000   1338.5746      4.0192     75.8941
   214.7500      0.0000   1339.0184      4.0168     76.3418
   215.0000      0.0000   1324.3278      4.0353     76.0088
   215.2500      0.0000   1295.5334      4.0620     74.5578
   215.5000      0.0000   1271.7994      4.0808     72.1800
   215.7500      0.0000   1273.6320      4.0726     69.7326
   216.0000      0.0000   1302.4349      4.0215     68.0777
   216.2500      0.0000   1338.9642      3.9305     67.3197
   216.5000      0.0000   1360.8746      3.8324     66.9816
   216.7500      0.0000   1359.6622      3.7811     66.6606
   217.0000      0.0000   1342.5421      3.8224     66.1729
   217.2500      0.0000   1319.6564      3.9685     65.4731
   217.5000      0.0000   1288.8075      4.1935     64.8812
   217.7500      0.0000   1234.6914      4.4496     65.0089
   218.0000      0.0000   1147.6517      4.6806     66.0304
   218.2500      0.0000   1042.1595      4.8242     67.2789
   218.5000      0.0000    953.2975      4.8165     67.8511
   218.7500      0.0000    915.4006      4.6266     67.3777
   219.0000      0.0000    942.6350      4.2998     66.0449
   219.2500      0.0000   1020.6894      3.9506     64.2224
   219.5000      0.0000   1111.6959      3.6903     62.3973
   219.7500      0.0000   1174.9448      3.5573     61.2985
   220.0000      2.4213   1192.2118      3.5176     61.7022
   220.2500     -3.0000   1171.9506      3.5146     63.9503
   220.5000      2.1436   1128.4768      3.5146     67.6762
   220.7500      0.0000   1066.2235      3.5190     72.0829
   221.0000      0.0000    988.8730      3.5476     76.6357
   221.2500      0.0000    913.6470      3.6082     81.3875
   221.5000      0.0000    866.3078      3.6878     86.3918
   221.7500      0.0000    863.1790      3.7801     91.0160
   222.0000      0.0000    901.3218      3.9028     94.2737
   222.2500      0.0000    962.2702      4.0669     95.8120
   222.5000      0.0000   1022.1182      4.2452     96.3120
   222.7500      0.0000   1063.0443      4.3905     96.8722
   223.0000      0.0000   1082.0084      4.4723     97.9698
   223.2500      0.0000   1089.2137      4.4863     98.9104
   223.5000      0.0000   1098.4866      4.4437     98.5481
   223.7500      0.0000   1120.0203      4.3614     96.9273
   224.0000      0.0000   1155.5177      4.2623     95.9496
   224.2500      0.0000   1192.5345      4.1725     97.7944
   224.5000      0.0000   1210.3538      4.1124    102.6313
   224.7500      0.0000   1201.9440      4.0831    108.2652
   225.0000      0.0000   1185.4531      4.0624    112.0666
   225.2500      0.0000   1185.4379      4.0180    113.2381
   225.5000      0.0000   1207.9268      3.9309    113.4433
   225.7500      0.0000   1242.2147      3.8091    115.1651
   226.0000      0.0000   1279.7296      3.6788    119.0720
   226.2500      0.0000   1319.2828      3.5629    123.0307
   226.5000      0.0000   1358.1239      3.4684    124.0365
   226.7500      0.0000   1389.3745      3.3925    121.1200
   227.0000      0.0000   1408.6873      3.3328    116.3594
   227.2500      0.0000   1417.7037      3.2887    113.2998
   227.5000      0.0000   1420.7640      3.2585    114.2626
   227.7500      0.0000   1420.8997      3.2433    118.5086
   228.0000      0.0000   1418.1665      3.2539    122.6113
   228.2500      0.0000   1409.0820      3.3064    122.9175
   228.5000      0.0000   1386.7638      3.4051    118.2092
   228.7500      0.0000   1344.0519      3.5321    110.2529
   229.0000      0.0000   1280.2334      3.6551    101.8390
   229.2500      0.0000   1206.1897      3.7479     94.5361
   229.5000      0.0000   1140.5667      3.8019     88.4666
   229.7500      0.0000   1098.1859      3.8247     83.7155
   230.0000      0.0000   1080.9698      3.8333     81.0758
   230.2500      0.0000   1078.4233      3.8485     81.0932
   230.5000      0.0000   1075.3147      3.8891     82.9488
   230.7500      0.0000   1059.9905      3.9630     84.7780
   231.0000      0.0000   1028.9849      4.0615     84.9216
   231.2500      0.0000    986.7678      4.1640     82.6983
   231.5000      0.0000    941.7685      4.2487     78.4803
   231.7500      0.0000    901.6190      4.3032     73.5360
   232.0000      0.0000    870.4982      4.3276     69.4352
   232.2500      0.0000    848.6948      4.3322     66.8811
   232.5000      0.0000    832.2378      4.3295     65.0804
   232.7500      0.0000    814.2414      4.3274     62.6313
   233.0000      0.0000    791.2922      4.3270     59.1062
   233.2500      0.0000    769.4452      4.3257     55.5602
   233.5000      0.0000    760.3444      4.3205     53.3949
   233.7500      0.0000    770.2271      4.3094     52.7734
   234.0000      0.0000    794.5427      4.2933     52.3877
   234.2500      0.0000    824.5372      4.2777     51.0135
   234.5000      0.0000    857.8087      4.2718     49.0815
   234.7500      0.0000    898.6317      4.2829     48.2312
   235.0000      0.0000    947.4246      4.3104     49.3563
   235.2500      0.0000    995.0511      4.3437     51.5604
   235.5000      0.0000   1029.6564      4.3691     53.1449
   235.7500      0.0000   1044.8645      4.3791     53.2187
   236.0000      0.0000   1039.6494      4.3773     52.2025
   236.2500      0.0000   1015.1018      4.3742     51.2089
   236.5000      0.0000    975.5630      4.3803     51.2172
   236.7500      0.0000    931.8256      4.4010     52.4620
   237.0000      0.0000    898.7688      4.4361     54.2604
   237.2500      0.0000    885.7883      4.4807     55.5398
   237.5000      0.0000    888.8524      4.5269     55.7073
   237.7500      0.0000    894.3193      4.5670     55.0945
   238.0000      0.0000    891.2709      4.5944     54.7398
   238.2500      0.0000    878.2529      4.6051     55.6316
   238.5000      0.0000    858.9386      4.5962     57.7830
   238.7500      0.0000    836.0294      4.5661     60.0407
   239.0000      0.0000    811.4437      4.5132     61.0394
   239.2500      0.0000    788.9241      4.4382     60.2808
   239.5000      0.0000    773.5312      4.3455     58.3688
   239.7500      0.0000    769.6837      4.2441     56.4636
