~Version Information
VERS.                      2.0: CWLS Log ASCII Standard - VERSION 2.0
WRAP.                       NO: One line per depth step
~Well Information Block
STRT.FT                -8.2500: 
STOP.FT               836.2500: 
STEP.FT                 0.2500: 
NULL.                -999.2500: 
COMP.          Pioneer Natural Res.: COMPANY
WELL.            Hustler 12-17: WELL
FLD.           Purgatorie River: FIELD
LOC.           2150' FNL & 450' FWL----------: LOCATION
PROV.                       CO: PROVINCE
CNTY.               Las Animas: COUNTRY
SRVC.                Patterson: SERVICE COMPANY
DATE.          Wed Dec 29 13:37:10 2004: LOG DATE
UWI.           05 071 08236 00: UNIQUE WELL ID
~Curve Information Block
DEPT.FT            0 000 00 00: Depth
AMP3.mV                       : CBL 3' Amplitude
CCL.                          : Casing Collar Locator
GR.GAPI                       : Gamma Ray
TT3.usec                      : CBL 3' Travel Time
~Parameter Information Block
~A  Depth       AMP3        CCL          GR         TT3     
# ...
   259.7500      8.6047      0.0000    121.1185    818.6933
   260.0000      8.3187      0.0000    116.2265    823.6489
   260.2500      8.0181      0.0000    114.2258    830.2019
   260.5000      7.7533      0.0000    115.5745    836.4717
   260.7500      7.5628      0.0000    120.4793    840.8557
   261.0000      7.4469      0.0000    128.3705    842.8760
   261.2500      7.3661      0.0000    137.4763    842.8065
   261.5000      7.2818      0.0000    145.1951    841.1928
   261.7500      7.1966      0.0000    148.9082    838.8603
   262.0000      7.1411      0.0000    147.0197    836.6486
   262.2500      7.1234      0.0000    140.0370    834.5309
   262.5000      7.1139      0.0000    130.6327    831.3715
   262.7500      7.0794      0.0000    122.0998    826.2457
   263.0000      7.0144      0.0000    116.4959    819.8978
   263.2500      6.9381      0.0000    113.9959    814.3367
   263.5000      6.8769      0.0000    113.4516    810.8669
   263.7500      6.8516      0.0000    113.5622    808.8908
   264.0000      6.8680      0.0000    114.1055    807.0472
   264.2500      6.9133      0.0000    116.1175    805.4342
   264.5000      6.9676      0.0000    120.5892    805.8489
   264.7500      7.0137      0.0000    127.3335    809.1818
   265.0000      7.0362      0.0000    135.3055    813.2991
   265.2500      7.0243      0.0000    143.1525    814.5588
   265.5000      6.9798      0.0000    148.7644    811.1674
   265.7500      6.9123      0.0000    149.2650    804.4166
   266.0000      6.8309      0.0000    142.9220    796.9859
   266.2500      6.7541      0.0000    131.1041    790.5955
   266.5000      6.7091      0.0000    117.5593    785.1125
   266.7500      6.6960      0.0000    105.8617    779.6547
   267.0000      6.6617      0.0000     97.9510    774.5975
   267.2500      6.5374      0.0000     94.3588    772.3350
   267.5000      6.3073      0.0000     94.5395    775.7781
   267.7500      6.0311      0.0000     96.9179    785.9226
   268.0000      5.7974      0.0000     99.5733    800.6368
   268.2500      5.6578      0.0000    101.2723    815.7112
   268.5000      5.6010      0.0000    101.6414    827.3173
   268.7500      5.5874      0.0000    100.6308    833.7675
   269.0000      5.6041      0.0000     98.3185    835.3976
   269.2500      5.6772      0.0000     95.0355    833.5768
   269.5000      5.8278      0.0000     91.1442    830.2719
   269.7500      6.0332      0.0000     86.9107    827.8466
   270.0000      6.2455      0.0000     82.9509    828.0612
   270.2500      6.4369      0.0000     80.3769    830.8825
   270.5000      6.6177      0.0000     80.0158    834.7148
   270.7500      6.8203      0.0000     81.7586    837.9496
   271.0000      7.0676      0.0000     85.0471    840.0462
   271.2500      7.3405      0.0000     89.6491    841.2778
   271.5000      7.5694      0.0000     95.4560    841.9846
   271.7500      7.6674      0.0000    101.7110    842.2375
   272.0000      7.5888      0.0000    107.0345    841.9053
   272.2500      7.3739      0.0000    110.3758    840.7216
   272.5000      7.1471      0.0000    111.6449    838.2845
   272.7500      7.0498      0.0000    111.3322    834.3050
   273.0000      7.1440      0.0000    109.8982    829.1422
   273.2500      7.3710      0.0000    107.7251    823.9583
   273.5000      7.6056      0.0000    105.3275    820.0646
   273.7500      7.7429      0.0000    103.3860    818.2707
   274.0000      7.7298      0.0000    102.5956    818.9755
   274.2500      7.5543      0.0000    103.1929    822.2192
   274.5000      7.2446      0.0000    104.3128    827.0739
   274.7500      6.8695      0.0000    104.1406    831.3919
   275.0000      6.5107      0.0000    101.4816    832.7297
   275.2500      6.2281      0.0000     97.2839    829.6689
   275.5000      6.0476      0.0000     94.0664    822.7416
   275.7500      5.9596      0.0000     93.7416    814.6265
   276.0000      5.9215      0.0000     96.3819    808.9854
   276.2500      5.8834      0.0000    100.9346    807.7859
   276.5000      5.8275      0.0000    106.4077    809.3798
   276.7500      5.7744      0.0000    111.9581    810.1908
   277.0000      5.7503      0.0000    116.1103    808.9640
   277.2500      5.7674      0.0000    116.6696    808.5374
   277.5000      5.8360      0.0000    112.1211    812.8649
   277.7500      5.9617      0.0000    103.3306    823.0588
   278.0000      6.1230      0.0000     93.5387    836.4982
   278.2500      6.2700      0.0000     86.1937    848.7491
   278.5000      6.3559      2.0000     82.6771    856.3389
   278.7500      6.3646      2.0000     82.2520    859.1697
   279.0000      6.3136      0.0000     83.9323    860.4702
   279.2500      6.2414      0.0000     87.7215    862.8759
   279.5000      6.1890      0.0000     93.9352    864.1436
   279.7500      6.1735      0.0000    101.9444    858.6552
   280.0000      6.1700      0.0000    110.0074    844.6349
   280.2500      6.1322      0.0000    116.2228    828.1123
   280.5000      6.0383      0.0000    119.6312    817.8090
   280.7500      5.9074      0.0000    120.5945    817.2985
   281.0000      5.7767      0.0000    120.1298    823.4514
   281.2500      5.6801      0.0000    119.1533    830.8082
   281.5000      5.6490      0.0000    118.7140    835.7426
   281.7500      5.7080      0.0000    120.2908    837.3895
   282.0000      5.8590      0.0000    124.6409    836.6787
   282.2500      6.0752      0.0000    130.4092    835.3041
   282.5000      6.3182      0.0000    134.8421    834.8372
   282.7500      6.5644      0.0000    136.0563    835.8828
   283.0000      6.8194      0.0000    134.1535    837.8331
   283.2500      7.0977      0.0000    130.3602    839.6435
   283.5000      7.3857      0.0000    125.7212    840.8157
   283.7500      7.6436      0.0000    120.6090    841.6741
   284.0000      7.8443      0.0000    114.9634    843.1152
   284.2500      7.9858      0.0000    108.7065    846.3132
   284.5000      8.0591      0.0000    101.9383    852.1194
   284.7500      8.0323      0.0000     95.1201    859.8238
   285.0000      7.8777      0.0000     89.4418    866.2963
   285.2500      7.6019      0.0000     86.6979    867.3942
   285.5000      7.2530      0.0000     88.0487    861.4043
   285.7500      6.9054      0.0000     92.6437    851.1180
   286.0000      6.6262      0.0000     97.8133    841.8017
   286.2500      6.4421      0.0000    101.1053    836.9891
   286.5000      6.3323      0.0000    102.3514    836.5016
   286.7500      6.2522      0.0000    103.6063    838.0377
   287.0000      6.1597      0.0000    107.0060    839.6927
   287.2500      6.0280      0.0000    112.8273    840.8789
   287.5000      5.8501      0.0000    119.4142    841.7436
   287.7500      5.6454      0.0000    124.4107    842.4113
   288.0000      5.4613      0.0000    125.9954    842.8157
   288.2500      5.3493      0.0000    123.6823    843.1388
   288.5000      5.3237      0.0000    118.4590    844.3614
   288.7500      5.3526      0.0000    112.0061    848.3429
   289.0000      5.4058      0.0000    105.6290    856.7207
   289.2500      5.5079      0.0000    100.0159    868.6122
   289.5000      5.7263      0.0000     95.7301    879.2637
   289.7500      6.1026      0.0000     93.2872    882.8684
   290.0000      6.6056      0.0000     92.5977    878.4848
   290.2500      7.1592      0.0000     92.7427    872.6678
   290.5000      7.7068      0.0000     92.5264    875.1182
   290.7500      8.2328      0.0000     91.2043    891.4429
   291.0000      8.7291      0.0000     88.8318    919.1322
   291.2500      9.1731      0.0000     86.0990    949.0425
   291.5000      9.5460      0.0000     83.7357    970.9963
   291.7500      9.8625      0.0000     81.8629    979.5514
   292.0000     10.1735      0.0000     79.9212    975.7142
   292.2500     10.5367      0.0000     77.3906    964.5352
   292.5000     10.9585      0.0000     74.5016    952.2477
   292.7500     11.3508      0.0000     72.0488    944.4227
   293.0000     11.5687      0.0000     70.5844    943.2497
