~Version Information
VERS.                      2.0: CWLS Log ASCII Standard - VERSION 2.0
WRAP.                       NO: One line per depth step
~Well Information Block
STRT.FT               482.2000: 
STOP.FT              2349.0000: 
STEP.FT                 0.1000: 
NULL.                -999.2500: 
COMP.          Pioneer Natural Resources: COMPANY
WELL.          Hill Climb 22-2: WELL
FLD.           Purgatoire River: FIELD
LOC.           1820' FNL & 2193' FWL: LOCATION
PROV.                 Colorado: PROVINCE
CNTY.               Las Animas: COUNTRY
SRVC.                Patterson: SERVICE COMPANY
DATE.          Wed Oct 20 09:25:25 2004: LOG DATE
UWI.           05 071 08175 00: UNIQUE WELL ID
~Curve Information Block
DEPT.FT            0 000 00 00: Depth
DCAL.in                       : CDL Caliper
DPOR.pu                       : CDL Density Porosity
NPOR.pu                       : Neutron Porosity
RHOB.g/cc                     : CDL Bulk Density
RHOC.g/cc                     : CDL Density Correction
GR.GAPI                       : Gamma Ray
~Parameter Information Block
~A  Depth       DCAL        DPOR        NPOR        RHOB        RHOC         GR     
# ...
  1586.2000      0.0000      0.0000   -999.2500      0.0000      0.0000     74.5788
  1586.3000      0.0000      0.0000   -999.2500      0.0000      0.0000     77.7437
  1586.4000      0.0000      0.0000   -999.2500      0.0000      0.0000     74.5461
  1586.5000      0.0000      0.0000   -999.2500      0.0000      0.0000     72.0002
  1586.6000      0.0000      0.0000   -999.2500      0.0000      0.0000     78.2779
  1586.7000      0.0000      0.0000   -999.2500      0.0000      0.0000     89.7348
  1586.8000      0.0000      0.0000   -999.2500      0.0000      0.0000     96.0924
  1586.9000      0.0000      0.0000   -999.2500      0.0000      0.0000     93.7787
  1587.0000      0.0000      0.0000   -999.2500      0.0000      0.0000     91.0779
  1587.1000      0.0000      0.0000   -999.2500      0.0000      0.0000     97.8719
  1587.2000      0.0000      0.0000   -999.2500      0.0000      0.0000    114.6743
  1587.3000      0.0000      0.0000   -999.2500      0.0000      0.0000    131.6631
  1587.4000      0.0000      0.0000   -999.2500      0.0000      0.0000    141.7479
  1587.5000      0.0000      0.0000   -999.2500      0.0000      0.0000    153.3553
  1587.6000      0.0000      0.0000   -999.2500      0.0000      0.0000    166.8270
  1587.7000      0.0000      0.0000   -999.2500      0.0000      0.0000    167.3831
  1587.8000      0.0000      0.0000   -999.2500      0.0000      0.0000    152.4441
  1587.9000      0.0000      0.0000   -999.2500      0.0000      0.0000    129.3928
  1588.0000      0.0000      0.0000   -999.2500      0.0000      0.0000    111.8053
  1588.1000      0.0000      0.0000   -999.2500      0.0000      0.0000    111.5735
  1588.2000      0.0000      0.0000   -999.2500      0.0000      0.0000    121.8677
  1588.3000      0.0000      0.0000   -999.2500      0.0000      0.0000    128.9885
  1588.4000      0.0000      0.0000   -999.2500      0.0000      0.0000    121.9213
  1588.5000      0.0000      0.0000   -999.2500      0.0000      0.0000    100.4399
  1588.6000      0.0000      0.0000   -999.2500      0.0000      0.0000     78.7458
  1588.7000      0.0000      0.0000   -999.2500      0.0000      0.0000     69.7029
  1588.8000      0.0000      0.0000   -999.2500      0.0000      0.0000     71.4137
  1588.9000      0.0000      0.0000   -999.2500      0.0000      0.0000     75.1221
  1589.0000      0.0000      0.0000   -999.2500      0.0000      0.0000     79.1064
  1589.1000      0.0000      0.0000   -999.2500      0.0000      0.0000     80.1871
  1589.2000      0.0000      0.0000   -999.2500      0.0000      0.0000     72.6504
  1589.3000      0.0000      0.0000   -999.2500      0.0000      0.0000     64.4672
  1589.4000      0.0000      0.0000   -999.2500      0.0000      0.0000     66.6038
  1589.5000      0.0000      0.0000   -999.2500      0.0000      0.0000     75.0866
  1589.6000      0.0000      0.0000   -999.2500      0.0000      0.0000     79.8956
  1589.7000      0.0000      0.0000   -999.2500      0.0000      0.0000     79.4549
  1589.8000      0.0000      0.0000   -999.2500      0.0000      0.0000     76.7724
  1589.9000      0.0000      0.0000   -999.2500      0.0000      0.0000     70.0453
  1590.0000      0.0000      0.0000   -999.2500      0.0000      0.0000     60.7798
  1590.1000      0.0000      0.0000   -999.2500      0.0000      0.0000     57.1091
  1590.2000      0.0000      0.0000   -999.2500      0.0000      0.0000     61.6052
  1590.3000      0.0000      0.0000   -999.2500      0.0000      0.0000     68.8930
  1590.4000      0.0000      0.0000   -999.2500      0.0000      0.0000     77.4983
  1590.5000      0.0000      0.0000   -999.2500      0.0000      0.0000     88.6157
  1590.6000      0.0000      0.0000   -999.2500      0.0000      0.0000     92.9050
  1590.7000      0.0000      0.0000   -999.2500      0.0000      0.0000     81.7538
  1590.8000      0.0000      0.0000   -999.2500      0.0000      0.0000     63.4973
  1590.9000      0.0000      0.0000   -999.2500      0.0000      0.0000     53.5797
  1591.0000      0.0000      0.0000   -999.2500      0.0000      0.0000     51.9964
  1591.1000      0.0000      0.0000   -999.2500      0.0000      0.0000     49.7532
  1591.2000      0.0000      0.0000   -999.2500      0.0000      0.0000     50.7460
  1591.3000      0.0000      0.0000   -999.2500      0.0000      0.0000     59.8463
  1591.4000      0.0000      0.0000   -999.2500      0.0000      0.0000     70.0584
  1591.5000      0.0000      0.0000   -999.2500      0.0000      0.0000     74.8185
  1591.6000      0.0000      0.0000   -999.2500      0.0000      0.0000     77.4850
  1591.7000      0.0000      0.0000   -999.2500      0.0000      0.0000     83.2516
  1591.8000      0.0000      0.0000   -999.2500      0.0000      0.0000     93.3274
  1591.9000      0.0000      0.0000   -999.2500      0.0000      0.0000    108.9619
  1592.0000      0.0000      0.0000   -999.2500      0.0000      0.0000    127.1687
  1592.1000      0.0000      0.0000   -999.2500      0.0000      0.0000    136.4260
  1592.2000      0.0000      0.0000   -999.2500      0.0000      0.0000    133.0881
  1592.3000      0.0000      0.0000   -999.2500      0.0000      0.0000    128.1299
  1592.4000      0.0000      0.0000   -999.2500      0.0000      0.0000    129.3624
  1592.5000      0.0000      0.0000   -999.2500      0.0000      0.0000    135.0438
  1592.6000      0.0000      0.0000   -999.2500      0.0000      0.0000    143.3248
  1592.7000      0.0000      0.0000   -999.2500      0.0000      0.0000    154.8522
  1592.8000      0.0000      0.0000   -999.2500      0.0000      0.0000    171.2201
  1592.9000      0.0000      0.0000   -999.2500      0.0000      0.0000    186.8401
  1593.0000      0.0000      0.0000   -999.2500      0.0000      0.0000    182.9303
  1593.1000      0.0000      0.0000   -999.2500      0.0000      0.0000    154.2190
  1593.2000      0.0000      0.0000   -999.2500      0.0000      0.0000    126.5540
  1593.3000      0.0000      0.0000   -999.2500      0.0000      0.0000    122.2373
  1593.4000      0.0000      0.0000   -999.2500      0.0000      0.0000    132.4358
  1593.5000      0.0000      0.0000   -999.2500      0.0000      0.0000    131.3526
  1593.6000      0.0000      0.0000   -999.2500      0.0000      0.0000    113.6968
  1593.7000      0.0000      0.0000   -999.2500      0.0000      0.0000     99.9492
  1593.8000      0.0000      0.0000   -999.2500      0.0000      0.0000    104.3317
  1593.9000      0.0000      0.0000   -999.2500      0.0000      0.0000    122.2660
  1594.0000      0.0000      0.0000   -999.2500      0.0000      0.0000    140.2522
  1594.1000      0.0000      0.0000   -999.2500      0.0000      0.0000    146.2261
  1594.2000      0.0000      0.0000   -999.2500      0.0000      0.0000    140.1926
  1594.3000      0.0000      0.0000   -999.2500      0.0000      0.0000    128.9043
  1594.4000      0.0000      0.0000   -999.2500      0.0000      0.0000    116.8953
  1594.5000      0.0000      0.0000   -999.2500      0.0000      0.0000    104.7489
  1594.6000      0.0000      0.0000   -999.2500      0.0000      0.0000     95.7278
  1594.7000      0.0000      0.0000   -999.2500      0.0000      0.0000     95.6006
  1594.8000      0.0000      0.0000   -999.2500      0.0000      0.0000    104.6868
  1594.9000      0.0000      0.0000   -999.2500      0.0000      0.0000    113.4669
  1595.0000      0.0000      0.0000   -999.2500      0.0000      0.0000    112.8967
  1595.1000      0.0000      0.0000   -999.2500      0.0000      0.0000    109.3187
  1595.2000      0.0000      0.0000   -999.2500      0.0000      0.0000    111.1424
  1595.3000      0.0000      0.0000   -999.2500      0.0000      0.0000    119.3521
  1595.4000      0.0000      0.0000   -999.2500      0.0000      0.0000    130.2992
  1595.5000      0.0000      0.0000   -999.2500      0.0000      0.0000    135.5458
  1595.6000      0.0000      0.0000   -999.2500      0.0000      0.0000    129.8650
  1595.7000      0.0000      0.0000   -999.2500      0.0000      0.0000    117.1021
