~Version Information
 VERS.                                  2.0 : CWLS LAS VERSION
 WRAP.                                   NO : WRAPING MODE
 SWARE .                 MController 2.5.0J : SOFTWARE VERSION
~Well Information
 WELL.                     Kristin 22-23 TR : WELL
 COMP.        Pioneer Natural Resources Inc : COMPANY
 FLD.                      Purgatoire River : FIELD
 LOC.                SE/NW Sec 23 T33S R67W : LOCATION
 DATE.                           1/19-20/05 : DATE(S) LOGGED
 SRVC.       Blanco Geological Services LLC : SERVICE COMPANY
 STAT.                                   CO : STATE
 CNTY.                           Las Animas : COUNTY
 CTRY.                                  USA : COUNTRY
 API.                       05-071-08259-00 : API NUMBER
 STRT.FT                             499.00 : START DEPTH
 STOP.FT                            1575.00 : STOP DEPTH
 STEP.FT                               1.00 : DEPTH INCREMENT
 NULL.                                -9999 : NULL VALUE
~Curve information
 DEPTH.FT                                   :
 ROP.MIN/FT                                 :
 GAS.UNITS                                  :
~ASCII Log data
# ...
       699.0         0.17        505.8 
       700.0         0.30        520.6 
       701.0         0.17        525.1 
       702.0         0.17        536.1 
       703.0         0.12        547.4 
       704.0         0.13        546.7 
       705.0         0.13        554.1 
       706.0         0.20        578.9 
       707.0         0.17        578.9 
       708.0         0.17        601.5 
       709.0         0.17        612.1 
       710.0         0.20        620.8 
       711.0         0.23        803.2 
       712.0         0.23       1072.7 
       713.0         0.20       1638.2 
       714.0         0.17       1718.5 
       715.0         0.27       2211.5 
       716.0         0.17       2149.7 
       717.0         0.23       1935.0 
       718.0         0.33       1837.1 
       719.0         0.27       1221.9 
       720.0         0.23        942.5 
       721.0         0.23        912.8 
       722.0         0.23        894.8 
       723.0         0.27        868.7 
       724.0         0.23        816.8 
       725.0         0.22        794.9 
       726.0         0.17        763.0 
       727.0         0.17        748.1 
       728.0         0.17        733.6 
       729.0         0.20        732.0 
       730.0         0.23        743.9 
       731.0         0.23        761.3 
       732.0         0.17        770.7 
       733.0         0.20        767.1 
       734.0         0.20        747.8 
       735.0         0.20        747.8 
       736.0         0.23        761.3 
       737.0         0.30        783.3 
       738.0         0.23        787.4 
       739.0         0.23        788.1 
       740.0         0.13        788.1 
       741.0         0.17       1558.6 
       742.0         0.22       2179.3 
       743.0         0.20       2179.3 
       744.0         0.17       2516.1 
       745.0         0.27       2515.1 
       746.0         0.33       1889.3 
       747.0         0.28       1524.8 
       748.0         0.23       1213.8 
       749.0         0.40       1094.9 
       750.0         0.30        972.8 
       751.0         0.40        949.9 
       752.0         0.23        893.5 
       753.0         0.23        889.9 
       754.0         0.33        881.2 
       755.0         0.27        862.2 
       756.0         0.23        837.4 
       757.0         0.27        822.9 
       758.0         0.20        810.0 
       759.0         0.15        785.5 
       760.0         0.13        764.2 
       761.0         0.17        764.2 
       762.0         0.17        782.3 
       763.0         0.20        803.6 
       764.0         0.20        826.1 
       765.0         0.23        836.1 
       766.0         0.20        834.5 
       767.0         0.27        833.2 
       768.0         0.17        808.1 
       769.0         0.20        792.0 
       770.0         0.20        792.0 
       771.0         0.20        783.6 
       772.0         0.17        960.8 
       773.0         0.20        960.8 
       774.0         0.20       1500.9 
       775.0         0.23       1947.3 
       776.0         0.28       1907.3 
       777.0         0.30       1734.3 
       778.0         0.33       1579.3 
       779.0         0.27       1340.1 
       780.0         0.27       1185.1 
       781.0         0.35       1061.4 
       782.0         0.23        985.0 
       783.0         0.30        955.0 
       784.0         0.27        897.3 
       785.0         0.27        875.8 
       786.0         0.17        849.3 
       787.0         0.23        837.4 
       788.0         0.20        822.9 
       789.0         0.17        815.2 
       790.0         0.17        805.2 
       791.0         0.20        783.3 
       792.0         0.13        775.5 
       793.0         0.17        772.6 
       794.0         0.23        790.7 
       795.0         0.17        797.1 
       796.0         0.20        797.1 
       797.0         0.22        793.3 
       798.0         0.10        787.8 
       799.0         0.10        781.3 
       800.0         0.17        768.1 
       801.0         0.20        762.6 
       802.0         0.33        768.4 
       803.0         0.30       1521.9 
       804.0         0.20       1521.9 
       805.0         0.27       2124.9 
       806.0         0.27       2317.9 
       807.0         0.30       2076.2 
       808.0         0.23       1796.1 
       809.0         0.30       1588.3 
       810.0         0.23       1321.1 
       811.0         0.20       1135.5 
       812.0         0.20       1026.6 
       813.0         0.13       1018.2 
       814.0         0.13        929.9 
       815.0         0.13        929.9 
       816.0         0.10        909.9 
       817.0         0.13        878.7 
       818.0         0.10        846.4 
       819.0         0.17        829.0 
       820.0         0.13        829.3 
       821.0         0.20        867.0 
       822.0         0.20        884.5 
       823.0         0.17        887.7 
       824.0         0.15        871.2 
       825.0         0.10        871.2 
       826.0         0.10        871.2 
       827.0         0.10        845.5 
       828.0         0.13        845.5 
       829.0         0.17        835.8 
       830.0         0.17        832.6 
       831.0         0.20        829.7 
       832.0         0.23        820.0 
       833.0         0.37       2738.1 
       834.0         0.27       2738.1 
       835.0         0.23       2688.8 
       836.0         0.37       2446.5 
       837.0         0.27       1621.5 
       838.0         0.27       1463.2 
       839.0         0.30       1195.4 
       840.0         0.27        946.0 
       841.0         0.27        954.1 
       842.0         0.27        942.5 
       843.0         0.28        921.8 
       844.0         0.23        908.0 
       845.0         0.20        870.9 
       846.0         0.20        827.1 
       847.0         0.20        811.3 
       848.0         0.20        764.2 
       849.0         0.20        752.3 
       850.0         0.23        749.1 
       851.0         0.20        753.9 
       852.0         0.20        750.4 
       853.0         0.17        744.6 
       854.0         0.17        742.3 
       855.0         0.17        741.7 
       856.0         0.20        751.7 
       857.0         0.27        769.1 
       858.0         0.30        788.4 
       859.0         0.22        796.5 
       860.0         0.20        782.9 
       861.0         0.20        765.2 
       862.0         0.17       1311.1 
       863.0         0.23       1311.1 
       864.0         0.20       1892.5 
       865.0         0.23       2492.6 
       866.0         0.20       2539.6 
       867.0         0.37       2483.2 
       868.0         0.27       1840.9 
       869.0         0.27       1491.9 
       870.0         0.20       1224.1 
       871.0         0.20       1172.9 
       872.0         0.20       1039.1 
       873.0         0.20        959.5 
       874.0         0.20        899.9 
       875.0         0.27        863.5 
       876.0         0.27        858.3 
       877.0         0.27        809.7 
       878.0         0.23        783.9 
       879.0         0.28        778.1 
       880.0         0.27        751.4 
       881.0         0.27        754.3 
       882.0         0.30        759.7 
       883.0         0.40        767.1 
       884.0         0.27        757.8 
       885.0         0.23        742.7 
       886.0         0.23        734.6 
       887.0         0.23        734.6 
       888.0         0.23        731.7 
       889.0         0.23        731.4 
       890.0         0.20        732.3 
       891.0         0.20        732.3 
       892.0         0.32       1580.9 
       893.0         0.20       1797.8 
       894.0         0.23       2416.8 
       895.0         0.27       2769.1 
       896.0         0.27       2481.3 
       897.0         0.28       2411.3 
       898.0         0.27       1921.5 
