~Version Information
VERS.                      2.0: CWLS Log ASCII Standard - VERSION 2.0
WRAP.                       NO: One line per depth step
~Well Information Block
STRT.FT              1736.0000: 
STOP.FT              1964.5000: 
STEP.FT                 0.2500: 
NULL.                -999.2500: 
COMP.          Petrogulf Corporation: COMPANY
WELL.              Royal 8-33R: WELL
FLD.           Purgatorie River: FIELD
LOC.           2401' FSL & 2270' FEL: LOCATION
CNTY.               Las Animas: COUNTY
SRVC.                         : SERVICE COMPANY
DATE.          Mon Apr 26 06:49:48 2004: LOG DATE
UWI.           05 071 08041 00: UNIQUE WELL ID
STAT.                 Colorado: STATE
~Curve Information Block
DEPT.FT            0 000 00 00: Depth
SP.mV                         : DIL Spontaneous Potential
RILD.Ohm-m                    : DIL Deep Resistivity
RILM.Ohm-m                    : DIL Medium Resistivity
RLL3.Ohm-m                    : DIL Shallow Resistivity
GR.GAPI                       : Gamma Ray
~Parameter Information Block
~A  Depth        SP         RILD        RILM        RLL3         GR     
  1736.0000   -999.2500   -999.2500   -999.2500   -999.2500     77.1401
  1736.2500   -999.2500   -999.2500   -999.2500   -999.2500     77.3439
  1736.5000   -999.2500   -999.2500   -999.2500   -999.2500     77.2371
  1736.7500   -999.2500   -999.2500   -999.2500   -999.2500     77.3609
  1737.0000   -999.2500   -999.2500   -999.2500   -999.2500     78.8923
  1737.2500   -999.2500   -999.2500   -999.2500   -999.2500     80.5532
  1737.5000   -999.2500   -999.2500   -999.2500   -999.2500     82.3438
  1737.7500   -999.2500   -999.2500   -999.2500   -999.2500     82.3973
  1738.0000   -999.2500   -999.2500   -999.2500   -999.2500     81.0084
  1738.2500   2000.0000   -999.2500   -999.2500   -999.2500     79.6809
  1738.5000   2000.0000   -999.2500   -999.2500   -999.2500     78.0179
  1738.7500   2000.0000   -999.2500   -999.2500   -999.2500     77.4613
  1739.0000   2000.0000   -999.2500   -999.2500   -999.2500     77.5215
  1739.2500   2000.0000   -999.2500   -999.2500   -999.2500     77.9064
  1739.5000   2000.0000   -999.2500   -999.2500   -999.2500     78.4298
  1739.7500   2000.0000   -999.2500   -999.2500   -999.2500     78.6420
  1740.0000   2000.0000   -999.2500   -999.2500   -999.2500     79.4212
  1740.2500   2000.0000   -999.2500   -999.2500   -999.2500     80.9615
  1740.5000   2000.0000   -999.2500   -999.2500   -999.2500     85.1190
  1740.7500   2000.0000   -999.2500   -999.2500   -999.2500     88.1905
  1741.0000   2000.0000   -999.2500   -999.2500   -999.2500     90.9350
  1741.2500   2000.0000   -999.2500   -999.2500   -999.2500     91.0498
  1741.5000   2000.0000   -999.2500   -999.2500   -999.2500     89.7852
  1741.7500   2000.0000   -999.2500   -999.2500   -999.2500     88.8393
  1742.0000   2000.0000   -999.2500   -999.2500   -999.2500     87.8308
  1742.2500   2000.0000   -999.2500   -999.2500   -999.2500     87.4223
  1742.5000   2000.0000   -999.2500   -999.2500   -999.2500     87.0189
  1742.7500   2000.0000   -999.2500   -999.2500   -999.2500     86.5403
  1743.0000   2000.0000   -999.2500   -999.2500   -999.2500     84.5904
  1743.2500   2000.0000   -999.2500   -999.2500   -999.2500     82.2038
  1743.5000   2000.0000   -999.2500   -999.2500   -999.2500     77.5313
  1743.7500   2000.0000   -999.2500   -999.2500   -999.2500     74.2876
  1744.0000   2000.0000   -999.2500   -999.2500   -999.2500     69.8762
  1744.2500   2000.0000   -999.2500   -999.2500   -999.2500     67.2733
  1744.5000   2000.0000   -999.2500   -999.2500   -999.2500     63.9796
  1744.7500   2000.0000   -999.2500   -999.2500   -999.2500     62.5701
  1745.0000   2000.0000   -999.2500   -999.2500   -999.2500     62.5737
  1745.2500   2000.0000     21.6506   -999.2500   -999.2500     64.2535
  1745.5000   2000.0000     20.1612   -999.2500   -999.2500     68.7986
  1745.7500   2000.0000     18.7448   -999.2500   -999.2500     72.5605
  1746.0000   2000.0000     17.4508   -999.2500   -999.2500     78.7107
  1746.2500   2000.0000     16.3042   -999.2500   -999.2500     83.5218
  1746.5000   2000.0000     15.3071   -999.2500   -999.2500     93.3429
  1746.7500   2000.0000     14.4437   -999.2500   -999.2500    102.3357
  1747.0000   2000.0000     13.6857   -999.2500   -999.2500    119.2372
  1747.2500   2000.0000     13.0001   -999.2500   2000.0000    131.6520
  1747.5000   2000.0000     12.3579   -999.2500   2000.0000    149.0295
  1747.7500   2000.0000     11.7425   -999.2500   2000.0000    158.2435
  1748.0000   2000.0000     11.1545   -999.2500   2000.0000    167.9018
  1748.2500   2000.0000     10.6082   -999.2500   2000.0000    172.5314
  1748.5000   2000.0000     10.1245   -999.2500   2000.0000    178.2975
  1748.7500   2000.0000      9.7251   -999.2500   2000.0000    180.7729
  1749.0000   2000.0000      9.4298   -999.2500   2000.0000    179.4809
  1749.2500   2000.0000      9.2560   -999.2500   2000.0000    174.2560
  1749.5000   2000.0000      9.2163   -999.2500   2000.0000    161.7893
  1749.7500   2000.0000      9.3091   -999.2500   2000.0000    153.2530
  1750.0000   2000.0000      9.5033      8.9208   2000.0000    144.8347
  1750.2500   2000.0000      9.7240      8.7468   2000.0000    143.1021
  1750.5000   2000.0000      9.8635      8.6091   2000.0000    144.1588
  1750.7500   2000.0000      9.8321      8.5064   2000.0000    145.0622
  1751.0000   2000.0000      9.6194      8.4326   2000.0000    144.7249
  1751.2500   2000.0000      9.2981      8.3765   2000.0000    144.1374
  1751.5000   2000.0000      8.9688      8.3223   2000.0000    145.3289
  1751.7500   2000.0000      8.7095      8.2561   2000.0000    148.0555
  1752.0000   2000.0000      8.5660      8.1722   2000.0000    153.5215
  1752.2500   2000.0000      8.5650      8.0776   2000.0000    156.6519
  1752.5000   2000.0000      8.7216      7.9893   2000.0000    158.9602
  1752.7500   2000.0000      9.0275      7.9297   2000.0000    158.8480
  1753.0000   2000.0000      9.4288      7.9219   2000.0000    157.2835
  1753.2500   2000.0000      9.8190      7.9861   2000.0000    156.0103
  1753.5000   2000.0000     10.0825      8.1328   2000.0000    154.0354
  1753.7500   2000.0000     10.1778      8.3491   2000.0000    152.3795
  1754.0000   2000.0000     10.1732      8.5851   2000.0000    149.1166
  1754.2500   2000.0000     10.1876      8.7579   2000.0000    146.8285
  1754.5000   2000.0000     10.3048      8.7914   2000.0000    144.5218
  1754.7500   2000.0000     10.5304      8.6712   2000.0000    144.2667
  1755.0000   2000.0000     10.7936      8.4573   2000.0000    145.6548
  1755.2500   2000.0000     10.9782      8.2402   2000.0000    147.0563
  1755.5000   2000.0000     10.9772      8.0935   2000.0000    148.2620
  1755.7500   2000.0000     10.7516      8.0622   2000.0000    147.9015
  1756.0000   2000.0000     10.3470      8.1724   2000.0000    146.1460
  1756.2500   2000.0000      9.8556      8.4365   2000.0000    144.9989
  1756.5000   2000.0000      9.3615      8.8420   2000.0000    143.8496
  1756.7500   2000.0000      8.9116      9.3290   2000.0000    142.9505
  1757.0000   2000.0000      8.5194      9.7869   2000.0000    140.7308
  1757.2500   2000.0000      8.1849     10.1052   2000.0000    139.2702
  1757.5000   2000.0000      7.9109     10.2585   2000.0000    139.0284
  1757.7500   2000.0000      7.7088     10.3272   2000.0000    140.5348
  1758.0000   2000.0000      7.5973     10.4261   2000.0000    143.7009
  1758.2500   2000.0000      7.5981     10.6210   2000.0000    145.0168
  1758.5000   2000.0000      7.7293     10.8939   2000.0000    144.9158
  1758.7500   2000.0000      7.9949     11.1499   2000.0000    144.1470
  1759.0000   2000.0000      8.3664     11.2551   2000.0000    143.7178
  1759.2500   2000.0000      8.7700     11.1043   2000.0000    144.4616
  1759.5000   2000.0000      9.1032     10.6893   2000.0000    146.8940
  1759.7500   2000.0000      9.2927     10.1051   2000.0000    148.9424
  1760.0000   2000.0000      9.3447      9.4847   2000.0000    151.9942
  1760.2500   2000.0000      9.3250      8.9263   2000.0000    153.6135
  1760.5000   2000.0000      9.2879      8.4688   2000.0000    154.1197
  1760.7500   2000.0000      9.2321      8.1111   2000.0000    152.4012
  1761.0000   2000.0000      9.1159      7.8417   2000.0000    147.2844
  1761.2500   2000.0000      8.9084      7.6607   2000.0000    143.8403
  1761.5000   2000.0000      8.6253      7.5840   2000.0000    141.1895
  1761.7500   2000.0000      8.3196      7.6392   2000.0000    140.9248
  1762.0000   2000.0000      8.0477      7.8586   2000.0000    140.0453
  1762.2500   2000.0000      7.8459      8.2729   2000.0000    137.8685
  1762.5000   2000.0000      7.7275      8.8978   2000.0000    133.0227
  1762.7500   2000.0000      7.6910      9.7053   2000.0000    130.4629
  1763.0000   2000.0000      7.7280     10.5882   2000.0000    129.6707
  1763.2500   2000.0000      7.8296     11.3691   2000.0000    130.8889
  1763.5000   2000.0000      7.9894     11.9017   2000.0000    133.7783
  1763.7500   2000.0000      8.2027     12.1905   2000.0000    136.2565
