~Version Information
VERS.                      2.0: CWLS Log ASCII Standard - VERSION 2.0
WRAP.                       NO: One line per depth step
~Well Information Block
STRT.FT                -2.5000: 
STOP.FT              2329.5000: 
STEP.FT                 0.2500: 
NULL.                -999.2500: 
COMP.          Pioneer Natural Resources: COMPANY
WELL.              Whinny 42-2: WELL
FLD.           Purgatorie River: FIELD
LOC.           1836' FNL & 466' FEL--: LOCATION
PROV.                       CO: PROVINCE
CNTY.               Las Animas: COUNTRY
SRVC.          Patterson Wireline: SERVICE COMPANY
DATE.          Mon Aug 29 13:18:04 2005: LOG DATE
UWI.           05 071 08406 00: UNIQUE WELL ID
~Curve Information Block
DEPT.FT            0 000 00 00: Depth
CCL.                          : Casing Collar Locator
TT3.usec                      : CBL 3' Travel Time
AMP3.mV                       : CBL 3' Amplitude
GR.GAPI                       : Gamma Ray
~Parameter Information Block
~A  Depth       CCL         TT3         AMP3         GR     
# ...
   768.0000      0.0000    779.5449      4.2314    104.7391
   768.2500      0.0000    819.9090      4.8153    103.6298
   768.5000     -2.0000    850.2244      5.3437    105.6873
   768.7500      0.0000    869.1284      5.7736    111.1866
   769.0000      0.0000    880.7855      6.0942    118.5118
   769.2500      0.0000    888.5170      6.3603    124.8710
   769.5000      0.0000    893.3204      6.6927    128.2186
   769.7500      0.0000    895.0122      7.2026    128.4005
   770.0000      0.0000    891.5112      7.8661    126.7129
   770.2500      0.0000    879.4594      8.4931    124.8143
   770.5000      0.0000    858.9132      8.8760    123.9502
   770.7500      0.0000    835.9130      8.9625    124.7154
   771.0000      0.0000    818.0745      8.8576    127.1063
   771.2500      0.0000    808.8207      8.6946    130.5044
   771.5000      0.0000    806.5216      8.5453    133.5786
   771.7500      0.0000    807.2866      8.4196    134.6422
   772.0000      0.0000    807.7161      8.3071    132.6896
   772.2500      0.0000    806.2998      8.2133    128.1794
   772.5000      0.0000    803.4910      8.1650    122.3410
   772.7500      0.0000    800.3599      8.1852    115.7029
   773.0000      0.0000    797.1636      8.2682    107.8789
   773.2500      0.0000    793.2363      8.3850     98.8966
   773.5000      0.0000    788.0474      8.5064     90.1384
   773.7500      0.0000    782.0822      8.6169     83.6577
   774.0000      0.0000    776.5941      8.7101     80.6033
   774.2500      0.0000    772.6274      8.7812     80.1432
   774.5000      0.0000    770.3981      8.8285     79.8558
   774.7500      0.0000    769.4522      8.8590     77.4679
   775.0000      0.0000    769.1713      8.8832     72.5088
   775.2500      0.0000    769.1208      8.9032     66.5480
   775.5000      0.0000    769.1336      8.9106     62.0328
   775.7500      0.0000    769.2043      8.8982     60.6735
   776.0000      0.0000    769.3645      8.8693     62.3579
   776.2500      0.0000    769.6932      8.8343     65.1902
   776.5000      0.0000    770.4477      8.8025     66.5688
   776.7500      0.0000    772.0652      8.7792     64.8106
   777.0000      0.0000    774.7832      8.7684     60.4052
   777.2500      0.0000    778.0430      8.7733     55.7985
   777.5000      0.0000    780.4234      8.7943     53.5827
   777.7500      0.0000    780.6047      8.8276     54.5926
   778.0000      0.0000    778.5761      8.8671     57.6230
   778.2500      0.0000    775.7059      8.9053     60.8194
   778.5000      0.0000    773.6362      8.9326     63.0928
   778.7500      0.0000    773.2665      8.9410     64.2342
   779.0000      0.0000    774.5387      8.9271     64.2110
   779.2500      0.0000    776.7360      8.8903     62.8616
   779.5000      0.0000    779.0884      8.8278     60.3311
   779.7500      0.0000    781.6169      8.7391     57.4879
   780.0000      0.0000    785.6902      8.6331     55.5139
   780.2500      0.0000    793.5743      8.5277     55.0467
   780.5000      0.0000    806.4831      8.4385     55.9582
   780.7500      0.0000    821.8080      8.3690     57.7516
   781.0000      0.0000    832.7622      8.3110     59.6174
   781.2500      0.0000    833.1803      8.2536     60.2202
   781.5000      0.0000    823.5319      8.1904     58.2585
   781.7500      0.0000    810.6409      8.1212     53.8167
   782.0000      0.0000    801.2130      8.0489     48.9263
   782.2500      0.0000    797.0744      7.9733     46.2826
   782.5000      0.0000    796.2732      7.8896     47.1795
   782.7500      0.0000    796.4902      7.7964     50.5297
   783.0000      0.0000    796.6599      7.7029     53.7523
   783.2500      0.0000    796.6625      7.6275     54.8244
   783.5000      0.0000    796.6535      7.5854     53.7793
   783.7500      0.0000    796.7374      7.5793     52.1815
   784.0000      0.0000    796.9000      7.6015     51.2098
   784.2500      0.0000    796.9986      7.6431     50.6749
   784.5000      0.0000    796.7054      7.6988     49.9330
   784.7500      0.0000    795.3947      7.7647     49.0722
   785.0000      0.0000    792.1172      7.8333     48.7652
   785.2500      0.0000    786.0260      7.8898     49.3173
   785.5000      0.0000    777.3138      7.9122     50.3684
   785.7500      0.0000    768.1120      7.8769     51.5488
   786.0000      0.0000    762.5047      7.7653     52.9984
   786.2500      0.0000    765.6553      7.5694     54.9721
   786.5000      0.0000    781.8159      7.2956     57.2235
   786.7500      0.0000    810.5954      6.9688     59.1679
   787.0000      0.0000    843.9409      6.6297     60.5567
   787.2500      0.0000    869.5654      6.3160     61.6702
   787.5000      0.0000    880.0859      6.0387     62.9040
   787.7500      0.0000    877.1165      5.7770     64.3335
   788.0000      0.0000    865.6553      5.4986     65.5244
   788.2500      0.0000    848.9474      5.1913     65.7059
   788.5000      0.0000    831.3989      4.8791     64.4360
   788.7500      0.0000    821.1263      4.6112     62.2162
   789.0000      0.0000    823.4471      4.4332     60.1493
   789.2500      0.0000    832.5224      4.3608     58.9241
   789.5000      0.0000    834.5240      4.3761     58.4804
   789.7500      0.0000    821.5899      4.4465     58.6275
   790.0000      0.0000    800.4551      4.5483     59.4786
   790.2500      0.0000    786.6625      4.6758     61.1255
   790.5000      0.0000    792.8349      4.8343     63.2361
   790.7500      0.0000    822.3978      5.0386     65.1360
   791.0000      0.0000    870.1109      5.3207     66.2648
   791.2500      0.0000    926.3406      5.7263     66.7195
   791.5000      0.0000    981.7338      6.2889     67.4179
   791.7500      0.0000   1028.7861      7.0079     69.5417
   792.0000      0.0000   1061.4159      7.8496     73.7826
   792.2500      0.0000   1076.1099      8.7629     80.2124
   792.5000      0.0000   1072.0732      9.6924     88.6178
   792.7500      0.0000   1046.8042     10.5929     98.6161
   793.0000      0.0000    994.1899     11.4402    109.5631
   793.2500      0.0000    913.5977     12.2248    120.6130
   793.5000      0.0000    821.4461     12.9335    130.8887
   793.7500      0.0000    746.4764     13.5471    139.6520
   794.0000      0.0000    708.1495     14.0593    146.4994
   794.2500      0.0000    702.0364     14.4856    151.3428
   794.5000      0.0000    707.5905     14.8481    154.0449
   794.7500      0.0000    706.6957     15.1509    154.0824
   795.0000      0.0000    695.0605     15.3711    150.7269
   795.2500      0.0000    681.5645     15.4730    143.7482
   795.5000      0.0000    678.4645     15.4321    133.9771
   795.7500      0.0000    689.3136     15.2423    122.9809
   796.0000      0.0000    705.6716     14.9001    112.1227
   796.2500      0.0000    715.8246     14.3898    102.1870
   796.5000      0.0000    714.7212     13.6897     93.8011
   796.7500      0.0000    705.5677     12.7959     87.5709
   797.0000      0.0000    695.3691     11.7419     83.6216
   797.2500      0.0000    690.6879     10.5953     81.4766
   797.5000      0.0000    696.1657      9.4321     80.4613
   797.7500      0.0000    715.2718      8.3124     79.8534
   798.0000      0.0000    750.8163      7.2773     78.8795
   798.2500      0.0000    802.0082      6.3574     77.2838
   798.5000      0.0000    858.4214      5.5751     76.0467
   798.7500      0.0000    899.3240      4.9351     76.9803
   799.0000      0.0000    905.8436      4.4212     81.0894
   799.2500      0.0000    876.9073      4.0059     87.2444
   799.5000      0.0000    830.3602      3.6648     92.7023
   799.7500      0.0000    787.6194      3.3849     95.1570
   800.0000      0.0000    760.1017      3.1629     94.2629
   800.2500      0.0000    749.0937      2.9986     91.1616
   800.5000      0.0000    751.9967      2.8889     86.9748
   800.7500      0.0000    764.4821      2.8267     82.2204
   801.0000      0.0000    778.9746      2.8059     77.3102
   801.2500      0.0000    786.2300      2.8228     72.8006
