~Version Information
VERS.                      2.0: CWLS Log ASCII Standard - VERSION 2.0
WRAP.                       NO: One line per depth step
~Well Information Block
STRT.FT                15.0000: 
STOP.FT              2409.7500: 
STEP.FT                 0.2500: 
NULL.                -999.2500: 
COMP.          Pioneer Natural Resources: COMPANY
WELL.          Oink Oink 14-36: WELL
FLD.           Purgatoire River: FIELD
LOC.           216' FSL & 263' FWL: LOCATION
PROV.                 Colorado: PROVINCE
CNTY.               Las Animas: COUNTRY
SRVC.                Patterson: SERVICE COMPANY
DATE.          Wed Jun 22 11:05:26 2005: LOG DATE
UWI.           05 071 08394 00: UNIQUE WELL ID
~Curve Information Block
DEPT.FT            0 000 00 00: Depth
GR.GAPI                       : Gamma Ray
CCL.                          : Casing Collar Locator
TT3.usec                      : CBL 3' Travel Time
AMP3.mV                       : CBL 3' Amplitude
~Parameter Information Block
~A  Depth        GR         CCL         TT3         AMP3    
# ...
   182.5000     51.1733      0.0000    731.1264      5.4800
   182.7500     49.9103      0.0000    737.5515      5.4761
   183.0000     48.7891      0.0000    744.6333      5.4970
   183.2500     48.1842      0.0000    750.0097      5.5386
   183.5000     48.4314      0.0000    753.0599      5.5803
   183.7500     49.6021      0.0000    754.4000      5.6001
   184.0000     51.2449      0.0000    754.8557      5.5897
   184.2500     52.5693      0.0000    754.9305      5.5585
   184.5000     53.0065      0.0000    754.8249      5.5252
   184.7500     52.6027      0.0000    754.6364      5.5027
   185.0000     51.9861      0.0000    754.4722      5.4888
   185.2500     51.8646      0.0000    754.4264      5.4720
   185.5000     52.3468      0.0000    754.4990      5.4491
   185.7500     52.9236      0.0000    754.5414      5.4304
   186.0000     53.3629      0.0000    754.1988      5.4242
   186.2500     54.2892      0.0000    752.7681      5.4212
   186.5000     56.4099      0.0000    749.1394      5.4006
   186.7500     59.3465      0.0000    742.2642      5.3526
   187.0000     61.8667      0.0000    732.1983      5.2911
   187.2500     63.3962      0.0000    720.7426      5.2428
   187.5000     64.6152      0.0000    710.5946      5.2269
   187.7500     66.1674      0.0000    703.5466      5.2453
   188.0000     67.4108      0.0000    699.4524      5.2851
   188.2500     67.1467      0.0000    696.6744      5.3245
   188.5000     65.3091      0.0000    693.2112      5.3349
   188.7500     63.2010      0.0000    687.9125      5.2855
   189.0000     62.0312      0.0000    681.8221      5.1591
   189.2500     61.8462      0.0000    678.9650      4.9687
   189.5000     61.9100      0.0000    684.7284      4.7562
   189.7500     61.4296      0.0000    701.6411      4.5709
   190.0000     59.8687      0.0000    726.0779      4.4438
   190.2500     57.2617      0.0000    749.8845      4.3759
   190.5000     54.5052      0.0000    765.9794      4.3442
   190.7500     52.9569      0.0000    772.5952      4.3205
   191.0000     53.4512     -3.0000    772.5327      4.2895
   191.2500     55.6015     -3.0000    768.7963      4.2579
   191.5000     58.0362      2.3877    761.1639      4.2505
   191.7500     59.4634      0.0000    747.4667      4.2940
   192.0000     59.6229      0.0000    728.3328      4.3950
   192.2500     59.1186      0.0000    709.1687      4.5319
   192.5000     58.4148      0.0000    696.0890      4.6707
   192.7500     57.4155      0.0000    690.8365      4.7901
   193.0000     56.0897      0.0000    690.7281      4.8885
   193.2500     55.0033      0.0000    692.3417      4.9731
   193.5000     54.8152      0.0000    693.9201      5.0512
   193.7500     55.4293      0.0000    695.1101      5.1267
   194.0000     56.0625      0.0000    695.9414      5.1970
   194.2500     56.2679      0.0000    696.4266      5.2543
   194.5000     56.5662      0.0000    696.6115      5.2934
   194.7500     57.7438      0.0000    696.6239      5.3195
   195.0000     59.7295      0.0000    696.6102      5.3459
   195.2500     61.6630      0.0000    696.6360      5.3828
   195.5000     63.0790      0.0000    696.6747      5.4288
   195.7500     64.4051      0.0000    696.6816      5.4717
   196.0000     66.0097      0.0000    696.6660      5.4986
   196.2500     67.2468      0.0000    696.6802      5.5047
   196.5000     66.8911      0.0000    696.7587      5.4962
   196.7500     64.4355      0.0000    696.8915      5.4867
   197.0000     60.7261      0.0000    697.0522      5.4887
   197.2500     57.3638      0.0000    697.2308      5.5055
   197.5000     55.4857      0.0000    697.4293      5.5315
   197.7500     54.9735      0.0000    697.6339      5.5584
   198.0000     54.8242      0.0000    697.8121      5.5808
   198.2500     54.3328      0.0000    697.9393      5.5967
   198.5000     53.7479      0.0000    698.0117      5.6065
   198.7500     53.7909      0.0000    698.0305      5.6145
   199.0000     54.9361      0.0000    697.9911      5.6273
   199.2500     57.2777      0.0000    697.8956      5.6492
   199.5000     60.5675      0.0000    697.7683      5.6785
   199.7500     64.0044      0.0000    697.6569      5.7094
   200.0000     66.3566      0.0000    697.6198      5.7356
   200.2500     66.8026      0.0000    697.7035      5.7528
   200.5000     65.6705      0.0000    697.9213      5.7593
   200.7500     64.1618      0.0000    698.2466      5.7570
   201.0000     63.3669      0.0000    698.6229      5.7519
   201.2500     63.7104      0.0000    698.9883      5.7548
   201.5000     65.1883      0.0000    699.3035      5.7742
   201.7500     67.6077      0.0000    699.5585      5.8087
   202.0000     70.4314      0.0000    699.7562      5.8473
   202.2500     72.8556      0.0000    699.8999      5.8777
   202.5000     74.2492      0.0000    700.0011      5.8931
   202.7500     74.3343      0.0000    700.0845      5.8945
   203.0000     73.1512      0.0000    700.1746      5.8907
   203.2500     71.2209      0.0000    700.2792      5.8935
   203.5000     69.3728      0.0000    700.3882      5.9093
   203.7500     67.9586      0.0000    700.4776      5.9343
   204.0000     66.5835      0.0000    700.5105      5.9594
   204.2500     64.8525      0.0000    700.4438      5.9751
   204.5000     62.9462      0.0000    700.2471      5.9728
   204.7500     61.2824      0.0000    699.9210      5.9456
   205.0000     60.0391      0.0000    699.4986      5.8936
   205.2500     59.2713      0.0000    699.0336      5.8289
   205.5000     59.1761      0.0000    698.5858      5.7699
   205.7500     59.8411      0.0000    698.2068      5.7269
   206.0000     60.8034      0.0000    697.9265      5.6952
   206.2500     61.2248      0.0000    697.7468      5.6646
   206.5000     60.6361      0.0000    697.6468      5.6343
   206.7500     59.4042      0.0000    697.5901      5.6122
   207.0000     58.4967      0.0000    697.5367      5.6015
   207.2500     58.8570      0.0000    697.4528      5.5959
   207.5000     60.7100      0.0000    697.3180      5.5886
   207.7500     63.1483      0.0000    697.1347      5.5808
   208.0000     64.5679      0.0000    696.9413      5.5744
   208.2500     63.9065      0.0000    696.8065      5.5637
   208.5000     61.5596      0.0000    696.7899      5.5392
   208.7500     58.9912      0.0000    696.9017      5.4985
   209.0000     57.4620      0.0000    697.1095      5.4523
   209.2500     57.0859      0.0000    697.3885      5.4181
   209.5000     56.9527      0.0000    697.7511      5.4081
   209.7500     56.1714      0.0000    698.2114      5.4186
   210.0000     54.9874      0.0000    698.7363      5.4312
   210.2500     54.8590      0.0000    699.2534      5.4265
   210.5000     57.1599      0.0000    699.7023      5.3997
   210.7500     61.6905      0.0000    700.0636      5.3650
   211.0000     66.5830      0.0000    700.3687      5.3439
   211.2500     69.6898      0.0000    700.7660      5.3466
   211.5000     70.0028      0.0000    701.6192      5.3643
   211.7500     67.9238      0.0000    703.4678      5.3811
   212.0000     64.6251      0.0000    706.6381      5.3900
   212.2500     61.2643      0.0000    710.6718      5.3969
   212.5000     58.4677      0.0000    714.2282      5.4101
   212.7500     56.3147      0.0000    715.8538      5.4321
   213.0000     54.6982      0.0000    714.9581      5.4597
   213.2500     53.5006      0.0000    712.0368      5.4855
   213.5000     52.4453      0.0000    708.1753      5.4996
   213.7500     51.1544      0.0000    704.4603      5.4942
   214.0000     49.5770      0.0000    701.5830      5.4712
   214.2500     48.1594      0.0000    699.7023      5.4420
   214.5000     47.5230      0.0000    698.6174      5.4205
   214.7500     48.1102      0.0000    698.0591      5.4152
   215.0000     50.1014      0.0000    697.8381      5.4271
   215.2500     53.4080      0.0000    697.8287      5.4521
   215.5000     57.5494      0.0000    697.9201      5.4806
   215.7500     61.4961      0.0000    698.0030      5.4995
