~Version Information
VERS.                      2.0: CWLS Log ASCII Standard - VERSION 2.0
WRAP.                       NO: One line per depth step
~Well Information Block
STRT.FT               870.0000: 
STOP.FT              2517.5000: 
STEP.FT                 0.1000: 
NULL.                -999.2500: 
COMP.          Pioneer Natural Resources: COMPANY
WELL.              Tiaga 23-14: WELL
FLD.           Purgatoire River: FIELD
LOC.           2168' FSL & 2030' FWL: LOCATION
PROV.                 Colorado: PROVINCE
CNTY.               Las Animas: COUNTRY
SRVC.                         : SERVICE COMPANY
DATE.          Sat May 07 09:09:05 2005: LOG DATE
UWI.           05 071 08329 00: UNIQUE WELL ID
~Curve Information Block
DEPT.FT            0 000 00 00: Depth
LTEN.lb                       : Surface Line Tension
DCAL.in                       : CDL Caliper
RHOC.g/cc                     : CDL Density Correction
DPOR.pu                       : CDL Density Porosity
GR.GAPI                       : Gamma Ray
NPOR.pu                       : Neutron Porosity
~Parameter Information Block
~A  Depth       LTEN        DCAL        RHOC        DPOR         GR         NPOR    
# ...
  2396.4000   1206.9929      7.8638      0.0342     12.9276     68.9372     22.3042
  2396.5000   1203.0100      7.8551      0.0812     12.5420     69.7432     22.7485
  2396.6000   1203.0100      7.8551      0.0743     12.0694     69.4981     23.4075
  2396.7000   1203.0100      7.8551      0.0742     11.3029     72.5364     24.3168
  2396.8000   1201.1709      7.8522      0.0919     10.7973     77.4237     24.5161
  2396.9000   1201.1709      7.8522      0.1525     11.6605     76.8894     23.7690
  2397.0000   1214.2496      7.8454      0.0390     13.8492     69.6528     23.2714
  2397.1000   1214.2496      7.8454      0.0276     15.5133     64.6055     23.4236
  2397.2000   1214.2496      7.8454      0.0186     15.3379     67.9858     23.4323
  2397.3000   1211.4067      7.8435      0.1117     14.2549     74.4862     23.0224
  2397.4000   1211.4067      7.8435      0.0696     13.8258     77.7940     22.6054
  2397.5000   1217.7821      7.8491      0.0781     13.9060     77.7692     22.1194
  2397.6000   1217.7821      7.8491      0.0566     13.6163     75.0043     21.5179
  2397.7000   1217.7821      7.8491      0.0828     13.2120     73.2237     21.1138
  2397.8000   1221.1429      7.8670      0.0610     13.5662     76.8760     21.1692
  2397.9000   1221.1429      7.8670      0.0225     14.3267     80.9326     21.8535
  2398.0000   1225.1263      7.8592      0.0678     14.4970     78.9897     22.7077
  2398.1000   1225.1263      7.8592      0.0636     14.3424     74.2401     23.0913
  2398.2000   1225.1263      7.8592      0.0503     14.5403     71.4591     23.3597
  2398.3000   1240.5325      7.8537      0.0506     14.9220     70.4460     23.6729
  2398.4000   1240.5325      7.8537      0.0711     15.1641     71.3526     23.5358
  2398.5000   1219.4138      7.8506     -0.0121     14.6844     75.2315     23.0761
  2398.6000   1219.4138      7.8506      0.0632     12.9004     78.8375     22.9372
  2398.7000   1219.4138      7.8506      0.0990     10.8759     78.9109     23.0358
  2398.8000   1229.3552      7.8561      0.0777     10.4809     76.4494     22.9015
  2398.9000   1229.3552      7.8561      0.0588     11.7824     72.7183     22.3502
  2399.0000   1195.4462      7.8564      0.0143     12.7376     69.8627     21.7140
  2399.1000   1195.4462      7.8564      0.1055     12.7464     71.7304     21.6858
  2399.2000   1195.4462      7.8564      0.0372     13.1216     76.7744     22.2240
  2399.3000   1208.4280      7.8400      0.0344     13.9062     77.9956     22.9035
  2399.4000   1208.4280      7.8400      0.0505     14.6303     75.1041     23.5428
  2399.5000   1190.5426      7.8690      0.0052     15.4312     74.1717     23.8071
  2399.6000   1190.5426      7.8690      0.0164     16.1452     73.4173     23.6297
  2399.7000   1190.5426      7.8690      0.0190     16.2817     69.4427     23.1613
  2399.8000   1188.2972      7.8668     -0.0004     15.4578     67.6270     22.8284
  2399.9000   1188.2972      7.8668      0.0218     13.9251     71.3212     23.1642
  2400.0000   1202.6503      7.8716      0.0965     12.7751     75.1795     23.7105
  2400.1000   1202.6503      7.8716      0.0804     13.1360     75.4339     23.5961
  2400.2000   1202.6503      7.8716      0.0281     14.6513     73.4633     22.8548
  2400.3000   1192.8005      7.8665      0.0401     15.7733     70.4145     22.7227
  2400.4000   1192.8005      7.8665      0.0471     15.7983     68.8619     23.8622
  2400.5000   1204.0593      7.8598      0.0234     14.8623     69.6044     25.3010
  2400.6000   1204.0593      7.8598      0.0709     13.4242     70.3744     26.1102
  2400.7000   1204.0593      7.8598      0.0536     12.3413     69.9357     26.1738
  2400.8000   1190.1757      7.8364      0.0605     11.7580     68.3555     25.9002
  2400.9000   1190.1757      7.8364      0.0834     11.2956     69.0604     25.8271
  2401.0000   1217.2041      7.8322      0.1175     10.8222     71.5092     25.8125
  2401.1000   1217.2041      7.8322      0.1133     10.0266     70.4789     24.9569
  2401.2000   1217.2041      7.8322      0.1474      8.8478     65.6912     23.3030
  2401.3000   1201.5221      7.8290      0.1251      7.7176     62.4261     22.0517
  2401.4000   1201.5221      7.8290      0.1395      6.8369     62.8409     21.7319
  2401.5000   1223.6658      7.8367      0.1400      6.4450     63.4637     21.8271
  2401.6000   1223.6658      7.8367      0.1463      7.0284     63.8454     22.1183
  2401.7000   1223.6658      7.8367      0.0925      8.6732     66.8169     22.9842
  2401.8000   1213.5575      7.8403      0.0611     10.3895     69.4030     24.0145
  2401.9000   1213.5575      7.8403      0.0762     11.3651     67.8041     24.2461
  2402.0000   1240.1589      7.8403      0.0616     12.1472     65.2481     23.5075
  2402.1000   1240.1589      7.8403      0.0763     13.1239     64.4487     22.7156
  2402.2000   1240.1589      7.8403      0.0261     13.3137     62.9626     22.8688
  2402.3000   1196.9900      7.8353      0.0249     11.8852     60.1631     23.4753
  2402.4000   1196.9900      7.8353      0.0674     10.0371     59.7073     23.2695
  2402.5000   1228.7094      7.8628      0.0729      9.3809     62.5842     22.4532
  2402.6000   1228.7094      7.8628      0.0634      9.8425     65.0764     21.9368
  2402.7000   1228.7094      7.8628      0.0248     11.0221     64.8107     21.7420
  2402.8000   1198.7764      7.8737      0.0208     12.8272     62.5604     21.4289
  2402.9000   1198.7764      7.8737      0.0097     14.4664     61.0582     21.2510
  2403.0000   1223.0522      7.8719      0.0103     15.1711     63.3983     21.9902
  2403.1000   1223.0522      7.8719      0.0250     14.9157     68.0891     23.3051
  2403.2000   1223.0522      7.8719      0.0593     14.3494     71.4715     24.4376
  2403.3000   1231.5273      7.8727      0.0644     14.4524     74.1136     25.0902
  2403.4000   1231.5273      7.8727     -0.0112     15.0642     76.2674     24.5958
  2403.5000   1233.5310      7.8745      0.0360     15.0685     75.6185     23.3234
  2403.6000   1233.5310      7.8745      0.0655     14.3749     72.3630     22.7675
  2403.7000   1233.5310      7.8745      0.0686     13.8404     68.8060     23.4864
  2403.8000   1239.9396      7.8494      0.0125     13.7280     68.4301     24.4125
  2403.9000   1239.9396      7.8494      0.0170     13.0683     70.9255     24.5193
  2404.0000   1217.3054      7.8428      0.1039     11.5759     71.5830     24.2868
  2404.1000   1217.3054      7.8428      0.0962     10.5233     71.3971     24.1888
  2404.2000   1217.3054      7.8428      0.0597     10.4825     74.6618     24.0433
  2404.3000   1237.8625      7.8420      0.0699     10.8613     79.8333     23.5214
  2404.4000   1237.8625      7.8420      0.0416     11.0477     83.3943     22.5542
  2404.5000   1183.7108      7.8383      0.0643     10.9062     85.0399     22.0532
  2404.6000   1183.7108      7.8383      0.0587     10.8229     85.3447     22.8084
  2404.7000   1183.7108      7.8383      0.0260     11.2034     85.2720     24.2902
  2404.8000   1211.8542      7.8528      0.0221     11.7785     87.6718     25.4950
  2404.9000   1211.8542      7.8528     -0.0128     11.5180     93.2649     26.2308
  2405.0000   1207.1975      7.8674      0.0441     10.2099     96.8757     26.3378
  2405.1000   1207.1975      7.8674      0.0634      9.1198     92.2834     25.6994
  2405.2000   1207.1975      7.8674      0.0529      8.6669     82.5294     25.1576
  2405.3000   1204.5621      7.8729      0.0410      8.2703     78.0591     25.3611
  2405.4000   1204.5621      7.8729      0.0995      8.2954     80.9716     26.0220
  2405.5000   1179.5900      7.8706      0.0694      9.3839     83.1968     26.5177
  2405.6000   1179.5900      7.8706      0.0508     11.0242     82.0085     26.3481
  2405.7000   1179.5900      7.8706      0.0455     12.6567     81.7050     25.3811
  2405.8000   1234.6411      7.8691      0.0057     13.9548     82.4935     24.5192
  2405.9000   1234.6411      7.8691     -0.0476     14.0931     83.1277     24.5184
