~Version Information
VERS.                      2.0: CWLS Log ASCII Standard - VERSION 2.0
WRAP.                       NO: One line per depth step
~Well Information Block
STRT.FT               -10.3000: 
STOP.FT              1936.7000: 
STEP.FT                 0.1000: 
NULL.                -999.2500: 
COMP.          Petrogulf Corporation: COMPANY
WELL.              Graff 9-31R: WELL
FLD.           Purgatorie River: FIELD
LOC.           707' FNL & 1713' FEL------: LOCATION
CNTY.               Las Animas: COUNTY
SRVC.                         : SERVICE COMPANY
DATE.          Wed Nov 17 13:41:51 2004: LOG DATE
UWI.                          : UNIQUE WELL ID
STAT.                       CO: STATE
~Curve Information Block
DEPT.FT            0 000 00 00: Depth
GR.GAPI                       : Gamma Ray
CCL.                          : Casing Collar Locator
TT3.usec                      : CBL 3' Travel Time
AMP3.mV                       : CBL 3' Amplitude
~Parameter Information Block
~A  Depth        GR         CCL         TT3         AMP3    
# ...
   498.9000     51.6278     -1.9922    735.9335     20.9451
   499.0000     49.0217      2.0000    749.5300     20.6863
   499.1000     49.0217      0.0000    749.5300     20.6863
   499.2000     49.0217      0.0000    749.5300     20.6863
   499.3000     47.3005      0.0000    744.7062     20.6855
   499.4000     47.3005      0.0000    744.7062     20.6855
   499.5000     47.2834      0.0000    727.6966     21.1206
   499.6000     47.2834      0.0000    727.6966     21.1206
   499.7000     47.2834      0.0000    727.6966     21.1206
   499.8000     48.5889      0.0000    708.3688     22.0605
   499.9000     48.5889      0.0000    708.3688     22.0605
   500.0000     50.4344      0.0000    697.5291     23.2894
   500.1000     50.4344      0.0000    697.5291     23.2894
   500.2000     50.4344      0.0000    697.5291     23.2894
   500.3000     52.4674      0.0000    697.0665     24.4522
   500.4000     52.4674      0.0000    697.0665     24.4522
   500.5000     54.5110      0.0000    695.6646     25.3378
   500.6000     54.5110      0.0000    695.6646     25.3378
   500.7000     54.5110      0.0000    695.6646     25.3378
   500.8000     56.0751      0.0000    678.3713     25.9410
   500.9000     56.0751      0.0000    678.3713     25.9410
   501.0000     56.7651      0.0000    638.7870     26.3358
   501.1000     56.7651      0.0000    638.7870     26.3358
   501.2000     56.7651      0.0000    638.7870     26.3358
   501.3000     57.0425      0.0000    580.6279     26.6143
   501.4000     57.0425      0.0000    580.6279     26.6143
   501.5000     58.0645      0.0000    511.9987     26.8945
   501.6000     58.0645      0.0000    511.9987     26.8945
   501.7000     58.0645      0.0000    511.9987     26.8945
   501.8000     60.6754      0.0000    442.4229     27.2667
   501.9000     60.6754      0.0000    442.4229     27.2667
   502.0000     64.7158      0.0000    382.3858     27.7096
   502.1000     64.7158      0.0000    382.3858     27.7096
   502.2000     64.7158      0.0000    382.3858     27.7096
   502.3000     69.2314      0.0000    339.8635     28.1080
   502.4000     69.2314      0.0000    339.8635     28.1080
   502.5000     73.1864      0.0000    315.8939     28.3681
   502.6000     73.1864      0.0000    315.8939     28.3681
   502.7000     73.1864      0.0000    315.8939     28.3681
   502.8000     76.1282      0.0000    305.3763     28.4848
   502.9000     76.1282      0.0000    305.3763     28.4848
   503.0000     78.4953      0.0000    301.8739     28.4975
   503.1000     78.4953      0.0000    301.8739     28.4975
   503.2000     78.4953      0.0000    301.8739     28.4975
   503.3000     81.3503      0.0000    301.0647     28.4101
   503.4000     81.3503      0.0000    301.0647     28.4101
   503.5000     85.6497      0.0000    301.0176     28.1894
   503.6000     85.6497      0.0000    301.0176     28.1894
   503.7000     85.6497      0.0000    301.0176     28.1894
   503.8000     91.5709      0.0000    301.0913     27.8282
   503.9000     91.5709      0.0000    301.0913     27.8282
   504.0000     98.3981      0.0000    301.1567     27.3816
   504.1000     98.3981      0.0000    301.1567     27.3816
   504.2000     98.3981      0.0000    301.1567     27.3816
   504.3000    104.9939      0.0000    301.1790     26.9350
   504.4000    104.9939      0.0000    301.1790     26.9350
   504.5000    110.3960      0.0000    301.1458     26.5517
   504.6000    110.3960      0.0000    301.1458     26.5517
   504.7000    110.3960      0.0000    301.1458     26.5517
   504.8000    114.0657      0.0000    301.0437     26.2548
   504.9000    114.0657      0.0000    301.0437     26.2548
   505.0000    115.8060      0.0000    300.8849     26.0378
   505.1000    115.8060      0.0000    300.8849     26.0378
   505.2000    115.8060      0.0000    300.8849     26.0378
   505.3000    115.9367      0.0000    300.7076     25.8806
   505.4000    115.9367      0.0000    300.7076     25.8806
   505.5000    115.7163      0.0000    300.5514     25.7721
   505.6000    115.7163      0.0000    300.5514     25.7721
   505.7000    115.7163      0.0000    300.5514     25.7721
   505.8000    116.7968      0.0000    300.4351     25.7284
   505.9000    116.7968      0.0000    300.4351     25.7284
   506.0000    119.4109      0.0000    300.3576     25.7804
   506.1000    119.4109      0.0000    300.3576     25.7804
   506.2000    119.4109      0.0000    300.3576     25.7804
   506.3000    121.5798      0.0000    300.3086     25.9399
   506.4000    121.5798      0.0000    300.3086     25.9399
   506.5000    120.9572      0.0000    300.2741     26.1777
   506.6000    120.9572      0.0000    300.2741     26.1777
   506.7000    120.9572      0.0000    300.2741     26.1777
   506.8000    117.0222      0.0000    300.2344     26.4309
   506.9000    117.0222      0.0000    300.2344     26.4309
   507.0000    110.8083      0.0000    300.1664     26.6247
   507.1000    110.8083      0.0000    300.1664     26.6247
   507.2000    110.8083      0.0000    300.1664     26.6247
   507.3000    103.2388      0.0000    300.0665     26.7002
   507.4000    103.2388      0.0000    300.0665     26.7002
   507.5000     94.6856      0.0000    299.9729     26.6502
   507.6000     94.6856      0.0000    299.9729     26.6502
   507.7000     94.6856      0.0000    299.9729     26.6502
   507.8000     85.6263      0.0000    299.9409     26.5469
   507.9000     85.6263      0.0000    299.9409     26.5469
   508.0000     76.9310      0.0000    299.9799     26.5223
   508.1000     76.9310      0.0000    299.9799     26.5223
   508.2000     76.9310      0.0000    299.9799     26.5223
   508.3000     69.5920      0.0000    300.0328     26.6894
   508.4000     69.5920      0.0000    300.0328     26.6894
   508.5000     64.4903      0.0000    300.0335     27.0598
   508.6000     64.4903      0.0000    300.0335     27.0598
   508.7000     64.4903      0.0000    300.0335     27.0598
   508.8000     62.2301      0.0000    299.9719     27.5258
   508.9000     62.2301      0.0000    299.9719     27.5258
   509.0000     62.7238      0.0000    299.8881     27.9349
   509.1000     62.7238      0.0000    299.8881     27.9349
   509.2000     62.7238      0.0000    299.8881     27.9349
   509.3000     64.8663      0.0000    299.8176     28.2092
   509.4000     64.8663      0.0000    299.8176     28.2092
   509.5000     67.1342      0.0000    299.7584     28.4085
   509.6000     67.1342      0.0000    299.7584     28.4085
   509.7000     67.1342      0.0000    299.7584     28.4085
   509.8000     68.8112      0.0000    299.6859     28.6645
   509.9000     68.8112      0.0000    299.6859     28.6645
   510.0000     70.3396      0.0000    299.5880     29.0424
   510.1000     70.3396      0.0000    299.5880     29.0424
   510.2000     70.3396      0.0000    299.5880     29.0424
   510.3000     72.4921      0.0000    299.4814     29.4774
   510.4000     72.4921      0.0000    299.4814     29.4774
   510.5000     75.6011      0.0000    299.3998     29.8537
   510.6000     75.6011      0.0000    299.3998     29.8537
   510.7000     75.6011      0.0000    299.3998     29.8537
   510.8000     79.4768      0.0000    299.3656     30.1205
   510.9000     79.4768      0.0000    299.3656     30.1205
   511.0000     83.6780      0.0000    299.3779     30.3089
   511.1000     83.6780      0.0000    299.3779     30.3089
   511.2000     83.6780      0.0000    299.3779     30.3089
   511.3000     88.0615      0.0000    299.4269     30.4525
   511.4000     88.0615      0.0000    299.4269     30.4525
   511.5000     93.1371      0.0000    299.5107     30.5343
   511.6000     93.1371      0.0000    299.5107     30.5343
   511.7000     93.1371      0.0000    299.5107     30.5343
   511.8000     99.2085      0.0000    299.6268     30.5221
   511.9000     99.2085      0.0000    299.6268     30.5221
   512.0000    105.0221      0.0000    299.7507     30.4302
   512.1000    105.0221      0.0000    299.7507     30.4302
   512.2000    105.0221      0.0000    299.7507     30.4302
