~Version Information
VERS.                      2.0: CWLS Log ASCII Standard - VERSION 2.0
WRAP.                       NO: One line per depth step
~Well Information Block
STRT.FT               840.0000: 
STOP.FT              2020.0000: 
STEP.FT                 0.1000: 
NULL.                -999.2500: 
COMP.          Petrogulf Corporation: COMPANY
WELL.           Lavedure 7-44R: WELL
FLD.           Purgatorie River: FIELD
LOC.           946' FSL & 521' FEL: LOCATION
PROV.                 Colorado: PROVINCE
CNTY.               Las Animas: COUNTRY
SRVC.                Patterson: SERVICE COMPANY
DATE.          Mon Sep 26 08:30:48 2005: LOG DATE
UWI.                          : UNIQUE WELL ID
~Curve Information Block
DEPT.FT            0 000 00 00: Depth
DCAL.in                       : CDL Caliper
RHOB.g/cc                     : CDL Bulk Density
RHOC.g/cc                     : CDL Density Correction
DPOR.pu                       : CDL Density Porosity
GR.GAPI                       : Gamma Ray
NPOR.pu                       : Neutron Porosity
~Parameter Information Block
~A  Depth       DCAL        RHOB        RHOC        DPOR         GR         NPOR    
# ...
  1694.4000      7.7159      2.5878      0.1939      3.7692    182.5219     27.9845
  1694.5000      7.7442      2.5698      0.1600      4.8618    181.6147     27.8421
  1694.6000      7.7442      2.5561      0.1541      5.6886    179.1061     27.6233
  1694.7000      7.7442      2.5428      0.1585      6.4962    177.5188     27.4594
  1694.8000      7.7510      2.5275      0.1425      7.4239    177.5314     27.5630
  1694.9000      7.7510      2.5248      0.0540      7.5853    179.1889     27.9194
  1695.0000      7.7700      2.5480      0.1137      6.1847    179.9821     28.3690
  1695.1000      7.7700      2.5860      0.1574      3.8772    179.1408     28.6693
  1695.2000      7.7700      2.6232      0.1414      1.6263    178.1177     28.5741
  1695.3000      7.8340      2.6458      0.1754      0.2567    175.0025     28.2002
  1695.4000      7.8340      2.6364      0.1508      0.8272    170.1983     27.9887
  1695.5000      7.9057      2.5969      0.1056      3.2205    166.8303     27.9397
  1695.6000      7.9057      2.5589      0.0530      5.5234    166.7832     27.5942
  1695.7000      7.9057      2.5501      0.0585      6.0518    170.0674     26.9978
  1695.8000      7.9168      2.5591      0.0749      5.5075    173.7185     26.4624
  1695.9000      7.9168      2.5553      0.0625      5.7407    175.4401     25.9958
  1696.0000      7.9210      2.5323      0.0238      7.1336    175.5537     25.6420
  1696.1000      7.9210      2.5075      0.0462      8.6370    177.0708     25.6876
  1696.2000      7.9210      2.4963      0.0244      9.3124    181.7101     26.1785
  1696.3000      7.9348      2.5022      0.0129      8.9547    186.0966     26.8310
  1696.4000      7.9348      2.5215      0.0232      7.7870    187.8290     27.4444
  1696.5000      7.9375      2.5438      0.0352      6.4365    188.6161     28.0035
  1696.6000      7.9375      2.5530      0.0775      5.8768    188.6288     28.4884
  1696.7000      7.9375      2.5473      0.0704      6.2245    187.0444     28.6946
  1696.8000      7.9367      2.5441      0.0648      6.4162    188.2953     28.7364
  1696.9000      7.9367      2.5466      0.0697      6.2670    195.6968     29.0147
  1697.0000      7.9362      2.5461      0.0556      6.2979    204.1568     29.3722
  1697.1000      7.9362      2.5473      0.0491      6.2239    207.3292     29.4058
  1697.2000      7.9362      2.5507      0.0960      6.0204    202.8475     29.1941
  1697.3000      7.9351      2.5459      0.0443      6.3110    194.7949     28.9887
  1697.4000      7.9351      2.5334      0.0552      7.0675    193.1342     28.7704
  1697.5000      7.9417      2.5216      0.0546      7.7794    197.2591     28.5249
  1697.6000      7.9417      2.5133      0.0484      8.2861    197.2178     28.4376
  1697.7000      7.9417      2.5088      0.0194      8.5557    193.9431     28.6588
  1697.8000      7.9387      2.5120      0.0475      8.3654    193.4682     29.0544
  1697.9000      7.9387      2.5199      0.0477      7.8827    194.3940     29.4600
  1698.0000      7.9317      2.5212      0.0663      7.8063    193.8021     29.7073
  1698.1000      7.9317      2.5108      0.0788      8.4336    192.0091     29.6581
  1698.2000      7.9317      2.5004      0.0487      9.0691    191.3817     29.4324
  1698.3000      7.9280      2.5016      0.0566      8.9923    193.6618     29.0970
  1698.4000      7.9280      2.5144      0.0633      8.2156    195.4389     28.4854
  1698.5000      7.9322      2.5270      0.0753      7.4522    192.5963     27.7337
  1698.6000      7.9322      2.5257      0.0500      7.5327    187.3682     27.3029
  1698.7000      7.9322      2.5176      0.0077      8.0252    183.9933     27.1858
  1698.8000      7.9496      2.5224      0.0395      7.7337    183.9643     27.1212
  1698.9000      7.9496      2.5409      0.1042      6.6138    186.7236     27.2056
  1699.0000      7.9282      2.5604      0.0573      5.4315    187.7523     27.6287
  1699.1000      7.9282      2.5768      0.0980      4.4339    183.3589     28.1895
  1699.2000      7.9282      2.5897      0.1061      3.6571    178.0989     28.4416
  1699.3000      7.8254      2.5976      0.0993      3.1759    176.1405     28.3413
  1699.4000      7.8254      2.6044      0.0939      2.7628    174.0527     28.0320
  1699.5000      7.8035      2.6180      0.0893      1.9405    169.3663     27.5483
  1699.6000      7.8035      2.6371      0.1106      0.7838    164.6063     27.1540
  1699.7000      7.8035      2.6408      0.1340      0.5558    161.4818     27.1017
  1699.8000      7.8022      2.6186      0.0824      1.9047    159.7031     27.1420
  1699.9000      7.8022      2.5888      0.0354      3.7062    160.7154     26.8473
  1700.0000      7.8022      2.5716      0.0276      4.7506    165.5248     26.3657
  1700.1000      7.8022      2.5682      0.0304      4.9546    170.4569     26.1856
  1700.2000      7.8022      2.5688      0.0298      4.9217    171.6451     26.2604
  1700.3000      7.8104      2.5688     -0.0046      4.9190    170.2208     26.1021
  1700.4000      7.8104      2.5733      0.0108      4.6501    168.4055     25.8240
  1700.5000      7.8194      2.5799      0.0482      4.2509    166.3821     25.8962
  1700.6000      7.8194      2.5772      0.0361      4.4141    166.8960     26.1170
  1700.7000      7.8194      2.5665      0.0382      5.0586    172.0332     26.1567
  1700.8000      7.8166      2.5577      0.0464      5.5936    176.9303     26.1536
  1700.9000      7.8166      2.5528      0.0574      5.8881    178.6169     26.2230
  1701.0000      7.8012      2.5506      0.0879      6.0243    180.4185     26.3061
  1701.1000      7.8012      2.5518      0.0321      5.9506    183.6092     26.4640
  1701.2000      7.8012      2.5568      0.0605      5.6457    183.4310     26.6945
  1701.3000      7.7886      2.5584      0.0399      5.5499    177.6439     26.7004
  1701.4000      7.7886      2.5573      0.0385      5.6152    169.7568     26.3952
  1701.5000      7.7977      2.5716      0.0192      4.7525    163.1049     26.0138
  1701.6000      7.7977      2.6028      0.1337      2.8623    157.8623     25.7989
  1701.7000      7.7977      2.6230      0.1792      1.6355    153.5556     25.7286
  1701.8000      7.7863      2.6209      0.1083      1.7644    150.7685     25.4241
  1701.9000      7.7863      2.6115      0.1304      2.3353    146.8869     24.9357
  1702.0000      7.7811      2.6040      0.0762      2.7894    138.4720     24.6216
  1702.1000      7.7811      2.6008      0.0549      2.9840    128.9559     24.3993
  1702.2000      7.7811      2.6043      0.0805      2.7721    122.3292     24.0565
  1702.3000      7.7956      2.6148      0.0467      2.1308    115.3426     23.6188
  1702.4000      7.7956      2.6275      0.0551      1.3616    105.2344     23.0875
  1702.5000      7.8133      2.6364      0.0426      0.8234     96.7170     22.2921
  1702.6000      7.8133      2.6459      0.0423      0.2513     93.8572     21.2501
  1702.7000      7.8133      2.6634      0.0178     -0.8117     94.2455     20.4123
  1702.8000      7.7812      2.6835      0.0703     -2.0294     95.7760     20.2479
  1702.9000      7.7812      2.6934      0.0662     -2.6306     98.2711     20.5765
  1703.0000      7.7706      2.6934      0.0807     -2.6308    101.2936     20.7386
  1703.1000      7.7706      2.6883      0.0787     -2.3220    105.4418     20.2192
  1703.2000      7.7706      2.6727      0.0887     -1.3741    109.8498     19.2743
  1703.3000      7.7696      2.6390      0.1000      0.6675    114.0825     18.7894
  1703.4000      7.7696      2.5954      0.0656      3.3108    120.6137     19.1671
  1703.5000      7.7580      2.5616      0.0241      5.3579    132.6093     20.1863
  1703.6000      7.7580      2.5421      0.0395      6.5380    149.3736     21.4692
  1703.7000      7.7580      2.5241      0.0211      7.6279    163.7744     22.6026
  1703.8000      7.8053      2.5064      0.0025      8.7031    170.8367     23.4790
  1703.9000      7.8053      2.5003      0.0499      9.0712    171.4018     24.3298
