~Version Information
 VERS.                                  2.0 : CWLS LAS VERSION
 WRAP.                                   NO : WRAPING MODE
 SWARE .                 MController 2.5.0J : SOFTWARE VERSION
~Well Information
 WELL.                           Ywam 7-23V : WELL
 COMP.                       Petrogulf Corp : COMPANY
 FLD.                      Purgatorie River : FIELD
 LOC.                 NE/SW Sec 7 T33S R67W : LOCATION
 DATE.                          10/29-30/04 : DATE(S) LOGGED
 SRVC.       Blanco Geological Services LLC : SERVICE COMPANY
 STAT.                                   CO : STATE
 CNTY.                           Las Animas : COUNTY
 CTRY.                                  USA : COUNTRY
 API.                       05-071-08227-00 : API NUMBER
 STRT.FT                             634.00 : START DEPTH
 STOP.FT                            2611.00 : STOP DEPTH
 STEP.FT                               1.00 : DEPTH INCREMENT
 NULL.                                -9999 : NULL VALUE
~Curve information
 DEPTH.FT                                   :
 ROP.MIN/FT                                 :
 GAS.UNITS                                  :
~ASCII Log data
# ...
      1034.0         0.23          9.5 
      1035.0         0.20          9.5 
      1036.0         0.23          8.4 
      1037.0         0.20          8.7 
      1038.0         0.27          8.7 
      1039.0         0.27         10.0 
      1040.0         0.27          9.7 
      1041.0         0.20          9.5 
      1042.0         0.20          9.3 
      1043.0         0.23          9.8 
      1044.0         0.25          9.9 
      1045.0         0.20          9.9 
      1046.0         0.20          9.9 
      1047.0         0.17          9.7 
      1048.0         0.20          9.7 
      1049.0         0.20          9.6 
      1050.0         0.20          9.9 
      1051.0         0.30          9.7 
      1052.0         0.42         10.1 
      1053.0         0.30          9.5 
      1054.0         0.37          9.0 
      1055.0         0.53          9.7 
      1056.0         0.40          9.0 
      1057.0         0.33          9.3 
      1058.0         0.30          9.4 
      1059.0         0.40          9.4 
      1060.0         0.37         17.9 
      1061.0         0.28         54.8 
      1062.0         0.27         14.8 
      1063.0         0.37         13.1 
      1064.0         0.43          9.1 
      1065.0         0.27          9.5 
      1066.0         0.17         10.1 
      1067.0         0.20         10.1 
      1068.0         0.20         10.1 
      1069.0         0.20         10.8 
      1070.0         0.20         10.7 
      1071.0         0.23         10.5 
      1072.0         0.23         10.8 
      1073.0         0.20         11.4 
      1074.0         0.25         11.5 
      1075.0         0.20         12.3 
      1076.0         0.20         13.3 
      1077.0         0.13         12.2 
      1078.0         0.13         13.2 
      1079.0         0.13         13.2 
      1080.0         0.13         13.4 
      1081.0         0.17         13.4 
      1082.0         0.22         13.3 
      1083.0         0.27         12.1 
      1084.0         0.23         13.8 
      1085.0         0.27         13.5 
      1086.0         0.33         13.1 
      1087.0         0.27         12.5 
      1088.0         0.17         12.6 
      1089.0         0.17         12.6 
      1090.0         0.13         12.7 
      1091.0         0.33         12.9 
      1092.0         0.27         12.6 
      1093.0         0.20         12.6 
      1094.0         0.20         12.9 
      1095.0         0.27         13.4 
      1096.0         0.25         13.3 
      1097.0         0.23         13.1 
      1098.0         0.27         12.3 
      1099.0         0.23         12.1 
      1100.0         0.20         12.6 
      1101.0         0.20         12.6 
      1102.0         0.20         12.0 
      1103.0         0.23         12.1 
      1104.0         0.17         12.3 
      1105.0         0.20         12.4 
      1106.0         0.17         12.4 
      1107.0         0.20         12.3 
      1108.0         0.23         13.9 
      1109.0         0.30         13.9 
      1110.0         0.27         13.8 
      1111.0         0.30         13.5 
      1112.0         0.20         13.1 
      1113.0         0.17         12.9 
      1114.0         0.23         12.9 
      1115.0         0.18         12.9 
      1116.0         0.27         13.5 
      1117.0         0.30         14.6 
      1118.0         0.27         15.5 
      1119.0         0.27         14.6 
      1120.0         0.23         14.6 
      1121.0         0.23         13.9 
      1122.0         0.27         13.6 
      1123.0         0.23         13.3 
      1124.0         0.23         12.8 
      1125.0         0.20         13.3 
      1126.0         0.27         13.9 
      1127.0         0.23         12.4 
      1128.0         0.23         13.4 
      1129.0         0.18         13.5 
      1130.0         0.23         13.0 
      1131.0         0.20         13.5 
      1132.0         0.23         13.3 
      1133.0         0.20         13.3 
      1134.0         0.23         13.1 
      1135.0         0.23         13.0 
      1136.0         0.23         13.0 
      1137.0         0.23         13.9 
      1138.0         0.20         14.1 
      1139.0         0.27         13.1 
      1140.0         0.47         14.5 
      1141.0         0.37         13.5 
      1142.0         0.37         13.5 
      1143.0         0.30         13.2 
      1144.0         0.30         14.1 
      1145.0         0.27         13.7 
      1146.0         0.22         13.0 
      1147.0         0.23         12.8 
      1148.0         0.27         13.1 
      1149.0         0.23         13.5 
      1150.0         0.23         13.7 
      1151.0         0.23         12.8 
      1152.0         0.27         13.5 
      1153.0         0.20         12.1 
      1154.0         0.23         12.1 
      1155.0         0.20         12.4 
      1156.0         0.23         12.6 
      1157.0         0.20         12.7 
      1158.0         0.23         13.7 
      1159.0         0.23         14.1 
      1160.0         0.17         13.5 
      1161.0         0.22         12.9 
      1162.0         0.23         11.9 
      1163.0         0.23         12.1 
      1164.0         0.20         12.1 
      1165.0         0.23         12.5 
      1166.0         0.20         12.2 
      1167.0         0.27         12.6 
      1168.0         0.27         14.9 
      1169.0         0.27         14.3 
      1170.0         0.27         13.6 
      1171.0         0.43         13.3 
      1172.0         0.33         12.6 
      1173.0         0.33         12.8 
      1174.0         0.30         12.5 
      1175.0         0.27         13.1 
      1176.0         0.23         13.0 
      1177.0         0.25         13.2 
      1178.0         0.20         13.5 
      1179.0         0.20         13.4 
      1180.0         0.17         13.6 
      1181.0         0.17         13.8 
      1182.0         0.13         13.7 
      1183.0         0.13         13.5 
      1184.0         0.13         13.5 
      1185.0         0.13         14.5 
      1186.0         0.13         15.0 
      1187.0         0.13         15.6 
      1188.0         0.13         14.6 
      1189.0         0.13         14.7 
      1190.0         0.13         14.7 
      1191.0         0.13         16.1 
      1192.0         0.13         16.6 
      1193.0         0.13         16.6 
      1194.0         0.13         16.5 
      1195.0         0.17         18.5 
      1196.0         0.20         19.4 
      1197.0         0.20         19.1 
      1198.0         0.22         13.1 
      1199.0         0.23         14.5 
      1200.0         0.23         15.1 
      1201.0         0.42         13.7 
      1202.0         0.33         12.8 
      1203.0         0.37         13.5 
      1204.0         0.27         13.1 
      1205.0         0.40         14.3 
      1206.0         0.40         14.1 
      1207.0         0.33         14.7 
      1208.0         0.17         14.9 
      1209.0         0.17         14.4 
      1210.0         0.13         13.4 
      1211.0         0.20         12.6 
      1212.0         0.13         12.6 
      1213.0         0.17         12.9 
      1214.0         0.13         12.5 
      1215.0         0.22         13.1 
      1216.0         0.20         13.6 
      1217.0         0.17         13.5 
      1218.0         0.17         13.4 
      1219.0         0.17         14.3 
      1220.0         0.17         13.5 
      1221.0         0.20         12.8 
      1222.0         0.17         12.8 
      1223.0         0.13         12.8 
      1224.0         0.13         13.0 
      1225.0         0.13         13.0 
      1226.0         0.20         13.6 
      1227.0         0.17         14.0 
      1228.0         0.13         15.1 
      1229.0         0.27         14.5 
      1230.0         0.30         13.7 
      1231.0         0.37         14.5 
      1232.0         0.27         14.6 
      1233.0         0.30         13.1 
