~Version Information
VERS.                      2.0: CWLS Log ASCII Standard - VERSION 2.0
WRAP.                       NO: One line per depth step
~Well Information Block
STRT.FT               652.0000: 
STOP.FT              1880.0000: 
STEP.FT                 0.1000: 
NULL.                -999.2500: 
COMP.          Pioneer Natural Resources: COMPANY
WELL.          Corkscrew 33-12 Tr: WELL
FLD.           Purgatoire River: FIELD
LOC.           1870' FSL & 1706' FEL: LOCATION
PROV.                 Colorado: PROVINCE
CNTY.               Las Animas: COUNTRY
SRVC.                Patterson: SERVICE COMPANY
DATE.          Tue Mar 29 09:18:51 2005: LOG DATE
UWI.           05 071 08295 00: UNIQUE WELL ID
~Curve Information Block
DEPT.FT            0 000 00 00: Depth
DCAL.in                       : CDL Caliper
RHOB.g/cc                     : CDL Bulk Density
RHOC.g/cc                     : CDL Density Correction
DPOR.pu                       : CDL Density Porosity
GR.GAPI                       : Gamma Ray
NPOR.pu                       : Neutron Porosity
~Parameter Information Block
~A  Depth       DCAL        RHOB        RHOC        DPOR         GR         NPOR    
# ...
  1861.6000      7.7639      2.4719      0.0356     10.7949     55.3859     16.2870
  1861.7000      7.7639      2.4869      0.0634      9.8832     52.7836     16.3700
  1861.8000      7.7656      2.4893      0.0646      9.7415     50.7806     16.8701
  1861.9000      7.7656      2.4787      0.0503     10.3793     51.1088     17.2927
  1862.0000      7.7654      2.4619      0.0308     11.4017     50.8458     17.2143
  1862.1000      7.7654      2.4447      0.0425     12.4448     49.3792     16.4750
  1862.2000      7.7654      2.4311      0.0360     13.2659     47.6671     15.6359
  1862.3000      7.7686      2.4187      0.0453     14.0186     45.7173     15.5589
  1862.4000      7.7686      2.4102      0.0042     14.5307     43.4321     16.1466
  1862.5000      7.7654      2.4181     -0.0102     14.0526     38.8910     16.7354
  1862.6000      7.7654      2.4425      0.0661     12.5784     28.5807     16.9222
  1862.7000      7.7654      2.4617      0.0733     11.4100     14.6594     17.0557
  1862.8000      7.7696      2.4619      0.0647     11.3999      4.6531     17.5464
  1862.9000      7.7696      2.4533      0.0230     11.9234      0.8499     17.9545
  1863.0000      7.7704      2.4454      0.0587     12.4014      0.0857     18.3118
  1863.1000      7.7704      2.4298      0.0384     13.3432      0.0045     18.8144
  1863.2000      7.7704      2.4068      0.0161     14.7414      0.0000     18.6069
  1863.3000      7.7720      2.3937     -0.0213     15.5343   -999.2500     17.4756
  1863.4000      7.7720      2.3972     -0.0174     15.3186   -999.2500     16.6400
  1863.5000      7.7801      2.4052      0.0423     14.8343   -999.2500     16.5001
  1863.6000      7.7801      2.4075      0.0307     14.6983   -999.2500     15.8156
  1863.7000      7.7801      2.4043      0.0362     14.8923   -999.2500     14.3420
  1863.8000      7.7803      2.3955     -0.0027     15.4226   -999.2500     13.2454
  1863.9000      7.7803      2.3823      0.0553     16.2234   -999.2500     12.9236
  1864.0000      7.7773      2.3732      0.0254     16.7782   -999.2500     13.1570
  1864.1000      7.7773      2.3813      0.0064     16.2853   -999.2500     13.7809
  1864.2000      7.7773      2.4041      0.0796     14.9044   -999.2500     14.5780
  1864.3000      7.7801      2.4206      0.0837     13.9002   -999.2500     15.2950
  1864.4000      7.7801      2.4207      0.0657     13.8958   -999.2500     15.8939
  1864.5000      7.7832      2.4129      0.0522     14.3690   -999.2500     16.1245
  1864.6000      7.7832      2.4094      0.0620     14.5848   -999.2500     15.8503
  1864.7000      7.7832      2.4124      0.0607     14.3995   -999.2500     15.7532
  1864.8000      7.7816      2.4137      0.0975     14.3186   -999.2500     16.2742
  1864.9000      7.7816      2.4058      0.0438     14.8009   -999.2500     16.7325
  1865.0000      7.7736      2.3877      0.0815     15.8987   -999.2500     16.8619
  1865.1000      7.7736      2.3631      0.0743     17.3908   -999.2500     18.8256
  1865.2000      7.7736      2.3420      0.0278     18.6639   -999.2500     26.3113
  1865.3000      7.7718      2.3358      0.0210     19.0452   -999.2500     38.4548
  1865.4000      7.7718      2.3454      0.0578     18.4634   -999.2500     47.2306
  1865.5000      7.7782      2.3607      0.0300     17.5357   -999.2500     50.3564
  1865.6000      7.7782      2.3639      0.0761     17.3390   -999.2500     50.9642
  1865.7000      7.7782      2.3443      0.0186     18.5256   -999.2500     51.0285
  1865.8000      7.7872      2.3186      0.0376     20.0845   -999.2500     51.0321
  1865.9000      7.7872      2.3109      0.0152     20.5529   -999.2500   -999.2500
  1866.0000      7.7820      2.3240      0.0514     19.7553   -999.2500   -999.2500
  1866.1000      7.7820      2.3413      0.0940     18.7115   -999.2500   -999.2500
  1866.2000      7.7820      2.3485      0.0364     18.2753   -999.2500   -999.2500
  1866.3000      7.7813      2.3465      0.0233     18.3939   -999.2500   -999.2500
  1866.4000      7.7813      2.3425      0.0175     18.6365   -999.2500   -999.2500
  1866.5000      7.7905      2.3411      0.0312     18.7238   -999.2500   -999.2500
  1866.6000      7.7905      2.3414      0.0513     18.7024   -999.2500   -999.2500
  1866.7000      7.7905      2.3397      0.0316     18.8031   -999.2500   -999.2500
  1866.8000      7.7687      2.3425      0.0043     18.6338   -999.2500   -999.2500
  1866.9000      7.7687      2.3596      0.0377     17.5987   -999.2500   -999.2500
  1867.0000      7.7656      2.3796      0.0620     16.3861   -999.2500   -999.2500
  1867.1000      7.7656      2.3832      0.0830     16.1722   -999.2500   -999.2500
  1867.2000      7.7656      2.3649      0.0485     17.2770   -999.2500   -999.2500
  1867.3000      7.7623      2.3365     -0.0096     19.0019   -999.2500   -999.2500
  1867.4000      7.7623      2.3196     -0.0164     20.0213   -999.2500   -999.2500
  1867.5000      7.7582      2.3225      0.0428     19.8457   -999.2500   -999.2500
  1867.6000      7.7582      2.3359      0.0111     19.0369   -999.2500   -999.2500
  1867.7000      7.7582      2.3525      0.0214     18.0332   -999.2500   -999.2500
  1867.8000      7.7559      2.3632      0.0273     17.3802   -999.2500   -999.2500
  1867.9000      7.7559      2.3566      0.0359     17.7840   -999.2500   -999.2500
  1868.0000      7.7595      2.3315      0.0065     19.3010   -999.2500   -999.2500
  1868.1000      7.7595      2.3055     -0.0585     20.8759   -999.2500   -999.2500
  1868.2000      7.7595      2.2982     -0.0018     21.3204   -999.2500   -999.2500
  1868.3000      7.7606      2.3092     -0.0032     20.6531   -999.2500   -999.2500
  1868.4000      7.7606      2.3285      0.0470     19.4828   -999.2500   -999.2500
  1868.5000      7.7573      2.3504      0.0220     18.1566   -999.2500   -999.2500
  1868.6000      7.7573      2.3742      0.0107     16.7136   -999.2500   -999.2500
  1868.7000      7.7573      2.3969      0.0650     15.3422   -999.2500   -999.2500
  1868.8000      7.7530      2.4121      0.0898     14.4162   -999.2500   -999.2500
  1868.9000      7.7530      2.4147      0.0677     14.2636   -999.2500   -999.2500
  1869.0000      7.7561      2.4060      0.0267     14.7890   -999.2500   -999.2500
  1869.1000      7.7561      2.4026      0.0050     14.9956   -999.2500   -999.2500
  1869.2000      7.7561      2.4160      0.0315     14.1809   -999.2500   -999.2500
  1869.3000      7.7586      2.4405      0.0051     12.6991   -999.2500   -999.2500
  1869.4000      7.7586      2.4681      0.0580     11.0272   -999.2500   -999.2500
  1869.5000      7.7558      2.4904      0.0737      9.6748   -999.2500   -999.2500
  1869.6000      7.7558      2.5030      0.0637      8.9061   -999.2500   -999.2500
  1869.7000      7.7558      2.5052      0.1381      8.7774   -999.2500   -999.2500
  1869.8000      7.7545      2.4995      0.0471      9.1214   -999.2500   -999.2500
  1869.9000      7.7545      2.4933      0.0523      9.4941   -999.2500   -999.2500
  1870.0000      7.7579      2.4802      0.0630     10.2931   -999.2500   -999.2500
  1870.1000      7.7579      2.4450      0.0783     12.4264   -999.2500   -999.2500
  1870.2000      7.7579      2.4005     -0.0069     15.1212   -999.2500   -999.2500
  1870.3000      7.7617      2.3808     -0.0048     16.3123   -999.2500   -999.2500
  1870.4000      7.7617      2.3918      0.0487     15.6511   -999.2500   -999.2500
  1870.5000      7.7694      2.4100      0.0935     14.5454   -999.2500   -999.2500
  1870.6000      7.7694      2.4248      0.0615     13.6495   -999.2500   -999.2500
  1870.7000      7.7694      2.4384      0.0790     12.8217   -999.2500   -999.2500
  1870.8000      7.7795      2.4419      0.0814     12.6140   -999.2500   -999.2500
  1870.9000      7.7795      2.4315      0.0450     13.2404   -999.2500   -999.2500
  1871.0000      7.7849      2.4196      0.0613     13.9606   -999.2500   -999.2500
  1871.1000      7.7849      2.4121      0.0235     14.4184   -999.2500   -999.2500
