~Version Information
VERS.                      2.0: CWLS Log ASCII Standard - VERSION 2.0
WRAP.                       NO: One line per depth step
~Well Information Block
STRT.FT               350.0000: 
STOP.FT              1390.0000: 
STEP.FT                 0.1000: 
NULL.                -999.2500: 
COMP.          Petrogulf Corporation: COMPANY
WELL.             Leier 17-42R: WELL
FLD.           Purgatorie River: FIELD
LOC.           2398' FNL & 1109' FEL: LOCATION
PROV.                 Colorado: PROVINCE
CNTY.               Las Animas: COUNTRY
SRVC.                Patterson: SERVICE COMPANY
DATE.          Tue Oct 18 07:06:44 2005: LOG DATE
UWI.                          : UNIQUE WELL ID
~Curve Information Block
DEPT.FT            0 000 00 00: Depth
DCAL.in                       : CDL Caliper
RHOB.g/cc                     : CDL Bulk Density
RHOC.g/cc                     : CDL Density Correction
DPOR.pu                       : CDL Density Porosity
GR.GAPI                       : Gamma Ray
NPOR.pu                       : Neutron Porosity
~Parameter Information Block
~A  Depth       DCAL        RHOB        RHOC        DPOR         GR         NPOR    
# ...
  1175.6000      7.9387      2.0339      0.0039     37.3409    124.0830     32.7691
  1175.7000      7.9387      2.0002      0.0230     39.3839    127.0257     32.5244
  1175.8000      7.9352      1.9710      0.0211     41.1522    127.1103     31.9665
  1175.9000      7.9352      1.9458      0.0243     42.6767    125.0654     31.7239
  1176.0000      7.9493      1.9231      0.0733     44.0566    122.1037     32.1081
  1176.1000      7.9493      1.9108      0.0646     44.7984    120.3483     32.6582
  1176.2000      7.9493      1.9243      0.0923     43.9823    122.3627     32.8744
  1176.3000      7.9694      1.9685      0.0724     41.3016    127.3018     32.7320
  1176.4000      7.9694      2.0381      0.1041     37.0825    132.5677     32.4202
  1176.5000      7.9753      2.1183      0.1506     32.2222    137.4536     32.0103
  1176.6000      7.9753      2.1968      0.1351     27.4660    139.8180     31.6213
  1176.7000      7.9753      2.2786      0.1717     22.5070    139.7258     31.4452
  1176.8000      7.9990      2.3681      0.1955     17.0844    142.4101     31.5207
  1176.9000      7.9990      2.4446      0.2229     12.4459    148.7744     31.7077
  1177.0000      7.9347      2.4865      0.1423      9.9104    154.6244     31.7809
  1177.1000      7.9347      2.5087      0.1149      8.5637    159.5743     31.6227
  1177.2000      7.9347      2.5370      0.1270      6.8482    162.5346     31.3990
  1177.3000      7.9229      2.5718      0.1224      4.7408    159.9012     31.2898
  1177.4000      7.9229      2.5974      0.1581      3.1885    153.2287     31.0905
  1177.5000      7.9331      2.6041      0.1194      2.7806    145.7048     30.4557
  1177.6000      7.9331      2.5934      0.1326      3.4292    138.9850     29.5868
  1177.7000      7.9331      2.5694      0.0846      4.8878    138.8905     28.9692
  1177.8000      7.9302      2.5446      0.0595      6.3874    148.4572     28.7169
  1177.9000      7.9302      2.5321      0.0601      7.1430    160.2336     28.9041
  1178.0000      7.9282      2.5265      0.0556      7.4879    166.0708     29.3958
  1178.1000      7.9282      2.5179      0.0474      8.0046    163.8670     29.5347
  1178.2000      7.9282      2.5069      0.0460      8.6732    156.6709     29.1204
  1178.3000      7.9359      2.4968      0.0294      9.2869    149.1090     28.8643
  1178.4000      7.9359      2.4954     -0.0071      9.3718    144.0484     29.1086
  1178.5000      7.9662      2.5094      0.0185      8.5240    142.8699     29.4280
  1178.6000      7.9662      2.5307      0.0921      7.2315    144.3014     29.6558
  1178.7000      7.9662      2.5506      0.0645      6.0271    145.3570     29.8846
  1178.8000      7.9705      2.5723      0.1187      4.7088    144.6906     29.9458
  1178.9000      7.9705      2.5904      0.1485      3.6106    142.3954     29.7358
  1179.0000      7.9353      2.5963      0.1164      3.2526    138.4220     29.5221
  1179.1000      7.9353      2.5915      0.1557      3.5445    132.8353     29.5207
  1179.2000      7.9353      2.5775      0.1112      4.3912    127.9296     29.6183
  1179.3000      7.9261      2.5676      0.0475      4.9911    128.5672     29.6397
  1179.4000      7.9261      2.5733      0.0657      4.6495    135.9759     29.4530
  1179.5000      7.9300      2.5810      0.0994      4.1810    144.3690     29.0677
  1179.6000      7.9300      2.5795      0.0609      4.2738    147.4910     28.7428
  1179.7000      7.9300      2.5735      0.0692      4.6373    146.3804     28.5727
  1179.8000      7.9267      2.5641      0.0723      5.2082    145.8961     28.5785
  1179.9000      7.9267      2.5501      0.0471      6.0538    146.7628     28.9826
  1180.0000      7.9280      2.5362      0.0733      6.8945    147.5717     29.6447
  1180.1000      7.9280      2.5274      0.0356      7.4280    148.1174     30.0572
  1180.2000      7.9280      2.5239      0.0280      7.6427    147.5450     30.0368
  1180.3000      7.9327      2.5179      0.0625      8.0059    144.3513     29.7558
  1180.4000      7.9327      2.5096      0.0254      8.5112    138.8963     29.3616
  1180.5000      7.9205      2.5137      0.0183      8.2617    135.2977     28.9958
  1180.6000      7.9205      2.5333      0.0650      7.0703    137.1581     28.8359
  1180.7000      7.9205      2.5620      0.0506      5.3348    143.4962     28.7830
  1180.8000      7.9149      2.5976      0.0756      3.1734    147.8968     28.4803
  1180.9000      7.9149      2.6207      0.1491      1.7736    145.2033     27.9935
  1181.0000      7.9145      2.6092      0.0855      2.4741    139.3673     27.8669
  1181.1000      7.9145      2.5776      0.0407      4.3866    136.1525     28.1430
  1181.2000      7.9145      2.5558      0.0516      5.7121    136.6962     28.3742
  1181.3000      7.9086      2.5566      0.0377      5.6595    140.4351     28.3788
  1181.4000      7.9086      2.5734      0.0313      4.6446    145.0250     28.1574
  1181.5000      7.9090      2.5872      0.0153      3.8072    144.5251     27.8608
  1181.6000      7.9090      2.5834      0.0498      4.0372    138.1647     27.7898
  1181.7000      7.9090      2.5674      0.0110      5.0090    133.9914     27.9231
  1181.8000      7.9061      2.5577      0.0486      5.5935    135.4060     27.9465
  1181.9000      7.9061      2.5609      0.0271      5.4004    137.4755     27.8102
  1182.0000      7.8664      2.5696      0.0511      4.8720    139.4975     27.7799
  1182.1000      7.8664      2.5756      0.0532      4.5100    143.7943     27.9451
  1182.2000      7.8664      2.5806      0.0313      4.2048    147.2860     28.1522
  1182.3000      7.8500      2.5888      0.0844      3.7072    146.4469     28.0619
  1182.4000      7.8500      2.5932      0.0830      3.4448    144.1141     27.6693
  1182.5000      7.8572      2.5895      0.0780      3.6671    144.3769     27.5002
  1182.6000      7.8572      2.5840      0.0792      4.0004    143.8155     27.5649
  1182.7000      7.8572      2.5830      0.0702      4.0583    139.9161     27.4015
  1182.8000      7.8540      2.5917      0.0528      3.5355    138.0554     27.0638
  1182.9000      7.8540      2.6056      0.1032      2.6904    142.0875     26.9377
  1183.0000      7.8429      2.6069      0.1045      2.6115    148.4558     27.0832
  1183.1000      7.8429      2.5889      0.0700      3.7010    150.2433     27.2031
  1183.2000      7.8429      2.5616      0.0738      5.3558    145.1019     27.2526
  1183.3000      7.8382      2.5363      0.0393      6.8921    137.4356     27.4664
  1183.4000      7.8382      2.5225      0.0445      7.7263    131.7434     27.7086
  1183.5000      7.8297      2.5187      0.0366      7.9580    129.6209     27.6999
  1183.6000      7.8297      2.5093      0.0578      8.5285    130.4583     27.4229
  1183.7000      7.8297      2.4826      0.0504     10.1480    132.0988     26.9001
  1183.8000      7.8379      2.4399      0.0107     12.7324    132.2432     26.4159
  1183.9000      7.8379      2.3778      0.0222     16.4949    131.3129     26.4845
  1184.0000      7.8507      2.2948      0.0080     21.5279    130.6929     27.0578
  1184.1000      7.8507      2.2127     -0.0543     26.5001    131.2497     27.7866
  1184.2000      7.8507      2.1479     -0.0172     30.4330    133.0676     28.4633
  1184.3000      7.8796      2.0932     -0.0419     33.7455    134.1193     28.8776
  1184.4000      7.8796      2.0594     -0.0863     35.7921    133.1483     29.0851
  1184.5000      7.9109      2.0704     -0.0469     35.1252    131.7944     29.4072
  1184.6000      7.9109      2.1206      0.0286     32.0830    132.8575     29.7323
  1184.7000      7.9109      2.1864      0.0871     28.0978    136.4396     29.6985
  1184.8000      7.9406      2.2538      0.1305     24.0118    141.7271     29.4069
  1184.9000      7.9406      2.3169      0.1865     20.1902    147.6604     29.0852
  1185.0000      7.7980      2.3749      0.1631     16.6727    149.7562     28.7746
  1185.1000      7.7980      2.4349      0.1316     13.0371    146.0283     28.6259
