~Version Information
 VERS.                                  2.0 : CWLS LAS VERSION
 WRAP.                                   NO : WRAPING MODE
 SWARE .                 MController 2.5.0J : SOFTWARE VERSION
~Well Information
 WELL.                         McLeod 9-42V: WELL
 COMP.                       Petrogulf Corp : COMPANY
 FLD.                       Purgatoire River: FIELD
 LOC.                  SE/NE Sec 9 T33S R67W: LOCATION
 DATE.                             11/11/04 : DATE(S) LOGGED
 SRVC.        Blanco Geological Services LLC: SERVICE COMPANY
 STAT.                                    CO: STATE
 CNTY.                            Las Animas: COUNTY
 CTRY.                                   USA: COUNTRY
 API.                           05-071-08071: API NUMBER
 STRT.FT                             424.00 : START DEPTH
 STOP.FT                            2270.00 : STOP DEPTH
 STEP.FT                               1.00 : DEPTH INCREMENT
 NULL.                                -9999 : NULL VALUE
~Curve information
 DEPTH.FT                                   :
 ROP.MIN/FT                                 :
 GAS.UNITS                                  :
~ASCII Log data
# ...
       624.0         0.27         10.5 
       625.0         0.23         10.7 
       626.0         0.27          9.1 
       627.0         0.23          8.8 
       628.0         0.20          9.6 
       629.0         0.20         10.7 
       630.0         0.23         11.2 
       631.0         0.30         11.0 
       632.0         0.20         11.8 
       633.0         0.22         10.9 
       634.0         0.27         10.4 
       635.0         0.23         11.1 
       636.0         0.30         12.5 
       637.0         0.33         12.4 
       638.0         0.50         12.1 
       639.0         0.43         12.9 
       640.0         0.43         13.5 
       641.0         0.37         13.0 
       642.0         0.27         12.6 
       643.0         0.25         13.2 
       644.0         0.17         12.0 
       645.0         0.20         12.6 
       646.0         0.13         13.6 
       647.0         0.20         14.5 
       648.0         0.17         14.7 
       649.0         0.30         14.3 
       650.0         0.20         12.8 
       651.0         0.23         11.5 
       652.0         0.35         10.5 
       653.0         0.27         10.3 
       654.0         0.27         10.8 
       655.0         0.30         11.1 
       656.0         0.17         12.2 
       657.0         0.20         12.2 
       658.0         0.13         11.8 
       659.0         0.17         11.9 
       660.0         0.20         11.8 
       661.0         0.17         11.0 
       662.0         0.20         11.8 
       663.0         0.23         12.8 
       664.0         0.17         12.2 
       665.0         0.20         11.7 
       666.0         0.17         12.0 
       667.0         0.17         11.7 
       668.0         0.18         11.8 
       669.0         0.20         13.5 
       670.0         0.17         13.5 
       671.0         0.20         13.5 
       672.0         0.23         13.5 
       673.0         0.20         14.2 
       674.0         0.20         14.5 
       675.0         0.20         14.8 
       676.0         0.20         14.9 
       677.0         0.20         17.1 
       678.0         0.17         16.4 
       679.0         0.10         16.2 
       680.0         0.33         15.9 
       681.0         0.30         15.7 
       682.0         0.27         16.3 
       683.0         0.17         17.8 
       684.0         0.20         17.1 
       685.0         0.17         17.8 
       686.0         0.17         18.5 
       687.0         0.17         18.1 
       688.0         0.23         19.3 
       689.0         0.27         18.2 
       690.0         0.17         18.7 
       691.0         0.17         17.2 
       692.0         0.23         17.8 
       693.0         0.38         18.3 
       694.0         0.40         18.9 
       695.0         0.43         18.6 
       696.0         0.47         18.7 
       697.0         0.43         17.7 
       698.0         0.43         19.2 
       699.0         0.47         19.4 
       700.0         0.17         18.7 
       701.0         0.17         19.0 
       702.0         0.15         18.4 
       703.0         0.23         18.2 
       704.0         0.17         19.2 
       705.0         0.13         18.6 
       706.0         0.13         18.1 
       707.0         0.27         17.9 
       708.0         0.27         16.5 
       709.0         0.15         17.2 
       710.0         0.20         17.9 
       711.0         0.13         17.9 
       712.0         0.53         17.6 
       713.0         0.20         18.4 
       714.0         0.20         17.4 
       715.0         0.20         17.7 
       716.0         0.33         17.3 
       717.0         0.23         17.4 
       718.0         0.20         18.3 
       719.0         0.17         17.6 
       720.0         0.17         17.3 
       721.0         0.20         17.1 
       722.0         0.20         17.3 
       723.0         0.17         16.8 
       724.0         8.45         14.9 
       725.0         0.47         14.7 
       726.0         0.33         15.5 
       727.0         0.27         15.0 
       728.0         0.23         15.6 
       729.0         0.20         15.0 
       730.0         0.22         14.7 
       731.0         0.23         14.4 
       732.0         0.20         14.9 
       733.0         0.20         14.6 
       734.0         0.23         14.6 
       735.0         0.17         14.9 
       736.0         0.17         15.2 
       737.0         0.30         13.4 
       738.0         0.60         13.8 
       739.0         0.13         13.0 
       740.0         0.13         13.2 
       741.0         0.17         12.9 
       742.0         0.17         13.6 
       743.0         0.13         13.5 
       744.0         0.27         13.6 
       745.0         0.17         13.5 
       746.0         0.10         13.6 
       747.0         0.10         13.8 
       748.0         0.10         13.4 
       749.0         0.07         13.5 
       750.0         0.20         13.0 
       751.0         0.28         13.3 
       752.0         0.23         13.2 
       753.0         0.20         13.6 
       754.0         0.40         13.4 
       755.0         0.47         13.1 
       756.0         0.47         13.7 
       757.0         0.43         13.5 
       758.0         0.37         13.7 
       759.0         0.30         12.9 
       760.0         0.23         13.0 
       761.0         0.28         13.0 
       762.0         0.27         13.0 
       763.0         0.30         13.0 
       764.0         0.37         13.0 
       765.0         0.33         13.0 
       766.0         0.20         12.5 
       767.0         0.27         13.3 
       768.0         0.10         13.4 
       769.0         0.07         12.9 
       770.0         0.40         13.4 
       771.0         0.43         13.4 
       772.0         0.30         13.6 
       773.0         0.27         13.6 
       774.0         0.27         13.9 
       775.0         0.23         13.5 
       776.0         0.35         13.8 
       777.0         0.37         13.6 
       778.0         0.20         14.1 
       779.0         0.17         13.7 
       780.0         0.20         13.8 
       781.0         0.17         13.7 
       782.0         0.17         13.4 
       783.0         0.20         13.1 
       784.0         0.20         13.6 
       785.0         0.20         13.5 
       786.0         0.17         12.9 
       787.0         0.17         13.6 
       788.0         0.20         13.3 
       789.0         0.20         13.5 
       790.0         0.23         13.4 
       791.0         0.20         13.7 
       792.0         0.23         13.7 
       793.0         0.22         13.4 
       794.0         0.20         12.9 
       795.0         0.20         13.4 
       796.0         0.27         13.2 
       797.0         0.23         14.0 
       798.0         0.25         14.5 
       799.0         0.10         13.9 
       800.0         0.07         14.1 
       801.0         0.17         13.9 
       802.0         0.37         13.8 
       803.0         0.30         13.8 
       804.0         0.30         13.7 
       805.0         0.33         14.3 
       806.0         0.37         13.4 
       807.0         0.33         13.6 
       808.0         0.30         14.2 
       809.0         0.33         14.1 
       810.0         0.35         13.4 
       811.0         0.20         13.5 
       812.0         0.20         13.9 
       813.0         0.30         13.7 
       814.0         0.37         13.3 
       815.0         0.23         13.8 
       816.0         0.27         13.6 
       817.0         0.20         13.9 
       818.0         0.20         13.1 
       819.0         0.17         13.0 
       820.0         0.20         13.3 
       821.0         0.23         13.1 
       822.0         0.23         12.8 
       823.0         0.27         12.9 
