~Version Information
VERS.                      2.0: CWLS Log ASCII Standard - VERSION 2.0
WRAP.                       NO: One line per depth step
~Well Information Block
STRT.FT               920.0000: 
STOP.FT              3300.2000: 
STEP.FT                 0.1000: 
NULL.                -999.2500: 
COMP.          Pioneer Natural Resources: COMPANY
WELL.              Vespar 43-7: WELL
FLD.           Purgatoire River: FIELD
LOC.           2338' FSL & 1141' FEL: LOCATION
PROV.                 Colorado: PROVINCE
CNTY.               Las Animas: COUNTRY
SRVC.                Patterson: SERVICE COMPANY
DATE.          Wed Jan 26 13:38:02 2005: LOG DATE
UWI.           05 071 07955 00: UNIQUE WELL ID
~Curve Information Block
DEPT.FT            0 000 00 00: Depth
DCAL.in                       : CDL Caliper
RHOB.g/cc                     : CDL Bulk Density
RHOC.g/cc                     : CDL Density Correction
DPOR.pu                       : CDL Density Porosity
NPOR.pu                       : Neutron Porosity
GR.GAPI                       : Gamma Ray
~Parameter Information Block
~A  Depth       DCAL        RHOB        RHOC        DPOR        NPOR         GR     
# ...
  2177.6000      7.9373      2.7926     -0.0553     -8.6400     37.0278     69.4408
  2177.7000      7.9373      2.8113      0.0015     -9.7755     37.3096     69.8468
  2177.8000      7.9370      2.8370     -0.0160    -11.3320     37.2220     69.4417
  2177.9000      7.9370      2.8503      0.0462    -12.1422     37.2181     72.0928
  2178.0000      7.9347      2.8346      0.0195    -11.1866     37.4848     77.3913
  2178.1000      7.9347      2.8038     -0.0042     -9.3204     37.8039     82.1702
  2178.2000      7.9347      2.7779      0.0078     -7.7544     37.8934     87.3875
  2178.3000      7.9340      2.7502      0.0329     -6.0722     37.6598     96.8026
  2178.4000      7.9340      2.7090      0.0069     -3.5762     37.1530    107.5761
  2178.5000      7.9344      2.6584     -0.0302     -0.5062     36.4205    113.2851
  2178.6000      7.9344      2.6176     -0.0997      1.9630     35.5971    114.4745
  2178.7000      7.9344      2.6054     -0.0184      2.7050     34.6696    116.5674
  2178.8000      7.9351      2.6053      0.0156      2.7094     33.4520    121.8624
  2178.9000      7.9351      2.5848      0.0482      3.9543     31.8783    131.2061
  2179.0000      7.9395      2.5520     -0.0147      5.9417     30.1930    141.5935
  2179.1000      7.9395      2.5389      0.0400      6.7328     28.8547    145.9198
  2179.2000      7.9395      2.5462      0.0295      6.2915     28.1081    144.6353
  2179.3000      7.9477      2.5639      0.0068      5.2152     27.9404    143.0786
  2179.4000      7.9477      2.5884      0.0616      3.7316     28.1426    143.2528
  2179.5000      7.9555      2.6014      0.0936      2.9446     28.3249    145.1288
  2179.6000      7.9555      2.5952      0.0028      3.3194     28.1188    148.7082
  2179.7000      7.9555      2.5821      0.0745      4.1178     27.4844    154.5607
  2179.8000      7.9604      2.5722      0.0660      4.7153     26.8738    160.3652
  2179.9000      7.9604      2.5755      0.0701      4.5170     26.7689    159.7189
  2180.0000      7.9614      2.5896      0.1040      3.6585     27.3588    152.3797
  2180.1000      7.9614      2.5960      0.1111      3.2710     28.2254    145.1260
  2180.2000      7.9614      2.5804      0.0878      4.2191     28.8078    141.3644
  2180.3000      7.9545      2.5445      0.0267      6.3945     29.0373    141.1857
  2180.4000      7.9545      2.5058     -0.0033      8.7389     28.8608    144.6360
  2180.5000      7.9441      2.4828      0.0191     10.1349     28.1678    149.4396
  2180.6000      7.9441      2.4765      0.0425     10.5134     27.1804    153.1906
  2180.7000      7.9441      2.4765     -0.0056     10.5181     26.4768    155.8843
  2180.8000      7.9433      2.4791      0.0204     10.3563     26.4528    157.9719
  2180.9000      7.9433      2.4892      0.0283      9.7475     26.8261    160.9577
  2181.0000      7.9478      2.5154      0.0052      8.1564     27.0904    163.3264
  2181.1000      7.9478      2.5610      0.0885      5.3936     27.1047    158.5226
  2181.2000      7.9478      2.6089      0.1504      2.4921     26.9828    145.0375
  2181.3000      7.9480      2.6428      0.1118      0.4341     26.9467    130.1810
  2181.4000      7.9480      2.6706      0.1573     -1.2484     26.9906    122.5482
  2181.5000      7.9471      2.7016      0.1735     -3.1256     26.9933    125.1125
  2181.6000      7.9471      2.7236      0.2810     -4.4576     27.1007    133.1304
  2181.7000      7.9471      2.7207      0.1873     -4.2822     27.2350    138.1228
  2181.8000      7.9485      2.7044      0.1199     -3.2990     27.5694    140.4121
  2181.9000      7.9485      2.7001      0.0301     -3.0373     28.3314    145.1472
  2182.0000      7.9475      2.7088      0.0961     -3.5613     28.8494    148.8094
  2182.1000      7.9475      2.7073      0.0426     -3.4713     28.6997    146.1171
  2182.2000      7.9475      2.6915     -0.0084     -2.5178     28.4931    140.5627
  2182.3000      7.9447      2.6771      0.0023     -1.6398     28.7066    138.6870
  2182.4000      7.9447      2.6648      0.0604     -0.8972     28.8946    138.5296
  2182.5000      7.9445      2.6423      0.0153      0.4673     28.6156    135.4516
  2182.6000      7.9445      2.6129      0.0376      2.2470     28.2286    131.4541
  2182.7000      7.9445      2.5985     -0.0089      3.1222     28.3315    128.9649
  2182.8000      7.9461      2.6062      0.0521      2.6573     28.9201    126.0168
  2182.9000      7.9461      2.6224     -0.0159      1.6715     29.4610    120.9196
  2183.0000      7.9470      2.6362      0.0096      0.8370     29.7468    116.7968
  2183.1000      7.9470      2.6317      0.0629      1.1097     29.8730    117.0539
  2183.2000      7.9470      2.6068      0.0013      2.6188     30.0134    118.2359
  2183.3000      7.9466      2.5894      0.0074      3.6743     30.2764    116.7502
  2183.4000      7.9466      2.5954      0.0635      3.3117     30.2850    116.5089
  2183.5000      7.9489      2.6175      0.0455      1.9707     29.9487    120.6907
  2183.6000      7.9489      2.6491      0.0714      0.0547     29.8578    124.5730
  2183.7000      7.9489      2.6741      0.1102     -1.4583     30.2543    123.2433
  2183.8000      7.9572      2.6694      0.0353     -1.1767     30.8062    119.5121
  2183.9000      7.9572      2.6433     -0.0025      0.4076     31.1524    116.3718
  2184.0000      7.9642      2.6272     -0.0061      1.3802     31.1488    112.4314
  2184.1000      7.9642      2.6402     -0.0235      0.5917     30.8238    108.6701
  2184.2000      7.9642      2.6698      0.0223     -1.1987     30.2165    108.4123
  2184.3000      7.9651      2.6823      0.0745     -1.9602     29.3523    112.7540
  2184.4000      7.9651      2.6661      0.0433     -0.9743     28.5604    118.1996
  2184.5000      7.9594      2.6346      0.0631      0.9357     28.2368    120.6464
  2184.6000      7.9594      2.6096      0.0012      2.4471     28.1835    119.1833
  2184.7000      7.9594      2.6094      0.0442      2.4634     27.9753    115.9154
  2184.8000      7.9487      2.6221      0.0868      1.6888     27.6256    113.8066
  2184.9000      7.9487      2.6280      0.0280      1.3309     27.5268    114.4370
  2185.0000      7.9413      2.6309      0.0474      1.1554     27.6625    118.2521
  2185.1000      7.9413      2.6309      0.0734      1.1571     27.5995    122.1568
  2185.2000      7.9413      2.6173      0.0649      1.9820     27.5758    119.0254
  2185.3000      7.9410      2.5978      0.0268      3.1611     27.8972    112.3242
  2185.4000      7.9410      2.5930      0.0456      3.4558     28.0070    110.1590
  2185.5000      7.9416      2.6127      0.0792      2.2603     27.5991    110.9748
  2185.6000      7.9416      2.6503      0.1031     -0.0209     27.0794    111.3540
  2185.7000      7.9416      2.6824      0.1112     -1.9638     26.7144    111.3065
  2185.8000      7.9369      2.6871      0.0445     -2.2512     26.5114    110.6374
  2185.9000      7.9369      2.6674      0.0721     -1.0562     26.4598    108.9818
  2186.0000      7.9317      2.6366      0.0498      0.8128     26.5938    107.2671
  2186.1000      7.9317      2.6010      0.0484      2.9682     26.7458    103.7516
  2186.2000      7.9317      2.5680      0.0277      4.9682     26.2188     98.0266
  2186.3000      7.9292      2.5515     -0.0308      5.9727     24.7171     92.1911
  2186.4000      7.9292      2.5511      0.0865      5.9935     23.1234     86.1736
  2186.5000      7.9303      2.5487      0.0157      6.1388     22.3576     81.3801
  2186.6000      7.9303      2.5404      0.0222      6.6425     22.3382     80.3333
  2186.7000      7.9303      2.5365      0.0200      6.8790     22.4190     82.8824
  2186.8000      7.9319      2.5398      0.0494      6.6798     22.1405     84.9939
  2186.9000      7.9319      2.5398      0.0524      6.6812     21.7668     82.4830
  2187.0000      7.9319      2.5294      0.0404      7.3081     21.7264     76.4697
  2187.1000      7.9319      2.5153      0.0173      8.1662     21.9746     72.4173
