~Version Information
VERS.                      2.0: CWLS Log ASCII Standard - VERSION 2.0
WRAP.                       NO: One line per depth step
~Well Information Block
STRT.FT                -4.2500: 
STOP.FT              2218.5000: 
STEP.FT                 0.2500: 
NULL.                -999.2500: 
COMP.          Pioneer Natural Resources: COMPANY
WELL.             Warrior 32-1: WELL
FLD.           Purgatorie River: FIELD
LOC.           2624' FNL & 2392' FEL--: LOCATION
PROV.                       CO: PROVINCE
CNTY.               Las Animas: COUNTRY
SRVC.                         : SERVICE COMPANY
DATE.          Tue Oct 12 10:54:12 2004: LOG DATE
UWI.           005 071 08176 : UNIQUE WELL ID
~Curve Information Block
DEPT.FT            0 000 00 00: Depth
GR.GAPI                       : Gamma Ray
CCL.                          : Casing Collar Locator
TT3.usec                      : CBL 3' Travel Time
AMP3.mV                       : CBL 3' Amplitude
~Parameter Information Block
~A  Depth        GR         CCL         TT3         AMP3    
# ...
  1302.2500     92.7462      0.0000    774.7097      3.9636
  1302.5000     97.5570      0.0000    789.4395      3.9686
  1302.7500    104.1446      0.0000    796.8657      4.0600
  1303.0000    112.4204      0.0000    792.9442      4.2206
  1303.2500    122.2913      0.0000    776.7822      4.3595
  1303.5000    133.1220      0.0000    751.5962      4.3988
  1303.7500    143.2725      0.0000    723.0034      4.3386
  1304.0000    150.8326      0.0000    696.5430      4.2378
  1304.2500    154.9748      0.0000    676.8491      4.1545
  1304.5000    156.4676      0.0000    667.4683      4.1073
  1304.7500    156.9283      0.0000    669.2342      4.0790
  1305.0000    157.5966      0.0000    678.5688      4.0481
  1305.2500    158.8862      0.0000    688.6957      4.0158
  1305.5000    161.0802      0.0000    693.5535      4.0013
  1305.7500    164.6864      0.0000    691.1304      4.0187
  1306.0000    169.3868      0.0000    683.8870      4.0667
  1306.2500    173.1375      0.0000    676.5701      4.1342
  1306.5000    173.2733      0.0000    673.7222      4.2059
  1306.7500    168.6572      0.0000    678.5677      4.2676
  1307.0000    160.5710      0.0000    692.6635      4.3156
  1307.2500    151.5551      0.0000    714.9024      4.3608
  1307.5000    143.2272      0.0000    741.0084      4.4195
  1307.7500    135.0365      0.0000    765.4500      4.4989
  1308.0000    125.3604      0.0000    784.6826      4.5874
  1308.2500    113.9481      0.0000    798.3726      4.6595
  1308.5000    102.8832      0.0000    808.0845      4.6961
  1308.7500     94.9595      0.0000    815.5189      4.7036
  1309.0000     91.4159      0.0000    821.2025      4.7090
  1309.2500     91.1969      0.0000    823.4508      4.7358
  1309.5000     92.0513      0.0000    818.8945      4.7856
  1309.7500     92.4403      0.0000    805.4517      4.8424
  1310.0000     92.5990      0.0000    785.1681      4.8902
  1310.2500     93.5849      0.0000    763.5693      4.9250
  1310.5000     95.4163      0.0000    746.2888      4.9552
  1310.7500     96.8658      0.0000    736.0873      4.9943
  1311.0000     97.1717      0.0000    731.9922      5.0497
  1311.2500     96.9653      0.0000    730.9882      5.1124
  1311.5000     97.1582      0.0000    731.3291      5.1562
  1311.7500     97.8324      0.0000    734.1591      5.1500
  1312.0000     98.7236      0.0000    741.5612      5.0760
  1312.2500    100.0253      0.0000    753.6260      4.9405
  1312.5000    102.1665      0.0000    767.6241      4.7715
  1312.7500    105.3762      0.0000    778.9349      4.6062
  1313.0000    109.9535      0.0000    782.4789      4.4737
  1313.2500    116.4999      0.0000    774.6187      4.3839
  1313.5000    125.1883      0.0000    755.1140      4.3246
  1313.7500    134.9037      0.0000    727.9064      4.2680
  1314.0000    143.8004      0.0000    700.1104      4.1909
  1314.2500    150.7163      0.0000    679.1460      4.0959
  1314.5000    155.3659      0.0000    668.8238      4.0109
  1314.7500    157.3087      0.0000    666.7714      3.9652
  1315.0000    155.7704      0.0000    666.1662      3.9667
  1315.2500    150.8990      0.0000    661.4548      3.9961
  1315.5000    144.6745      0.0000    653.3142      4.0171
  1315.7500    140.1630      0.0000    648.3748      3.9995
  1316.0000    139.5763      0.0000    654.0815      3.9420
  1316.2500    142.5101      0.0000    672.8009      3.8735
  1316.5000    145.9141      0.0000    699.7628      3.8265
  1316.7500    146.3053      0.0000    726.8159      3.8144
  1317.0000    142.2919      0.0000    748.6718      3.8351
  1317.2500    135.0006      0.0000    765.6192      3.8826
  1317.5000    126.5526      0.0000    781.0991      3.9468
  1317.7500    118.6428      0.0000    797.8678      4.0099
  1318.0000    112.3638      0.0000    815.6486      4.0574
  1318.2500    108.6167      0.0000    830.2730      4.0913
  1318.5000    108.1153      0.0000    835.3038      4.1275
  1318.7500    110.8706      0.0000    826.9357      4.1807
  1319.0000    115.7790      0.0000    808.0692      4.2533
  1319.2500    120.8226      0.0000    786.1144      4.3314
  1319.5000    124.0006      0.0000    766.8187      4.3878
  1319.7500    124.6257      0.0000    751.7722      4.3953
  1320.0000    124.0805      0.0000    740.5236      4.3489
  1320.2500    125.2258      0.0000    731.7301      4.2728
  1320.5000    130.4793      0.0000    722.5927      4.1999
  1320.7500    139.8015      0.0000    710.4220      4.1475
  1321.0000    150.2503      0.0000    695.4762      4.1120
  1321.2500    157.7466      0.0000    680.7125      4.0826
  1321.5000    159.8291      0.0000    668.7286      4.0520
  1321.7500    157.0290      0.0000    660.1169      4.0192
  1322.0000    151.7265      0.0000    654.5882      3.9884
  1322.2500    145.9637      0.0000    652.1654      3.9625
  1322.5000    140.4379      0.0000    652.7112      3.9341
  1322.7500    135.0830      0.0000    655.2136      3.8902
  1323.0000    130.0051      0.0000    658.4432      3.8306
  1323.2500    125.7848      0.0000    662.2161      3.7762
  1323.5000    123.2354      0.0000    667.5994      3.7527
  1323.7500    123.0632      0.0000    675.6708      3.7650
  1324.0000    125.4982      0.0000    686.1252      3.7925
  1324.2500    129.8851      0.0000    697.5705      3.8138
  1324.5000    134.7394      0.0000    709.6562      3.8302
  1324.7500    138.7403      0.0000    724.4551      3.8617
  1325.0000    141.9272      0.0000    744.7560      3.9224
  1325.2500    145.6259      0.0000    770.6547      4.0069
  1325.5000    150.9132      0.0000    798.1240      4.1006
  1325.7500    157.2665      0.0000    821.1989      4.1933
  1326.0000    162.7182      0.0000    835.1398      4.2805
  1326.2500    164.9727      0.0000    837.1995      4.3582
  1326.5000    162.4908      0.0000    826.3429      4.4215
  1326.7500    155.2510      0.0000    804.7336      4.4677
  1327.0000    144.8507      0.0000    778.7552      4.4954
  1327.2500    133.5568      0.0000    756.3093      4.5059
  1327.5000    123.0653      0.0000    742.4179      4.5063
  1327.7500    114.2759      0.0000    737.4243      4.5050
  1328.0000    107.9330      0.0000    739.3449      4.5018
  1328.2500    104.7713      0.0000    747.9160      4.4849
  1328.5000    104.8477      0.0000    765.2747      4.4451
  1328.7500    107.1753      0.0000    791.2500      4.3940
  1329.0000    110.2892      0.0000    819.1196      4.3598
  1329.2500    113.0245      0.0000    838.6679      4.3603
  1329.5000    114.8491      0.0000    843.4329      4.3815
  1329.7500    115.9127      0.0000    833.6790      4.3878
  1330.0000    116.8540      0.0000    813.7161      4.3501
  1330.2500    118.1952      0.0000    789.3466      4.2655
  1330.5000    119.8361      0.0000    767.9354      4.1607
  1330.7500    121.2192      0.0000    757.0420      4.0771
  1331.0000    121.7575      0.0000    759.7355      4.0414
  1331.2500    120.9648      0.0000    772.2299      4.0460
  1331.5000    118.6273      0.0000    788.3306      4.0637
  1331.7500    115.1565      0.0000    804.9460      4.0772
  1332.0000    111.4928      0.0000    820.9863      4.0888
  1332.2500    108.4833      0.0000    833.0117      4.1061
  1332.5000    106.6194      0.0000    835.7757      4.1300
  1332.7500    106.3814      0.0000    826.6767      4.1578
  1333.0000    108.4620      0.0000    807.4725      4.1909
  1333.2500    113.2279      0.0000    782.5858      4.2364
  1333.5000    119.9504      0.0000    757.9966      4.3036
  1333.7500    126.9987      0.0000    741.0400      4.3959
  1334.0000    133.1314      0.0000    737.9579      4.5021
  1334.2500    138.3849      0.0000    749.8639      4.6021
  1334.5000    143.2399      0.0000    772.0334      4.6821
  1334.7500    147.0353      0.0000    797.7338      4.7462
  1335.0000    147.8498      0.0000    822.0002      4.8101
  1335.2500    144.2331      0.0000    841.4982      4.8902
  1335.5000    136.7038      0.0000    852.2733      4.9913
