~Version Information
VERS.                      2.0: CWLS Log ASCII Standard - VERSION 2.0
WRAP.                       NO: One line per depth step
~Well Information Block
STRT.FT                -7.5000: 
STOP.FT              2304.7500: 
STEP.FT                 0.2500: 
NULL.                -999.2500: 
COMP.          Pioneer Natural Resources: COMPANY
WELL.          Foothills 12-36: WELL
FLD.           Purgatorie River: FIELD
LOC.           2450' FNL & 201' FWL--: LOCATION
PROV.                       CO: PROVINCE
CNTY.               Las Animas: COUNTRY
SRVC.          Patterson Wireline: SERVICE COMPANY
DATE.          Tue Apr 26 11:10:08 2005: LOG DATE
UWI.           05 071 08339 00: UNIQUE WELL ID
~Curve Information Block
DEPT.FT            0 000 00 00: Depth
CCL.                          : Casing Collar Locator
TT3.usec                      : CBL 3' Travel Time
AMP3.mV                       : CBL 3' Amplitude
GR.GAPI                       : Gamma Ray
~Parameter Information Block
~A  Depth       CCL         TT3         AMP3         GR     
# ...
   294.0000      0.0000    413.2350     12.8252    148.1021
   294.2500      0.0000    432.0553     12.8948    142.9925
   294.5000      0.0000    470.9949     13.0032    137.4049
   294.7500      0.0000    512.4752     13.1333    132.1632
   295.0000      0.0000    541.1800     13.2318    127.8503
   295.2500      0.0000    555.7005     13.2276    125.3926
   295.5000      0.0000    567.4586     13.0702    125.8214
   295.7500      0.0000    588.2838     12.7606    129.2649
   296.0000      0.0000    619.9368     12.3497    134.5830
   296.2500      0.0000    654.7166     11.9053    139.9965
   296.5000      0.0000    683.8795     11.4795    143.9453
   296.7500      0.0000    704.2292     11.1053    145.7242
   297.0000      0.0000    717.4365     10.8160    145.6792
   297.2500      0.0000    725.6640     10.6488    144.6407
   297.5000      0.0000    729.5875     10.6118    142.8896
   297.7500      0.0000    729.8063     10.6528    139.9447
   298.0000      0.0000    728.2867     10.6800    135.8652
   298.2500      0.0000    727.5475     10.6267    132.4249
   298.5000      0.0000    729.0144     10.4970    131.9096
   298.7500      0.0000    732.4892     10.3460    134.5794
   299.0000      0.0000    736.8787     10.2238    138.2953
   299.2500      0.0000    741.0116     10.1481    141.0591
   299.5000      0.0000    744.0960     10.1230    143.0124
   299.7500      0.0000    745.8834     10.1604    145.2541
   300.0000      0.0000    746.5084     10.2733    147.4732
   300.2500      0.0000    746.3249     10.4574    148.0168
   300.5000      0.0000    746.0767     10.6787    146.3101
   300.7500      0.0000    747.0167     10.8803    144.0030
   301.0000      0.0000    750.2596     11.0110    143.2395
   301.2500      0.0000    755.7095     11.0601    144.6867
   301.5000      0.0000    761.9088     11.0580    147.7105
   301.7500      0.0000    767.1851     11.0398    151.5916
   302.0000      0.0000    770.9128     11.0150    155.9354
   302.2500      0.0000    773.6068     10.9704    160.2830
   302.5000      0.0000    775.9808     10.8869    163.8433
   302.7500      0.0000    778.2551     10.7495    165.9355
   303.0000      0.0000    780.2722     10.5492    166.6775
   303.2500      0.0000    781.5803     10.2818    166.5607
   303.5000      0.0000    781.2339      9.9475    165.1591
   303.7500      0.0000    778.2980      9.5586    161.3430
   304.0000      0.0000    772.8373      9.1473    155.1367
   304.2500      0.0000    765.9991      8.7575    148.1615
   304.5000      0.0000    759.1980      8.4210    141.7213
   304.7500      0.0000    753.5238      8.1462    135.4839
   305.0000      0.0000    749.5510      7.9290    128.6782
   305.2500      0.0000    747.2493      7.7632    121.9960
   305.5000      0.0000    746.1443      7.6401    117.6111
   305.7500      0.0000    745.7042      7.5449    117.3040
   306.0000      0.0000    745.6095      7.4624    121.0070
   306.2500      0.0000    745.7631      7.3887    127.1385
   306.5000      0.0000    746.2581      7.3332    133.6643
   306.7500      0.0000    747.4247      7.3071    138.7488
   307.0000      0.0000    749.7774      7.3119    141.3252
   307.2500      0.0000    753.5566      7.3430    141.6617
   307.5000      0.0000    758.0286      7.3994    141.0533
   307.7500      0.0000    761.5115      7.4858    140.5581
   308.0000      0.0000    762.7730      7.6031    140.1472
   308.2500      0.0000    762.5397      7.7397    139.2825
   308.5000      0.0000    763.0178      7.8757    137.9312
   308.7500      0.0000    765.5101      7.9979    136.5281
   309.0000      0.0000    768.8073      8.1099    135.1556
   309.2500      0.0000    770.3298      8.2235    133.3465
   309.5000      0.0000    768.8743      8.3400    130.7703
   309.7500      0.0000    766.0417      8.4466    127.6913
   310.0000      0.0000    764.8499      8.5379    124.5868
   310.2500      0.0000    766.9423      8.6322    121.6889
   310.5000      0.0000    771.0995      8.7522    119.1798
   310.7500      0.0000    774.2766      8.8948    117.5704
   311.0000      0.0000    773.9475      9.0298    117.4550
   311.2500      0.0000    769.7330      9.1288    118.9817
   311.5000      0.0000    763.3366      9.1845    121.9296
   311.7500      0.0000    757.1910      9.2079    126.1498
   312.0000      0.0000    753.0425      9.2172    131.2339
   312.2500      0.0000    751.5391      9.2293    135.5702
   312.5000      0.0000    752.7059      9.2507    136.5613
   312.7500      0.0000    756.2130      9.2722    132.6558
   313.0000      0.0000    761.0502      9.2774    125.1071
   313.2500      0.0000    765.6349      9.2580    117.2421
   313.5000      0.0000    769.1874      9.2132    111.8042
   313.7500      0.0000    772.8900      9.1403    109.0282
   314.0000      0.0000    778.7193      9.0435    107.1077
   314.2500      0.0000    786.8361      8.9498    104.2559
   314.5000      0.0000    794.9346      8.8961    100.3304
   314.7500      0.0000    800.5795      8.8954     96.7430
   315.0000      0.0000    803.4965      8.9233     95.0218
   315.2500      0.0000    804.9966      8.9428     95.7468
   315.5000      0.0000    805.6805      8.9354     98.7990
   315.7500      0.0000    804.7475      8.9063    103.8734
   316.0000      0.0000    801.6461      8.8684    110.1827
   316.2500      0.0000    797.3698      8.8322    116.1477
   316.5000      0.0000    793.5983      8.8113    120.0877
   316.7500      0.0000    791.1977      8.8281    121.2291
   317.0000      0.0000    789.9503      8.9057    119.9850
   317.2500      0.0000    789.2712      9.0536    117.5384
   317.5000      0.0000    788.8020      9.2640    115.1457
   317.7500      0.0000    788.4886      9.5148    113.4289
   318.0000      0.0000    788.4405      9.7704    112.1672
   318.2500      0.0000    788.8058      9.9832    110.9507
   318.5000      0.0000    789.7869     10.1124    109.9547
   318.7500      0.0000    791.6260     10.1545    109.7741
   319.0000      0.0000    794.3051     10.1523    110.6689
   319.2500      0.0000    797.1970     10.1654    112.2578
   319.5000      0.0000    799.4095     10.2294    113.5979
   319.7500      0.0000    800.7275     10.3404    113.2894
   320.0000      0.0000    801.5984     10.4703    110.3270
   320.2500      0.0000    801.5818     10.5847    105.8273
   320.5000      0.0000    798.5214     10.6541    103.3177
   320.7500      0.0000    790.4859     10.6665    106.0707
   321.0000      0.0000    778.5103     10.6328    114.0221
   321.2500      0.0000    766.4594     10.5720    123.5692
   321.5000      0.0000    758.1071     10.4952    130.1821
   321.7500      0.0000    754.9689     10.4115    131.2624
   322.0000      0.0000    756.6849     10.3397    127.1577
   322.2500      0.0000    762.5573     10.2955    120.0015
   322.5000      0.0000    772.3553     10.2515    111.8272
   322.7500      0.0000    785.5523     10.1135    103.7462
   323.0000      0.0000    799.4740      9.7652     96.4298
   323.2500      0.0000    808.6582      9.1823     90.5892
   323.5000      0.0000    807.6064      8.5028     86.7213
   323.7500      0.0000    795.0299      7.9436     84.6737
   324.0000      0.0000    775.2141      7.6362     83.6169
   324.2500     -2.0000    755.4375      7.5579     82.4388
   324.5000      0.0000    742.3864      7.6040     80.3968
   324.7500      2.0000    739.9043      7.6843     77.5967
   325.0000      0.0000    748.0726      7.7616     74.7404
   325.2500      0.0000    763.0555      7.8468     72.5972
   325.5000      0.0000    777.5516      7.9835     71.7995
   325.7500      0.0000    782.0673      8.2212     72.5519
   326.0000      0.0000    768.8781      8.5829     74.1569
   326.2500      0.0000    738.7408      9.0572     75.2141
   326.5000      0.0000    704.3242      9.6123     74.6040
   326.7500      0.0000    683.3135     10.2019     72.1321
   327.0000      0.0000    684.6805     10.7670     68.3569
   327.2500      0.0000    702.2649     11.2534     64.2579
