~Version Information
VERS.                      2.0: CWLS Log ASCII Standard - VERSION 2.0
WRAP.                       NO: One line per depth step
~Well Information Block
STRT.FT                -4.2500: 
STOP.FT              2218.5000: 
STEP.FT                 0.2500: 
NULL.                -999.2500: 
COMP.          Pioneer Natural Resources: COMPANY
WELL.             Warrior 32-1: WELL
FLD.           Purgatorie River: FIELD
LOC.           2624' FNL & 2392' FEL--: LOCATION
PROV.                       CO: PROVINCE
CNTY.               Las Animas: COUNTRY
SRVC.                         : SERVICE COMPANY
DATE.          Tue Oct 12 10:54:12 2004: LOG DATE
UWI.           005 071 08176 : UNIQUE WELL ID
~Curve Information Block
DEPT.FT            0 000 00 00: Depth
GR.GAPI                       : Gamma Ray
CCL.                          : Casing Collar Locator
TT3.usec                      : CBL 3' Travel Time
AMP3.mV                       : CBL 3' Amplitude
~Parameter Information Block
~A  Depth        GR         CCL         TT3         AMP3    
# ...
  1737.7500     94.7838      0.0000    689.6998      3.8066
  1738.0000     92.2936      0.0000    710.6858      3.8317
  1738.2500     88.6158      0.0000    726.0620      3.8264
  1738.5000     82.8146      0.0000    732.5528      3.7961
  1738.7500     76.2319      0.0000    729.8351      3.7672
  1739.0000     71.1759      0.0000    720.5944      3.7613
  1739.2500     68.8859      0.0000    710.0992      3.7799
  1739.5000     68.9164      0.0000    703.7074      3.8134
  1739.7500     70.1475      0.0000    703.5200      3.8568
  1740.0000     71.7720      0.0000    707.3571      3.9106
  1740.2500     73.2870      0.0000    711.3304      3.9703
  1740.5000     74.2289      0.0000    713.7762      4.0208
  1740.7500     74.5350      0.0000    716.3801      4.0482
  1741.0000     74.9886      0.0000    721.2057      4.0551
  1741.2500     76.6865      0.0000    727.6880      4.0549
  1741.5000     79.7916      0.0000    733.1493      4.0512
  1741.7500     83.0555      0.0000    734.8762      4.0311
  1742.0000     84.8204      0.0000    730.2686      3.9859
  1742.2500     84.3803      0.0000    715.8445      3.9289
  1742.5000     82.4184      0.0000    688.8160      3.8852
  1742.7500     80.4561      0.0000    651.9835      3.8675
  1743.0000     79.7301      0.0000    616.9269      3.8664
  1743.2500     80.1010      0.0000    599.3381      3.8622
  1743.5000     80.1805      0.0000    608.2335      3.8436
  1743.7500     78.9428      0.0000    638.9756      3.8164
  1744.0000     76.9096      0.0000    677.1196      3.7997
  1744.2500     75.2878      0.0000    708.8844      3.8099
  1744.5000     74.2750      0.0000    728.4166      3.8446
  1744.7500     72.8743      0.0000    737.3473      3.8818
  1745.0000     70.4113      0.0000    740.1724      3.9015
  1745.2500     67.7595      0.0000    740.6536      3.9064
  1745.5000     66.6767      0.0000    740.8102      3.9176
  1745.7500     68.0617      0.0000    741.3376      3.9565
  1746.0000     71.1241      0.0000    742.2545      4.0304
  1746.2500     73.9667      0.0000    743.4457      4.1219
  1746.5000     74.7476      0.0000    744.9851      4.1894
  1746.7500     72.9896      0.0000    747.0870      4.1906
  1747.0000     70.4852      0.0000    749.6401      4.1151
  1747.2500     70.4551      0.0000    751.7955      3.9917
  1747.5000     74.8478      0.0000    752.4010      3.8641
  1747.7500     82.1284      0.0000    751.1849      3.7612
  1748.0000     88.0513      0.0000    749.3498      3.6887
  1748.2500     88.9181      0.0000    748.6721      3.6413
  1748.5000     84.2033      0.0000    749.9672      3.6218
  1748.7500     76.4037      0.0000    752.4161      3.6474
  1749.0000     68.8938      0.0000    754.3124      3.7341
  1749.2500     63.8195      0.0000    754.5162      3.8733
  1749.5000     61.3722      0.0000    753.2327      4.0281
  1749.7500     60.6047      0.0000    751.4767      4.1568
  1750.0000     60.7112      0.0000    750.2198      4.2399
  1750.2500     61.3667      0.0000    750.4139      4.2815
  1750.5000     62.2325      0.0000    753.8266      4.2889
  1750.7500     62.8692      0.0000    763.4214      4.2530
  1751.0000     63.1831      0.0000    782.0006      4.1594
  1751.2500     63.5360      0.0000    809.2184      4.0182
  1751.5000     64.6445      0.0000    839.5333      3.8666
  1751.7500     67.6993      0.0000    863.8954      3.7312
  1752.0000     74.1238      0.0000    874.4636      3.6099
  1752.2500     84.4655      0.0000    869.0398      3.5053
  1752.5000     97.4020      0.0000    852.8610      3.4419
  1752.7500    110.3102      0.0000    835.9075      3.4307
  1753.0000    121.1879      0.0000    825.2800      3.4435
  1753.2500    129.7928      0.0000    818.7758      3.4430
  1753.5000    136.8224      0.0000    808.2976      3.4205
  1753.7500    142.8095      0.0000    790.5165      3.4020
  1754.0000    148.3626      0.0000    771.5320      3.4371
  1754.2500    154.3787      0.0000    759.8483      3.5708
  1754.5000    160.9305      0.0000    756.9249      3.7896
  1754.7500    166.6939      0.0000    756.2952      3.9994
  1755.0000    170.3842      0.0000    751.0660      4.0963
  1755.2500    172.0568      0.0000    740.2936      4.0587
  1755.5000    172.4300      0.0000    727.9781      3.9468
  1755.7500    171.8721      0.0000    718.3555      3.8334
  1756.0000    170.7313      0.0000    713.5439      3.7621
  1756.2500    169.8811      0.0000    713.8564      3.7513
  1756.5000    170.0881      0.0000    718.1426      3.8010
  1756.7500    170.7420      0.0000    723.9370      3.8933
  1757.0000    169.6466      0.0000    728.6291      3.9988
  1757.2500    164.8955      0.0000    731.0979      4.0873
  1757.5000    157.2334      0.0000    731.8470      4.1333
  1757.7500    149.7748      0.0000    731.4297      4.1205
  1758.0000    145.1740      0.0000    729.3724      4.0484
  1758.2500    143.8240      0.0000    725.1400      3.9344
  1758.5000    144.6698      0.0000    719.6954      3.8043
  1758.7500    146.4943      0.0000    715.3644      3.6810
  1759.0000    148.2125      0.0000    714.0845      3.5818
  1759.2500    149.0034      0.0000    716.0056      3.5203
  1759.5000    148.6329      0.0000    719.6109      3.5031
  1759.7500    147.1723      0.0000    722.7627      3.5229
  1760.0000    144.3060      0.0000    723.6787      3.5557
  1760.2500    139.4332      0.0000    721.7271      3.5691
  1760.5000    132.6441      0.0000    718.0454      3.5409
  1760.7500    125.3096      0.0000    715.2330      3.4743
  1761.0000    119.4188      0.0000    715.7572      3.3963
  1761.2500    116.1678      0.0000    720.2443      3.3403
  1761.5000    115.1932      0.0000    727.1469      3.3266
  1761.7500    115.2540      0.0000    733.9943      3.3571
  1762.0000    115.4557      0.0000    739.0378      3.4173
  1762.2500    115.5944      0.0000    741.9382      3.4836
  1762.5000    115.7969      0.0000    743.2966      3.5345
  1762.7500    116.4519      0.0000    743.8458      3.5632
  1763.0000    118.1707      0.0000    744.0201      3.5816
  1763.2500    121.0815      0.0000    743.9412      3.6128
  1763.5000    124.1920      0.0000    743.5836      3.6742
  1763.7500    125.9332      0.0000    742.9756      3.7634
  1764.0000    125.6534      0.0000    742.2734      3.8578
  1764.2500    124.6103      0.0000    741.5926      3.9319
  1764.5000    125.1338      0.0000    740.7567      3.9757
  1764.7500    128.4709      0.0000    739.3568      3.9948
  1765.0000    133.5901      0.0000    737.2917      3.9953
  1765.2500    138.1985      0.0000    735.2977      3.9754
  1765.5000    140.5796      0.0000    734.6526      3.9375
  1765.7500    140.3086      0.0000    736.0745      3.9018
  1766.0000    137.7819      0.0000    739.0261      3.8967
  1766.2500    133.7940      0.0000    742.2319      3.9304
  1766.5000    129.5172      0.0000    744.6027      3.9797
  1766.7500    126.1142      0.0000    745.4432      4.0144
  1767.0000    123.9408      0.0000    743.9136      4.0294
  1767.2500    122.5461      0.0000    738.5975      4.0419
  1767.5000    121.7631      0.0000    728.0353      4.0616
  1767.7500    122.4063      0.0000    712.3080      4.0761
  1768.0000    125.7244      0.0000    694.2210      4.0675
  1768.2500    132.3062      0.0000    678.5249      4.0331
  1768.5000    141.0924      0.0000    669.8158      3.9867
  1768.7500    149.2032      0.0000    670.8442      3.9447
  1769.0000    153.5156      0.0000    681.4422      3.9160
  1769.2500    152.7286      0.0000    697.7411      3.9023
  1769.5000    147.4054      0.0000    713.2376      3.9041
  1769.7500    138.6206      0.0000    722.3960      3.9219
  1770.0000    127.8200      0.0000    724.0826      3.9544
  1770.2500    117.5437      0.0000    721.6085      3.9981
  1770.5000    110.6378      0.0000    719.3517      4.0531
  1770.7500    108.0747      0.0000    719.0387      4.1261
  1771.0000    108.0346      0.0000    718.7791      4.2211
