~Version Information
VERS.                      2.0: CWLS Log ASCII Standard - VERSION 2.0
WRAP.                       NO: One line per depth step
~Well Information Block
STRT.FT               953.8000: 
STOP.FT              2226.0000: 
STEP.FT                 0.1000: 
NULL.                -999.2500: 
COMP.          Petrogulf Corporation: COMPANY
WELL.             Burson 8-13R: WELL
FLD.           Purgatorie River: FIELD
LOC.           1045' FNL & 2189' FEL: LOCATION
CNTY.               Las Animas: COUNTY
SRVC.                         : SERVICE COMPANY
DATE.          Fri Apr 30 07:30:36 2004: LOG DATE
UWI.           05 071 08039 00: UNIQUE WELL ID
STAT.                 Colorado: STATE
~Curve Information Block
DEPT.FT            0 000 00 00: Depth
DCAL.in                       : CDL Caliper
RHOB.g/cc                     : CDL Bulk Density
RHOC.g/cc                     : CDL Density Correction
DPOR.pu                       : CDL Density Porosity
NPOR.pu                       : Neutron Porosity
GR.GAPI                       : Gamma Ray
~Parameter Information Block
~A  Depth       DCAL        RHOB        RHOC        DPOR        NPOR         GR     
# ...
  1203.4000      7.8941      2.5667      0.0263      5.0478     26.4299    148.3270
  1203.5000      7.8958      2.5746      0.0129      4.5680     26.8659    141.7680
  1203.6000      7.8958      2.5824      0.0718      4.0947     26.9442    135.6367
  1203.7000      7.8958      2.5832      0.0484      4.0498     26.4804    130.6609
  1203.8000      7.8938      2.5751      0.0436      4.5394     25.7601    127.2282
  1203.9000      7.8938      2.5643     -0.0058      5.1948     25.0299    127.6932
  1204.0000      7.8956      2.5613     -0.0008      5.3741     24.6027    130.9566
  1204.1000      7.8956      2.5710      0.0117      4.7887     24.8020    134.6145
  1204.2000      7.8956      2.5916      0.0400      3.5368     25.2438    135.7242
  1204.3000      7.8976      2.6138      0.0590      2.1943     25.4569    131.8853
  1204.4000      7.8976      2.6265      0.0687      1.4232     25.5492    126.6330
  1204.5000      7.8958      2.6302      0.0618      1.1973     25.5590    123.5180
  1204.6000      7.8958      2.6347      0.0649      0.9300     25.5498    119.9560
  1204.7000      7.8958      2.6417      0.0541      0.5013     25.7374    116.2944
  1204.8000      7.8907      2.6403      0.0663      0.5862     25.9648    117.5709
  1204.9000      7.8907      2.6284      0.0204      1.3095     26.0270    123.3780
  1205.0000      7.8949      2.6221      0.0103      1.6892     26.0387    126.4884
  1205.1000      7.8949      2.6254      0.0596      1.4888     26.2008    123.1163
  1205.2000      7.8949      2.6193      0.0582      1.8602     26.5421    117.1187
  1205.3000      7.8904      2.6017     -0.0390      2.9244     27.1003    111.9660
  1205.4000      7.8904      2.5966     -0.0336      3.2339     27.8415    107.8559
  1205.5000      7.8949      2.6142     -0.0209      2.1695     28.5697    104.4910
  1205.6000      7.8949      2.6421     -0.0197      0.4775     29.0543    103.7430
  1205.7000      7.8949      2.6588      0.0536     -0.5362     29.1749    105.6140
  1205.8000      7.9035      2.6529      0.0214     -0.1730     29.1116    107.0258
  1205.9000      7.9035      2.6327      0.0569      1.0504     29.0941    109.0546
  1206.0000      7.8888      2.6137     -0.0125      2.2024     29.1219    116.6149
  1206.1000      7.8888      2.6085      0.0109      2.5144     29.1427    125.6774
  1206.2000      7.8888      2.6139     -0.0073      2.1907     28.9957    126.0180
  1206.3000      7.8863      2.6166      0.0218      2.0228     28.6687    117.0482
  1206.4000      7.8863      2.6112      0.0035      2.3530     28.3722    107.6902
  1206.5000      7.8881      2.6032     -0.0265      2.8336     28.1177    103.9477
  1206.6000      7.8881      2.6072     -0.0163      2.5963     27.8757    107.1076
  1206.7000      7.8881      2.6285      0.0441      1.3051     27.6444    115.4725
  1206.8000      7.8830      2.6415      0.0894      0.5135     27.4080    121.4117
  1206.9000      7.8830      2.6171      0.0692      1.9916     27.2959    118.1238
  1207.0000      7.8799      2.5716     -0.0442      4.7525     27.2329    109.4881
  1207.1000      7.8799      2.5449     -0.0434      6.3672     27.0316    105.8113
  1207.2000      7.8799      2.5502     -0.0155      6.0509     26.8952    111.5280
  1207.3000      7.8816      2.5728     -0.0072      4.6771     26.7413    119.7232
  1207.4000      7.8816      2.5906      0.0069      3.5991     26.1324    122.3332
  1207.5000      7.8854      2.5879      0.0444      3.7650     25.3597    120.6227
  1207.6000      7.8854      2.5694     -0.0075      4.8878     24.9822    119.2452
  1207.7000      7.8854      2.5531      0.0162      5.8724     24.8747    117.2248
  1207.8000      7.8718      2.5571     -0.0244      5.6325     24.6402    111.1488
  1207.9000      7.8718      2.5841      0.0779      3.9929     24.0586    103.7106
  1208.0000      7.8767      2.6132      0.0994      2.2301     23.4733     99.8739
  1208.1000      7.8767      2.6289      0.1256      1.2769     23.4190     98.1076
  1208.2000      7.8767      2.6330      0.1115      1.0322     23.7664     94.0669
  1208.3000      7.8768      2.6355      0.0849      0.8777     24.0629     87.8778
  1208.4000      7.8768      2.6474      0.0704      0.1600     24.0612     84.9804
  1208.5000      7.8754      2.6555      0.0989     -0.3349     24.0815     85.7415
  1208.6000      7.8754      2.6364      0.0773      0.8258     24.5740     87.3010
  1208.7000      7.8754      2.5946      0.0338      3.3592     25.1781     90.6873
  1208.8000      7.8745      2.5549     -0.0151      5.7622     25.2978     92.9069
  1208.9000      7.8745      2.5332     -0.0332      7.0798     25.1386     91.6216
  1209.0000      7.8751      2.5274     -0.0186      7.4297     25.0486     92.5350
  1209.1000      7.8751      2.5249     -0.0232      7.5846     24.9929     97.0651
  1209.2000      7.8751      2.5175     -0.0270      8.0304     25.0758     96.4697
  1209.3000      7.8802      2.5070     -0.0087      8.6657     25.0404     88.2741
  1209.4000      7.8802      2.4944      0.0061      9.4287     24.6354     81.6746
  1209.5000      7.8857      2.4799      0.0284     10.3115     24.3333     83.5857
  1209.6000      7.8857      2.4745     -0.0182     10.6364     24.5516     90.6423
  1209.7000      7.8857      2.4904      0.0620      9.6731     25.2667     96.6409
  1209.8000      7.8841      2.5148      0.0910      8.1955     26.2193    101.5303
  1209.9000      7.8841      2.5243      0.1196      7.6178     27.0403    107.0368
  1210.0000      7.8805      2.5087      0.1682      8.5621     27.1128    113.7813
  1210.1000      7.8805      2.4762      0.1227     10.5306     26.3140    120.5433
  1210.2000      7.8805      2.4412      0.1490     12.6515     25.4734    123.9121
  1210.3000      7.8800      2.4133      0.1221     14.3432     25.0985    125.1844
  1210.4000      7.8800      2.4112      0.1053     14.4736     24.8137    128.6461
  1210.5000      7.8835      2.4451      0.1710     12.4173     24.3209    134.4571
  1210.6000      7.8835      2.4893      0.2478      9.7377     23.7802    139.5895
  1210.7000      7.8835      2.5195      0.1635      7.9097     23.3488    140.7848
  1210.8000      7.8829      2.5419      0.1926      6.5532     23.1875    137.1851
  1210.9000      7.8829      2.5604      0.2041      5.4329     23.2776    132.1214
  1211.0000      7.8905      2.5706      0.2026      4.8151     23.0913    128.5008
  1211.1000      7.8905      2.5770      0.1547      4.4238     22.3870    128.2466
  1211.2000      7.8905      2.5870      0.1224      3.8172     21.8640    129.6417
  1211.3000      7.9012      2.5975      0.0956      3.1845     22.0243    127.7933
  1211.4000      7.9012      2.6053      0.0621      2.7116     22.6581    122.0040
  1211.5000      7.8948      2.6133      0.0505      2.2227     23.5488    115.0000
  1211.6000      7.8948      2.6112      0.0843      2.3509     24.2183    111.5708
  1211.7000      7.8948      2.5808      0.0808      4.1924     24.0445    114.3119
  1211.8000      7.8962      2.5415     -0.0319      6.5771     23.1534    118.3237
  1211.9000      7.8962      2.5334      0.0265      7.0687     22.3608    118.7358
  1212.0000      7.8924      2.5560      0.0077      5.6991     22.4475    117.0402
  1212.1000      7.8924      2.5833      0.0202      4.0446     23.4536    116.3955
  1212.2000      7.8924      2.6030      0.0060      2.8481     24.8273    117.8228
  1212.3000      7.8938      2.6117      0.0360      2.3194     25.9466    119.8305
  1212.4000      7.8938      2.6063      0.0312      2.6506     26.5141    119.5577
  1212.5000      7.8941      2.5931     -0.0130      3.4512     26.8388    117.8204
  1212.6000      7.8941      2.5844      0.0243      3.9787     27.0587    117.7728
  1212.7000      7.8941      2.5838      0.0054      4.0132     26.8543    119.2799
  1212.8000      7.8940      2.5847      0.0349      3.9606     26.3308    118.3702
  1212.9000      7.8940      2.5841      0.0092      3.9921     25.8633    114.7927
