~Version Information
VERS.                      2.0: CWLS Log ASCII Standard - VERSION 2.0
WRAP.                       NO: One line per depth step
~Well Information Block
STRT.FT               250.0000: 
STOP.FT               894.7000: 
STEP.FT                 0.1000: 
NULL.                -999.2500: 
COMP.          Pioneer Natural Resources: COMPANY
WELL.          Santisteven 13-22: WELL
FLD.           Purgatoire River: FIELD
LOC.           1861' FSL & 992' FWL----: LOCATION
PROV.                 Colorado: PROVINCE
CNTY.               Las Animas: COUNTRY
SRVC.                Patterson: SERVICE COMPANY
DATE.          Mon Apr 04 11:05:36 2005: LOG DATE
UWI.           05 071 08337 00: UNIQUE WELL ID
~Curve Information Block
DEPT.FT            0 000 00 00: Depth
DCAL.in                       : CDL Caliper
RHOB.g/cc                     : CDL Bulk Density
RHOC.g/cc                     : CDL Density Correction
DPOR.pu                       : CDL Density Porosity
NPOR.pu                       : Neutron Porosity
GR.GAPI                       : Gamma Ray
~Parameter Information Block
~A  Depth       DCAL        RHOB        RHOC        DPOR        NPOR         GR     
# ...
   451.6000      8.0478      1.8951     -0.1023     45.7492     19.1207    117.5773
   451.7000      8.0478      1.7933     -0.1330     51.9229     18.0717    104.6343
   451.8000      8.0457      1.7005     -0.1662     57.5478     16.4224     94.7580
   451.9000      8.0457      1.6145     -0.1434     62.7550     14.6032     92.2990
   452.0000      8.0429      1.5377     -0.1406     67.4100     12.7147     97.2743
   452.1000      8.0429      1.4897     -0.1226     70.3236     11.0277    104.6557
   452.2000      8.0429      1.4982     -0.0186     69.8073      9.7946    110.0068
   452.3000      8.0382      1.5625      0.1311     65.9075      8.9891    112.8954
   452.4000      8.0382      1.6496      0.1833     60.6321      8.6417    110.3113
   452.5000      8.0301      1.7294      0.1873     55.7939      8.6785    102.7279
   452.6000      8.0301      1.7958      0.1696     51.7674      8.8045    100.4807
   452.7000      8.0301      1.8587      0.1678     47.9593      8.8957    110.6967
   452.8000      8.0213      1.9267      0.1541     43.8387      9.0727    127.9523
   452.9000      8.0213      1.9988      0.1696     39.4651      9.3799    141.3020
   453.0000      8.0178      2.0655      0.1792     35.4252      9.7569    144.5944
   453.1000      8.0178      2.1168      0.1683     32.3146     10.1029    145.6047
   453.2000      8.0178      2.1490      0.1900     30.3662     10.3288    153.4897
   453.3000      8.0187      2.1636      0.1497     29.4814     10.5309    161.7456
   453.4000      8.0187      2.1713      0.1046     29.0144     10.8855    160.9995
   453.5000      8.0214      2.1819      0.0972     28.3712     11.3442    154.1233
   453.6000      8.0214      2.1974      0.0881     27.4311     11.8404    152.6303
   453.7000      8.0214      2.2209      0.0944     26.0041     12.4600    159.5766
   453.8000      8.0225      2.2483      0.1375     24.3428     13.0908    166.3778
   453.9000      8.0225      2.2607      0.1302     23.5953     13.3620    167.4375
   454.0000      8.0208      2.2564      0.0467     23.8565     13.2421    165.1592
   454.1000      8.0208      2.2592      0.0777     23.6822     13.1243    163.5903
   454.2000      8.0208      2.2764      0.1167     22.6407     13.1849    165.0491
   454.3000      8.0173      2.2953      0.1182     21.4942     13.2205    169.9144
   454.4000      8.0173      2.3051      0.1575     20.9044     13.0882    179.5651
   454.5000      8.0138      2.3029      0.1280     21.0342     13.0085    189.6688
   454.6000      8.0138      2.3039      0.1053     20.9781     13.1438    191.5893
   454.7000      8.0138      2.3270      0.1406     19.5728     13.3048    186.5857
   454.8000      8.0102      2.3720      0.1617     16.8470     13.3028    180.5839
   454.9000      8.0102      2.4194      0.1962     13.9781     13.1979    177.4849
   455.0000      8.0078      2.4601      0.1761     11.5085     13.1100    176.0019
   455.1000      8.0078      2.5077      0.1372      8.6259     13.0751    170.4053
   455.2000      8.0078      2.5563      0.2035      5.6774     13.1324    161.7160
   455.3000      8.0084      2.5783      0.1654      4.3466     13.3821    155.4972
   455.4000      8.0084      2.5701      0.1298      4.8453     13.7742    153.7115
   455.5000      8.0104      2.5535      0.0897      5.8480     14.1356    156.4129
   455.6000      8.0104      2.5448      0.0767      6.3782     14.3793    158.8371
   455.7000      8.0104      2.5339      0.0760      7.0354     14.4583    158.1057
   455.8000      8.0093      2.5079      0.0152      8.6097     14.4341    159.5752
   455.9000      8.0093      2.4781      0.0264     10.4205     14.4471    162.9249
   456.0000      8.0054      2.4571      0.0261     11.6907     14.4141    164.0205
   456.1000      8.0054      2.4442      0.0318     12.4736     14.1951    167.1595
   456.2000      8.0054      2.4395      0.0193     12.7546     13.7819    174.7769
   456.3000      8.0029      2.4511      0.0522     12.0564     13.3410    177.8861
   456.4000      8.0029      2.4841      0.0870     10.0533     12.9805    169.9956
   456.5000      8.0012      2.5260      0.1537      7.5179     12.7035    156.6802
   456.6000      8.0012      2.5474      0.1548      6.2156     12.4367    146.2088
   456.7000      8.0012      2.5392      0.1278      6.7124     12.0759    140.2961
   456.8000      7.9998      2.5269      0.1131      7.4611     11.7271    133.7884
   456.9000      7.9998      2.5296      0.1368      7.2971     11.5361    122.4450
   457.0000      7.9990      2.5349      0.1335      6.9781     11.3935    109.3266
   457.1000      7.9990      2.5283      0.1133      7.3773     11.2851    100.8369
   457.2000      7.9990      2.5170      0.0873      8.0617     11.4821     97.9729
   457.3000      7.9977      2.5135      0.0966      8.2699     12.0184     95.3431
   457.4000      7.9977      2.5158      0.0736      8.1350     12.4207     90.8374
   457.5000      7.9995      2.5152      0.0925      8.1708     12.3630     86.2266
   457.6000      7.9995      2.5125      0.0926      8.3325     12.0779     83.1419
   457.7000      7.9995      2.5144      0.1124      8.2155     11.8076     82.3535
   457.8000      8.0127      2.5271      0.0921      7.4456     11.7551     83.0074
   457.9000      8.0127      2.5528      0.1064      5.8890     12.0600     84.7286
   458.0000      8.0445      2.5838      0.1271      4.0137     12.5340     87.7180
   458.1000      8.0445      2.6044      0.1240      2.7618     12.8003     91.8391
   458.2000      8.0445      2.5994      0.1405      3.0657     12.7635     93.6830
   458.3000      8.0823      2.5664      0.0920      5.0679     12.6807     90.6601
   458.4000      8.0823      2.5288      0.0442      7.3446     12.6187     87.3450
   458.5000      8.1019      2.5164      0.0523      8.0988     12.3752     86.0881
   458.6000      8.1019      2.5268      0.0928      7.4694     11.8470     81.5284
   458.7000      8.1019      2.5335      0.1060      7.0598     11.1471     75.3176
   458.8000      8.1055      2.5297      0.0884      7.2905     10.5043     74.9180
   458.9000      8.1055      2.5305      0.0679      7.2417     10.2129     78.6624
   459.0000      8.1055      2.5382      0.1130      6.7730     10.4210     81.4925
   459.1000      8.1055      2.5327      0.1457      7.1064     10.8066     83.0142
   459.2000      8.1055      2.5142      0.0619      8.2319     10.7020     84.2390
   459.3000      8.1066      2.5156      0.0457      8.1458     10.0658     84.0746
   459.4000      8.1066      2.5473      0.1292      6.2253      9.5748     81.3418
   459.5000      8.1078      2.5811      0.1088      4.1767      9.6125     75.7742
   459.6000      8.1078      2.5916      0.1285      3.5392     10.0435     68.4036
   459.7000      8.1078      2.5799      0.0830      4.2459     10.5453     63.5642
   459.8000      8.1083      2.5694      0.0510      4.8833     10.9734     65.4749
   459.9000      8.1083      2.5722      0.0729      4.7163     11.3694     71.2110
   460.0000      8.1081      2.5692      0.0797      4.8997     11.7429     71.0204
   460.1000      8.1081      2.5465      0.0442      6.2709     11.9940     63.7063
   460.2000      8.1081      2.5216      0.0055      7.7845     12.1074     59.0491
   460.3000      8.1087      2.5086      0.0578      8.5688     12.3683     60.9784
   460.4000      8.1087      2.5045      0.0365      8.8160     12.8428     65.1825
   460.5000      8.1116      2.5075      0.0505      8.6378     13.0869     67.3014
   460.6000      8.1116      2.5183      0.0466      7.9796     13.0165     67.7073
   460.7000      8.1116      2.5342      0.0528      7.0172     12.9964     69.8080
   460.8000      8.1151      2.5421      0.0740      6.5424     12.9937     69.9497
   460.9000      8.1151      2.5305      0.0702      7.2435     12.7457     61.3938
   461.0000      8.1204      2.5082      0.0599      8.5967     12.1910     48.0134
   461.1000      8.1204      2.4911      0.0417      9.6308     11.4465     39.3674
