~Version Information
VERS.                      2.0: CWLS Log ASCII Standard - VERSION 2.0
WRAP.                       NO: One line per depth step
~Well Information Block
STRT.FT               910.3000: 
STOP.FT              1932.5000: 
STEP.FT                 0.1000: 
NULL.                -999.2500: 
COMP.          Petrogulf Corporation: COMPANY
WELL.             State 16-34R: WELL
FLD.           Purgatorie River: FIELD
LOC.           1095' FSL & 1498' FEL: LOCATION
CNTY.               Las Animas: COUNTY
SRVC.                         : SERVICE COMPANY
DATE.          Thu May 06 14:28:18 2004: LOG DATE
UWI.           05 071 08032 00: UNIQUE WELL ID
STAT.                 Colorado: STATE
~Curve Information Block
DEPT.FT            0 000 00 00: Depth
DCAL.in                       : CDL Caliper
RHOB.g/cc                     : CDL Bulk Density
RHOC.g/cc                     : CDL Density Correction
DPOR.pu                       : CDL Density Porosity
NPOR.pu                       : Neutron Porosity
GR.GAPI                       : Gamma Ray
~Parameter Information Block
~A  Depth       DCAL        RHOB        RHOC        DPOR        NPOR         GR     
# ...
  1822.3000      7.9435      2.4322      0.0086     13.2030     23.6332    114.5694
  1822.4000      7.9435      2.4473      0.0036     12.2840     23.7948    110.8038
  1822.5000      7.9394      2.4817      0.0318     10.2001     24.1240    109.2780
  1822.6000      7.9394      2.5113      0.0930      8.4056     24.2032    111.3032
  1822.7000      7.9394      2.5179      0.0712      8.0057     23.9345    112.5710
  1822.8000      7.9395      2.5052      0.0658      8.7772     23.6865    110.6737
  1822.9000      7.9395      2.4871      0.0505      9.8699     23.9085    106.9687
  1823.0000      7.9284      2.4751      0.0432     10.6027     24.5110    101.4867
  1823.1000      7.9284      2.4713      0.0316     10.8323     25.1056     96.3208
  1823.2000      7.9284      2.4739      0.0370     10.6713     25.5628     96.0140
  1823.3000      7.9224      2.4823      0.0330     10.1635     25.9632    100.7140
  1823.4000      7.9224      2.4890      0.0500      9.7565     26.1436    108.5453
  1823.5000      7.9172      2.4845      0.0371     10.0312     25.9917    115.1844
  1823.6000      7.9172      2.4729      0.0405     10.7338     25.9602    116.3925
  1823.7000      7.9172      2.4655      0.0326     11.1818     26.4695    115.5811
  1823.8000      7.9211      2.4684      0.0367     11.0063     27.1536    115.9205
  1823.9000      7.9211      2.4816      0.0619     10.2067     27.4029    114.1622
  1824.0000      7.9259      2.5010      0.0898      9.0302     27.3226    110.4218
  1824.1000      7.9259      2.5196      0.0903      7.9012     27.4171    108.8449
  1824.2000      7.9259      2.5317      0.0546      7.1683     27.7835    110.8112
  1824.3000      7.9224      2.5346      0.0503      6.9947     28.1256    112.8769
  1824.4000      7.9224      2.5282      0.0388      7.3844     28.4573    111.8848
  1824.5000      7.9381      2.5170     -0.0011      8.0583     29.1162    110.2528
  1824.6000      7.9381      2.5034      0.0569      8.8837     29.9850    109.7531
  1824.7000      7.9381      2.4844      0.0353     10.0344     30.4544    109.2858
  1824.8000      7.9392      2.4736     -0.0143     10.6904     30.2559    108.9610
  1824.9000      7.9392      2.4842      0.0148     10.0503     29.5454    109.1128
  1825.0000      7.9350      2.4935      0.0593      9.4853     28.4608    109.6396
  1825.1000      7.9350      2.4756      0.0354     10.5715     27.2861    112.0535
  1825.2000      7.9350      2.4458     -0.0139     12.3763     26.3637    113.9942
  1825.3000      7.9341      2.4341     -0.0155     13.0852     25.7730    112.5535
  1825.4000      7.9341      2.4473     -0.0166     12.2865     25.3908    111.8419
  1825.5000      7.9451      2.4733      0.0322     10.7071     24.9113    113.8446
  1825.6000      7.9451      2.4996      0.0172      9.1146     24.2859    113.4233
  1825.7000      7.9451      2.5167      0.0703      8.0796     23.7866    110.9045
  1825.8000      7.9447      2.5143      0.0339      8.2258     23.5260    111.0053
  1825.9000      7.9447      2.5008     -0.0084      9.0408     23.4775    113.1421
  1826.0000      7.9490      2.4958      0.0155      9.3428     23.4221    115.2128
  1826.1000      7.9490      2.4975      0.0474      9.2440     23.0081    115.6488
  1826.2000      7.9490      2.4967      0.0135      9.2889     22.2258    113.3618
  1826.3000      7.9526      2.4985     -0.0128      9.1803     21.4341    109.0850
  1826.4000      7.9526      2.5003      0.0534      9.0754     20.7916    102.8136
  1826.5000      7.9650      2.4918      0.0342      9.5850     20.1092     98.7247
  1826.6000      7.9650      2.4756      0.0205     10.5720     19.2330    101.7233
  1826.7000      7.9650      2.4609     -0.0451     11.4596     18.1303    106.0881
  1826.8000      7.9618      2.4635     -0.0658     11.3038     16.9753    103.9026
  1826.9000      7.9618      2.4873     -0.0082      9.8621   -126.8879     95.8788
  1827.0000      7.9562      2.5121      0.0267      8.3552   -106.9685     85.8415
  1827.1000      7.9562      2.5244      0.0359      7.6094    -65.4487     77.4103
  1827.2000      7.9562      2.5321      0.0497      7.1465    -27.9862     72.1821
  1827.3000      7.9391      2.5442      0.0075      6.4108     -8.8175     67.4700
  1827.4000      7.9391      2.5574      0.0391      5.6116     -1.4054     61.3174
  1827.5000      7.9134      2.5601      0.0681      5.4501      2.2720     54.7076
  1827.6000      7.9134      2.5451      0.0494      6.3594      5.5207     48.2793
  1827.7000      7.9134      2.5182      0.0181      7.9879      9.0549     41.5863
  1827.8000      7.9083      2.4977     -0.0405      9.2331     12.3654     35.5702
  1827.9000      7.9083      2.4957     -0.0097      9.3506     14.9574     32.8682
  1828.0000      7.9037      2.5036     -0.0002      8.8708     16.3443     33.9274
  1828.1000      7.9037      2.5066      0.0258      8.6910     16.6399     36.2087
  1828.2000      7.9037      2.5035     -0.0009      8.8798     16.5245     37.9686
  1828.3000      7.9033      2.5085     -0.0040      8.5779     15.9059     58.1955
  1828.4000      7.9033      2.5265      0.0436      7.4854     14.8627     56.6828
  1828.5000      7.8990      2.5420      0.0559      6.5469     14.5807     52.1419
  1828.6000      7.8990      2.5450      0.0656      6.3638     15.4193     46.5887
  1828.7000      7.8990      2.5403      0.0298      6.6465     16.1169     44.9816
  1828.8000      7.8931      2.5333      0.0657      7.0747     15.8067     50.2766
  1828.9000      7.8931      2.5281      0.0240      7.3884     15.0097     56.3829
  1829.0000      7.9128      2.5316      0.0155      7.1756     14.4280     56.5788
  1829.1000      7.9128      2.5424      0.0359      6.5214     14.2541     52.0690
  1829.2000      7.9128      2.5459      0.0524      6.3065     14.3175     47.3285
  1829.3000      7.9154      2.5355      0.0405      6.9391     14.2753     44.9091
  1829.4000      7.9154      2.5238      0.0687      7.6488     14.1942     45.2845
  1829.5000      7.9318      2.5198      0.0523      7.8901     14.4800     46.4076
  1829.6000      7.9318      2.5200      0.0097      7.8769     15.0383     44.5475
  1829.7000      7.9318      2.5171      0.0613      8.0564     15.4379     40.9046
  1829.8000      7.9294      2.5036      0.0645      8.8720     15.4855     42.0342
  1829.9000      7.9294      2.4869     -0.0200      9.8870     15.2828     48.6029
  1830.0000      7.9274      2.4792      0.0415     10.3529     15.0034     52.9800
  1830.1000      7.9274      2.4747      0.0317     10.6225     14.9371     50.8916
  1830.2000      7.9274      2.4635      0.0225     11.3026     15.2090     46.8911
  1830.3000      7.9311      2.4483      0.0084     12.2229     15.5435     45.8881
  1830.4000      7.9311      2.4345      0.0061     13.0612     15.6675     47.3082
  1830.5000      7.9333      2.4216      0.0018     13.8406     15.4360     49.3273
  1830.6000      7.9333      2.4136     -0.0323     14.3293     14.8324     50.6966
  1830.7000      7.9333      2.4166     -0.0146     14.1459     14.2053     51.0314
  1830.8000      7.9365      2.4237      0.0408     13.7165     13.9411     50.4807
  1830.9000      7.9365      2.4263      0.0059     13.5593     13.9492     49.1680
  1831.0000      7.9400      2.4301      0.0210     13.3255     13.9067     47.8242
  1831.1000      7.9400      2.4404      0.0233     12.7027     13.7754     47.4609
  1831.2000      7.9400      2.4551      0.0455     11.8110     13.4985     48.9412
  1831.3000      7.9366      2.4645      0.0720     11.2419     13.1462     51.9778
  1831.4000      7.9366      2.4568      0.0714     11.7093     13.1815     53.3858
  1831.5000      7.9483      2.4380      0.0239     12.8496     13.7652     49.7837
  1831.6000      7.9483      2.4263      0.0170     13.5605     14.3436     43.0047
  1831.7000      7.9483      2.4296     -0.0003     13.3584     14.2927     38.3342
  1831.8000      7.9394      2.4432      0.0231     12.5349     13.6737     39.7091
