~Version Information
VERS.                      2.0: CWLS Log ASCII Standard - VERSION 2.0
WRAP.                       NO: One line per depth step
~Well Information Block
STRT.FT                -2.2500: 
STOP.FT              1676.7500: 
STEP.FT                 0.2500: 
NULL.                -999.2500: 
COMP.          Pioneer Natural Resources: COMPANY
WELL.              Patten 22-2: WELL
FLD.           Purgatoire River: FIELD
LOC.           2157' FNL & 1528' FWL: LOCATION
PROV.                 Colorado: PROVINCE
CNTY.               Las Animas: COUNTRY
SRVC.                Patterson: SERVICE COMPANY
DATE.          Tue Dec 14 11:45:47 2004: LOG DATE
UWI.           05 071 08168 00: UNIQUE WELL ID
~Curve Information Block
DEPT.FT            0 000 00 00: Depth
GR.GAPI                       : Gamma Ray
CCL.                          : Casing Collar Locator
TT3.usec                      : CBL 3' Travel Time
AMP3.mV                       : CBL 3' Amplitude
~Parameter Information Block
~A  Depth        GR         CCL         TT3         AMP3    
# ...
   332.7500    114.4646      0.0000    826.3279     12.8494
   333.0000    113.8044      0.0000    828.3953     12.7672
   333.2500    114.1125      0.0000    829.7988     12.7080
   333.5000    115.9324      0.0000    830.4037     12.6669
   333.7500    118.4864      0.0000    830.1604     12.6415
   334.0000    119.9763      0.0000    828.5243     12.6294
   334.2500    118.6860      0.0000    824.2536     12.6149
   334.5000    114.2911      0.0000    816.0364     12.5579
   334.7500    108.1749      0.0000    804.0805     12.4013
   335.0000    102.2485      0.0000    791.4064     12.0957
   335.2500     97.5844      0.0000    782.7014     11.6190
   335.5000     94.1675      0.0000    780.9371     10.9736
   335.7500     91.4847      0.0000    785.0172     10.1767
   336.0000     89.1932      0.0000    790.8007      9.2562
   336.2500     87.5043      0.0000    794.1450      8.2562
   336.5000     86.8553      0.0000    793.3128      7.2437
   336.7500     87.0044      0.0000    789.4240      6.3032
   337.0000     86.7483      0.0000    785.3449      5.5127
   337.2500     85.0323      0.0000    784.5490      4.9184
   337.5000     82.1871      0.0000    790.3640      4.5247
   337.7500     79.6025      0.0000    804.1732      4.3068
   338.0000     78.2559      0.0000    822.5373      4.2292
   338.2500     78.1473      0.0000    836.6487      4.2644
   338.5000     79.2366      0.0000    836.9759      4.4020
   338.7500     82.1317      0.0000    820.3983      4.6481
   339.0000     87.3038      0.0000    793.1423      5.0176
   339.2500     93.9541      0.0000    766.3551      5.5285
   339.5000    100.1548      0.0000    748.8286      6.1977
   339.7500    104.2162      0.0000    743.4249      7.0331
   340.0000    105.9248      0.0000    748.1745      8.0212
   340.2500    106.4786      0.0000    758.6742      9.1135
   340.5000    107.0742      0.0000    770.1057     10.2216
   340.7500    107.6607      0.0000    779.1112     11.2365
   341.0000    107.3163      0.0000    784.8401     12.0693
   341.2500    105.5580      0.0000    788.4309     12.6811
   341.5000    102.8783      0.0000    791.6066     13.0789
   341.7500    100.3243      0.0000    795.5260     13.2918
   342.0000     99.0651      0.0000    800.2721     13.3606
   342.2500    100.2045      0.0000    805.1229     13.3388
   342.5000    104.3655      0.0000    809.4485     13.2856
   342.7500    111.1387      0.0000    813.4024     13.2457
   343.0000    118.9943      0.0000    817.6116     13.2372
   343.2500    125.8475      0.0000    822.2690     13.2561
   343.5000    130.0544      0.0000    826.7574     13.2876
   343.7500    131.2921      0.0000    830.2162     13.3132
   344.0000    130.4546      0.0000    832.2679     13.3078
   344.2500    128.5298      0.0000    833.1193     13.2349
   344.5000    125.8526      0.0000    833.1870     13.0464
   344.7500    122.6846      0.0000    832.7936     12.6972
   345.0000    119.9632      0.0000    832.0757     12.1736
   345.2500    118.8906      0.0000    830.9922     11.5176
   345.5000    119.8581      0.0000    829.3102     10.8221
   345.7500    122.0347      0.0000    826.6468     10.1922
   346.0000    123.9250      0.0000    822.6599      9.6962
   346.2500    124.2805      0.0000    817.3347      9.3455
   346.5000    122.8362      0.0000    811.0576      9.1140
   346.7500    120.5336      0.0000    804.4181      8.9723
   347.0000    118.9545      0.0000    798.0695      8.9071
   347.2500    119.1383      0.0000    792.7047      8.9197
   347.5000    120.6920      0.0000    788.8630      9.0159
   347.7500    122.1282      0.0000    786.7139      9.1990
   348.0000    122.3020      0.0000    786.2093      9.4747
   348.2500    121.5164      0.0000    787.5028      9.8545
   348.5000    121.1777      0.0000    791.1439     10.3445
   348.7500    122.3630      0.0000    797.7032     10.9258
   349.0000    124.7048      0.0000    806.9390     11.5520
   349.2500    126.7391      0.0000    817.2725     12.1677
   349.5000    127.2420      0.0000    826.3911     12.7310
   349.7500    125.9548      0.0000    832.6599     13.2236
   350.0000    123.1006      0.0000    835.9558     13.6488
   350.2500    118.8083      0.0000    837.2546     14.0207
   350.5000    113.3434      0.0000    837.6723     14.3503
   350.7500    107.5226      0.0000    837.8768     14.6366
   351.0000    102.4820      0.0000    838.0610     14.8692
   351.2500     98.9323      0.0000    838.1620     15.0421
   351.5000     96.7240      0.0000    838.0073     15.1633
   351.7500     95.2263      0.0000    837.2459     15.2501
   352.0000     94.1313      0.0000    835.1274     15.3164
   352.2500     93.8206      0.0000    830.4844     15.3665
   352.5000     94.9367      0.0000    822.4717     15.3993
   352.7500     97.5582      0.0000    811.7737     15.4167
   353.0000    100.8169      0.0000    800.6794     15.4277
   353.2500    103.3812      0.0000    791.2016     15.4441
   353.5000    104.3013      0.0000    783.3846     15.4697
   353.7500    103.5193      0.0000    776.1725     15.4927
   354.0000    101.7949      0.0000    769.3994     15.4929
   354.2500    100.1919      0.0000    763.9744     15.4592
   354.5000     99.6089      0.0000    760.5247     15.3978
   354.7500    100.5651      0.0000    758.7303     15.3224
   355.0000    102.8828      0.0000    757.8434     15.2417
   355.2500    105.3145      0.0000    757.3076     15.1622
   355.5000    106.0421      0.0000    756.8891     15.0971
   355.7500    104.0089      0.0000    756.5485     15.0637
   356.0000     99.6337      0.0000    756.3210     15.0679
   356.2500     94.2787      0.0000    756.2448     15.0947
   356.5000     89.5508      0.0000    756.3238     15.1155
   356.7500     87.1327      0.0000    756.5133     15.1033
   357.0000     88.3665      0.0000    756.7402     15.0446
   357.2500     93.2288      0.0000    756.9462     14.9415
   357.5000     99.9478      0.0000    757.1307     14.8076
   357.7500    106.1192      0.0000    757.3467     14.6622
   358.0000    110.1835      0.0000    757.6378     14.5286
   358.2500    111.9186      0.0000    757.9791     14.4267
   358.5000    111.9446      0.0000    758.2929     14.3596
   358.7500    110.9380      0.0000    758.5144     14.3060
   359.0000    109.2699      0.0000    758.6299     14.2319
   359.2500    107.2713      0.0000    758.6632     14.1151
   359.5000    105.5278      0.0000    758.6460     13.9621
   359.7500    104.5490      0.0000    758.6009     13.8019
   360.0000    104.2083      0.0000    758.5402     13.6615
   360.2500    103.8208      0.0000    758.4709     13.5468
   360.5000    102.8295      0.0000    758.3953     13.4477
   360.7500    101.2322      0.0000    758.3071     13.3581
   361.0000     99.3743      0.0000    758.1913     13.2853
   361.2500     97.5679      0.0000    758.0477     13.2414
   361.5000     95.9209      0.0000    757.9288     13.2290
   361.7500     94.3946      0.0000    758.0125     13.2337
   362.0000     93.0431      0.0000    758.7405     13.2320
   362.2500     92.2747      0.0000    761.0331     13.2062
   362.5000     92.6589      0.0000    766.3173     13.1554
   362.7500     94.2636      0.0000    775.8489     13.0947
   363.0000     96.2924      0.0000    789.3582     13.0424
   363.2500     97.6744      0.0000    804.2167     13.0015
   363.5000     98.1129      0.0000    816.4153     12.9539
   363.7500     98.4426      0.0000    822.5662     12.8722
   364.0000     99.7971      0.0000    821.0051     12.7344
   364.2500    102.4055      0.0000    811.7256     12.5295
   364.5000    105.3587      0.0000    796.2169     12.2690
   364.7500    107.6360      0.0000    777.6140     12.0009
   365.0000    109.1488      0.0000    760.8696     11.7768
   365.2500    110.5289      0.0000    752.1973     11.5745
   365.5000    112.0517      0.0000    756.1321     11.2927
   365.7500    113.1724      0.0000    771.3165     10.8783
   366.0000    113.1869      0.0000    790.4924     10.4240
