~Version Information
 VERS.                                  2.0 : CWLS LAS VERSION
 WRAP.                                   NO : WRAPING MODE
 SWARE .                 MController 2.5.0E : SOFTWARE VERSION
~Well Information
 WELL.                      Latiluppe 8-13R : WELL
 COMP.                Petrogulf Corporation : COMPANY
 FLD.                      Purgatorie River : FIELD
 LOC.                 NW/SW Sec 8 T33S R67W : LOCATION
 DATE.                              4/20/04 : DATE(S) LOGGED
 SRVC.       Blanco Geological Services LLC : SERVICE COMPANY
 STAT.                                   CO : STATE
 CNTY.                           Las Animas : COUNTY
 CTRY.                                  USA : COUNTRY
 API.                       05-071-08035-00 : API NUMBER
 STRT.FT                            1036.00 : START DEPTH
 STOP.FT                            2246.00 : STOP DEPTH
 STEP.FT                               1.00 : DEPTH INCREMENT
 NULL.                                -9999 : NULL VALUE
~Curve information
 DEPTH.FT                                   :
 ROP.MIN/FT                                 :
 GAS.UNITS                                  :
~ASCII Log data
     1036.00    -9999.000          7.1 
     1037.00        0.267          7.4 
     1038.00        0.167          7.5 
     1039.00        0.233          7.5 
     1040.00        0.667          7.6 
     1041.00        0.233          7.4 
     1042.00        0.067          7.8 
     1043.00        0.433          7.3 
     1044.00        0.433          7.7 
     1045.00        0.117          7.7 
     1046.00        0.100          7.8 
     1047.00        0.067          7.9 
     1048.00        0.100          7.9 
     1049.00        0.333          7.8 
     1050.00        0.167          8.1 
     1051.00        0.100          8.1 
     1052.00        0.067          7.5 
     1053.00        0.100          7.5 
     1054.00        0.100          7.7 
     1055.00        0.067          7.6 
     1056.00        0.200          7.7 
     1057.00        0.267          7.5 
     1058.00        0.167          7.7 
     1059.00        0.167          7.5 
     1060.00        0.167          7.5 
     1061.00        0.100          7.2 
     1062.00        0.067          7.2 
     1063.00        0.167          7.3 
     1064.00        0.167          7.5 
     1065.00        0.167          7.0 
     1066.00        0.167          7.0 
     1067.00        0.133          7.2 
     1068.00        0.183          7.2 
     1069.00        0.133          7.9 
     1070.00        0.167          7.4 
     1071.00        0.133          7.4 
     1072.00        0.133          7.4 
     1073.00        0.167          7.6 
     1074.00        0.133          7.4 
     1075.00        0.167          7.4 
     1076.00        0.133          7.7 
     1077.00        0.167          7.7 
     1078.00        0.167          7.5 
     1079.00        0.133          7.5 
     1080.00        0.167          7.3 
     1081.00        0.133          7.3 
     1082.00       20.500         90.9 
     1083.00        0.267          8.0 
     1084.00        0.267          8.0 
     1085.00        0.267          8.6 
     1086.00        0.283          9.5 
     1087.00        0.267         10.2 
     1088.00        0.267         10.7 
     1089.00        0.300         11.3 
     1090.00        0.133         11.3 
     1091.00        0.100         11.0 
     1092.00        0.267         11.6 
     1093.00        0.267         11.4 
     1094.00        0.233         11.2 
     1095.00        0.233         11.9 
     1096.00        0.267         11.5 
     1097.00        0.200         11.9 
     1098.00        0.200         11.9 
     1099.00        0.233         12.5 
     1100.00        0.267         12.0 
     1101.00        0.283         11.7 
     1102.00        0.267         11.9 
     1103.00        3.017         14.9 
     1104.00        0.400         17.2 
     1105.00        0.333         14.6 
     1106.00        0.233         14.4 
     1107.00        0.233         12.5 
     1108.00        0.267         12.7 
     1109.00        0.200         12.4 
     1110.00        0.200         14.2 
     1111.00        0.167         15.7 
     1112.00        0.133         16.1 
     1113.00        0.100         16.1 
     1114.00        0.133         15.0 
     1115.00        0.100         13.2 
     1116.00        0.133         13.2 
     1117.00        0.233         13.3 
     1118.00        0.167         14.1 
     1119.00        0.150         14.1 
     1120.00        0.200          8.6 
     1121.00        0.167          2.0 
     1122.00        0.200         -0.4 
     1123.00        0.167         -0.4 
     1124.00        0.167          1.0 
     1125.00        0.133          1.5 
     1126.00        0.100          1.5 
     1127.00        0.233          2.0 
     1128.00        0.267          2.9 
     1129.00        0.167          4.6 
     1130.00        0.167          4.6 
     1131.00        0.133          5.4 
     1132.00        0.200          5.4 
     1133.00        2.350          6.7 
     1134.00        0.767          6.6 
     1135.00        0.333          6.5 
     1136.00        0.367          6.6 
     1137.00        0.300          6.8 
     1138.00        0.233          7.3 
     1139.00        0.283          8.0 
     1140.00        0.300          6.9 
     1141.00        0.200          6.7 
     1142.00        0.200          6.4 
     1143.00        0.200          6.8 
     1144.00        0.233          7.0 
     1145.00        0.200          6.6 
     1146.00        0.200          7.2 
     1147.00        0.200          6.8 
     1148.00        0.100          6.8 
     1149.00        0.167          6.6 
     1150.00        0.167          6.6 
     1151.00        0.200          6.6 
     1152.00        0.200          6.9 
     1153.00        0.167          6.6 
     1154.00        0.167          6.6 
     1155.00        0.217          6.8 
     1156.00        0.233          6.6 
     1157.00        0.167          7.1 
     1158.00        0.200          7.1 
     1159.00        0.200          7.3 
     1160.00        0.200          6.8 
     1161.00        0.300          6.7 
     1162.00        0.200          6.8 
     1163.00        2.117          7.2 
     1164.00        0.500          6.8 
     1165.00        0.267          7.0 
     1166.00        0.300          6.9 
     1167.00        0.300          6.9 
     1168.00        0.267          6.7 
     1169.00        0.233          6.5 
     1170.00        0.233          6.6 
     1171.00        0.233          6.8 
     1172.00        0.167          6.8 
     1173.00        0.200          7.5 
     1174.00        0.167          8.1 
     1175.00        0.217          9.2 
     1176.00        0.200          7.8 
     1177.00        0.200          7.2 
     1178.00        0.200          6.7 
     1179.00        0.200          6.8 
     1180.00        0.133          6.8 
     1181.00        0.133          6.7 
     1182.00        0.367          7.1 
     1183.00        0.200          6.9 
     1184.00        0.167          6.9 
     1185.00        0.133          6.8 
     1186.00        0.100          6.8 
     1187.00        0.200          6.2 
     1188.00        0.200          7.2 
     1189.00        0.200          6.9 
     1190.00        0.167          7.3 
     1191.00        0.200          6.9 
     1192.00        0.200          7.1 
     1193.00        2.150          7.2 
     1194.00        0.567          6.9 
     1195.00        0.300          6.9 
     1196.00        0.267          6.7 
     1197.00        0.283          6.8 
     1198.00        0.233          7.3 
     1199.00        0.200          9.1 
     1200.00        0.267          7.7 
     1201.00        0.233          6.4 
     1202.00        0.233          6.4 
     1203.00        0.200          6.6 
     1204.00        0.200          6.9 
     1205.00        0.233          6.4 
     1206.00        0.233          7.1 
     1207.00        0.200          6.8 
     1208.00        0.167          6.8 
     1209.00        0.100          6.6 
     1210.00        0.167          6.6 
     1211.00        0.167          6.5 
     1212.00        0.200          6.8 
     1213.00        0.217          6.8 
     1214.00        0.200          7.0 
     1215.00        0.200          6.9 
     1216.00        0.200          7.1 
     1217.00        0.200          7.1 
     1218.00        0.167          7.2 
     1219.00        0.133          7.2 
     1220.00        0.133          7.3 
     1221.00        0.200          7.3 
     1222.00        0.233          7.4 
     1223.00        2.083          7.3 
     1224.00        0.433          6.5 
     1225.00        0.367          6.6 
     1226.00        0.267          6.7 
     1227.00        0.267          7.0 
     1228.00        0.233          6.7 
     1229.00        0.233          6.3 
     1230.00        0.233          6.5 
     1231.00        0.200          6.8 
     1232.00        0.267         10.5 
     1233.00        0.200         11.5 
     1234.00        0.217         10.8 
     1235.00        0.200          8.1 
