~Version Information
 VERS.                                  2.0 : CWLS LAS VERSION
 WRAP.                                   NO : WRAPING MODE
 SWARE .                 MController 2.5.0J : SOFTWARE VERSION
~Well Information
 WELL.                     Pacheco 33-27 Tr : WELL
 COMP.    PIONEER NATURAL RESOURCES USA INC : COMPANY
 FLD.                      PURGATOIRE RIVER : FIELD
 LOC.                    NW/SE  27 33S  67W : LOCATION
 DATE.                              6/10/05 : DATE(S) LOGGED
 SRVC.       Blanco Geological Sdrvices LLC : SERVICE COMPANY
 STAT.                                   CO : STATE
 CNTY.                           LAS ANIMAS : COUNTY
 CTRY.                                  USA : COUNTRY
 API.                           05-071-08384: API NUMBER
 STRT.FT                             206.00 : START DEPTH
 STOP.FT                            1210.00 : STOP DEPTH
 STEP.FT                               1.00 : DEPTH INCREMENT
 NULL.                                -9999 : NULL VALUE
~Curve information
 DEPTH.FT                                   :
 ROP.MIN/FT                                 :
 GAS.UNITS                                  :
~ASCII Log data
# ...
      1006.0         0.37         50.2 
      1007.0         0.27         50.1 
      1008.0         0.27         50.1 
      1009.0         0.30         49.6 
      1010.0         0.28         49.9 
      1011.0         0.20         49.2 
      1012.0         0.23         48.5 
      1013.0         0.37         49.1 
      1014.0         0.37         49.6 
      1015.0         0.37         49.7 
      1016.0         3.72        243.2 
      1017.0         0.60        134.7 
      1018.0         0.57        154.6 
      1019.0         0.65        148.2 
      1020.0         0.60        118.5 
      1021.0         0.40        100.1 
      1022.0         0.43         93.0 
      1023.0         0.40         88.1 
      1024.0         0.37         84.8 
      1025.0         0.37         82.3 
      1026.0         0.38         81.3 
      1027.0         0.37         80.6 
      1028.0         0.40         80.1 
      1029.0         0.37         79.4 
      1030.0         0.37         79.4 
      1031.0         0.30         79.4 
      1032.0         0.30         79.3 
      1033.0         0.20         79.1 
      1034.0         0.17         79.0 
      1035.0         0.23         79.5 
      1036.0         0.37         94.9 
      1037.0         0.38        104.0 
      1038.0         0.33        104.5 
      1039.0         0.30        104.2 
      1040.0         0.20        103.0 
      1041.0         0.23        101.5 
      1042.0         0.30         99.2 
      1043.0         0.20         95.8 
      1044.0         0.33         97.0 
      1045.0         0.30         96.9 
      1046.0         3.05        259.5 
      1047.0         0.73        168.8 
      1048.0         0.58        165.9 
      1049.0         0.33        145.5 
      1050.0         0.53        131.6 
      1051.0         0.40        116.3 
      1052.0         0.37        107.0 
      1053.0         0.33        103.8 
      1054.0         0.67        131.1 
      1055.0         0.38        169.6 
      1056.0         0.33        169.6 
      1057.0         0.33        138.2 
      1058.0         0.23        106.5 
      1059.0         0.23         96.2 
      1060.0         0.27         90.7 
      1061.0         0.33         88.3 
      1062.0         0.30         87.8 
      1063.0         0.27         88.1 
      1064.0         0.37         89.8 
      1065.0         0.37         90.6 
      1066.0         0.38         90.6 
      1067.0         0.37         91.0 
      1068.0         0.23         91.7 
      1069.0         0.30         91.7 
      1070.0         0.27         91.1 
      1071.0         0.23         90.7 
      1072.0         0.37         91.1 
      1073.0         0.33         91.4 
      1074.0         0.37         92.0 
      1075.0         0.40         88.7 
      1076.0         3.12        327.8 
      1077.0         0.58        165.1 
      1078.0         0.50        185.9 
      1079.0         0.43        185.8 
      1080.0         0.47        177.8 
      1081.0         0.43        153.8 
      1082.0         0.37        130.7 
      1083.0         0.37        115.5 
      1084.0         0.37        104.4 
      1085.0         0.37         96.8 
      1086.0         0.38         92.9 
      1087.0         0.40         90.3 
      1088.0         0.33         88.7 
      1089.0         0.37         88.1 
      1090.0         0.40         87.8 
      1091.0         0.40         88.6 
      1092.0         0.37         88.5 
      1093.0         0.33         88.3 
      1094.0         0.33         88.7 
      1095.0         0.35         89.4 
      1096.0         0.40         89.9 
      1097.0         0.37         89.9 
      1098.0         0.37         89.6 
      1099.0         0.40         89.7 
      1100.0         0.33         89.2 
      1101.0         0.20         87.4 
      1102.0         0.30         86.3 
      1103.0         0.33         91.6 
      1104.0         0.33         94.1 
      1105.0         0.42         91.4 
      1106.0         3.25        423.6 
      1107.0         0.13        185.2 
      1108.0         0.17        163.9 
      1109.0         0.23        145.1 
      1110.0         0.17        139.4 
      1111.0         0.13        163.2 
      1112.0         0.33        220.9 
      1113.0         0.33        231.0 
      1114.0         0.37        227.0 
      1115.0         0.33        200.4 
      1116.0         0.37        188.0 
      1117.0         0.43        182.7 
      1118.0         0.42        167.2 
      1119.0         0.37        151.8 
      1120.0         0.27        142.8 
      1121.0         0.17        137.3 
      1122.0         0.27        133.5 
      1123.0         0.40        145.1 
      1124.0         0.37        146.9 
      1125.0         0.27        145.4 
      1126.0         0.37        142.9 
      1127.0         0.43        140.8 
      1128.0         0.28        135.6 
      1129.0         0.33        133.1 
      1130.0         0.37        133.3 
      1131.0         0.37        132.1 
      1132.0         0.43        129.5 
      1133.0         0.43        127.2 
      1134.0         0.43        126.0 
      1135.0         0.30        125.4 
      1136.0         3.28        374.3 
      1137.0         0.43        252.0 
      1138.0         0.35        207.3 
      1139.0         0.30        216.2 
      1140.0         0.43        213.3 
      1141.0         0.43        213.5 
      1142.0         0.27        202.4 
      1143.0         0.17        187.6 
      1144.0         0.30        177.4 
      1145.0         0.40        189.4 
      1146.0         0.37        188.9 
      1147.0         0.33        180.8 
      1148.0         0.35        173.0 
      1149.0         0.30        165.0 
      1150.0         0.37        155.9 
      1151.0         0.37        148.5 
      1152.0         0.30        143.9 
      1153.0         0.40        140.9 
      1154.0         0.30        138.0 
      1155.0         0.30        137.0 
      1156.0         0.27        137.2 
      1157.0         0.33        139.0 
      1158.0         0.32        140.0 
      1159.0         0.30        140.0 
      1160.0         0.33        139.5 
      1161.0         0.30        138.2 
      1162.0         0.37        136.8 
      1163.0         0.37        135.8 
      1164.0         0.57        135.7 
      1165.0         0.50        131.9 
      1166.0         6.80       1264.6 
      1167.0         0.38        472.2 
      1168.0         0.40        506.9 
      1169.0         0.40        514.0 
      1170.0         0.40        503.2 
      1171.0         0.30        499.1 
      1172.0         0.37        501.2 
      1173.0         0.30        500.8 
      1174.0         0.37        494.4 
      1175.0         0.33        488.7 
      1176.0         0.33        487.7 
      1177.0         0.32        488.7 
      1178.0         0.30        491.4 
      1179.0         0.27        493.1 
      1180.0         0.33        494.8 
      1181.0         0.27        502.8 
      1182.0         0.27        497.8 
      1183.0         0.33        499.1 
      1184.0         0.33        499.5 
      1185.0         0.40        500.1 
      1186.0         0.62        503.2 
      1187.0         0.60        507.2 
      1188.0         0.53        507.6 
      1189.0         0.60        510.2 
      1190.0         0.50        663.9 
      1191.0         0.60        723.5 
      1192.0         0.52        705.7 
      1193.0         0.87        661.2 
      1194.0         0.90        566.9 
      1195.0         0.60        509.2 
      1196.0         3.28       1315.1 
      1197.0         0.50        838.1 
      1198.0         0.52        764.3 
      1199.0         0.50        695.9 
      1200.0         0.33        654.1 
      1201.0         0.37        637.9 
      1202.0         0.33        616.7 
      1203.0         0.33        606.3 
      1204.0         0.30        593.5 
      1205.0         0.43        594.5 
