~Version Information
VERS.                      2.0: CWLS Log ASCII Standard - VERSION 2.0
WRAP.                       NO: One line per depth step
~Well Information Block
STRT.FT                -6.2500: 
STOP.FT              2316.0000: 
STEP.FT                 0.2500: 
NULL.                -999.2500: 
COMP.          Pioneer Natural Resources: COMPANY
WELL.             Trimax 44-23: WELL
FLD.           Purgatorie River: FIELD
LOC.           527' FSL & 1064' FEL------: LOCATION
PROV.                       CO: PROVINCE
CNTY.               Las Animas: COUNTRY
SRVC.          Patterson Wireline: SERVICE COMPANY
DATE.          Sat Mar 19 11:18:53 2005: LOG DATE
UWI.           05 071 08326 00: UNIQUE WELL ID
~Curve Information Block
DEPT.FT            0 000 00 00: Depth
CCL.                          : Casing Collar Locator
TT3.usec                      : CBL 3' Travel Time
AMP3.mV                       : CBL 3' Amplitude
GR.GAPI                       : Gamma Ray
~Parameter Information Block
~A  Depth       CCL         TT3         AMP3         GR     
# ...
  1668.7500      0.0000    734.6019      9.1300    121.1988
  1669.0000      0.0000    736.0214      9.1449    124.9818
  1669.2500      0.0000    736.6484      9.1518    123.0484
  1669.5000      0.0000    737.0136      9.1783    116.3190
  1669.7500      0.0000    737.2536      9.2800    107.1476
  1670.0000      0.0000    737.3478      9.4689     97.8162
  1670.2500      0.0000    737.2738      9.7007     89.6094
  1670.5000      0.0000    737.0539      9.9260     82.9631
  1670.7500      0.0000    736.7549     10.1289     78.1181
  1671.0000      0.0000    736.4670     10.3117     75.2474
  1671.2500      0.0000    736.2561     10.4571     73.9664
  1671.5000      0.0000    736.1190     10.5191     73.1098
  1671.7500      0.0000    735.9873     10.4520     71.3350
  1672.0000      0.0000    735.7880     10.2537     68.0723
  1672.2500      0.0000    735.5202      9.9917     63.9572
  1672.5000      0.0000    735.3206      9.7844     60.5353
  1672.7500      0.0000    735.5251      9.7305     59.4229
  1673.0000      0.0000    736.7556      9.8325     61.1662
  1673.2500      0.0000    739.9389      9.9809     64.6337
  1673.5000      0.0000    746.0116     10.0218     67.8340
  1673.7500      0.0000    755.2413      9.8587     69.3444
  1674.0000      0.0000    766.6461      9.5259     68.8092
  1674.2500      0.0000    777.8810      9.1749     66.6108
  1674.5000      0.0000    785.4358      8.9713     63.7048
  1674.7500      0.0000    785.4916      8.9847     61.3554
  1675.0000      0.0000    776.2066      9.1727     60.3248
  1675.2500      0.0000    760.0034      9.4469     60.4388
  1675.5000      0.0000    742.6725      9.7330     61.1076
  1675.7500      0.0000    729.3835      9.9776     61.9673
  1676.0000      0.0000    721.7551     10.1323     62.9539
  1676.2500      0.0000    718.4296     10.1577     64.0485
  1676.5000      0.0000    717.3064     10.0457     65.1461
  1676.7500      0.0000    716.9323      9.8237     66.1931
  1677.0000      0.0000    716.6607      9.5339     67.4451
  1677.2500      0.0000    716.3408      9.2188     69.3805
  1677.5000      0.0000    716.0392      8.9347     72.0809
  1677.7500      0.0000    715.8723      8.7615     74.7647
  1678.0000      0.0000    715.8983      8.7702     76.2350
  1678.2500      0.0000    716.1036      8.9642     75.7758
  1678.5000      0.0000    716.5883      9.2552     73.5035
  1678.7500      0.0000    717.8463      9.5017     70.0029
  1679.0000      0.0000    720.5960      9.5806     65.8708
  1679.2500      0.0000    724.4886      9.4484     61.5920
  1679.5000      0.0000    726.2004      9.1641     57.6417
  1679.7500      0.0000    718.7166      8.8504     54.5527
  1680.0000      0.0000    693.4282      8.6195     52.7871
  1680.2500      0.0000    644.9987      8.5209     52.5785
  1680.5000      0.0000    577.1366      8.5424     53.9313
  1680.7500      0.0000    504.9120      8.6497     56.5016
  1681.0000      0.0000    449.6739      8.8278     59.2792
  1681.2500      0.0000    429.0307      9.0909     60.7835
  1681.5000      0.0000    448.6736      9.4454     60.1631
  1681.7500      0.0000    499.0167      9.8504     58.1752
  1682.0000      0.0000    556.8226     10.2242     56.7290
  1682.2500      0.0000    593.8952     10.4751     57.2127
  1682.5000      0.0000    591.2700     10.5169     59.2121
  1682.7500      0.0000    549.7011     10.2914     60.9813
  1683.0000      0.0000    487.7969      9.8244     61.2721
  1683.2500      0.0000    428.9810      9.2633     60.5147
  1683.5000      0.0000    387.8174      8.8197     60.1379
  1683.7500      0.0000    365.7945      8.6532     61.0768
  1684.0000      0.0000    356.7271      8.8107     63.1330
  1684.2500      0.0000    353.9054      9.2490     65.5353
  1684.5000      0.0000    353.3176      9.8690     67.8458
  1684.7500      0.0000    353.3560     10.5259     70.3969
  1685.0000      0.0000    353.6997     11.0542     73.8893
  1685.2500      0.0000    354.8987     11.3211     78.4101
  1685.5000      0.0000    358.9438     11.2644     82.8297
  1685.7500      0.0000    370.5512     10.8878     85.4587
  1686.0000      0.0000    397.4144     10.2520     85.5190
  1686.2500      0.0000    446.5526      9.4829     83.9209
  1686.5000      0.0000    516.8211      8.7718     82.5996
  1686.7500      0.0000    594.6582      8.3331     83.1232
  1687.0000      0.0000    660.5569      8.3189     85.5584
  1687.2500      0.0000    702.0132      8.7243     88.2775
  1687.5000      0.0000    719.9738      9.3487     89.2439
  1687.7500      0.0000    723.8406      9.8749     87.9712
  1688.0000      0.0000    722.7551     10.0480     85.9930
  1688.2500      0.0000    721.4182      9.8323     85.2276
  1688.5000      0.0000    720.9183      9.4236     86.2372
  1688.7500      0.0000    720.8928      9.1016     88.0996
  1689.0000      0.0000    720.5151      9.0343     89.4471
  1689.2500      0.0000    718.0622      9.1822     89.5029
  1689.5000      0.0000    709.6913      9.3613     88.4013
  1689.7500      0.0000    689.3353      9.4063     86.6136
  1690.0000      0.0000    652.3044      9.3114     84.2398
  1690.2500      0.0000    602.2704      9.2279     81.0839
  1690.5000      0.0000    554.3687      9.3094     77.1453
  1690.7500      0.0000    526.1631      9.5597     72.7061
  1691.0000      0.0000    521.6094      9.8459     68.2328
  1691.2500      0.0000    526.1725     10.0475     64.4168
  1691.5000      0.0000    521.7756     10.1675     62.0094
  1691.7500      0.0000    505.2650     10.3012     61.3553
  1692.0000      0.0000    488.5694     10.5101     62.2139
  1692.2500      0.0000    483.3883     10.7388     64.0661
  1692.5000      0.0000    492.3511     10.8767     66.3463
  1692.7500      0.0000    514.3563     10.8947     68.4577
  1693.0000      0.0000    549.5729     10.8738     69.9539
  1693.2500      0.0000    595.1600     10.8845     70.6903
  1693.5000      0.0000    641.7194     10.9007     70.5979
  1693.7500      0.0000    678.7652     10.8734     69.5378
  1694.0000      0.0000    702.0181     10.8366     67.6907
  1694.2500      0.0000    714.1725     10.8625     65.8490
  1694.5000      0.0000    720.9724     10.9337     64.9755
  1694.7500      0.0000    727.8560     10.9423     65.4913
  1695.0000      0.0000    738.4361     10.8362     66.9740
  1695.2500      0.0000    753.5743     10.7036     68.3167
  1695.5000      0.0000    771.3348     10.6671     68.2754
  1695.7500      0.0000    788.6861     10.7220     66.2759
  1696.0000      0.0000    803.7978     10.7387     62.9264
  1696.2500      0.0000    816.5389     10.6344     59.7153
  1696.5000      0.0000    827.1137     10.4965     58.0136
  1696.7500      0.0000    835.1716     10.4965     58.0852
  1697.0000      0.0000    840.3641     10.6955     58.9224
  1697.2500      0.0000    843.0438     10.9813     59.2129
  1697.5000      0.0000    844.0828     11.2091     58.6206
  1697.7500      0.0000    844.2874     11.3560     58.1663
  1698.0000      0.0000    844.0961     11.5098     59.3375
  1698.2500      0.0000    843.5419     11.7309     62.5728
  1698.5000      0.0000    842.2155     11.9743     66.4751
  1698.7500      0.0000    839.2450     12.1510     68.8596
  1699.0000      0.0000    833.6073     12.2287     68.8243
  1699.2500      0.0000    824.7750     12.2390     67.6425
  1699.5000      0.0000    813.0901     12.2026     67.5713
  1699.7500      0.0000    799.2899     12.0956     69.9791
  1700.0000      0.0000    783.7672     11.9149     74.5807
  1700.2500      0.0000    766.5903     11.7475     80.0450
  1700.5000      0.0000    748.2531     11.7245     84.8891
  1700.7500      0.0000    730.0966     11.8888     88.0059
  1701.0000      0.0000    713.7729     12.1169     89.1488
  1701.2500      0.0000    700.0060     12.1805     89.2780
  1701.5000      0.0000    687.7373     11.9014     89.7524
  1701.7500      0.0000    674.2511     11.2884     90.7179
  1702.0000      0.0000    656.4930     10.5552     90.8095
