~Version Information
VERS.                      2.0: CWLS Log ASCII Standard - VERSION 2.0
WRAP.                       NO: One line per depth step
~Well Information Block
STRT.FT                -7.2500: 
STOP.FT               765.5000: 
STEP.FT                 0.2500: 
NULL.                -999.2500: 
COMP.          Pioneer Natural Resources: COMPANY
WELL.          Barrelman 41-27: WELL
FLD.           Purgatorie River: FIELD
LOC.           371' FNL & 493' FEL--: LOCATION
PROV.                       CO: PROVINCE
CNTY.               Las Animas: COUNTRY
SRVC.          Patterson Wireline: SERVICE COMPANY
DATE.          Wed May 25 09:32:20 2005: LOG DATE
UWI.           05 071 08334 00: UNIQUE WELL ID
~Curve Information Block
DEPT.FT            0 000 00 00: Depth
CCL.                          : Casing Collar Locator
TT3.usec                      : CBL 3' Travel Time
AMP3.mV                       : CBL 3' Amplitude
GR.GAPI                       : Gamma Ray
~Parameter Information Block
~A  Depth       CCL         TT3         AMP3         GR     
# ...
   528.7500      0.0000    921.4691      7.9497     75.3997
   529.0000      0.0000    919.4680      7.9050     73.4170
   529.2500      0.0000    915.6132      7.8602     70.0537
   529.5000      0.0000    914.6387      7.8343     66.4820
   529.7500      0.0000    919.0560      7.8245     64.0510
   530.0000      0.0000    926.7923      7.8095     63.1675
   530.2500      0.0000    933.0847      7.7697     62.8645
   530.5000      0.0000    934.3545      7.7019     61.7644
   530.7500      0.0000    929.5602      7.6174     59.5002
   531.0000      0.0000    918.5803      7.5314     56.9886
   531.2500      0.0000    901.1437      7.4546     55.4264
   531.5000      0.0000    878.2360      7.3947     55.3361
   531.7500      0.0000    853.5944      7.3624     56.4804
   532.0000      0.0000    832.5327      7.3703     58.1721
   532.2500      0.0000    819.4179      7.4225     59.4398
   532.5000      0.0000    816.2498      7.5048     59.4338
   532.7500      0.0000    821.8237      7.5897     58.2163
   533.0000      0.0000    831.1989      7.6556     56.8940
   533.2500      0.0000    837.9338      7.7001     56.4433
   533.5000      0.0000    838.4475      7.7364     56.5524
   533.7500      0.0000    833.2352      7.7773     56.1831
   534.0000      2.0000    824.0602      7.8249     55.2729
   534.2500     -2.0000    812.4061      7.8731     55.3269
   534.5000      0.0000    800.7266      7.9190     57.9068
   534.7500      0.0000    792.7275      7.9692     62.5751
   535.0000      0.0000    792.1426      8.0335     66.7395
   535.2500      0.0000    802.2849      8.1108     67.8624
   535.5000      0.0000    825.4864      8.1822     65.6230
   535.7500      0.0000    860.5353      8.2220     61.7082
   536.0000      0.0000    900.6627      8.2190     57.9611
   536.2500      0.0000    936.2206      8.1883     55.1560
   536.5000      0.0000    960.3479      8.1629     53.1863
   536.7500      0.0000    971.6599      8.1717     51.8204
   537.0000      0.0000    972.0746      8.2213     51.1357
   537.2500      0.0000    963.9409      8.2930     51.3994
   537.5000      0.0000    950.2229      8.3562     52.6719
   537.7500      0.0000    936.2443      8.3891     54.5218
   538.0000      0.0000    928.8110      8.3892     56.1301
   538.2500      0.0000    931.8992      8.3680     56.7810
   538.5000      0.0000    943.1382      8.3355     56.3097
   538.7500      0.0000    954.5511      8.2917     55.0013
   539.0000      0.0000    956.5010      8.2291     53.1490
   539.2500      0.0000    942.4023      8.1395     50.9659
   539.5000      0.0000    912.7142      8.0207     48.7702
   539.7500      0.0000    875.5974      7.8771     46.8874
   540.0000      0.0000    842.2579      7.7146     45.4389
   540.2500      0.0000    820.1470      7.5379     44.3928
   540.5000      0.0000    809.7566      7.3544     43.6590
   540.7500      0.0000    806.6588      7.1805     43.1099
   541.0000      0.0000    805.7710      7.0364     42.7814
   541.2500      0.0000    804.5782      6.9305     43.0272
   541.5000      0.0000    803.8995      6.8524     44.1304
   541.7500      0.0000    806.7483      6.7829     45.8046
   542.0000      0.0000    815.9088      6.7128     47.4983
   542.2500      0.0000    830.8348      6.6509     49.1521
   542.5000      0.0000    846.1716      6.6143     51.1656
   542.7500      0.0000    854.6390      6.6138     53.5516
   543.0000      0.0000    852.7095      6.6485     55.5700
   543.2500      0.0000    843.3093      6.7097     56.4040
   543.5000      0.0000    833.3961      6.7866     55.9330
   543.7500      0.0000    830.0800      6.8690     54.7323
   544.0000      0.0000    837.4758      6.9478     53.5626
   544.2500      0.0000    853.4560      7.0132     52.9229
   544.5000      0.0000    869.0255      7.0563     52.7518
   544.7500      0.0000    874.3663      7.0768     52.3251
   545.0000      0.0000    867.2704      7.0863     50.6990
   545.2500      0.0000    854.1274      7.0989     47.5928
   545.5000      0.0000    842.3650      7.1201     43.8272
   545.7500      0.0000    833.9484      7.1466     40.7190
   546.0000      0.0000    826.7070      7.1722     39.0719
   546.2500      0.0000    819.8999      7.1911     38.8089
   546.5000      0.0000    816.2259      7.1993     39.3698
   546.7500      0.0000    818.2149      7.1989     40.2677
   547.0000      0.0000    824.4016      7.1981     41.3602
   547.2500      0.0000    830.5521      7.2007     42.7793
   547.5000      0.0000    834.6168      7.1901     44.5930
   547.7500      0.0000    839.6779      7.1257     46.5329
   548.0000      0.0000    851.4847      6.9709     48.1456
   548.2500      0.0000    872.7884      6.7343     49.1671
   548.5000      0.0000    900.0660      6.4798     49.5595
   548.7500      0.0000    926.3444      6.2838     49.2095
   549.0000      0.0000    947.2739      6.1776     47.8580
   549.2500      0.0000    963.1299      6.1302     45.5561
   549.5000      2.0000    974.9390      6.0825     43.0980
   549.7500     -2.0000    981.2546      5.9954     41.5438
   550.0000      0.0000    979.8043      5.8759     41.1326
   550.2500      0.0000    969.3758      5.7807     41.1160
   550.5000      0.0000    949.2402      5.7924     41.0147
   550.7500      0.0000    920.6025      5.9585     41.6824
   551.0000      0.0000    889.7950      6.2325     44.6874
   551.2500      0.0000    866.2385      6.5021     50.7117
   551.5000      0.0000    855.4589      6.6900     58.6736
   551.7500      0.0000    855.5015      6.8015     66.2694
   552.0000      0.0000    860.0428      6.8751     71.2939
   552.2500      0.0000    863.5477      6.9349     72.8417
   552.5000      0.0000    863.8866      6.9970     71.7287
   552.7500      0.0000    861.8716      7.0823     69.8058
   553.0000      0.0000    859.2964      7.2042     68.5739
   553.2500      0.0000    857.2483      7.3519     68.3460
   553.5000      0.0000    855.6185      7.4974     68.7210
   553.7500      0.0000    853.3658      7.6182     69.6432
   554.0000      0.0000    849.0770      7.7149     71.7383
   554.2500      0.0000    842.0603      7.8066     75.4890
   554.5000      0.0000    833.8938      7.9083     80.1600
   554.7500      0.0000    828.7193      8.0140     83.7934
   555.0000      0.0000    830.7167      8.1014     84.5447
   555.2500      0.0000    840.5416      8.1537     82.1670
   555.5000      0.0000    854.6481      8.1732     78.1754
   555.7500      0.0000    868.4797      8.1778     74.5518
   556.0000      0.0000    880.1337      8.1875     72.3032
   556.2500      0.0000    890.8301      8.2118     71.0417
   556.5000      0.0000    902.1091      8.2464     69.6537
   556.7500      0.0000    913.0298      8.2751     67.4855
   557.0000      0.0000    920.3459      8.2785     65.0319
   557.2500      0.0000    921.2371      8.2433     63.2956
   557.5000      0.0000    916.3839      8.1673     62.5358
   557.7500      0.0000    911.1102      8.0572     62.1112
   558.0000      0.0000    911.8506      7.9234     61.5436
   558.2500      0.0000    918.5076      7.7770     61.1307
   558.5000      0.0000    921.5214      7.6309     61.2628
   558.7500      0.0000    911.2133      7.5025     61.5530
   559.0000      0.0000    890.0078      7.4101     61.0840
   559.2500      0.0000    870.6075      7.3632     59.4833
   559.5000      0.0000    861.7573      7.3557     57.3855
   559.7500      0.0000    860.4492      7.3682     55.7089
   560.0000      0.0000    859.0912      7.3795     54.7133
   560.2500      0.0000    856.0245      7.3842     53.8939
   560.5000      0.0000    856.2994      7.3999     52.5922
   560.7500      0.0000    864.3559      7.4535     50.5863
   561.0000      0.0000    878.7785      7.5568     48.2602
   561.2500      0.0000    893.7711      7.6952     46.3371
   561.5000      0.0000    904.0392      7.8338     45.4053
   561.7500      0.0000    907.8843      7.9328     45.5696
   562.0000      0.0000    906.5395      7.9631     46.3638
