~Version Information
VERS.                      2.0: CWLS Log ASCII Standard - VERSION 2.0
WRAP.                       NO: One line per depth step
~Well Information Block
STRT.FT               530.0000: 
STOP.FT              1825.0000: 
STEP.FT                 0.1000: 
NULL.                -999.2500: 
COMP.          Pioneer Natural Resources: COMPANY
WELL.          Vision 31-11 Tr: WELL
FLD.           Purgatoire River: FIELD
LOC.           742' FNL & 1593' FEL: LOCATION
STAT.                 Colorado: State
CNTY.               Las Animas: COUNTY
CTRY. USA : Country
SECT. 11 : Section
TOWN. 32S : Township
RANG. 66W : Range
SRVC.                Patterson: SERVICE COMPANY
DATE.          Mon Oct 10 07:17:32 2005: LOG DATE
API.           05 071 08305 00: UNIQUE WELL ID
~Curve Information Block
DEPT.FT            0 000 00 00: Depth
DCAL.in                       : CDL Caliper
RHOB.g/cc                     : CDL Bulk Density
RHOC.g/cc                     : CDL Density Correction
DPOR.pu                       : CDL Density Porosity
GR.GAPI                       : Gamma Ray
NPOR.pu                       : Neutron Porosity
~Parameter Information Block
~A  Depth       DCAL        RHOB        RHOC        DPOR         GR         NPOR    
# ...
  1806.8000      7.9399      2.7312     -0.2013     -4.9217    120.1872     24.4634
  1806.9000      7.9399      2.6843     -0.1668     -2.0759    127.7267     24.6662
  1807.0000      7.9933      2.6332      0.0157      1.0157    135.6423     24.4661
  1807.1000      7.9933      2.5471     -0.0339      6.2387    137.3566     24.7364
  1807.2000      7.9933      2.4673     -0.0071     11.0721    133.6969     26.3295
  1807.3000      8.0477      2.4405      0.0065     12.6989    133.1065     27.3659
  1807.4000      8.0477      2.4493      0.0231     12.1651    138.0758     26.6594
  1807.5000      8.0664      2.4508      0.0556     12.0758    143.9294     25.8164
  1807.6000      8.0664      2.4324      0.0338     13.1856    146.5587     25.9321
  1807.7000      8.0664      2.4185      0.0431     14.0319    146.8727     26.2740
  1807.8000      8.1081      2.4208      0.0944     13.8904    146.8082     26.0388
  1807.9000      8.1081      2.4274      0.1158     13.4928    147.3198     25.6784
  1808.0000      8.2053      2.4413      0.0974     12.6459    148.0418     25.7618
  1808.1000      8.2053      2.4712      0.1498     10.8387    146.6777     26.1028
  1808.2000      8.2053      2.5079      0.1113      8.6112    144.7524     26.1201
  1808.3000      8.3053      2.5451      0.1818      6.3548    145.6669     25.6381
  1808.4000      8.3053      2.5825      0.1881      4.0897    149.1019     24.8920
  1808.5000      8.2551      2.6142      0.2368      2.1710    151.5426     24.4832
  1808.6000      8.2551      2.6261      0.2601      1.4463    151.5386     24.8695
  1808.7000      8.2551      2.6096      0.2447      2.4491    152.2561     25.5949
  1808.8000      8.1858      2.5720      0.1856      4.7300    155.9527     26.3404
  1808.9000      8.1858      2.5327      0.1046      7.1105    160.2266     27.1986
  1809.0000      8.3538      2.5084      0.0590      8.5835    162.0058     27.3682
  1809.1000      8.3538      2.4993      0.0530      9.1329    160.0036     26.1343
  1809.2000      8.3538      2.4966      0.0446      9.2964    154.9966     24.5498
  1809.3000      8.3487      2.4962      0.0292      9.3186    150.4429     24.1488
  1809.4000      8.3487      2.4990      0.0290      9.1537    146.4771     25.3285
  1809.5000      8.1990      2.4997      0.0609      9.1061    132.4737     26.7782
  1809.6000      8.1990      2.4901      0.0268      9.6902     96.9671     26.9417
  1809.7000      8.1990      2.4784      0.0072     10.3990     49.5677     25.6014
  1809.8000      8.1479      2.4796      0.0499     10.3245     15.7342     24.2625
  1809.9000      8.1479      2.4868      0.0736      9.8930      2.8777     24.6926
  1810.0000      8.0712      2.4864      0.0452      9.9158      0.2904     26.7543
  1810.1000      8.0712      2.4870      0.0443      9.8768      0.0154     30.3827
  1810.2000      8.0712      2.5093      0.0662      8.5282      0.0000     37.6664
  1810.3000      8.0236      2.5494      0.1276      6.0959   -999.2500     47.3440
  1810.4000      8.0236      2.5816      0.1486      4.1477   -999.2500     53.7032
  1810.5000      7.9902      2.5956      0.1893      3.2960   -999.2500     55.8708
  1810.6000      7.9902      2.5975      0.1531      3.1804   -999.2500     56.2869
  1810.7000      7.9902      2.5887      0.1627      3.7124   -999.2500     56.3309
  1810.8000      7.9607      2.5673      0.1035      5.0111   -999.2500     56.3334
  1810.9000      7.9607      2.5401      0.0593      6.6577   -999.2500   -999.2500
  1811.0000      7.9427      2.5174      0.1278      8.0382   -999.2500   -999.2500
  1811.1000      7.9427      2.5003      0.0405      9.0721   -999.2500   -999.2500
  1811.2000      7.9427      2.4886      0.0132      9.7812   -999.2500   -999.2500
  1811.3000      8.0752      2.4834      0.0107     10.0973   -999.2500   -999.2500
  1811.4000      8.0752      2.4788      0.0732     10.3786   -999.2500   -999.2500
  1811.5000      8.1285      2.4719      0.0207     10.7916   -999.2500   -999.2500
  1811.6000      8.1285      2.4724      0.0405     10.7619   -999.2500   -999.2500
  1811.7000      8.1285      2.4844      0.0207     10.0371   -999.2500   -999.2500
  1811.8000      8.0900      2.5044      0.0383      8.8265   -999.2500   -999.2500
  1811.9000      8.0900      2.5231      0.1049      7.6929   -999.2500   -999.2500
  1812.0000      8.0811      2.5290      0.0922      7.3346   -999.2500   -999.2500
  1812.1000      8.0811      2.5281      0.0211      7.3892   -999.2500   -999.2500
  1812.2000      8.0811      2.5289      0.0698      7.3384   -999.2500   -999.2500
  1812.3000      8.1411      2.5216      0.1235      7.7842   -999.2500   -999.2500
  1812.4000      8.1411      2.5109      0.0283      8.4325   -999.2500   -999.2500
  1812.5000      8.1783      2.5238      0.0467      7.6498   -999.2500   -999.2500
  1812.6000      8.1783      2.5642      0.0293      5.1983   -999.2500   -999.2500
  1812.7000      8.1783      2.6012      0.0861      2.9587   -999.2500   -999.2500
  1812.8000      8.1207      2.6037      0.0919      2.8046   -999.2500   -999.2500
  1812.9000      8.1207      2.5809      0.0520      4.1901   -999.2500   -999.2500
  1813.0000      8.1223      2.5603      0.0457      5.4352   -999.2500   -999.2500
  1813.1000      8.1223      2.5469      0.0312      6.2481   -999.2500   -999.2500
  1813.2000      8.1223      2.5272      0.0671      7.4410   -999.2500   -999.2500
  1813.3000      8.0740      2.5020      0.0438      8.9691   -999.2500   -999.2500
  1813.4000      8.0740      2.4902      0.0335      9.6870   -999.2500   -999.2500
  1813.5000      8.0690      2.4969      0.0314      9.2816   -999.2500   -999.2500
  1813.6000      8.0690      2.5081      0.0597      8.5970   -999.2500   -999.2500
  1813.7000      8.0690      2.5132     -0.0058      8.2914   -999.2500   -999.2500
  1813.8000      8.0551      2.5106      0.0415      8.4489   -999.2500   -999.2500
  1813.9000      8.0551      2.5040      0.1004      8.8511   -999.2500   -999.2500
  1814.0000      8.0435      2.5027      0.1316      8.9265   -999.2500   -999.2500
  1814.1000      8.0435      2.5078      0.1666      8.6167   -999.2500   -999.2500
  1814.2000      8.0435      2.5091      0.1528      8.5380   -999.2500   -999.2500
  1814.3000      8.0459      2.5063      0.1698      8.7077   -999.2500   -999.2500
  1814.4000      8.0459      2.5113      0.1508      8.4082   -999.2500   -999.2500
  1814.5000      8.0606      2.5338      0.1354      7.0445   -999.2500   -999.2500
  1814.6000      8.0606      2.5666      0.1357      5.0553   -999.2500   -999.2500
  1814.7000      8.0606      2.5851      0.1578      3.9357   -999.2500   -999.2500
  1814.8000      7.9927      2.5801      0.1397      4.2376   -999.2500   -999.2500
  1814.9000      7.9927      2.5750      0.0922      4.5482   -999.2500   -999.2500
  1815.0000      7.9654      2.5804      0.1575      4.2158   -999.2500   -999.2500
  1815.1000      7.9654      2.5720      0.1415      4.7296   -999.2500   -999.2500
  1815.2000      7.9654      2.5343      0.0805      7.0136   -999.2500   -999.2500
  1815.3000      7.9980      2.4821      0.0098     10.1742   -999.2500   -999.2500
  1815.4000      7.9980      2.4267      0.0094     13.5360   -999.2500   -999.2500
  1815.5000      8.0063      2.3589     -0.0193     17.6426   -999.2500   -999.2500
  1815.6000      8.0063      2.2813     -0.0354     22.3484   -999.2500   -999.2500
  1815.7000      8.0063      2.2265     -0.0794     25.6677   -999.2500   -999.2500
  1815.8000      8.0276      2.2188     -0.0314     26.1350   -999.2500   -999.2500
  1815.9000      8.0276      2.2440      0.0277     24.6090   -999.2500   -999.2500
  1816.0000      8.0469      2.2804      0.0465     22.4030   -999.2500   -999.2500
  1816.1000      8.0469      2.3240      0.0697     19.7554   -999.2500   -999.2500
  1816.2000      8.0469      2.3724      0.1737     16.8246   -999.2500   -999.2500
  1816.3000      8.0320      2.4174      0.1267     14.0973   -999.2500   -999.2500
