~Version Information
VERS.                      2.0: CWLS Log ASCII Standard - VERSION 2.0
WRAP.                       NO: One line per depth step
~Well Information Block
STRT.FT                 0.5000: 
STOP.FT              1575.0000: 
STEP.FT                 0.2500: 
NULL.                -999.2500: 
COMP.          Evergreen Operating Corporation: COMPANY
WELL.                Eric 42-9: WELL
FLD.           Purgatorie River: FIELD
LOC.           2050' FNL & 850' FEL: LOCATION
PROV.                 Colorado: PROVINCE
CNTY.               Las Animas: COUNTRY
SRVC.                         : SERVICE COMPANY
DATE.          Tue Nov 09 16:28:59 2004: LOG DATE
UWI.           05 071 07999 00: UNIQUE WELL ID
~Curve Information Block
DEPT.FT            0 000 00 00: Depth
LTEN.lb                       : Surface Line Tension
TT3.usec                      : CBL 3' Travel Time
AMP3.mV                       : CBL 3' Amplitude
ATT3.db/ft                    : CBL 3' Attenuation
GR.GAPI                       : Gamma Ray
CCL.                          : Casing Collar Locator
~Parameter Information Block
~A  Depth       LTEN        TT3         AMP3        ATT3         GR         CCL     
# ...
  1536.5000    847.1538    713.7275      4.9136     -8.5697    128.5361      0.0000
  1536.7500    849.2960    712.3635      4.8757     -8.5921    127.3623      0.0000
  1537.0000    851.2009    700.8382      4.7475     -8.6693    125.1470      0.0000
  1537.2500    852.3646    677.4484      4.5559     -8.7885    121.9061      0.0000
  1537.5000    852.2335    643.4809      4.3569     -8.9178    118.1021      0.0000
  1537.7500    850.8693    606.0503      4.1997     -9.0242    114.7065      0.0000
  1538.0000    848.8433    575.7942      4.1069     -9.0890    112.6681      0.0000
  1538.2500    846.7045    560.9398      4.0764     -9.1105    112.1862      0.0000
  1538.5000    844.9893    562.7116      4.0940     -9.0981    112.5303      0.0000
  1538.7500    844.3359    574.5323      4.1480     -9.0601    112.6167      0.0000
  1539.0000    844.9807    584.6923      4.2440     -8.9939    111.8220      0.0000
  1539.2500    846.3318    581.9910      4.4021     -8.8880    110.3213      0.0000
  1539.5000    847.3337    561.8602      4.6287     -8.7427    108.7970      0.0000
  1539.7500    847.0636    528.6156      4.8866     -8.5857    107.8614      0.0000
  1540.0000    845.0922    492.3453      5.1029     -8.4602    107.5671      0.0000
  1540.2500    841.7887    462.9099      5.2167     -8.3964    107.2010      0.0000
  1540.5000    838.2919    444.7990      5.2197     -8.3947    105.5208      0.0000
  1540.7500    835.8412    436.0180      5.1498     -8.4338    101.4219      0.0000
  1541.0000    835.1221    431.6711      5.0561     -8.4869     94.7237      0.0000
  1541.2500    836.2598    429.0718      4.9793     -8.5312     86.5460      0.0000
  1541.5000    838.9789    430.6162      4.9518     -8.5473     78.7567      0.0000
  1541.7500    842.4347    442.8280      4.9837     -8.5287     72.6993      0.0000
  1542.0000    845.2170    471.6409      5.0365     -8.4982     68.4210      0.0000
  1542.2500    846.1428    515.7870      5.0369     -8.4980     65.2342      0.0000
  1542.5000    845.1791    563.1811      4.9605     -8.5422     62.6948      0.0000
  1542.7500    843.2946    595.2858      4.8938     -8.5814     60.7420      0.0000
  1543.0000    841.3824    597.8303      4.9654     -8.5394     59.2673      0.0000
  1543.2500    839.7081    570.0386      5.1986     -8.4065     58.1190      0.0000
  1543.5000    838.4293    525.5656      5.4711     -8.2585     57.4773      0.0000
  1543.7500    838.0294    484.9974      5.6314     -8.1749     57.8162      0.0000
  1544.0000    838.9411    465.3801      5.6197     -8.1810     59.4143      0.0000
  1544.2500    841.0775    473.1610      5.4662     -8.2611     62.1154     -3.0000
  1544.5000    843.8547    503.1781      5.2322     -8.3878     65.6166      0.0000
  1544.7500    846.3261    542.2030      4.9919     -8.5240     69.6277      0.0000
  1545.0000    847.4713    574.2051      4.8307     -8.6190     73.5141      0.0000
  1545.2500    847.0369    585.4896      4.7964     -8.6396     76.1820      0.0000
  1545.5000    846.0093    570.0972      4.8474     -8.6090     76.8246      0.0000
  1545.7500    845.5118    533.8707      4.8852     -8.5865     75.7200      0.0000
  1546.0000    845.3139    491.7242      4.8442     -8.6109     74.0052      0.0000
  1546.2500    844.2318    458.1172      4.7337     -8.6777     72.7355      0.0000
  1546.5000    842.0161    439.5932      4.6042     -8.7580     72.3435      0.0000
  1546.7500    840.0142    434.9889      4.4954     -8.8272     72.8664      0.0000
  1547.0000    839.7903    439.5286      4.4169     -8.8782     74.3185      0.0000
  1547.2500    841.6960    447.9388      4.3607     -8.9154     76.7461      0.0000
  1547.5000    844.9232    456.0222      4.3174     -8.9442     80.0734      0.0000
  1547.7500    848.4094    461.6091      4.2796     -8.9697     83.8861      0.0000
  1548.0000    851.3854    464.5604      4.2409     -8.9960     87.2828      0.0000
  1548.2500    853.4114    465.8367      4.1997     -9.0243     89.1301      0.0000
  1548.5000    854.4489    466.4768      4.1574     -9.0536     88.7190      0.0000
  1548.7500    854.9455    467.3479      4.1103     -9.0866     86.2707      0.0000
  1549.0000    855.4653    469.6756      4.0552     -9.1256     82.8760      0.0000
  1549.2500    856.1203    475.8438      4.0015     -9.1642     79.9104      0.0000
  1549.5000    856.5572    489.0998      3.9670     -9.1893     78.3122      0.0000
  1549.7500    856.3934    511.0709      3.9599     -9.1945     78.2216      0.0000
  1550.0000    855.4217    538.3859      3.9764     -9.1824     79.1858      0.0000
  1550.2500    853.5652    562.7776      4.0167     -9.1532     80.7459      0.0000
  1550.5000    851.0212    576.3369      4.0894     -9.1013     83.0506      0.0000
  1550.7500    848.5066    577.4081      4.1905     -9.0306     86.9254      0.0000
  1551.0000    847.0420    571.5997      4.2843     -8.9665     93.0384      0.0000
  1551.2500    846.9954    567.8867      4.3216     -8.9414    100.8690      0.0000
  1551.5000    847.4147    573.5622      4.2841     -8.9666    108.6769      0.0000
  1551.7500    846.8470    590.9641      4.2090     -9.0179    114.5225      0.0000
  1552.0000    844.8414    616.4896      4.1597     -9.0520    117.2212      0.0000
  1552.2500    842.2421    641.9858      4.1745     -9.0417    116.4143      0.0000
  1552.5000    840.1560    659.6057      4.2455     -8.9929    112.1263      0.0000
  1552.7500    839.1519    668.1172      4.3452     -8.9257    104.7430      0.0000
  1553.0000    839.3002    673.8786      4.4619     -8.8489     95.5072      0.0000
  1553.2500    840.3730    684.1154      4.6039     -8.7582     86.5746      0.0000
  1553.5000    841.8380    699.7807      4.7703     -8.6554     80.1029      0.0000
  1553.7500    843.1489    716.0475      4.9264     -8.5622     77.1311      0.0000
  1554.0000    844.3366    728.3983      5.0181     -8.5088     77.2091      0.0000
  1554.2500    845.9284    736.1914      5.0147     -8.5107     79.1087      0.0000
  1554.5000    848.0373    740.1740      4.9320     -8.5589     82.1278      0.0000
  1554.7500    849.9838    738.3256      4.8107     -8.6310     86.6000      0.0000
  1555.0000    850.9996    725.7041      4.6815     -8.7098     92.8549      0.0000
  1555.2500    850.9326    699.9214      4.5498     -8.7925     99.9504      0.0000
  1555.5000    850.3243    667.7443      4.4052     -8.8859    105.9990      0.0000
  1555.7500    850.1454    644.5409      4.2445     -8.9935    109.7883      0.0000
  1556.0000    851.1401    643.4456      4.0851     -9.1043    111.7886      0.0000
  1556.2500    852.9432    664.0474      3.9574     -9.1963    113.4641      0.0000
  1556.5000    854.0814    693.5558      3.8856     -9.2493    115.7115      0.0000
  1556.7500    853.3124    718.5779      3.8791     -9.2542    117.9767      0.0000
  1557.0000    850.9381    733.8814      3.9310     -9.2156    118.8306      0.0000
  1557.2500    848.6836    741.2272      4.0190     -9.1516    117.4441      0.0000
  1557.5000    848.2948    743.2050      4.1129     -9.0847    114.4515      0.0000
  1557.7500    850.2529    739.1292      4.1890     -9.0317    111.1257      0.0000
  1558.0000    853.6229    726.1099      4.2361     -8.9993    107.7487      0.0000
  1558.2500    856.9081    704.0328      4.2639     -8.9804    102.9757      0.0000
  1558.5000    859.0620    678.5552      4.3088     -8.9500     94.6109   -999.2500
  1558.7500    859.9515    657.1260      4.4139     -8.8802     80.9714   -999.2500
  1559.0000    859.9951    641.6496      4.5957     -8.7634     62.3394   -999.2500
  1559.2500    859.4050    627.7222      4.8370     -8.6152     41.7117   -999.2500
  1559.5000    858.0392    610.9922      5.1019     -8.4608     23.5394   -999.2500
  1559.7500    856.1652    590.4496      5.3416     -8.3279     10.9450   -999.2500
  1560.0000    854.8439    565.7277      5.5075     -8.2393      4.1221   -999.2500
  1560.2500    854.9810    536.7645      5.5859     -8.1984      1.2422   -999.2500
