~Version Information
VERS.                      2.0: CWLS Log ASCII Standard - VERSION 2.0
WRAP.                       NO: One line per depth step
~Well Information Block
STRT.FT                -8.8000: 
STOP.FT              2006.2000: 
STEP.FT                 0.1000: 
NULL.                -999.2500: 
COMP.          Petrogulf Corporation: COMPANY
WELL.             J & P 12-33V: WELL
FLD.           Purgatorie River: FIELD
LOC.           2005' FSL & 1928' FEL: LOCATION
CNTY.               Las Animas: COUNTY
SRVC.                         : SERVICE COMPANY
DATE.          Fri Jul 29 13:37:28 2005: LOG DATE
UWI.                          : UNIQUE WELL ID
STAT.                 Colorado: STATE
~Curve Information Block
DEPT.FT            0 000 00 00: Depth
GR.GAPI                       : Gamma Ray
CCL.                          : Casing Collar Locator
TT3.usec                      : CBL 3' Travel Time
AMP3.mV                       : CBL 3' Amplitude
~Parameter Information Block
~A  Depth        GR         CCL         TT3         AMP3    
# ...
   661.2000    102.7812      0.0000    256.0277     79.9896
   661.3000    100.3114      0.0000    256.0479     79.7805
   661.4000    100.3114      0.0000    256.0479     79.7805
   661.5000     99.4595      0.0000    256.0661     79.6681
   661.6000     99.4595      0.0000    256.0661     79.6681
   661.7000     99.4595      0.0000    256.0661     79.6681
   661.8000    100.4697      0.0000    256.0746     79.7215
   661.9000    100.4697      0.0000    256.0746     79.7215
   662.0000    103.5566      0.0000    256.0736     79.8908
   662.1000    103.5566      0.0000    256.0736     79.8908
   662.2000    103.5566      0.0000    256.0736     79.8908
   662.3000    108.3375      0.0000    256.0680     80.0580
   662.4000    108.3375      0.0000    256.0680     80.0580
   662.5000    113.3858      0.0000    256.0600     80.1538
   662.6000    113.3858      0.0000    256.0600     80.1538
   662.7000    113.3858      0.0000    256.0600     80.1538
   662.8000    117.0904      0.0000    256.0488     80.1736
   662.9000    117.0904      0.0000    256.0488     80.1736
   663.0000    119.0329      0.0000    256.0405     80.1406
   663.1000    119.0329      0.0000    256.0405     80.1406
   663.2000    119.0329      0.0000    256.0405     80.1406
   663.3000    120.1014      0.0000    256.0448     80.1199
   663.4000    120.1014      0.0000    256.0448     80.1199
   663.5000    121.1619      0.0000    256.0621     80.1601
   663.6000    121.1619      0.0000    256.0621     80.1601
   663.7000    121.1619      0.0000    256.0621     80.1601
   663.8000    121.9671      0.0000    256.0929     80.2238
   663.9000    121.9671      0.0000    256.0929     80.2238
   664.0000    121.6642      0.0000    256.1694     80.2910
   664.1000    121.6642      0.0000    256.1694     80.2910
   664.2000    121.6642      0.0000    256.1694     80.2910
   664.3000    120.2074      0.0000    256.3557     80.4539
   664.4000    120.2074      0.0000    256.3557     80.4539
   664.5000    118.8011      0.0000    256.6187     80.7832
   664.6000    118.8011      0.0000    256.6187     80.7832
   664.7000    118.8011      0.0000    256.6187     80.7832
   664.8000    118.8018      0.0000    256.7306     81.1703
   664.9000    118.8018      0.0000    256.7306     81.1703
   665.0000    120.4265      0.0000    256.5375     81.3904
   665.1000    120.4265      0.0000    256.5375     81.3904
   665.2000    120.4265      0.0000    256.5375     81.3904
   665.3000    122.4784      0.0000    256.2104     81.3250
   665.4000    122.4784      0.0000    256.2104     81.3250
   665.5000    123.1267      0.0000    255.9836     81.0704
   665.6000    123.1267      0.0000    255.9836     81.0704
   665.7000    123.1267      0.0000    255.9836     81.0704
   665.8000    121.3045      0.0000    255.8951     80.8010
   665.9000    121.3045      0.0000    255.8951     80.8010
   666.0000    117.7985      0.0000    255.8859     80.6125
   666.1000    117.7985      0.0000    255.8859     80.6125
   666.2000    117.7985      0.0000    255.8859     80.6125
   666.3000    114.8510      0.0000    255.9151     80.5064
   666.4000    114.8510      0.0000    255.9151     80.5064
   666.5000    114.5049      0.0000    255.9533     80.4413
   666.6000    114.5049      0.0000    255.9533     80.4413
   666.7000    114.5049      0.0000    255.9533     80.4413
   666.8000    117.2408      0.0000    255.9809     80.3668
   666.9000    117.2408      0.0000    255.9809     80.3668
   667.0000    121.8129      0.0000    255.9981     80.2527
   667.1000    121.8129      0.0000    255.9981     80.2527
   667.2000    121.8129      0.0000    255.9981     80.2527
   667.3000    126.1518      0.0000    256.0073     80.1353
   667.4000    126.1518      0.0000    256.0073     80.1353
   667.5000    128.8143      0.0000    256.0040     80.1013
   667.6000    128.8143      0.0000    256.0040     80.1013
   667.7000    128.8143      0.0000    256.0040     80.1013
   667.8000    129.9686      0.0000    255.9912     80.1706
   667.9000    129.9686      0.0000    255.9912     80.1706
   668.0000    130.8408      0.0000    255.9789     80.2541
   668.1000    130.8408      0.0000    255.9789     80.2541
   668.2000    130.8408      0.0000    255.9789     80.2541
   668.3000    132.1175      0.0000    255.9697     80.2837
   668.4000    132.1175      0.0000    255.9697     80.2837
   668.5000    133.1751      0.0000    255.9625     80.2676
   668.6000    133.1751      0.0000    255.9625     80.2676
   668.7000    133.1751      0.0000    255.9625     80.2676
   668.8000    132.8966      0.0000    255.9597     80.2172
   668.9000    132.8966      0.0000    255.9597     80.2172
   669.0000    130.9077      0.0000    255.9626     80.1609
   669.1000    130.9077      0.0000    255.9626     80.1609
   669.2000    130.9077      0.0000    255.9626     80.1609
   669.3000    127.8467      0.0000    255.9719     80.1748
   669.4000    127.8467      0.0000    255.9719     80.1748
   669.5000    124.6637      0.0000    255.9886     80.2864
   669.6000    124.6637      0.0000    255.9886     80.2864
   669.7000    124.6637      0.0000    255.9886     80.2864
   669.8000    122.0369      0.0000    256.0070     80.4115
   669.9000    122.0369      0.0000    256.0070     80.4115
   670.0000    120.4404      0.0000    256.0160     80.4735
   670.1000    120.4404      0.0000    256.0160     80.4735
   670.2000    120.4404      0.0000    256.0160     80.4735
   670.3000    120.1518      0.0000    256.0115     80.5085
   670.4000    120.1518      0.0000    256.0115     80.5085
   670.5000    120.8289      0.0000    255.9978     80.5866
   670.6000    120.8289      0.0000    255.9978     80.5866
   670.7000    120.8289      0.0000    255.9978     80.5866
   670.8000    121.4350      0.0000    255.9783     80.7020
   670.9000    121.4350      0.0000    255.9783     80.7020
   671.0000    120.9170      0.0000    255.9519     80.8058
   671.1000    120.9170      0.0000    255.9519     80.8058
   671.2000    120.9170      0.0000    255.9519     80.8058
   671.3000    118.7741      0.0000    255.9193     80.8994
   671.4000    118.7741      0.0000    255.9193     80.8994
   671.5000    114.9543      0.0000    255.8924     80.9655
   671.6000    114.9543      0.0000    255.8924     80.9655
   671.7000    114.9543      0.0000    255.8924     80.9655
   671.8000    109.7883      0.0000    255.8894     80.9291
   671.9000    109.7883      0.0000    255.8894     80.9291
   672.0000    104.4040      0.0000    255.9100     80.8018
   672.1000    104.4040      0.0000    255.9100     80.8018
   672.2000    104.4040      0.0000    255.9100     80.8018
   672.3000    100.7317      0.0000    255.9323     80.6812
   672.4000    100.7317      0.0000    255.9323     80.6812
   672.5000    100.3561      0.0000    255.9365     80.6297
   672.6000    100.3561      0.0000    255.9365     80.6297
   672.7000    100.3561      0.0000    255.9365     80.6297
   672.8000    103.1877      0.0000    255.9244     80.6578
   672.9000    103.1877      0.0000    255.9244     80.6578
   673.0000    107.5381      0.0000    255.9180     80.7053
   673.1000    107.5381      0.0000    255.9180     80.7053
   673.2000    107.5381      0.0000    255.9180     80.7053
   673.3000    111.5362      0.0000    255.9362     80.6660
   673.4000    111.5362      0.0000    255.9362     80.6660
   673.5000    114.1711      0.0000    255.9734     80.5122
   673.6000    114.1711      0.0000    255.9734     80.5122
   673.7000    114.1711      0.0000    255.9734     80.5122
   673.8000    115.1204      0.0000    256.0052     80.3328
   673.9000    115.1204      0.0000    256.0052     80.3328
   674.0000    114.4400      0.0000    256.0124     80.2474
   674.1000    114.4400      0.0000    256.0124     80.2474
   674.2000    114.4400      0.0000    256.0124     80.2474
   674.3000    112.9024      0.0000    255.9940     80.2984
   674.4000    112.9024      0.0000    255.9940     80.2984
   674.5000    112.1321      0.0000    255.9590     80.4179
