~Version Information
VERS.                      2.0: CWLS Log ASCII Standard - VERSION 2.0
WRAP.                       NO: One line per depth step
~Well Information Block
STRT.FT               460.5000: 
STOP.FT              2197.0000: 
STEP.FT                 0.2500: 
NULL.                -999.2500: 
COMP.          Petrogulf Corporation: COMPANY
WELL.              Silva 1-43R: WELL
FLD.           Purgatorie River: FIELD
LOC.           1971' FSL & 526' FEL: LOCATION
CNTY.               Las Animas: COUNTY
SRVC.                Patterson: SERVICE COMPANY
DATE.          Sun Jun 18 03:37:26 2006: LOG DATE
UWI.           05 071 08372 00: UNIQUE WELL ID
STAT.                 Colorado: STATE
~Curve Information Block
DEPT.FT            0 000 00 00: Depth
SN.Ohm-m                      : IEL Short Normal
SP.mV                         : IEL Spontaneous Potential
DIR.Ohm-m                     : IEL Induction Resistivity
GR.GAPI                       : Gamma Ray
~Parameter Information Block
~A  Depth        SN          SP         DIR          GR     
# ...
   728.5000   2000.0000   2000.0000     24.8873    126.6792
   728.7500   2000.0000   2000.0000     25.5537    126.6019
   729.0000   2000.0000   2000.0000     26.2014    124.6867
   729.2500   2000.0000   2000.0000     26.8821    122.0829
   729.5000   2000.0000   2000.0000     27.6516    117.5165
   729.7500   2000.0000   2000.0000     28.5198    115.1858
   730.0000   2000.0000   2000.0000     29.4073    114.0542
   730.2500   2000.0000   2000.0000     30.1405    115.0671
   730.5000   2000.0000   2000.0000     30.5233    119.0415
   730.7500   2000.0000   2000.0000     30.4571    123.0982
   731.0000   2000.0000   2000.0000     29.9992    130.7779
   731.2500   2000.0000   2000.0000     29.2935    136.4800
   731.5000   2000.0000   2000.0000     28.4581    144.7111
   731.7500   2000.0000   2000.0000     27.5441    149.3456
   732.0000   2000.0000   2000.0000     26.5667    154.5888
   732.2500   2000.0000   2000.0000     25.5478    156.9021
   732.5000   2000.0000   2000.0000     24.5250    158.1767
   732.7500   2000.0000   2000.0000     23.5358    157.2372
   733.0000   2000.0000   2000.0000     22.5994    153.3851
   733.2500   2000.0000   2000.0000     21.7139    149.8889
   733.5000   2000.0000   2000.0000     20.8679    144.6480
   733.7500   2000.0000   2000.0000     20.0555    141.7174
   734.0000   2000.0000   2000.0000     19.2865    138.5800
   734.2500   2000.0000   2000.0000     18.5840    137.3422
   734.5000   2000.0000   2000.0000     17.9709    136.7499
   734.7500   2000.0000   2000.0000     17.4571    137.3538
   735.0000   2000.0000   2000.0000     17.0360    140.2433
   735.2500   2000.0000   2000.0000     16.6919    143.6498
   735.5000   2000.0000   2000.0000     16.4135    150.6663
   735.7500   2000.0000   2000.0000     16.2020    156.1163
   736.0000   2000.0000   2000.0000     16.0690    164.2398
   736.2500   2000.0000   2000.0000     16.0256    168.7313
   736.5000   2000.0000   2000.0000     16.0713    172.4567
   736.7500   2000.0000   2000.0000     16.1932    172.3019
   737.0000   2000.0000   2000.0000     16.3741    168.2630
   737.2500   2000.0000   2000.0000     16.6047    163.7608
   737.5000   2000.0000   2000.0000     16.8895    155.7786
   737.7500   2000.0000   2000.0000     17.2437    150.3024
   738.0000   2000.0000   2000.0000     17.6846    142.6877
   738.2500   2000.0000   2000.0000     18.2260    138.3920
   738.5000   2000.0000   2000.0000     18.8767    133.1994
   738.7500   2000.0000   2000.0000     19.6377    130.1489
   739.0000   2000.0000   2000.0000     20.4983    125.4606
   739.2500   2000.0000   2000.0000     21.4326    122.4412
   739.5000   2000.0000   2000.0000     22.4033    119.2549
   739.7500   2000.0000   2000.0000     23.3708    118.5616
   740.0000   2000.0000   2000.0000     24.2990    119.6924
   740.2500   2000.0000   2000.0000     25.1520    121.6400
   740.5000   2000.0000   2000.0000     25.8889    125.9699
   740.7500   2000.0000   2000.0000     26.4676    129.5324
   741.0000   2000.0000   2000.0000     26.8597    135.0661
   741.2500   2000.0000   2000.0000     27.0654    138.2745
   741.5000   2000.0000   2000.0000     27.1087    141.8094
   741.7500   2000.0000   2000.0000     27.0127    143.5658
   742.0000   2000.0000   2000.0000     26.7760    146.4208
   742.2500   2000.0000   2000.0000     26.3769    149.0556
   742.5000   2000.0000   2000.0000     25.8048    154.3330
   742.7500   2000.0000   2000.0000     25.0885    158.3651
   743.0000   2000.0000   2000.0000     24.2940    163.8394
   743.2500   2000.0000   2000.0000     23.4960    166.1257
   743.5000   2000.0000   2000.0000     22.7482    166.4702
   743.7500   2000.0000   2000.0000     22.0748    164.9506
   744.0000   2000.0000   2000.0000     21.4801    161.7966
   744.2500   2000.0000   2000.0000     20.9619    159.9111
   744.5000   2000.0000   2000.0000     20.5155    157.3513
   744.7500   2000.0000   2000.0000     20.1319    155.5456
   745.0000   2000.0000   2000.0000     19.7956    153.3485
   745.2500   2000.0000   2000.0000     19.4893    153.0953
   745.5000   2000.0000   2000.0000     19.2009    155.0396
   745.7500   2000.0000   2000.0000     18.9266    157.1534
   746.0000   2000.0000   2000.0000     18.6708    159.7271
   746.2500   2000.0000   2000.0000     18.4454    160.5602
   746.5000   2000.0000   2000.0000     18.2677    160.9639
   746.7500   2000.0000   2000.0000     18.1551    161.2028
   747.0000   2000.0000   2000.0000     18.1172    162.0656
   747.2500   2000.0000   2000.0000     18.1489    162.9362
   747.5000   2000.0000   2000.0000     18.2295    163.8644
   747.7500   2000.0000   2000.0000     18.3276    163.4941
   748.0000   2000.0000   2000.0000     18.4104    160.8495
   748.2500   2000.0000   2000.0000     18.4504    158.0886
   748.5000   2000.0000   2000.0000     18.4333    153.7329
   748.7500   2000.0000   2000.0000     18.3620    151.2534
   749.0000   2000.0000   2000.0000     18.2550    148.6223
   749.2500   2000.0000   2000.0000     18.1363    147.5941
   749.5000   2000.0000   2000.0000     18.0247    146.6645
   749.7500   2000.0000   2000.0000     17.9291    146.0081
   750.0000   2000.0000   2000.0000     17.8523    144.4318
   750.2500   2000.0000   2000.0000     17.7956    142.9618
   750.5000   2000.0000   2000.0000     17.7610    140.4278
   750.7500   2000.0000   2000.0000     17.7483    138.7796
   751.0000   2000.0000   2000.0000     17.7538    136.9665
   751.2500   2000.0000   2000.0000     17.7710    136.5302
   751.5000   2000.0000   2000.0000     17.7954    136.7830
   751.7500   2000.0000   2000.0000     17.8286    136.7441
   752.0000   2000.0000   2000.0000     17.8793    135.1130
   752.2500   2000.0000   2000.0000     17.9617    133.2029
   752.5000   2000.0000   2000.0000     18.0940    130.7390
   752.7500   2000.0000   2000.0000     18.2947    129.9544
   753.0000   2000.0000   2000.0000     18.5781    129.4416
   753.2500   2000.0000   2000.0000     18.9503    128.8017
   753.5000   2000.0000   2000.0000     19.4088    126.9412
   753.7500   2000.0000   2000.0000     19.9478    125.3767
   754.0000   2000.0000   2000.0000     20.5636    122.8180
   754.2500   2000.0000   2000.0000     21.2559    120.5770
   754.5000   2000.0000   2000.0000     22.0258    115.4942
   754.7500   2000.0000   2000.0000     22.8743    111.1053
   755.0000   2000.0000   2000.0000     23.8054    104.8573
   755.2500   2000.0000   2000.0000     24.8286    102.0884
   755.5000   2000.0000   2000.0000     25.9613    100.5631
   755.7500   2000.0000   2000.0000     27.2281    100.8170
   756.0000   2000.0000   2000.0000     28.6606    102.0482
   756.2500   2000.0000   2000.0000     30.2943    102.7893
   756.5000   2000.0000   2000.0000     32.1542    102.2167
   756.7500   2000.0000   2000.0000     34.2288     99.8769
   757.0000   2000.0000   2000.0000     36.4426     93.4830
   757.2500   2000.0000   2000.0000     38.6523     88.3479
   757.5000   2000.0000   2000.0000     40.6843     81.7222
   757.7500   2000.0000   2000.0000     42.4063     78.9701
   758.0000   2000.0000   2000.0000     43.7874     77.4904
   758.2500   2000.0000   2000.0000     44.8986     77.5269
   758.5000   2000.0000   2000.0000     45.8525     77.1674
   758.7500   2000.0000   2000.0000     46.7416     75.8163
   759.0000   2000.0000   2000.0000     47.6194     72.2368
   759.2500   2000.0000   2000.0000     48.5270     69.6453
   759.5000   2000.0000   2000.0000     49.5193     66.7542
   759.7500   2000.0000   2000.0000     50.6494     65.5726
   760.0000   2000.0000   2000.0000     51.9106     64.1912
   760.2500   2000.0000   2000.0000     53.1775     63.2387
   760.5000   2000.0000   2000.0000     54.2187     62.1379
   760.7500   2000.0000   2000.0000     54.8160     62.1429
   761.0000   2000.0000   2000.0000     54.9315     63.8974
   761.2500   2000.0000   2000.0000     54.7596     66.2122
   761.5000   2000.0000   2000.0000     54.5911     70.6999
   761.7500   2000.0000   2000.0000     54.6084     73.7796
