~Version Information
VERS.                      2.0: CWLS Log ASCII Standard - VERSION 2.0
WRAP.                       NO: One line per depth step
~Well Information Block
STRT.FT               554.0000: 
STOP.FT              1002.0000: 
STEP.FT                 0.1000: 
NULL.                -999.2500: 
COMP.          Pioneer Natural Resources: COMPANY
WELL.          Rising Star 22-11: WELL
FLD.           Purgatoire River: FIELD
LOC.           2152' FNL & 2105' FWL: LOCATION
PROV.                 Colorado: PROVINCE
CNTY.               Las Animas: COUNTRY
SRVC.                Patterson: SERVICE COMPANY
DATE.          Mon Apr 11 16:46:53 2005: LOG DATE
UWI.           05 071 08354 00: UNIQUE WELL ID
~Curve Information Block
DEPT.FT            0 000 00 00: Depth
DCAL.in                       : CDL Caliper
RHOB.g/cc                     : CDL Bulk Density
RHOC.g/cc                     : CDL Density Correction
DPOR.pu                       : CDL Density Porosity
GR.GAPI                       : Gamma Ray
NPOR.pu                       : Neutron Porosity
~Parameter Information Block
~A  Depth       DCAL        RHOB        RHOC        DPOR         GR         NPOR    
# ...
   726.8000      8.0418      1.5782      0.0823     64.9561     84.3951     11.0632
   726.9000      8.0418      1.5440      0.0208     67.0319     83.3471     11.3237
   727.0000      8.1894      1.5021      0.0852     69.5723     82.1000     11.5999
   727.1000      8.1894      1.4550      0.0508     72.4250     81.8301     12.0054
   727.2000      8.1894      1.4122      0.0341     75.0186     83.1453     12.5651
   727.3000      8.1875      1.3837      0.0210     76.7467     84.5434     12.9561
   727.4000      8.1875      1.3724      0.0025     77.4280     84.2278     13.1478
   727.5000      8.1667      1.3743      0.0588     77.3162     84.8624     13.2396
   727.6000      8.1667      1.3821      0.0142     76.8444     86.5791     13.1611
   727.7000      8.1667      1.4023      0.0004     75.6162     85.0497     12.8706
   727.8000      8.1969      1.4444      0.0516     73.0694     80.4474     12.4907
   727.9000      8.1969      1.4951      0.1743     69.9968     77.8316     12.1890
   728.0000      8.1985      1.5277      0.2250     68.0167     78.7584     11.9050
   728.1000      8.1985      1.5267      0.2381     68.0779     80.3030     11.6207
   728.2000      8.1985      1.4960      0.1462     69.9390     78.7493     11.5083
   728.3000      8.2179      1.4573      0.0598     72.2845     72.7146     11.6420
   728.4000      8.2179      1.4318      0.0374     73.8304     63.8717     11.8949
   728.5000      8.3027      1.4230      0.0535     74.3640     54.8382     12.0866
   728.6000      8.3027      1.4231      0.0930     74.3564     48.5096     12.1243
   728.7000      8.3027      1.4223      0.1197     74.4068     45.2031     12.0463
   728.8000      8.1924      1.4093      0.1263     75.1922     42.3758     12.2052
   728.9000      8.1924      1.3863      0.0331     76.5875     39.7800     12.8982
   729.0000      8.2307      1.3772      0.0307     77.1381     38.5193     13.8752
   729.1000      8.2307      1.4043      0.0131     75.4957     38.3740     14.7679
   729.2000      8.2307      1.4675      0.0535     71.6671     39.0153     15.4751
   729.3000      8.2304      1.5540      0.0891     66.4251     41.4600     16.2106
   729.4000      8.2304      1.6654      0.0560     59.6747     46.3442     17.4110
   729.5000      8.2284      1.8069      0.1575     51.0968     52.6503     18.8529
   729.6000      8.2284      1.9593      0.2059     41.8620     59.1484     19.9023
   729.7000      8.2284      2.1029      0.1787     33.1573     65.5256     20.5094
   729.8000      8.2155      2.2330      0.2411     25.2708     71.0842     20.9564
   729.9000      8.2155      2.3352      0.2670     19.0761     76.1734     21.3340
   730.0000      8.1487      2.3942      0.1904     15.5009     82.6675     21.6700
   730.1000      8.1487      2.4143      0.1882     14.2829     90.7828     22.1084
   730.2000      8.1487      2.4106      0.1171     14.5095     98.4701     22.8298
   730.3000      8.1611      2.4088     -0.0129     14.6167    103.0297     23.5393
   730.4000      8.1611      2.4276      0.0259     13.4807    104.0053     23.5883
   730.5000      8.0919      2.4524      0.0621     11.9731    102.5136     23.3004
   730.6000      8.0919      2.4670      0.0082     11.0931     99.4876     23.4487
   730.7000      8.0919      2.4806      0.0466     10.2651     99.9026     23.7148
   730.8000      7.9546      2.5003      0.0820      9.0723    108.1316     23.5969
   730.9000      7.9546      2.5122      0.0951      8.3533    118.4605     23.2083
   731.0000      7.9287      2.5143      0.0228      8.2257    124.0688     22.5719
   731.1000      7.9287      2.5225      0.0285      7.7273    125.0436     21.9836
   731.2000      7.9287      2.5263      0.0685      7.4986    123.2115     22.0075
   731.3000      7.9289      2.5074      0.0800      8.6412    120.3581     22.4173
   731.4000      7.9289      2.4851      0.0238      9.9942    115.8143     22.5642
   731.5000      7.9138      2.4760      0.0439     10.5479    109.6055     22.4826
   731.6000      7.9138      2.4665     -0.0074     11.1212    104.8262     22.4350
   731.7000      7.9138      2.4489      0.0179     12.1878    102.0451     22.3049
   731.8000      7.9201      2.4309      0.0052     13.2792    102.3948     22.2869
   731.9000      7.9201      2.4253     -0.0345     13.6168    108.6017     22.6986
   732.0000      7.9222      2.4391      0.0409     12.7821    116.6340     23.1393
   732.1000      7.9222      2.4672     -0.0148     11.0806    121.0264     23.2605
   732.2000      7.9222      2.4974      0.0439      9.2504    120.3509     23.3123
   732.3000      7.9409      2.5187      0.0107      7.9588    113.9264     23.4611
   732.4000      7.9409      2.5403      0.0219      6.6473    105.6782     23.5110
   732.5000      7.9041      2.5698      0.0705      4.8608     98.2933     23.4234
   732.6000      7.9041      2.5884      0.0802      3.7333     90.5320     23.3307
   732.7000      7.9041      2.5812      0.0415      4.1703     85.1909     23.0829
   732.8000      7.9002      2.5621      0.0496      5.3301     83.8682     22.5404
   732.9000      7.9002      2.5538      0.0388      5.8301     82.6931     21.8403
   733.0000      7.8967      2.5579      0.0821      5.5800     77.9997     21.1520
   733.1000      7.8967      2.5583      0.0216      5.5583     71.6573     20.3681
   733.2000      7.8967      2.5506      0.0525      6.0238     66.6117     19.2878
   733.3000      7.8872      2.5353      0.0616      6.9521     62.5614     18.0679
   733.4000      7.8872      2.5034      0.0582      8.8823     60.0000     16.9515
   733.5000      7.8932      2.4473      0.0474     12.2826     59.9413     15.7453
   733.6000      7.8932      2.3663      0.0737     17.1929     58.9618     14.2021
   733.7000      7.8932      2.2638      0.0795     23.4037     54.8080     12.5283
   733.8000      7.9062      2.1464      0.0588     30.5193     50.9300     11.1716
   733.9000      7.9062      2.0302      0.0286     37.5638     51.7944     10.5421
   734.0000      7.8521      1.9431      0.0060     42.8444     56.5670     10.5980
   734.1000      7.8521      1.9091      0.0027     44.9042     59.9154     10.9234
   734.2000      7.8521      1.9234      0.1093     44.0361     60.8431     11.2914
   734.3000      7.8227      1.9631      0.1792     41.6278     62.4431     11.8091
   734.4000      7.8227      2.0198      0.2591     38.1968     62.9005     12.5058
   734.5000      7.8249      2.0905      0.3521     33.9109     59.9623     13.3018
   734.6000      7.8249      2.1576      0.3801     29.8452     57.9334     14.3426
   734.7000      7.8249      2.1962      0.3953     27.5009     61.0845     15.6448
   734.8000      7.9486      2.1990      0.2504     27.3339     68.2861     17.1289
   734.9000      7.9486      2.1881      0.0977     27.9919     73.5501     18.7782
   735.0000      7.9792      2.1948      0.0376     27.5895     73.7278     20.2872
   735.1000      7.9792      2.2259      0.0622     25.7003     76.6031     21.2720
   735.2000      7.9792      2.2670      0.0383     23.2116     88.0085     21.6590
   735.3000      8.0144      2.3065      0.0601     20.8206     98.3606     21.5219
   735.4000      8.0144      2.3330      0.0506     19.2150     99.4773     21.0933
   735.5000      8.0654      2.3419      0.0476     18.6732     95.8792     20.8183
   735.6000      8.0654      2.3513      0.0506     18.1051     92.9024     20.7600
   735.7000      8.0654      2.3748      0.1209     16.6774     92.8582     20.7408
   735.8000      7.9827      2.3962      0.1307     15.3801     96.5521     20.7772
   735.9000      7.9827      2.3979      0.1286     15.2760    101.7055     21.2462
   736.0000      7.9550      2.3897      0.0842     15.7765    103.3989     22.2374
   736.1000      7.9550      2.3957      0.0425     15.4110     98.9630     23.1143
   736.2000      7.9550      2.4172      0.1137     14.1073     93.8142     23.4380
   736.3000      7.9320      2.4365      0.0898     12.9376     96.2444     23.3234
