~Version Information
VERS.                      2.0: CWLS Log ASCII Standard - VERSION 2.0
WRAP.                       NO: One line per depth step
~Well Information Block
STRT.FT                 0.6000: 
STOP.FT              2735.2000: 
STEP.FT                 0.1000: 
NULL.                -999.2500: 
COMP.          Pioneer Natural Resources: COMPANY
WELL.              Cluck 21-25: WELL
FLD.           Purgatoire River: FIELD
LOC.           91' FNL & 1834' FWL--: LOCATION
PROV.                 Colorado: PROVINCE
CNTY.               Las Animas: COUNTRY
SRVC.                Patterson: SERVICE COMPANY
DATE.          Mon Jun 06 19:08:34 2005: LOG DATE
UWI.           05 071 08397 00: UNIQUE WELL ID
~Curve Information Block
DEPT.FT            0 000 00 00: Depth
SN.Ohm-m                      : IEL Short Normal
SP.mV                         : IEL Spontaneous Potential
DIR.Ohm-m                     : IEL Induction Resistivity
GR.GAPI                       : Gamma Ray
~Parameter Information Block
~A  Depth        SN          SP         DIR          GR     
# ...
   201.6000   2000.0000   1981.0000 100000.0000     85.7463
   201.7000   2000.0000   1981.0000 100000.0000     85.8274
   201.8000   2000.0000   1981.0000 100000.0000     85.8525
   201.9000   2000.0000   1981.0000 100000.0000     85.8137
   202.0000   2000.0000   1981.0000 100000.0000     85.7171
   202.1000   2000.0000   1981.0000 100000.0000     85.5761
   202.2000   2000.0000   1981.0000 100000.0000     85.4152
   202.3000   2000.0000   1981.0000 100000.0000     85.2594
   202.4000   2000.0000   1981.0000 100000.0000     85.1389
   202.5000   2000.0000   1981.0000 100000.0000     85.0816
   202.6000   2000.0000   1981.0000 100000.0000     85.1179
   202.7000   2000.0000   1981.0000 100000.0000     85.2849
   202.8000   2000.0000   1981.0000 100000.0000     85.6252
   202.9000   2000.0000   1981.0000 100000.0000     86.1942
   203.0000   2000.0000   1981.0000 100000.0000     87.0498
   203.1000   2000.0000   1981.0000 100000.0000     88.2486
   203.2000   2000.0000   1981.0000 100000.0000     89.8353
   203.3000   2000.0000   1981.0000 100000.0000     91.8252
   203.4000   2000.0000   1981.0000 100000.0000     94.1989
   203.5000   2000.0000   1981.0000 100000.0000     96.8975
   203.6000   2000.0000   1981.0000 100000.0000     99.8216
   203.7000   2000.0000   1981.0000 100000.0000    102.8470
   203.8000   2000.0000   1981.0000 100000.0000    105.8339
   203.9000   2000.0000   1981.0000 100000.0000    108.6500
   204.0000   2000.0000   1981.0000 100000.0000    111.1863
   204.1000   2000.0000   1981.0000 100000.0000    113.3653
   204.2000   2000.0000   1981.0000 100000.0000    115.1513
   204.3000   2000.0000   1981.0000 100000.0000    116.5471
   204.4000   2000.0000   1981.0000 100000.0000    117.5856
   204.5000   2000.0000   1981.0000 100000.0000    118.3217
   204.6000   2000.0000   1981.0000 100000.0000    118.8186
   204.7000   2000.0000   1981.0000 100000.0000    119.1375
   204.8000   2000.0000   1981.0000 100000.0000    119.3317
   204.9000   2000.0000   1981.0000 100000.0000    119.4410
   205.0000   2000.0000   1981.0000 100000.0000    119.4935
   205.1000   2000.0000   1981.0000 100000.0000    119.5077
   205.2000   2000.0000   1981.0000 100000.0000    119.4965
   205.3000   2000.0000   1981.0000 100000.0000    119.4658
   205.4000   2000.0000   1981.0000 100000.0000    119.4204
   205.5000   2000.0000   1981.0000 100000.0000    119.3609
   205.6000   2000.0000   1981.0000 100000.0000    119.2801
   205.7000   2000.0000   1981.0000 100000.0000    119.1641
   205.8000   2000.0000   1981.0000 100000.0000    118.9899
   205.9000   2000.0000   1981.0000 100000.0000    118.7286
   206.0000   2000.0000   1981.0000 100000.0000    118.3485
   206.1000   2000.0000   1981.0000 100000.0000    117.8249
   206.2000   2000.0000   1981.0000 100000.0000    117.1450
   206.3000   2000.0000   1981.0000 100000.0000    116.3094
   206.4000   2000.0000   1981.0000 100000.0000    115.3421
   206.5000   2000.0000   1981.0000 100000.0000    114.2822
   206.6000   2000.0000   1981.0000 100000.0000    113.1820
   206.7000   2000.0000   1981.0000 100000.0000    112.1006
   206.8000   2000.0000   1981.0000 100000.0000    111.0955
   206.9000   2000.0000   1981.0000 100000.0000    110.2148
   207.0000   2000.0000   1981.0000 100000.0000    109.4914
   207.1000   2000.0000   1981.0000 100000.0000    108.9414
   207.2000   2000.0000   1981.0000 100000.0000    108.5603
   207.3000   2000.0000   1981.0000 100000.0000    108.3264
   207.4000   2000.0000   1981.0000 100000.0000    108.2025
   207.5000   2000.0000   1981.0000 100000.0000    108.1378
   207.6000   2000.0000   1981.0000 100000.0000    108.0765
   207.7000   2000.0000   1981.0000 100000.0000    107.9674
   207.8000   2000.0000   1981.0000 100000.0000    107.7676
   207.9000   2000.0000   1981.0000 100000.0000    107.4573
   208.0000   2000.0000   1981.0000 100000.0000    107.0404
   208.1000   2000.0000   1981.0000 100000.0000    106.5511
   208.2000   2000.0000   1981.0000 100000.0000    106.0564
   208.3000   2000.0000   1981.0000 100000.0000    105.6450
   208.4000   2000.0000   1981.0000 100000.0000    105.4222
   208.5000   2000.0000   1981.0000 100000.0000    105.4966
   208.6000   2000.0000   1981.0000 100000.0000    105.9613
   208.7000   2000.0000   1981.0000 100000.0000    106.8801
   208.8000   2000.0000   1981.0000 100000.0000    108.2801
   208.9000   2000.0000   1981.0000 100000.0000    110.1438
   209.0000   2000.0000   1981.0000 100000.0000    112.4135
   209.1000   2000.0000   1981.0000 100000.0000    114.9982
   209.2000   2000.0000   1981.0000 100000.0000    117.7901
   209.3000   2000.0000   1981.0000 100000.0000    120.6821
   209.4000   2000.0000   1981.0000 100000.0000    123.5807
   209.5000   2000.0000   1981.0000 100000.0000    126.4167
   209.6000   2000.0000   1981.0000 100000.0000    129.1473
   209.7000   2000.0000   1981.0000 100000.0000    131.7537
   209.8000   2000.0000   1981.0000 100000.0000    134.2310
   209.9000   2000.0000   1981.0000 100000.0000    136.5732
   210.0000   2000.0000   1981.0000 100000.0000    138.7673
   210.1000   2000.0000   1981.0000 100000.0000    140.7856
   210.2000   2000.0000   1981.0000 100000.0000    142.5818
   210.3000   2000.0000   1981.0000 100000.0000    144.0996
   210.4000   2000.0000   1981.0000 100000.0000    145.2830
   210.5000   2000.0000   1981.0000 100000.0000    146.0847
   210.6000   2000.0000   1981.0000 100000.0000    146.4742
   210.7000   2000.0000   1981.0000 100000.0000    146.4486
   210.8000   2000.0000   1981.0000 100000.0000    146.0262
   210.9000   2000.0000   1981.0000 100000.0000    145.2496
   211.0000   2000.0000   1981.0000 100000.0000    144.1773
   211.1000   2000.0000   1981.0000 100000.0000    142.8792
   211.2000   2000.0000   1981.0000 100000.0000    141.4308
   211.3000   2000.0000   1981.0000 100000.0000    139.9095
   211.4000   2000.0000   1981.0000 100000.0000    138.3909
   211.5000   2000.0000   1981.0000 100000.0000    136.9505
   211.6000   2000.0000   1981.0000 100000.0000    135.6566
   211.7000   2000.0000   1981.0000 100000.0000    134.5648
   211.8000   2000.0000   1981.0000 100000.0000    133.7116
   211.9000   2000.0000   1981.0000 100000.0000    133.1080
   212.0000   2000.0000   1981.0000 100000.0000    132.7362
   212.1000   2000.0000   1981.0000 100000.0000    132.5536
   212.2000   2000.0000   1981.0000 100000.0000    132.4937
   212.3000   2000.0000   1981.0000 100000.0000    132.4799
   212.4000   2000.0000   1981.0000 100000.0000    132.4390
   212.5000   2000.0000   1981.0000 100000.0000    132.3132
   212.6000   2000.0000   1981.0000 100000.0000    132.0663
   212.7000   2000.0000   1981.0000 100000.0000    131.6914
   212.8000   2000.0000   1981.0000 100000.0000    131.2046
   212.9000   2000.0000   1981.0000 100000.0000    130.6368
   213.0000   2000.0000   1981.0000 100000.0000    130.0259
   213.1000   2000.0000   1981.0000 100000.0000    129.4060
   213.2000   2000.0000   1981.0000 100000.0000    128.8023
   213.3000   2000.0000   1981.0000 100000.0000    128.2271
   213.4000   2000.0000   1981.0000 100000.0000    127.6802
   213.5000   2000.0000   1981.0000 100000.0000    127.1551
   213.6000   2000.0000   1981.0000 100000.0000    126.6370
   213.7000   2000.0000   1981.0000 100000.0000    126.1094
   213.8000   2000.0000   1981.0000 100000.0000    125.5545
   213.9000   2000.0000   1981.0000 100000.0000    124.9494
   214.0000   2000.0000   1981.0000 100000.0000    124.2717
   214.1000   2000.0000   1981.0000 100000.0000    123.4918
   214.2000   2000.0000   1981.0000 100000.0000    122.5825
   214.3000   2000.0000   1981.0000 100000.0000    121.5198
   214.4000   2000.0000   1981.0000 100000.0000    120.2860
   214.5000   2000.0000   1981.0000 100000.0000    118.8758
   214.6000   2000.0000   1981.0000 100000.0000    117.2971
   214.7000   2000.0000   1981.0000 100000.0000    115.5767
   214.8000   2000.0000   1981.0000 100000.0000    113.7528
   214.9000   2000.0000   1981.0000 100000.0000    111.8789
