~Version Information
VERS.                      2.0: CWLS Log ASCII Standard - VERSION 2.0
WRAP.                       NO: One line per depth step
~Well Information Block
STRT.FT               440.0000: 
STOP.FT              1003.5000: 
STEP.FT                 0.2500: 
NULL.                -999.2500: 
COMP.          Pioneer Natural Resources: COMPANY
WELL.              Dylan 42-25: WELL
FLD.           Purgatoire River: FIELD
LOC.           2160' FNL & 855' FEL: LOCATION
PROV.                 Colorado: PROVINCE
CNTY.               Las Animas: COUNTRY
SRVC.                Patterson: SERVICE COMPANY
DATE.          Sat Apr 23 11:21:51 2005: LOG DATE
UWI.           05 071 08229 00: UNIQUE WELL ID
~Curve Information Block
DEPT.FT            0 000 00 00: Depth
SN.Ohm-m                      : IEL Short Normal
SP.mV                         : IEL Spontaneous Potential
DIR.Ohm-m                     : IEL Induction Resistivity
GR.GAPI                       : Gamma Ray
~Parameter Information Block
~A  Depth        SN          SP         DIR          GR     
# ...
   741.5000     27.3640      6.6571     19.1468     65.3710
   741.7500     30.6332      7.4120     20.6913     67.0032
   742.0000     33.2040      8.0792     22.5176     67.5835
   742.2500     35.1208      8.6681     24.5803     66.8800
   742.5000     36.6118      9.1873     26.7810     65.1443
   742.7500     37.8878      9.6458     28.9893     63.9967
   743.0000     39.0507     10.0580     31.0901     62.4688
   743.2500     40.1238     10.4469     33.0158     61.3810
   743.5000     41.0913     10.8375     34.7319     59.1045
   743.7500     41.9331     11.2466     36.2016     56.9318
   744.0000     42.6768     11.6749     37.3832     52.8191
   744.2500     43.3966     12.1087     38.2713     49.9465
   744.5000     44.1401     12.5257     38.9284     46.4752
   744.7500     44.8780     12.9025     39.4558     45.1505
   745.0000     45.5296     13.2211     39.9173     44.7209
   745.2500     46.0191     13.4741     40.2788     45.2138
   745.5000     46.3035     13.6656     40.4138     46.4864
   745.7500     46.3599     13.8077     40.1750     47.2868
   746.0000     46.1619     13.9151     39.4754     47.8576
   746.2500     45.6586     14.0039     38.3234     47.7608
   746.5000     44.7551     14.0928     36.8017     47.4843
   746.7500     43.3510     14.2031     35.0254     47.8698
   747.0000     41.4359     14.3536     33.1075     50.4879
   747.2500     39.1209     14.5534     31.1388     53.9553
   747.5000     36.5801     14.7941     29.1798     61.2198
   747.7500     33.9839     15.0507     27.2682     66.4948
   748.0000     31.4591     15.2919     25.4346     73.2189
   748.2500     29.0876     15.4940     23.7157     76.3558
   748.5000     26.9502     15.6505     22.1548     79.5991
   748.7500     25.1469     15.7731     20.7898     81.7090
   749.0000     23.7404     15.8830     19.6401     86.0708
   749.2500     22.6967     15.9967     18.7019     89.7237
   749.5000     21.9147     16.1130     17.9513     94.8400
   749.7500     21.2919     16.2085     17.3520     96.9338
   750.0000     20.7362     16.2455     16.8638     97.2569
   750.2500     20.1328     16.1896     16.4540     95.9817
   750.5000     19.3589     16.0260     16.1079     93.3643
   750.7500     18.3953     15.7641     15.8337     91.9990
   751.0000     17.4264     15.4307     15.6554     91.3827
   751.2500     16.7613     15.0561     15.5996     92.0207
   751.5000     16.6593     14.6592     15.6832     94.0116
   751.7500     17.2249     14.2376     15.9092     95.4668
   752.0000     18.3447     13.7718     16.2707     96.9791
   752.2500     19.7141     13.2424     16.7552     97.1894
   752.5000     21.0163     12.6471     17.3452     95.9546
   752.7500     22.0873     12.0012     18.0145     94.1869
   753.0000     22.9340     11.3256     18.7263     90.9932
   753.2500     23.6533     10.6356     19.4404     89.1536
   753.5000     24.3641      9.9417     20.1296     87.2133
   753.7500     25.1553      9.2585     20.7928     86.1587
   754.0000     26.0342      8.6096     21.4519     84.4110
   754.2500     26.9616      8.0194     22.1285     83.2648
   754.5000     27.9204      7.4984     22.8180     82.1280
   754.7500     28.8899      7.0367     23.4867     81.8308
   755.0000     29.7811      6.6120     24.1024     81.8594
   755.2500     30.4708      6.2095     24.6801     82.2429
   755.5000     30.8976      5.8410     25.2954     83.7282
   755.7500     31.0737      5.5506     26.0389     85.2815
   756.0000     31.0184      5.3968     26.9405     87.7277
   756.2500     30.7569      5.4184     27.9208     89.0555
   756.5000     30.3789      5.6137     28.8157     90.5721
   756.7500     30.0311      5.9495     29.4714     91.3349
   757.0000     29.8379      6.3851     29.8360     91.7867
   757.2500     29.8411      6.8849     29.9662     91.4366
   757.5000     30.0004      7.4192     29.9635     90.3583
   757.7500     30.2698      7.9657     29.9164     89.8547
   758.0000     30.6682      8.5116     29.8843     90.0430
   758.2500     31.2193      9.0509     29.9023     90.5943
   758.5000     31.8501      9.5744     29.9822     91.0035
   758.7500     32.4360     10.0657     30.1101     90.4549
   759.0000     32.9213     10.5075     30.2523     88.3999
   759.2500     33.3257     10.8915     30.3695     86.7217
   759.5000     33.6724     11.2199     30.4365     84.5697
   759.7500     33.9555     11.5000     30.4502     83.3747
   760.0000     34.1337     11.7364     30.4224     81.2273
   760.2500     34.1366     11.9261     30.3578     79.2082
   760.5000     33.9240     12.0575     30.2379     75.6059
   760.7500     33.5361     12.1148     30.0263     73.5545
   761.0000     33.0485     12.0842     29.6941     72.2861
   761.2500     32.4844     11.9583     29.2455     72.7982
   761.5000     31.7989     11.7360     28.7206     74.8448
   761.7500     30.9557     11.4201     28.1762     76.6547
   762.0000     30.0065     11.0135     27.6625     80.0901
   762.2500     29.0803     10.5149     27.2096     83.0467
   762.5000     28.2896      9.9170     26.8281     88.2728
   762.7500     27.6578      9.2106     26.5183     91.7295
   763.0000     27.1569      8.3941     26.2835     95.4612
   763.2500     26.7886      7.4836     26.1375     96.2657
   763.5000     26.5981      6.5153     26.0972     94.7546
   763.7500     26.6206      5.5383     26.1604     92.5479
   764.0000     26.8273      4.6025     26.2863     89.0525
   764.2500     27.1266      3.7441     26.4017     87.4826
   764.5000     27.4432      2.9755     26.4465     87.4716
   764.7500     27.7865      2.2797     26.4288     89.4266
   765.0000     28.2097      1.6151     26.4384     94.8884
   765.2500     28.7141      0.9287     26.6024     99.1731
   765.5000     29.2271      0.1811     27.0233    104.0562
   765.7500     29.6632     -0.6252     27.7398    105.0761
   766.0000     29.9943     -1.4311     28.7174    102.5507
   766.2500     30.2802     -2.1418     29.8560     98.5057
   766.5000     30.6471     -2.6757     31.0166     89.9812
   766.7500     31.2310     -2.9982     32.0669     83.2819
   767.0000     32.1305     -3.1160     32.9348     72.7289
   767.2500     33.3752     -3.0505     33.6287     65.9081
   767.5000     34.9249     -2.8199     34.2122     56.6448
   767.7500     36.7042     -2.4408     34.7570     51.3391
   768.0000     38.6174     -1.9369     35.3108     45.0563
   768.2500     40.5262     -1.3411     35.8843     42.1871
   768.5000     42.2461     -0.6870     36.4485     39.9913
   768.7500     43.5805      0.0018     36.9440     39.8499
   769.0000     44.3613      0.7130     37.3047     41.2219
   769.2500     44.4819      1.4379     37.4829     42.8289
   769.5000     43.9229      2.1626     37.4595     45.6970
   769.7500     42.7583      2.8676     37.2421     47.8883
   770.0000     41.1567      3.5316     36.8662     52.2503
   770.2500     39.3718      4.1359     36.3941     56.3029
   770.5000     37.6755      4.6692     35.8995     63.8908
   770.7500     36.2500      5.1347     35.4428     69.0965
   771.0000     35.1406      5.5546     35.0578     75.0500
   771.2500     34.3184      5.9616     34.7543     76.8142
   771.5000     33.7900      6.3808     34.5289     75.7042
   771.7500     33.6373      6.8164     34.3746     72.9279
   772.0000     33.9467      7.2523     34.2875     67.2200
   772.2500     34.7094      7.6617     34.2696     63.3073
   772.5000     35.7978      8.0189     34.3265     58.2676
   772.7500     37.0294      8.3087     34.4536     55.4985
   773.0000     38.2222      8.5298     34.6186     51.8405
   773.2500     39.2015      8.6918     34.7550     49.7830
   773.5000     39.8618      8.8070     34.7817     48.0817
   773.7500     40.2249      8.8850     34.6426     48.2902
   774.0000     40.3542      8.9335     34.3369     50.4418
   774.2500     40.2470      8.9600     33.9187     52.5967
   774.5000     39.8442      8.9711     33.4734     56.0584
   774.7500     39.1455      8.9690     33.0869     58.2921
