~Version Information
VERS.                      2.0: CWLS Log ASCII Standard - VERSION 2.0
WRAP.                       NO: One line per depth step
~Well Information Block
STRT.FT               390.0000: 
STOP.FT              2768.7000: 
STEP.FT                 0.1000: 
NULL.                -999.2500: 
COMP.          Pioneer Natural Resources: COMPANY
WELL.              Lynch 43-30: WELL
FLD.           Purgatoire River: FIELD
LOC.           1438' FSL & 429' FEL: LOCATION
PROV.                 Colorado: PROVINCE
CNTY.               Las Animas: COUNTRY
SRVC.                Patterson: SERVICE COMPANY
DATE.          Wed Oct 27 08:22:00 2004: LOG DATE
UWI.           05 071 08170 00: UNIQUE WELL ID
~Curve Information Block
DEPT.FT            0 000 00 00: Depth
DCAL.in                       : CDL Caliper
DPOR.pu                       : CDL Density Porosity
NPOR.pu                       : Neutron Porosity
RHOB.g/cc                     : CDL Bulk Density
RHOC.g/cc                     : CDL Density Correction
GR.GAPI                       : Gamma Ray
~Parameter Information Block
~A  Depth       DCAL        DPOR        NPOR        RHOB        RHOC         GR     
# ...
  2598.0000      7.9451      3.5115     15.1058      2.5921      0.0832     66.5623
  2598.1000      7.9451      4.5409     15.7332      2.5751      0.0300     65.0863
  2598.2000      7.9451      6.2654     16.2417      2.5466      0.0295     64.5375
  2598.3000      7.9451      7.6804     16.1854      2.5233     -0.0027     64.6003
  2598.4000      7.9451      8.5328     15.7888      2.5092      0.0321     69.4208
  2598.5000      7.9486      8.5395     15.5747      2.5091     -0.0314     73.3234
  2598.6000      7.9486      7.4838     15.8221      2.5265      0.0328     68.7857
  2598.7000      7.9486      6.3143     16.1169      2.5458      0.0555     56.6493
  2598.8000      7.9526      5.8670     15.7892      2.5532     -0.0049     46.1277
  2598.9000      7.9526      5.5552     14.8432      2.5583      0.0382     48.3994
  2599.0000      7.9461      5.1525     13.3548      2.5650      0.0475     58.1142
  2599.1000      7.9461      5.3656     11.6092      2.5615      0.0684     62.4228
  2599.2000      7.9461      6.1251     10.5880      2.5489      0.0086     60.4118
  2599.3000      7.9375      6.4778     10.8253      2.5431      0.0427     55.9447
  2599.4000      7.9375      6.4283     11.8056      2.5439      0.0411     49.4830
  2599.5000      7.9338      6.3347     12.7295      2.5455      0.0171     43.3327
  2599.6000      7.9338      5.7787     12.9060      2.5547      0.0121     41.2833
  2599.7000      7.9338      4.4695     12.1335      2.5763      0.0377     43.7587
  2599.8000      7.9314      3.0639     11.3169      2.5994      0.0780     48.7571
  2599.9000      7.9314      2.6898     11.2718      2.6056      0.0773     56.1888
  2600.0000      7.9315      3.5866     11.5217      2.5908      0.0459     62.8992
  2600.1000      7.9315      4.5620     11.6027      2.5747      0.0227     65.9111
  2600.2000      7.9315      4.5048     12.1142      2.5757      0.0241     68.1818
  2600.3000      7.9380      3.8314     13.4862      2.5868      0.0651     67.3415
  2600.4000      7.9380      3.5308     14.8918      2.5917      0.0560     58.4306
  2600.5000      7.9473      3.8877     15.4217      2.5859      0.0422     47.7375
  2600.6000      7.9473      4.6962     15.2918      2.5725      0.0300     43.7630
  2600.7000      7.9473      5.4405     15.1666      2.5602      0.0021     43.7232
  2600.8000      7.9508      5.3654     15.1568      2.5615      0.0107     43.7551
  2600.9000      7.9508      4.4905     15.1577      2.5759      0.0055     46.2352
  2601.0000      7.9507      3.8999     14.8860      2.5857      0.0484     52.7871
  2601.1000      7.9507      4.0117     14.2357      2.5838      0.0131     60.5977
  2601.2000      7.9507      3.8955     13.9284      2.5857      0.0216     69.6493
  2601.3000      7.9481      3.3798     14.2060      2.5942      0.0432     77.8276
  2601.4000      7.9481      3.7277     14.3539      2.5885      0.0443     77.4601
  2601.5000      7.9457      5.4510     14.3971      2.5601      0.0209     73.4012
  2601.6000      7.9457      7.2421     14.8295      2.5305     -0.0576     71.6837
  2601.7000      7.9457      7.8628     15.1478      2.5203     -0.0207     65.3328
  2601.8000      7.9444      7.7422     14.9354      2.5223     -0.0022     55.0942
  2601.9000      7.9444      7.8707     14.6061      2.5201     -0.0214     51.3817
  2602.0000      7.9426      8.4739     14.2665      2.5102     -0.0357     58.9749
  2602.1000      7.9426      8.7408     13.7641      2.5058     -0.0586     68.3769
  2602.2000      7.9426      7.7765     13.4000      2.5217     -0.0122     67.0337
  2602.3000      7.9393      5.9618     13.6698      2.5516      0.0286     59.3722
  2602.4000      7.9393      4.6111     14.6340      2.5739      0.0919     55.3641
  2602.5000      7.9347      4.2354     15.7928      2.5801      0.0411     52.8069
  2602.6000      7.9347      4.2080     16.4880      2.5806      0.0513     51.8321
  2602.7000      7.9347      4.2909     16.3809      2.5792      0.0347     59.5675
  2602.8000      7.9326      4.7451     15.7556      2.5717      0.0285     70.5149
  2602.9000      7.9326      5.1783     14.9583      2.5646      0.0482     73.9373
  2603.0000      7.9345      4.7431     13.9660      2.5717      0.0340     73.1233
  2603.1000      7.9345      3.6063     13.0018      2.5905      0.0655     74.7162
  2603.2000      7.9345      3.0415     12.4873      2.5998      0.0686     77.6990
  2603.3000      7.9371      3.7125     12.6425      2.5887      0.0324     73.6986
  2603.4000      7.9371      4.9597     13.0929      2.5682      0.0366     59.3761
  2603.5000      7.9370      6.0535     13.2738      2.5501      0.0385     44.9986
  2603.6000      7.9370      6.9958     13.5150      2.5346      0.0345     39.5106
  2603.7000      7.9370      7.5769     14.3164      2.5250     -0.0308     41.7846
  2603.8000      7.9356      7.2885     15.0306      2.5297      0.0358     44.5478
  2603.9000      7.9356      6.4872     15.0222      2.5430      0.0114     44.4958
  2604.0000      7.9348      5.7956     14.6880      2.5544      0.0510     47.7286
  2604.1000      7.9348      5.0562     14.3873      2.5666     -0.0002     54.5270
  2604.2000      7.9348      4.0873     14.2209      2.5826      0.0410     59.8522
  2604.3000      7.9337      3.6455     14.4000      2.5898      0.0574     63.1011
  2604.4000      7.9337      4.2236     14.6128      2.5803      0.0411     62.7994
  2604.5000      7.9306      5.1251     14.5204      2.5654      0.0352     55.6797
  2604.6000      7.9306      5.7061     14.6638      2.5558      0.0343     44.5647
  2604.7000      7.9306      6.4866     15.2650      2.5430      0.0212     37.9626
  2604.8000      7.9284      7.5698     15.5379      2.5251     -0.0289     37.6530
  2604.9000      7.9284      7.5804     15.3370      2.5249     -0.0001     38.3110
  2605.0000      7.9290      6.0794     15.2363      2.5497      0.0438     40.7647
  2605.1000      7.9290      4.8199     15.0907      2.5705      0.0520     48.6302
  2605.2000      7.9290      5.2077     14.8984      2.5641      0.0558     59.4358
  2605.3000      7.9300      6.1656     15.1108      2.5483     -0.0458     65.5939
  2605.4000      7.9300      5.7748     15.4226      2.5547      0.0171     62.7168
  2605.5000      7.9301      4.1284     15.1850      2.5819      0.0344     57.5038
  2605.6000      7.9301      2.8283     14.2768      2.6033      0.0493     58.4930
  2605.7000      7.9301      2.6264     13.2760      2.6067      0.0309     66.4572
  2605.8000      7.9308      2.8918     12.9954      2.6023      0.0331     74.3038
  2605.9000      7.9308      3.1312     13.5100      2.5983      0.0369     70.7085
  2606.0000      7.9321      3.7565     14.1416      2.5880      0.0231     56.7776
  2606.1000      7.9321      4.9943     14.3061      2.5676      0.0100     45.3547
  2606.2000      7.9321      5.8145     14.2257      2.5541     -0.0293     42.7770
  2606.3000      7.9326      5.1933     14.4151      2.5643      0.0111     50.0894
  2606.4000      7.9326      3.9621     14.8483      2.5846      0.0432     67.0509
  2606.5000      7.9323      3.4860     15.3677      2.5925      0.0571     86.4892
  2606.6000      7.9323      3.6465     16.1863      2.5898      0.0476     92.3057
  2606.7000      7.9323      3.5893     17.3219      2.5908      0.0482     80.0670
  2606.8000      7.9289      3.4583     18.2824      2.5929      0.0350     67.5673
  2606.9000      7.9289      4.1536     18.7273      2.5815      0.0520     63.1026
  2607.0000      7.9245      5.9389     18.9966      2.5520      0.0298     57.4740
  2607.1000      7.9245      7.6825     19.5967      2.5232     -0.0000     45.3377
  2607.2000      7.9245      8.4807     20.2323      2.5101      0.0486     35.2806
  2607.3000      7.9219      8.8187     20.4320      2.5045     -0.0050     41.5536
  2607.4000      7.9219      9.6434     20.8615      2.4909      0.0141     64.5951
  2607.5000      7.9202     11.9721     22.2536      2.4525      0.0329     83.7932
