~Version Information
VERS.                      2.0: CWLS Log ASCII Standard - VERSION 2.0
WRAP.                       NO: One line per depth step
~Well Information Block
STRT.FT               706.1000: 
STOP.FT              2370.0000: 
STEP.FT                 0.1000: 
NULL.                -999.2500: 
COMP.          Petrogulf Corporation: COMPANY
WELL.             State 16-12V: WELL
FLD.           Purgatorie River: FIELD
LOC.           1992' FNL & 1237' FWL: LOCATION
CNTY.               Las Animas: COUNTY
SRVC.                         : SERVICE COMPANY
DATE.          Thu Aug 04 09:34:25 2005: LOG DATE
UWI.           05-071-08016-00: UNIQUE WELL ID
STAT.                 Colorado: STATE
~Curve Information Block
DEPT.FT            0 000 00 00: Depth
DCAL.in                       : CDL Caliper
DPOR.pu                       : CDL Density Porosity
GR.GAPI                       : Gamma Ray
NPOR.pu                       : Neutron Porosity
RHOB.g/cc                     : CDL Bulk Density
RHOC.g/cc                     : CDL Density Correction
~Parameter Information Block
~A  Depth       DCAL        DPOR         GR         NPOR        RHOB        RHOC    
# ...
  1147.7000      8.3725     23.3010    139.4192     24.0210      2.2655      0.0909
  1147.8000      8.3094     23.5316    145.5620     24.3676      2.2617      0.0410
  1147.9000      8.3094     23.5619    149.0812     24.2195      2.2612      0.0221
  1148.0000      8.3129     22.9935    147.3914     23.9095      2.2706      0.0859
  1148.1000      8.3129     22.0481    145.2267     23.5621      2.2862      0.0636
  1148.2000      8.3129     20.7290    145.6610     23.2351      2.3080      0.1042
  1148.3000      8.4274     19.1228    147.1098     23.0657      2.3345      0.1117
  1148.4000      8.4274     17.4139    148.3318     23.0707      2.3627      0.0980
  1148.5000      8.3710     15.7786    148.8000     23.1738      2.3897      0.1249
  1148.6000      8.3710     14.5936    148.3964     23.5237      2.4092      0.1116
  1148.7000      8.3710     14.0745    147.5751     24.3576      2.4178      0.1302
  1148.8000      8.2500     14.1504    147.8484     25.2246      2.4165      0.1499
  1148.9000      8.2500     14.7522    150.9266     25.2932      2.4066      0.1508
  1149.0000      8.2360     15.6406    155.0384     24.9007      2.3919      0.1207
  1149.1000      8.2360     16.2383    156.5383     25.0601      2.3821      0.0906
  1149.2000      8.2360     15.8242    153.9176     25.8029      2.3889      0.0187
  1149.3000      8.1999     14.1317    149.9226     26.5447      2.4168      0.0856
  1149.4000      8.1999     11.8891    148.1359     26.9483      2.4538      0.0723
  1149.5000      8.2111     10.0332    148.6164     26.9845      2.4845      0.1227
  1149.6000      8.2111      8.8552    149.2899     26.9544      2.5039      0.1154
  1149.7000      8.2111      8.0676    148.0322     26.9560      2.5169      0.1069
  1149.8000      8.2618      7.5285    145.3672     26.8356      2.5258      0.1203
  1149.9000      8.2618      7.1391    144.3173     26.7059      2.5322      0.0903
  1150.0000      8.1652      6.7133    144.6023     26.6211      2.5392      0.1067
  1150.1000      8.1652      6.6111    145.7861     26.4641      2.5409      0.0873
  1150.2000      8.1652      6.9485    148.0914     26.4820      2.5354      0.0410
  1150.3000      8.1015      7.2087    148.6321     26.8372      2.5311      0.0606
  1150.4000      8.1015      7.3105    145.7420     27.2769      2.5294      0.0839
  1150.5000      8.0908      7.5618    142.1581     27.4568      2.5252      0.0771
  1150.6000      8.0908      7.9585    141.7459     27.3000      2.5187      0.0522
  1150.7000      8.0908      8.1787    144.0366     27.0369      2.5151      0.0503
  1150.8000      8.0908      8.0255    144.3608     26.9140      2.5176      0.0401
  1150.9000      8.0908      7.4782    140.7570     27.0941      2.5266      0.0295
  1151.0000      8.0944      6.5264    138.5737     27.4657      2.5423      0.0182
  1151.1000      8.0944      5.5493    142.9653     27.7246      2.5584      0.0768
  1151.2000      8.0944      5.0836    148.0415     27.8952      2.5661      0.0548
  1151.3000      8.0900      5.4568    145.8156     28.1361      2.5600      0.0490
  1151.4000      8.0900      6.8440    139.1541     28.3594      2.5371      0.0427
  1151.5000      8.0724      8.4874    134.8933     28.5056      2.5100     -0.0062
  1151.6000      8.0724      9.0411    134.2722     28.4741      2.5008     -0.0071
  1151.7000      8.0724      8.2718    135.7522     28.0762      2.5135      0.0031
  1151.8000      8.0688      6.8497    137.6061     27.3939      2.5370     -0.0141
  1151.9000      8.0688      5.6583    138.5294     26.7643      2.5566      0.0920
  1152.0000      8.0690      5.7314    138.6618     26.3363      2.5554      0.0719
  1152.1000      8.0690      7.0598    138.9218     25.9842      2.5335      0.0623
  1152.2000      8.0690      8.5876    138.2475     25.7701      2.5083      0.0756
  1152.3000      8.0744      9.6748    136.7012     25.7567      2.4904      0.1047
  1152.4000      8.0744     10.7743    136.9494     25.7276      2.4722      0.1272
  1152.5000      8.0968     12.0703    139.6693     25.5284      2.4508      0.0629
  1152.6000      8.0968     12.6006    142.9818     25.3470      2.4421      0.0678
  1152.7000      8.0968     12.2821    143.8239     25.3376      2.4473      0.1376
  1152.8000      8.1074     12.3917    141.8992     25.2807      2.4455      0.1191
  1152.9000      8.1074     13.3870    140.4570     24.8796      2.4291      0.1174
  1153.0000      8.1085     14.5109    140.3966     24.1910      2.4106      0.1189
  1153.1000      8.1085     15.0303    139.3556     23.6567      2.4020      0.1450
  1153.2000      8.1085     14.7381    137.6007     23.7906      2.4068      0.1431
  1153.3000      8.1196     13.9919    138.9540     24.3122      2.4191      0.1916
  1153.4000      8.1196     13.4445    142.1777     24.5192      2.4282      0.1933
  1153.5000      8.1266     13.3727    143.5180     24.3337      2.4294      0.2033
  1153.6000      8.1266     13.5076    144.3454     24.2155      2.4271      0.2010
  1153.7000      8.1266     13.5123    147.1420     24.5305      2.4270      0.2017
  1153.8000      8.1265     13.1265    151.9103     24.9218      2.4334      0.1616
  1153.9000      8.1265     12.2466    157.1831     25.0263      2.4479      0.1654
  1154.0000      8.1022     11.4758    159.9132     25.4566      2.4606      0.1875
  1154.1000      8.1022     11.2239    156.9586     26.4376      2.4648      0.1472
  1154.2000      8.1022     10.8675    149.6449     27.1513      2.4707      0.1696
  1154.3000      8.1035     10.1746    143.6887     27.2872      2.4821      0.1650
  1154.4000      8.1035      9.4993    141.7456     27.3666      2.4933      0.1512
  1154.5000      8.1280      8.8806    140.1519     27.5389      2.5035      0.1695
  1154.6000      8.1280      8.3043    138.0246     27.6344      2.5130      0.1648
  1154.7000      8.1280      7.8511    138.5418     27.7293      2.5205      0.1144
  1154.8000      8.1273      7.5396    139.7562     27.8908      2.5256      0.0755
  1154.9000      8.1273      7.3270    139.1877     28.1252      2.5291      0.0749
  1155.0000      8.1256      7.1660    138.1130     28.3384      2.5318      0.0401
  1155.1000      8.1256      7.1169    135.9097     28.2532      2.5326      0.0635
  1155.2000      8.1256      7.3564    133.3006     27.9219      2.5286      0.0224
  1155.3000      8.1262      8.0812    133.5445     27.5856      2.5167      0.0547
  1155.4000      8.1262      9.1964    137.3685     27.2984      2.4983      0.0512
  1155.5000      8.1218      9.7951    143.0363     27.0835      2.4884      0.0079
  1155.6000      8.1218      9.3174    147.8942     26.8515      2.4963      0.0505
  1155.7000      8.1218      8.4486    149.9216     26.5755      2.5106      0.0554
  1155.8000      8.1165      7.6492    150.7869     26.3682      2.5238      0.0731
  1155.9000      8.1165      6.5619    151.5110     26.3464      2.5417      0.0722
  1156.0000      8.1192      5.2242    149.1257     26.5630      2.5638      0.1038
  1156.1000      8.1192      4.4199    144.1899     26.8009      2.5771      0.1060
  1156.2000      8.1192      4.3733    139.5829     26.8505      2.5778      0.1072
  1156.3000      8.1156      4.6001    134.9214     26.8706      2.5741      0.1329
  1156.4000      8.1156      4.7730    130.1833     26.8964      2.5712      0.0866
  1156.5000      8.1138      4.5570    127.0551     26.7202      2.5748      0.0892
  1156.6000      8.1138      3.8308    127.5402     26.4352      2.5868      0.1053
  1156.7000      8.1138      3.1631    129.8053     26.4480      2.5978      0.1116
  1156.8000      8.1140      3.3639    129.8289     26.7341      2.5945      0.1189
  1156.9000      8.1140      4.4383    128.6569     26.9243      2.5768      0.0542
  1157.0000      8.1164      5.6627    128.9530     26.9172      2.5566      0.0646
  1157.1000      8.1164      6.6917    129.7336     26.8023      2.5396      0.0437
  1157.2000      8.1164      7.3743    131.6517     26.5536      2.5283      0.0388
