~Version Information
VERS.                      2.0: CWLS Log ASCII Standard - VERSION 2.0
WRAP.                       NO: One line per depth step
~Well Information Block
STRT.FT                -9.0000: 
STOP.FT              2130.0000: 
STEP.FT                 0.2500: 
NULL.                -999.2500: 
COMP.          Pioneer Natural Resources: COMPANY
WELL.               King 22-13: WELL
FLD.           Purgatorie River: FIELD
LOC.           2419' FNL & 1806' FWL: LOCATION
PROV.                 Colorado: PROVINCE
CNTY.               Las Animas: COUNTRY
SRVC.                Patterson: SERVICE COMPANY
DATE.          Wed Apr 20 09:20:28 2005: LOG DATE
UWI.           05-071-08318-00: UNIQUE WELL ID
~Curve Information Block
DEPT.FT            0 000 00 00: Depth
CCL.                          : Casing Collar Locator
TT3.usec                      : CBL 3' Travel Time
AMP3.mV                       : CBL 3' Amplitude
GR.GAPI                       : Gamma Ray
~Parameter Information Block
~A  Depth       CCL         TT3         AMP3         GR     
# ...
   259.0000      0.0000    768.3613      7.7960     87.5493
   259.2500      0.0000    768.3346      7.7512     89.5947
   259.5000      0.0000    768.3976      7.7284     90.3229
   259.7500      0.0000    768.5859      7.7096     89.1043
   260.0000      0.0000    768.8545      7.6785     85.6022
   260.2500      0.0000    769.0975      7.6302     80.3101
   260.5000      0.0000    769.2127      7.5701     74.3787
   260.7500      0.0000    769.1707      7.5030     68.9325
   261.0000      0.0000    769.0345      7.4301     64.5401
   261.2500      0.0000    768.9019      7.3581     61.1229
   261.5000      0.0000    768.8264      7.3015     58.2921
   261.7500      0.0000    768.8007      7.2764     55.7896
   262.0000      0.0000    768.8036      7.2934     53.5643
   262.2500      0.0000    768.8354      7.3546     51.4752
   262.5000      0.0000    768.9037      7.4491     49.2621
   262.7500      0.0000    768.9949      7.5515     47.0385
   263.0000      0.0000    769.0742      7.6327     45.6867
   263.2500      0.0000    769.1132      7.6745     46.4886
   263.5000      0.0000    769.1048      7.6734     50.2632
   263.7500      0.0000    769.0466      7.6369     56.7995
   264.0000      0.0000    768.9215      7.5807     65.0613
   264.2500      0.0000    768.7165      7.5259     73.7369
   264.5000      0.0000    768.4596      7.4915     81.4365
   264.7500      0.0000    768.2211      7.4865     86.8251
   265.0000      0.0000    768.0659      7.5082     89.5203
   265.2500      0.0000    768.0101      7.5437     90.8679
   265.5000      0.0000    768.0240      7.5747     92.7644
   265.7500      0.0000    768.0688      7.5867     95.1420
   266.0000      0.0000    768.1260      7.5775     95.2657
   266.2500      0.0000    768.2022      7.5571     90.2920
   266.5000      0.0000    768.3189      7.5402     80.3801
   266.7500      0.0000    768.4893      7.5397     68.7112
   267.0000      0.0000    768.6903      7.5648     58.6031
   267.2500      0.0000    768.8621      7.6169     51.2736
   267.5000      0.0000    768.9451      7.6834     46.2795
   267.7500      0.0000    768.9254      7.7416     43.0556
   268.0000      0.0000    768.8405      7.7759     41.4379
   268.2500      0.0000    768.7476      7.7892     41.1805
   268.5000      0.0000    768.6956      7.7957     41.7012
   268.7500      0.0000    768.7250      7.8039     42.4848
   269.0000      0.0000    768.8663      7.8101     43.6230
   269.2500      0.0000    769.1096      7.8065     45.7528
   269.5000      0.0000    769.3833      7.7924     49.3149
   269.7500      0.0000    769.5905      7.7740     53.8374
   270.0000      0.0000    769.6770      7.7549     58.1266
   270.2500      0.0000    769.6518      7.7285     61.2548
   270.5000      0.0000    769.5788      7.6794     63.1381
   270.7500      0.0000    769.5624      7.5953     64.1380
   271.0000      0.0000    769.7327      7.4813     64.5825
   271.2500      0.0000    770.5437      7.3652     64.9417
   271.5000      0.0000    773.8291      7.2834     65.9484
   271.7500      0.0000    784.6923      7.2509     68.1385
   272.0000      0.0000    811.0527      7.2300     71.4500
   272.2500      0.0000    856.2310      7.1383     75.4198
   272.5000      0.0000    908.8374      6.9129     79.4877
   272.7500      0.0000    945.9335      6.5797     82.9115
   273.0000      0.0000    953.5815      6.2396     84.6145
   273.2500      0.0000    940.6982      5.9806     83.6306
   273.5000     -5.0000    926.0920      5.8191     80.1121
   273.7500      5.0000    917.2191      5.7252     75.7527
   274.0000      0.0000    909.1483      5.6786     72.9571
   274.2500      0.0000    897.9442      5.6983     73.5833
   274.5000      0.0000    884.4689      5.8381     78.2577
   274.7500      0.0000    867.9541      6.1486     86.0629
   275.0000      0.0000    845.7311      6.6113     94.3798
   275.2500      0.0000    819.5684      7.1062     99.7312
   275.5000      0.0000    796.0652      7.4742     99.8252
   275.7500      0.0000    780.3627      7.6242     95.1164
   276.0000      0.0000    772.5211      7.5748     88.2571
   276.2500      0.0000    769.6055      7.4071     82.0527
   276.5000      0.0000    768.8500      7.2030     77.8122
   276.7500      0.0000    768.8303      7.0167     75.4474
   277.0000      0.0000    769.1924      6.8685     74.8150
   277.2500      0.0000    770.1769      6.7482     76.3923
   277.5000      0.0000    772.1959      6.6305     80.2285
   277.7500      0.0000    775.3463      6.4958     84.6935
   278.0000      0.0000    779.0005      6.3426     87.1180
   278.2500      0.0000    782.0629      6.1852     85.8984
   278.5000      0.0000    783.7303      6.0418     81.7543
   278.7500      0.0000    783.7755      5.9220     76.9678
   279.0000      0.0000    782.2147      5.8237     73.6760
   279.2500      0.0000    779.2963      5.7432     72.8084
   279.5000      0.0000    775.8497      5.6895     74.1777
   279.7500      0.0000    773.1177      5.6810     77.1376
   280.0000      0.0000    772.2172      5.7242     80.9384
   280.2500      0.0000    773.9681      5.7990     84.6017
   280.5000      0.0000    778.9023      5.8741     86.9574
   280.7500      0.0000    786.9358      5.9346     87.2218
   281.0000      0.0000    797.1332      5.9871     85.4922
   281.2500      0.0000    808.0886      6.0428     82.6280
   281.5000      0.0000    818.1384      6.1037     79.7438
   281.7500      0.0000    824.8388      6.1671     77.7230
   282.0000      0.0000    825.2694      6.2358     76.8351
   282.2500      0.0000    818.5818      6.3185     76.6911
   282.5000      0.0000    808.1946      6.4217     76.7185
   282.7500      0.0000    799.8439      6.5410     76.6521
   283.0000      0.0000    796.7783      6.6630     76.4393
   283.2500      0.0000    797.4132      6.7736     75.9312
   283.5000      0.0000    797.5878      6.8660     75.0856
   283.7500      0.0000    794.3688      6.9370     74.3124
   284.0000      0.0000    787.8866      6.9765     74.1287
   284.2500      0.0000    780.4852      6.9710     74.4514
   284.5000      0.0000    774.5733      6.9190     74.6314
   284.7500      0.0000    771.0854      6.8381     74.3409
   285.0000      0.0000    769.5523      6.7497     74.1764
   285.2500      0.0000    769.1993      6.6614     75.1954
   285.5000      0.0000    769.9689      6.5676     77.8528
   285.7500      0.0000    773.0698      6.4636     81.3227
   286.0000      0.0000    780.8682      6.3532     83.8449
   286.2500      0.0000    795.5573      6.2450     83.9890
   286.5000      0.0000    816.5930      6.1444     81.8027
   286.7500      0.0000    838.9647      6.0529     78.6947
   287.0000      0.0000    854.7840      5.9736     76.2251
   287.2500      0.0000    857.7013      5.9148     75.0722
   287.5000      0.0000    846.6962      5.8884     74.9990
   287.7500      0.0000    826.5018      5.8986     75.4550
   288.0000      0.0000    804.6323      5.9328     75.9784
   288.2500      0.0000    787.1809      5.9656     76.1276
   288.5000      0.0000    776.3328      5.9776     75.5030
   288.7500      0.0000    770.9413      5.9681     74.1847
   289.0000      0.0000    768.7357      5.9471     72.8481
   289.2500      0.0000    767.9583      5.9194     71.9783
   289.5000      0.0000    767.7136      5.8767     71.1120
   289.7500      0.0000    767.6737      5.8023     69.3086
   290.0000      0.0000    767.7662      5.6816     66.4283
   290.2500      0.0000    768.0060      5.5110     63.6140
   290.5000      0.0000    768.4055      5.3032     62.3603
   290.7500      0.0000    768.9144      5.0826     63.1905
   291.0000      0.0000    769.4097      4.8785     65.2223
   291.2500      0.0000    769.7510      4.7204     66.8937
   291.5000      0.0000    769.8594      4.6379     67.1679
   291.7500      0.0000    769.7538      4.6561     66.2037
   292.0000      0.0000    769.5132      4.7836     65.0075
   292.2500      0.0000    769.2089      5.0039     64.4136
