~Version Information
VERS.                      2.0: CWLS Log ASCII Standard - VERSION 2.0
WRAP.                       NO: One line per depth step
~Well Information Block
STRT.FT               846.6000: 
STOP.FT              2609.1000: 
STEP.FT                 0.1000: 
NULL.                -999.2500: 
COMP.          Petrogulf Corporation: COMPANY
WELL.            Lavedure 7-44: WELL
FLD.           Purgatoire River: FIELD
LOC.           969' FSL & 501' FEL: LOCATION
PROV.                 Colorado: PROVINCE
CNTY.               Las Animas: COUNTRY
SRVC.                Patterson: SERVICE COMPANY
DATE.          Sun Dec 07 14:55:17 2003: LOG DATE
UWI.                          : UNIQUE WELL ID
~Curve Information Block
DEPT.FT            0 000 00 00: Depth
DCAL.in                       : CDL Caliper
RHOB.g/cc                     : CDL Bulk Density
RHOC.g/cc                     : CDL Density Correction
DPOR.pu                       : CDL Density Porosity
GR.GAPI                       : Gamma Ray
NPOR.pu                       : Neutron Porosity
~Parameter Information Block
~A  Depth       DCAL        RHOB        RHOC        DPOR         GR         NPOR    
# ...
  1672.2000      8.1301      2.5731      0.0369      4.6588     92.9103     17.6518
  1672.3000      8.1298      2.5722      0.0347      4.7134     92.8115     17.7402
  1672.4000      8.1298      2.5715      0.0328      4.7600     92.5414     17.8210
  1672.5000      8.1196      2.5709      0.0314      4.7944     92.0810     17.8924
  1672.6000      8.1196      2.5706      0.0306      4.8123     91.4321     17.9553
  1672.7000      8.1196      2.5706      0.0302      4.8098     90.6204     18.0130
  1672.8000      8.1053      2.5711      0.0302      4.7835     89.7056     18.0704
  1672.9000      8.1053      2.5719      0.0306      4.7315     88.7703     18.1330
  1673.0000      8.0869      2.5732      0.0311      4.6531     87.9129     18.2056
  1673.1000      8.0869      2.5749      0.0316      4.5494     87.2283     18.2923
  1673.2000      8.0869      2.5770      0.0321      4.4228     86.7987     18.3952
  1673.3000      8.0688      2.5794      0.0326      4.2772     86.6730     18.5145
  1673.4000      8.0688      2.5821      0.0331      4.1177     86.8694     18.6485
  1673.5000      8.0526      2.5848      0.0338      3.9500     87.3722     18.7938
  1673.6000      8.0526      2.5876      0.0349      3.7801     88.1415     18.9465
  1673.7000      8.0526      2.5904      0.0364      3.6139     89.1210     19.1017
  1673.8000      8.0524      2.5930      0.0384      3.4568     90.2547     19.2544
  1673.9000      8.0524      2.5953      0.0410      3.3134     91.4940     19.3995
  1674.0000      8.0772      2.5974      0.0440      3.1873     92.8032     19.5319
  1674.1000      8.0772      2.5992      0.0472      3.0809     94.1621     19.6459
  1674.2000      8.0772      2.6006      0.0504      2.9950     95.5610     19.7364
  1674.3000      8.0945      2.6017      0.0532      2.9296     96.9934     19.7977
  1674.4000      8.0945      2.6024      0.0554      2.8829     98.4504     19.8254
  1674.5000      8.1029      2.6029      0.0568      2.8524     99.9119     19.8161
  1674.6000      8.1029      2.6032      0.0573      2.8342    101.3450     19.7685
  1674.7000      8.1029      2.6034      0.0570      2.8241    102.6999     19.6837
  1674.8000      8.1182      2.6035      0.0561      2.8174    103.9173     19.5654
  1674.9000      8.1182      2.6036      0.0549      2.8091    104.9306     19.4197
  1675.0000      8.1302      2.6039      0.0535      2.7950    105.6789     19.2546
  1675.1000      8.1302      2.6043      0.0524      2.7712    106.1154     19.0789
  1675.2000      8.1302      2.6049      0.0517      2.7351    106.2153     18.9017
  1675.3000      8.1360      2.6057      0.0516      2.6852    105.9827     18.7316
  1675.4000      8.1360      2.6067      0.0520      2.6217    105.4516     18.5758
  1675.5000      8.1291      2.6080      0.0530      2.5460    104.6775     18.4399
  1675.6000      8.1291      2.6094      0.0542      2.4607    103.7327     18.3281
  1675.7000      8.1291      2.6109      0.0554      2.3696    102.6909     18.2424
  1675.8000      8.1098      2.6124      0.0563      2.2768    101.6172     18.1840
  1675.9000      8.1098      2.6139      0.0568      2.1866    100.5582     18.1526
  1676.0000      8.0891      2.6153      0.0567      2.1026     99.5394     18.1480
  1676.1000      8.0891      2.6165      0.0558      2.0277     98.5641     18.1696
  1676.2000      8.0891      2.6176      0.0544      1.9634     97.6174     18.2176
  1676.3000      8.0785      2.6185      0.0526      1.9099     96.6761     18.2925
  1676.4000      8.0785      2.6192      0.0507      1.8659     95.7112     18.3953
  1676.5000      8.0794      2.6198      0.0493      1.8291     94.7008     18.5267
  1676.6000      8.0794      2.6204      0.0487      1.7965     93.6341     18.6864
  1676.7000      8.0794      2.6209      0.0493      1.7647     92.5177     18.8723
  1676.8000      8.0854      2.6214      0.0514      1.7312     91.3803     19.0798
  1676.9000      8.0854      2.6220      0.0549      1.6942     90.2720     19.3018
  1677.0000      8.0988      2.6227      0.0598      1.6532     89.2655     19.5284
  1677.1000      8.0988      2.6234      0.0655      1.6094     88.4459     19.7487
  1677.2000      8.0988      2.6242      0.0717      1.5656     87.9028     19.9508
  1677.3000      8.1064      2.6248      0.0776      1.5256     87.7132     20.1241
  1677.4000      8.1064      2.6253      0.0828      1.4942     87.9352     20.2600
  1677.5000      8.0839      2.6256      0.0869      1.4762     88.5895     20.3533
  1677.6000      8.0839      2.6256      0.0897      1.4761     89.6628     20.4020
  1677.7000      8.0839      2.6253      0.0911      1.4973     91.1048     20.4075
  1677.8000      8.0502      2.6246      0.0913      1.5419     92.8393     20.3739
  1677.9000      8.0502      2.6234      0.0904      1.6106     94.7666     20.3073
  1678.0000      8.0446      2.6219      0.0888      1.7026     96.7810     20.2144
  1678.1000      8.0446      2.6200      0.0867      1.8154     98.7748     20.1023
  1678.2000      8.0446      2.6179      0.0843      1.9458    100.6430     19.9775
  1678.3000      8.0576      2.6155      0.0819      2.0900    102.2911     19.8459
  1678.4000      8.0576      2.6130      0.0795      2.2438    103.6403     19.7133
  1678.5000      8.0751      2.6104      0.0771      2.4030    104.6291     19.5851
  1678.6000      8.0751      2.6077      0.0747      2.5641    105.2242     19.4675
  1678.7000      8.0751      2.6051      0.0723      2.7239    105.4227     19.3671
  1678.8000      8.0904      2.6025      0.0698      2.8798    105.2575     19.2911
  1678.9000      8.0904      2.6000      0.0673      3.0298    104.7947     19.2472
  1679.0000      8.0941      2.5977      0.0648      3.1727    104.1278     19.2425
  1679.1000      8.0941      2.5954      0.0622      3.3074    103.3679     19.2831
  1679.2000      8.0941      2.5933      0.0597      3.4337    102.6299     19.3729
  1679.3000      8.0911      2.5914      0.0572      3.5515    102.0217     19.5128
  1679.4000      8.0911      2.5896      0.0548      3.6614    101.6307     19.7009
  1679.5000      8.0919      2.5879      0.0523      3.7643    101.5191     19.9323
  1679.6000      8.0919      2.5863      0.0499      3.8617    101.7191     20.2000
  1679.7000      8.0919      2.5847      0.0476      3.9554    102.2343     20.4960
  1679.8000      8.0995      2.5832      0.0454      4.0478    103.0437     20.8123
  1679.9000      8.0995      2.5817      0.0435      4.1412    104.1065     21.1423
  1680.0000      8.1125      2.5801      0.0419      4.2381    105.3706     21.4812
  1680.1000      8.1125      2.5784      0.0407      4.3410    106.7788     21.8261
  1680.2000      8.1125      2.5765      0.0401      4.4519    108.2744     22.1759
  1680.3000      8.1179      2.5746      0.0400      4.5721    109.8071     22.5300
  1680.4000      8.1179      2.5724      0.0404      4.7022    111.3373     22.8879
  1680.5000      8.1105      2.5701      0.0413      4.8417    112.8376     23.2481
  1680.6000      8.1105      2.5677      0.0426      4.9890    114.2898     23.6072
  1680.7000      8.1105      2.5652      0.0442      5.1413    115.6889     23.9608
  1680.8000      8.1023      2.5626      0.0459      5.2946    117.0356     24.3024
  1680.9000      8.1023      2.5602      0.0477      5.4440    118.3386     24.6253
  1681.0000      8.1006      2.5579      0.0494      5.5838    119.6096     24.9231
  1681.1000      8.1006      2.5558      0.0511      5.7077    120.8622     25.1899
  1681.2000      8.1006      2.5541      0.0525      5.8094    122.1133     25.4221
  1681.3000      8.1043      2.5529      0.0536      5.8828    123.3797     25.6177
  1681.4000      8.1043      2.5523      0.0545      5.9222    124.6798     25.7769
  1681.5000      8.1149      2.5523      0.0552      5.9231    126.0304     25.9019
  1681.6000      8.1149      2.5529      0.0558      5.8823    127.4460     25.9962
  1681.7000      8.1149      2.5543      0.0564      5.7978    128.9331     26.0639
