~Version Information
 VERS.                      2.0: CWLS Log ASCII Standard - VERSION 2.0
 WRAP.                       NO: One line per depth step
 ~Well Information Block
 STRT.FT               762.3000: 
 STOP.FT              2573.7000: 
 STEP.FT                 0.1000: 
 NULL.                -999.2500: 
 COMP.          Petrogulf Corporation: COMPANY
 WELL.               J&P 12-33V: WELL
 FLD.           Purgatorie River: FIELD
 LOC.           2005' FSL & 1928' FEL: LOCATION
 CNTY.               Las Animas: COUNTY
 SRVC.                         : SERVICE COMPANY
 DATE.          Sat Aug 28 11:34:36 2004: LOG DATE
 UWI.           05 071 08092 00: UNIQUE WELL ID
 STAT.                 Colorado: STATE
 PROV.                         :Province
 ~Curve Information Block
 DEPT.FT            0 000 00 00: Depth
 GR.GAPI                       : Gamma Ray
 DCAL.in                       : CDL Caliper
 DPOR.pu                       : CDL Density Porosity
 NPOR.pu                       : Neutron Porosity
 RHOB.g/cc                     : CDL Bulk Density
 RHOC.g/cc                     : CDL Density Correction
 ~Parameter Information Block
 ~A  Depth        GR         DCAL        DPOR        NPOR        RHOB        RHOC    
# ...
   896.7000    133.0227      8.2459     10.0181     25.0353      2.4847     -0.0317
   896.8000    149.2787      8.2484     11.3565     24.1807      2.4626     -0.0155
   896.9000    164.1439      8.2484     11.5049     23.4583      2.4602     -0.0188
   897.0000    170.2935      8.2438     10.7807     23.2204      2.4721      0.0269
   897.1000    165.9996      8.2438     10.1090     23.4060      2.4832      0.0553
   897.2000    152.6255      8.2438      9.5239     23.6511      2.4929      0.0677
   897.3000    139.8264      8.2397      8.3479     23.9630      2.5123      0.0782
   897.4000    136.2613      8.2397      6.6566     24.3270      2.5402      0.1796
   897.5000    140.1257      8.2537      5.0629     24.4951      2.5665      0.1880
   897.6000    144.6990      8.2537      3.7564     24.5971      2.5880      0.2314
   897.7000    148.6870      8.2537      2.5540     24.8972      2.6079      0.2004
   897.8000    152.1333      8.2771      1.8603     25.1986      2.6193      0.2488
   897.9000    150.2084      8.2771      2.5606     25.1318      2.6078      0.2075
   898.0000    142.5347      8.2823      4.2227     24.7523      2.5803      0.1403
   898.1000    135.7943      8.2823      5.5889     24.4607      2.5578      0.0848
   898.2000    135.3513      8.2823      6.3004     24.6078      2.5460      0.0866
   898.3000    142.5000      8.2837      7.0999     25.1402      2.5329      0.1520
   898.4000    155.3956      8.2837      8.6083     25.6023      2.5080      0.0586
   898.5000    165.6872      8.2836     10.2136     25.9153      2.4815      0.0750
   898.6000    165.9026      8.2836     10.9815     26.3078      2.4688      0.0414
   898.7000    161.7693      8.2836     10.6383     26.6090      2.4745      0.0723
   898.8000    162.3538      8.2820      9.9006     26.5998      2.4866      0.1002
   898.9000    166.5011      8.2820      9.5817     26.3264      2.4919      0.0911
   899.0000    170.4216      8.2832      9.1957     26.0638      2.4983      0.0812
   899.1000    174.3128      8.2832      7.9238     26.0726      2.5193      0.1393
   899.2000    181.2306      8.2832      5.9548     26.2382      2.5517      0.1470
   899.3000    193.4637      8.2834      3.5706     26.3474      2.5911      0.1203
   899.4000    204.1396      8.2834      1.4345     26.4537      2.6263      0.1919
   899.5000    202.9139      8.2826      1.0770     26.4705      2.6322      0.1883
   899.6000    196.5158      8.2826      3.3494     26.1872      2.5947      0.1839
   899.7000    195.2657      8.2826      7.3433     25.8493      2.5288      0.0981
   899.8000    195.6305      8.2801     10.6930     25.8876      2.4736      0.0340
   899.9000    194.1785      8.2801     11.9317     26.2431      2.4531      0.0425
   900.0000    189.6197      8.2806     11.6148     26.4866      2.4584      0.0265
   900.1000    181.9419      8.2806     10.4812     26.4347      2.4771      0.0501
   900.2000    177.0874      8.2806      8.8058     26.3857      2.5047      0.1136
   900.3000    179.8287      8.2815      6.9983     26.5001      2.5345      0.1258
   900.4000    182.2727      8.2815      5.4171     26.4599      2.5606      0.1559
   900.5000    176.9717      8.2770      4.3687     26.1434      2.5779      0.1995
   900.6000    169.2935      8.2770      4.0120     25.8339      2.5838      0.1490
   900.7000    163.6275      8.2770      3.9838     25.6668      2.5843      0.1307
   900.8000    161.4645      8.2610      4.0461     25.3716      2.5832      0.1327
   900.9000    161.0487      8.2610      4.6467     24.5661      2.5733      0.1161
   901.0000    155.8072      8.2577      6.6073     23.4576      2.5410      0.1034
   901.1000    147.7791      8.2577     10.4986     22.5463      2.4768      0.1187
   901.2000    143.3577      8.2577     15.2192     21.9302      2.3989      0.0186
   901.3000    140.0394      8.2573     18.4956     21.5725      2.3448     -0.0147
   901.4000    135.0769      8.2573     19.9962     21.3930      2.3201     -0.0070
   901.5000    133.1087      8.2584     21.5403     21.2724      2.2946      0.0456
   901.6000    135.2699      8.2584     23.8456     21.4320      2.2565      0.0166
   901.7000    136.3973      8.2584     25.5185     22.0981      2.2289      0.0285
   901.8000    135.3805      8.2596     26.2698     23.1359      2.2165      0.1650
   901.9000    133.5552      8.2596     28.1474     24.2900      2.1856      0.2562
   902.0000    130.5512      8.2645     32.1558     25.3603      2.1194      0.2360
   902.1000    128.1583      8.2645     36.7068     26.2253      2.0443      0.1669
   902.2000    127.3136      8.2645     39.8515     26.8679      1.9924      0.1497
   902.3000    125.7696      8.2686     40.4209     27.3695      1.9831      0.1197
   902.4000    122.1219      8.2686     37.8340     27.9234      2.0257      0.1733
   902.5000    115.6051      8.2675     32.5835     28.6024      2.1124      0.1821
   902.6000    105.5298      8.2675     25.9378     29.2070      2.2220      0.1832
   902.7000     95.7374      8.2675     19.8000     29.4665      2.3233      0.2613
   902.8000     91.2957      8.2660     16.5739     29.4087      2.3765      0.3188
   902.9000     91.2928      8.2660     16.6889     29.4143      2.3746      0.2165
   903.0000     90.9313      8.2642     17.5862     29.6461      2.3598      0.1236
   903.1000     88.3808      8.2642     16.6342     30.0283      2.3755      0.1154
   903.2000     85.9749      8.2642     12.8665     30.3269      2.4377      0.0943
   903.3000     86.7227      8.2655      6.6154     30.3449      2.5408      0.1147
   903.4000     89.9233      8.2655     -0.3593     30.2447      2.6559      0.1994
   903.5000     92.0548      8.2636     -5.6522     30.0127      2.7433      0.2531
   903.6000     94.4308      8.2636     -7.9974     29.2903      2.7820      0.2842
   903.7000     99.7013      8.2636     -7.6449     28.0611      2.7761      0.2699
   903.8000    104.8073      8.2590     -5.8965     26.9427      2.7473      0.1917
   903.9000    107.0743      8.2590     -4.1084     26.4381      2.7178      0.1151
   904.0000    107.9556      8.2406     -2.4240     26.3363      2.6900      0.0246
   904.1000    113.0728      8.2406     -0.4395     26.2056      2.6573     -0.0001
   904.2000    125.7519      8.2406      1.3109     25.8569      2.6284     -0.0079
   904.3000    140.4037      8.2252      1.7698     25.0966      2.6208     -0.0023
   904.4000    148.4538      8.2252      1.3358     23.9788      2.6280      0.0503
   904.5000    147.8243      8.2222      1.4777     22.7810      2.6256      0.0307
   904.6000    144.2979      8.2222      2.4247     21.5861      2.6100      0.0228
   904.7000    141.0978      8.2222      3.2532     20.7285      2.5963      0.0013
   904.8000    137.6120      8.2145      3.7817     20.6412      2.5876      0.0366
   904.9000    135.0408      8.2145      4.5594     21.1055      2.5748      0.0264
   905.0000    137.2181      8.2222      5.4938     21.5474      2.5594      0.0302
   905.1000    144.8161      8.2222      6.2990     21.8733      2.5461      0.0512
   905.2000    151.6633      8.2222      7.4647     22.1971      2.5268      0.0237
   905.3000    153.0969      8.2233      9.2785     22.5702      2.4969     -0.0270
   905.4000    150.6568      8.2233     11.0569     22.9348      2.4676      0.0099
   905.5000    149.9353      8.2185     11.8790     23.1470      2.4540     -0.0024
   905.6000    153.8877      8.2185     11.1736     23.1888      2.4656     -0.0119
   905.7000    158.2877      8.2185      9.3741     23.1021      2.4953      0.0491
   905.8000    159.1295      8.2123      7.8415     22.9858      2.5206      0.1249
   905.9000    158.2721      8.2123      7.2549     23.0488      2.5303      0.1139
   906.0000    159.0610      8.2312      7.1738     23.3926      2.5316      0.1437
   906.1000    162.3572      8.2312      7.2665     23.9765      2.5301      0.1323
   906.2000    165.3643      8.2312      7.6298     24.6140      2.5241      0.1535
