~Version Information
VERS.                      2.0: CWLS Log ASCII Standard - VERSION 2.0
WRAP.                       NO: One line per depth step
~Well Information Block
STRT.FT               545.0000: 
STOP.FT              1922.0000: 
STEP.FT                 0.2500: 
NULL.                -999.2500: 
COMP.          Pioneer Natural Resources: COMPANY
WELL.            Summers 21-19: WELL
FLD.           Purgatoire River: FIELD
LOC.           900' FNL & 1950' FWL: LOCATION
PROV.                 Colorado: PROVINCE
CNTY.               Las Animas: COUNTRY
SRVC.                Patterson: SERVICE COMPANY
DATE.          Sat Oct 15 03:34:13 2005: LOG DATE
UWI.           05 071 08315 00: UNIQUE WELL ID
~Curve Information Block
DEPT.FT            0 000 00 00: Depth
SN.Ohm-m                      : IEL Short Normal
SP.mV                         : IEL Spontaneous Potential
DIR.Ohm-m                     : IEL Induction Resistivity
GR.GAPI                       : Gamma Ray
~Parameter Information Block
~A  Depth        SN          SP         DIR          GR     
   545.0000   2000.0000   2000.0000      6.6499    124.3720
   545.2500   2000.0000   2000.0000      6.6057    126.8044
   545.5000   2000.0000   2000.0000      6.6610    129.9670
   545.7500   2000.0000   2000.0000      6.8504    131.0264
   546.0000   2000.0000   2000.0000      7.2185    129.6344
   546.2500   2000.0000   2000.0000      7.8409    126.6388
   546.5000   2000.0000   2000.0000      8.8321    120.3953
   546.7500   2000.0000   2000.0000     10.3157    115.9989
   547.0000   2000.0000   2000.0000     12.2868    109.6891
   547.2500   2000.0000   2000.0000     14.2916    105.6598
   547.5000   2000.0000   2000.0000     15.2610    100.3100
   547.7500   2000.0000   2000.0000     14.4526     97.8061
   548.0000   2000.0000   2000.0000     12.5083     96.3259
   548.2500   2000.0000   2000.0000     10.5271     96.7598
   548.5000   2000.0000   2000.0000      9.0209     99.1528
   548.7500   2000.0000   2000.0000      8.0194    101.9288
   549.0000   2000.0000   2000.0000      7.4026    108.0352
   549.2500   2000.0000   2000.0000      7.0511    113.1143
   549.5000   2000.0000   2000.0000      6.8827    120.8516
   549.7500   2000.0000   2000.0000      6.8465    125.1506
   550.0000   2000.0000   2000.0000      6.9050    129.3158
   550.2500   2000.0000   2000.0000      7.0198    130.4344
   550.5000   2000.0000   2000.0000      7.1523    129.9370
   550.7500   2000.0000   2000.0000      7.2741    128.6753
   551.0000   2000.0000   2000.0000      7.3749    126.7410
   551.2500   2000.0000   2000.0000      7.4573    126.0686
   551.5000   2000.0000   2000.0000      7.5251    126.1909
   551.7500   2000.0000   2000.0000      7.5754    126.7697
   552.0000   2000.0000   2000.0000      7.6011    127.9277
   552.2500   2000.0000   2000.0000      7.5978    128.5971
   552.5000   2000.0000   2000.0000      7.5667    128.5303
   552.7500   2000.0000   2000.0000      7.5124    127.1991
   553.0000   2000.0000   2000.0000      7.4402    123.0618
   553.2500   2000.0000   2000.0000      7.3572    119.3183
   553.5000   2000.0000   2000.0000      7.2741    113.2141
   553.7500   2000.0000   2000.0000      7.2053    109.0848
   554.0000   2000.0000   2000.0000      7.1647    102.5368
   554.2500   2000.0000   2000.0000      7.1614     97.6279
   554.5000   2000.0000   2000.0000      7.1970     89.3670
   554.7500   2000.0000   2000.0000      7.2657     83.6732
   555.0000   2000.0000   2000.0000      7.3562     76.1752
   555.2500   2000.0000   2000.0000      7.4546     72.7181
   555.5000   2000.0000   2000.0000      7.5475     70.8363
   555.7500   2000.0000   2000.0000      7.6238     71.9227
   556.0000   2000.0000   2000.0000      7.6775     76.7363
   556.2500   2000.0000   2000.0000      7.7090     81.7426
   556.5000   2000.0000   2000.0000      7.7256     91.1697
   556.7500   2000.0000   2000.0000      7.7375     98.0697
   557.0000   2000.0000   2000.0000      7.7537    108.1588
   557.2500   2000.0000   2000.0000      7.7795    114.2557
   557.5000   2000.0000   2000.0000      7.8168    122.0013
   557.7500   2000.0000   2000.0000      7.8647    125.9249
   558.0000   2000.0000   2000.0000      7.9188    129.4609
   558.2500   2000.0000   2000.0000      7.9688    130.3355
   558.5000   2000.0000   2000.0000      7.9980    130.3831
   558.7500   2000.0000   2000.0000      7.9873    130.1757
   559.0000   2000.0000   2000.0000      7.9251    129.7701
   559.2500   2000.0000   2000.0000      7.8178    129.2573
   559.5000   2000.0000   2000.0000      7.6923    128.1074
   559.7500   2000.0000   2000.0000      7.5855    127.3677
   560.0000   2000.0000   2000.0000      7.5270    126.8330
   560.2500   2000.0000   2000.0000      7.5252    127.0860
   560.5000   2000.0000   2000.0000      7.5642    128.7910
   560.7500   2000.0000   2000.0000      7.6120    130.9260
   561.0000   2000.0000   2000.0000      7.6351    134.8533
   561.2500   2000.0000   2000.0000      7.6133    136.8368
   561.5000   2000.0000   2000.0000      7.5486    136.9838
   561.7500   2000.0000   2000.0000      7.4671    134.9857
   562.0000   2000.0000   2000.0000      7.4179    130.2026
   562.2500   2000.0000   2000.0000      7.4646    127.0150
   562.5000   2000.0000   2000.0000      7.6685    123.9851
   562.7500   2000.0000   2000.0000      8.0628    123.7881
   563.0000   2000.0000   2000.0000      8.6167    126.1613
   563.2500   2000.0000   2000.0000      9.2027    128.4432
   563.5000   2000.0000   2000.0000      9.6246    129.9169
   563.7500   2000.0000   2000.0000      9.7477    128.2945
   564.0000   2000.0000   2000.0000      9.6173    122.0147
   564.2500   2000.0000   2000.0000      9.4132    116.4212
   564.5000   2000.0000   2000.0000      9.3330    108.3062
   564.7500   2000.0000   2000.0000      9.5713    104.0491
   565.0000   2000.0000   2000.0000     10.4376     99.7245
   565.2500   2000.0000   2000.0000     12.7098     97.6863
   565.5000   2000.0000   2000.0000     19.2541     94.7259
   565.7500   2000.0000   2000.0000     55.8887     92.5940
   566.0000   2000.0000   2000.0000 100000.0000     89.6279
   566.2500   2000.0000   2000.0000 100000.0000     88.0572
   566.5000   2000.0000   2000.0000 100000.0000     86.0396
   566.7500   2000.0000   2000.0000 100000.0000     81.7352
   567.0000   2000.0000   2000.0000 100000.0000     79.4467
   567.2500   2000.0000   2000.0000 100000.0000     78.5959
   567.5000   2000.0000   2000.0000 100000.0000     80.2170
   567.7500   2000.0000   2000.0000 100000.0000     75.1618
   568.0000   2000.0000   2000.0000 100000.0000     82.7909
   568.2500   2000.0000   2000.0000 100000.0000     88.7848
   568.5000   2000.0000   2000.0000 100000.0000     97.8928
   568.7500   2000.0000   2000.0000 100000.0000     91.8018
   569.0000   2000.0000   2000.0000 100000.0000     99.1136
   569.2500   2000.0000   2000.0000 100000.0000    103.3817
   569.5000   2000.0000   2000.0000     29.2522    108.3810
   569.7500   2000.0000   2000.0000      6.9338     96.2289
   570.0000   2000.0000   2000.0000      4.3016     98.0502
   570.2500   2000.0000   2000.0000      3.6554     98.8665
   570.5000   2000.0000   2000.0000      3.7573    100.2165
   570.7500   2000.0000   2000.0000      4.4070    101.3127
   571.0000   2000.0000   2000.0000      5.7096    102.8882
   571.2500   2000.0000   2000.0000      8.1567    103.8719
   571.5000   2000.0000   2000.0000     13.5411    106.2248
   571.7500   2000.0000   2000.0000     31.5817    109.1231
   572.0000   2000.0000   2000.0000   2386.2998    115.4938
   572.2500   2000.0000   2000.0000 100000.0000    120.0722
   572.5000   2000.0000   2000.0000 100000.0000    124.9656
   572.7500   2000.0000   2000.0000 100000.0000    125.9604
   573.0000   2000.0000   2000.0000     53.4408    124.2108
   573.2500   2000.0000   2000.0000     25.8683    121.8824
   573.5000   2000.0000   2000.0000     18.9369    118.6934
   573.7500   2000.0000   2000.0000     16.6171    117.3862
   574.0000   2000.0000   2000.0000     15.9971    116.2472
   574.2500   2000.0000   2000.0000     16.1192    115.4966
   574.5000   2000.0000   2000.0000     16.5947    114.2778
   574.7500   2000.0000   2000.0000     17.2811    113.8350
   575.0000   2000.0000   2000.0000     18.1605    114.0887
   575.2500   2000.0000   2000.0000     19.3029    114.4266
   575.5000   2000.0000   2000.0000     20.8609    113.9840
   575.7500   2000.0000   2000.0000     23.0437    112.7820
   576.0000   2000.0000   2000.0000     25.9764    110.2676
   576.2500   2000.0000   2000.0000     29.4148    108.8224
   576.5000   2000.0000   2000.0000     32.4875    108.0706
   576.7500   2000.0000   2000.0000     34.0555    108.8112
   577.0000   2000.0000   2000.0000     33.7637    111.4995
   577.2500   2000.0000   2000.0000     32.3316    113.7928
   577.5000   2000.0000   2000.0000     30.6606    116.9200
   577.7500   2000.0000   2000.0000     29.1996    118.3581
   578.0000   2000.0000   2000.0000     28.0262    119.3536
   578.2500   2000.0000   2000.0000     27.1411    119.4714
