~Version Information
VERS.                      2.0: CWLS Log ASCII Standard - VERSION 2.0
WRAP.                       NO: One line per depth step
~Well Information Block
STRT.FT               954.0000: 
STOP.FT              2517.0000: 
STEP.FT                 0.2500: 
NULL.                -999.2500: 
COMP.          Petrogulf Corporation: COMPANY
WELL.             Royal 8-33 V: WELL
FLD.           Purgatoire River: FIELD
LOC.           2365' FSL & 2336' FEL: LOCATION
PROV.                 Colorado: PROVINCE
CNTY.               Las Animas: COUNTRY
SRVC.                Patterson: SERVICE COMPANY
DATE.          Fri Dec 05 04:39:41 2003: LOG DATE
UWI.                          : UNIQUE WELL ID
~Curve Information Block
DEPT.FT            0 000 00 00: Depth
SP.mV                         : DIL Spontaneous Potential
RILD.Ohm-m                    : DIL Deep Resistivity
RILM.Ohm-m                    : DIL Medium Resistivity
RLL3.Ohm-m                    : DIL Shallow Resistivity
GR.GAPI                       : Gamma Ray
~Parameter Information Block
~A  Depth        SP         RILD        RILM        RLL3         GR     
# ...
  2298.0000    -29.8762     18.4623     23.2495     23.1401     57.7703
  2298.2500    -31.1528     18.5613     23.2152     23.1695     56.0837
  2298.5000    -32.0705     18.6681     23.0976     23.0228     54.9300
  2298.7500    -32.6854     18.7352     22.9146     22.6754     55.8458
  2299.0000    -33.1215     18.7177     22.6987     22.1506     59.1655
  2299.2500    -33.4931     18.6016     22.4855     21.5340     61.4884
  2299.5000    -33.8379     18.4123     22.3032     20.9684     63.2113
  2299.7500    -34.1001     18.1966     22.1646     20.5952     62.8436
  2300.0000    -34.1660     17.9941     22.0604     20.4744     60.8351
  2300.2500    -33.9280     17.8216     21.9573     20.5591     59.2920
  2300.5000    -33.3383     17.6753     21.8088     20.7424     57.5756
  2300.7500    -32.4271     17.5430     21.5802     20.9171     57.0039
  2301.0000    -31.2850     17.4147     21.2724     21.0028     56.9770
  2301.2500    -30.0359     17.2863     20.9249     20.9507     57.4186
  2301.5000    -28.8177     17.1586     20.5934     20.7475     58.4352
  2301.7500    -27.7679     17.0318     20.3214     20.4190     59.0004
  2302.0000    -26.9976     16.9026     20.1241     20.0305     59.0653
  2302.2500    -26.5582     16.7641     19.9899     19.6763     58.5134
  2302.5000    -26.4233     16.6078     19.8927     19.4457     57.3897
  2302.7500    -26.5068     16.4288     19.8062     19.3795     56.9118
  2303.0000    -26.7100     16.2336     19.7131     19.4564     56.8280
  2303.2500    -26.9685     16.0454     19.6080     19.6171     56.9483
  2303.5000    -27.2683     15.9010     19.4965     19.7858     56.9428
  2303.7500    -27.6304     15.8350     19.3941     19.8737     56.8314
  2304.0000    -28.0814     15.8611     19.3237     19.8102     56.9677
  2304.2500    -28.6313     15.9653     19.3132     19.6204     57.5378
  2304.5000    -29.2651     16.1143     19.3911     19.4635     59.1168
  2304.7500    -29.9539     16.2731     19.5787     19.5469     60.3454
  2305.0000    -30.6748     16.4197     19.8786     19.9698     61.7560
  2305.2500    -31.4256     16.5481     20.2616     20.6392     62.1312
  2305.5000    -32.2207     16.6643     20.6644     21.3324     61.6814
  2305.7500    -33.0664     16.7788     21.0113     21.8420     60.7229
  2306.0000    -33.9321     16.9007     21.2577     22.0828     58.5973
  2306.2500    -34.7410     17.0333     21.4189     22.0948     57.1814
  2306.5000    -35.3881     17.1735     21.5554     21.9887     56.1433
  2306.7500    -35.7792     17.3126     21.7275     21.9126     56.5477
  2307.0000    -35.8660     17.4400     21.9578     22.0472     58.2737
  2307.2500    -35.6633     17.5465     22.2219     22.5585     59.2858
  2307.5000    -35.2439     17.6282     22.4610     23.4802     59.1963
  2307.7500    -34.7195     17.6875     22.6067     24.6146     57.9537
  2308.0000    -34.2227     17.7312     22.6102     25.5656     55.5054
  2308.2500    -33.8885     17.7658     22.4649     25.9256     54.4607
  2308.5000    -33.8169     17.7940     22.2080     25.5214     54.7383
  2308.7500    -34.0237     17.8140     21.9012     24.5444     55.9985
  2309.0000    -34.4278     17.8234     21.6031     23.4279     58.2218
  2309.2500    -34.9035     17.8216     21.3500     22.5513     59.0214
  2309.5000    -35.3485     17.8106     21.1510     22.0436     58.4267
  2309.7500    -35.7114     17.7914     20.9958     21.8391     57.1434
  2310.0000    -35.9842     17.7629     20.8665     21.8392     55.2775
  2310.2500    -36.1919     17.7250     20.7505     21.9759     54.8729
  2310.5000    -36.3854     17.6824     20.6466     22.1759     56.0915
  2310.7500    -36.6198     17.6458     20.5634     22.3453     57.7577
  2311.0000    -36.9195     17.6276     20.5150     22.4127     59.8933
  2311.2500    -37.2590     17.6373     20.5151     22.3627     60.0858
  2311.5000    -37.5831     17.6813     20.5738     22.2222     58.1639
  2311.7500    -37.8486     17.7647     20.6976     22.0395     56.2095
  2312.0000    -38.0439     17.8918     20.8896     21.8956     54.3294
  2312.2500    -38.1783     18.0628     21.1493     21.9131     54.4948
  2312.5000    -38.2726     18.2685     21.4725     22.2156     56.4950
  2312.7500    -38.3645     18.4895     21.8484     22.8566     58.2113
  2313.0000    -38.5071     18.7051     22.2597     23.7790     60.2590
  2313.2500    -38.7447     18.9092     22.6832     24.8313     61.0559
  2313.5000    -39.0929     19.1190     23.0947     25.8081     61.4118
  2313.7500    -39.5420     19.3611     23.4734     26.4984     61.1214
  2314.0000    -40.0716     19.6424     23.8070     26.7658     60.1541
  2314.2500    -40.6526     19.9329     24.0921     26.6465     59.5738
  2314.5000    -41.2265     20.1828     24.3328     26.3668     59.5841
  2314.7500    -41.6680     20.3631     24.5369     26.2136     60.1441
  2315.0000    -41.7532     20.4878     24.7120     26.3536     60.5320
  2315.2500    -41.1622     20.5943     24.8598     26.7675     59.6209
  2315.5000    -39.5440     20.7054     24.9695     27.3170     56.3729
  2315.7500    -36.6554     20.8149     25.0156     27.8183     53.7834
  2316.0000    -32.5350     20.9029     24.9688     28.0673     51.0012
  2316.2500    -27.5941     20.9582     24.8151     27.8993     50.4715
  2316.5000    -22.4994     20.9816     24.5701     27.3078     51.8132
  2316.7500    -17.8752     20.9752     24.2762     26.4997     53.8325
  2317.0000    -14.0416     20.9383     23.9843     25.7715     57.5569
  2317.2500    -10.9950     20.8742     23.7371     25.2803     59.8758
  2317.5000     -8.5933     20.7959     23.5607     24.9364     62.5633
  2317.7500     -6.7382     20.7206     23.4668     24.5804     63.9666
  2318.0000     -5.4187     20.6604     23.4555     24.2955     66.1628
  2318.2500     -4.6570     20.6203     23.5234     24.4701     67.8774
  2318.5000     -4.4622     20.6029     23.6723     25.4509     70.1521
  2318.7500     -4.8222     20.6115     23.9158     27.1303     70.7013
  2319.0000     -5.6938     20.6478     24.2695     28.9275     69.3522
  2319.2500     -6.9656     20.7112     24.7276     30.1779     67.2898
  2319.5000     -8.4269     20.8025     25.2422     30.5515     63.5234
  2319.7500     -9.8027     20.9285     25.7283     30.1860     61.0470
  2320.0000    -10.8573     21.0998     26.0996     29.5072     57.8177
  2320.2500    -11.4880     21.3225     26.3188     28.9155     56.1444
  2320.5000    -11.7395     21.5921     26.4238     28.5772     54.5189
  2320.7500    -11.7470     21.8928     26.5055     28.4427     54.0438
  2321.0000    -11.6626     22.2032     26.6529     28.4022     54.1908
  2321.2500    -11.6035     22.5016     26.9069     28.4212     54.7497
  2321.5000    -11.6327     22.7668     27.2483     28.5731     55.7462
  2321.7500    -11.7624     22.9763     27.6221     28.9609     56.0244
  2322.0000    -11.9692     23.1071     27.9792     29.5836     55.2021
  2322.2500    -12.2193     23.1470     28.3055     30.2698     53.8180
  2322.5000    -12.5016     23.1076     28.6104     30.7647     51.0771
  2322.7500    -12.8422     23.0286     28.8854     30.9043     49.3115
  2323.0000    -13.2877     22.9654     29.0776     30.7188     47.5496
  2323.2500    -13.8752     22.9665     29.1221     30.3911     47.1961
  2323.5000    -14.6191     23.0566     29.0119     30.1359     47.6482
  2323.7500    -15.5070     23.2330     28.8292     30.1090     48.1577
  2324.0000    -16.4857     23.4750     28.6970     30.3722     48.4466
  2324.2500    -17.4515     23.7552     28.7058     30.8838     48.1698
  2324.5000    -18.2753     24.0423     28.8830     31.5143     47.5852
  2324.7500    -18.8502     24.2941     29.2077     32.1085     47.6095
  2325.0000    -19.1231     24.4535     29.6380     32.5712     48.5587
  2325.2500    -19.0940     24.4622     30.1219     32.9119     49.3601
  2325.5000    -18.7854     24.2846     30.5957     33.2107     49.7262
  2325.7500    -18.2013     23.9165     30.9843     33.5546     49.2662
