~Version Information
VERS.                      2.0: CWLS Log ASCII Standard - VERSION 2.0
WRAP.                       NO: One line per depth step
~Well Information Block
STRT.FT               520.0000: 
STOP.FT              1105.5000: 
STEP.FT                 0.1000: 
NULL.                -999.2500: 
COMP.          Pioneer Natural Resources: COMPANY
WELL.            Redland 23-24: WELL
FLD.           Purgatoire River: FIELD
LOC.           2356' FSL & 1880' FWL: LOCATION
PROV.                 Colorado: PROVINCE
CNTY.               Las Animas: COUNTRY
SRVC.                Patterson: SERVICE COMPANY
DATE.          Mon Mar 21 07:08:20 2005: LOG DATE
UWI.           05 071 08221 00: UNIQUE WELL ID
~Curve Information Block
DEPT.FT            0 000 00 00: Depth
DCAL.in                       : CDL Caliper
RHOB.g/cc                     : CDL Bulk Density
RHOC.g/cc                     : CDL Density Correction
DPOR.pu                       : CDL Density Porosity
GR.GAPI                       : Gamma Ray
NPOR.pu                       : Neutron Porosity
~Parameter Information Block
~A  Depth       DCAL        RHOB        RHOC        DPOR         GR         NPOR    
# ...
   596.8000      8.2092      1.6168      0.0996     62.6162    121.9006     22.8138
   596.9000      8.2092      1.6623      0.1016     59.8585    131.4850     23.1599
   597.0000      8.2098      1.7251      0.1317     56.0536    141.8792     23.6096
   597.1000      8.2098      1.7963      0.0480     51.7383    148.9513     24.2981
   597.2000      8.2098      1.8799      0.1227     46.6718    153.9807     24.9639
   597.3000      8.1739      1.9857      0.1512     40.2634    158.4199     25.3711
   597.4000      8.1739      2.1040      0.3254     33.0881    160.3741     25.5293
   597.5000      8.1761      2.1917      0.4093     27.7760    161.0286     25.4666
   597.6000      8.1761      2.2180      0.3207     26.1830    161.1607     25.3995
   597.7000      8.1761      2.2063      0.2149     26.8905    158.4313     25.6538
   597.8000      8.2197      2.1870      0.1578     28.0596    155.9699     26.2166
   597.9000      8.2197      2.1603      0.0454     29.6777    161.9156     26.8366
   598.0000      8.2448      2.1299     -0.0243     31.5192    173.6171     27.3461
   598.1000      8.2448      2.1148     -0.0045     32.4354    178.0875     27.7577
   598.2000      8.2448      2.1290     -0.0174     31.5746    172.0595     28.1240
   598.3000      8.1754      2.1765      0.0322     28.6943    164.8664     28.3702
   598.4000      8.1754      2.2425      0.0858     24.6998    162.3902     28.5054
   598.5000      8.1795      2.3047      0.1034     20.9289    162.4028     28.7273
   598.6000      8.1795      2.3611      0.1222     17.5114    164.8430     29.2216
   598.7000      8.1795      2.4117      0.1372     14.4447    170.5812     29.7643
   598.8000      8.1543      2.4400      0.1862     12.7301    174.4497     29.9132
   598.9000      8.1543      2.4425      0.1573     12.5753    172.4973     29.7164
   599.0000      8.1650      2.4416      0.1320     12.6277    169.6593     29.5106
   599.1000      8.1650      2.4488      0.1191     12.1947    170.8624     29.3882
   599.2000      8.1650      2.4447      0.0926     12.4395    173.7553     29.2372
   599.3000      8.1936      2.4146      0.0084     14.2646    175.3648     28.9231
   599.4000      8.1936      2.3793     -0.0484     16.4040    175.1326     28.6468
   599.5000      8.1798      2.3621      0.0382     17.4486    174.0832     28.5785
   599.6000      8.1798      2.3664      0.0378     17.1857    173.0265     28.4489
   599.7000      8.1798      2.3970      0.0776     15.3320    172.6821     28.1652
   599.8000      8.0946      2.4425      0.2295     12.5783    173.1777     28.0794
   599.9000      8.0946      2.4716      0.2118     10.8128    173.6758     28.2562
   600.0000      8.0623      2.4772      0.1127     10.4752    175.4217     28.3513
   600.1000      8.0623      2.4759      0.1705     10.5523    178.6167     28.3218
   600.2000      8.0623      2.4767      0.1550     10.5040    181.6734     28.1508
   600.3000      8.0448      2.4837      0.2046     10.0809    183.2015     27.7831
   600.4000      8.0448      2.4995      0.1824      9.1214    181.2289     27.6363
   600.5000      8.0203      2.5108      0.2051      8.4363    176.3342     27.9373
   600.6000      8.0203      2.5012      0.1529      9.0184    171.2201     28.3462
   600.7000      8.0203      2.4828      0.0828     10.1360    167.4615     28.7454
   600.8000      8.0446      2.4746      0.1413     10.6304    165.9794     29.3886
   600.9000      8.0446      2.4735      0.0748     10.6958    167.2099     30.0942
   601.0000      8.0520      2.4720      0.0495     10.7877    173.2324     30.2672
   601.1000      8.0520      2.4678      0.0601     11.0411    182.1843     29.9457
   601.2000      8.0520      2.4605      0.0518     11.4823    187.3361     29.6884
   601.3000      8.0606      2.4542      0.0249     11.8688    187.1326     29.6388
   601.4000      8.0606      2.4514      0.0141     12.0340    182.2218     29.6746
   601.5000      8.0234      2.4495      0.0808     12.1500    172.3156     29.5969
   601.6000      8.0234      2.4426      0.0853     12.5718    162.0225     29.3371
   601.7000      8.0234      2.4284      0.0521     13.4331    155.2373     29.2099
   601.8000      7.9863      2.4173      0.0392     14.1039    151.4807     29.4097
   601.9000      7.9863      2.4307      0.0515     13.2923    148.3151     29.7845
   602.0000      7.9776      2.4820      0.0748     10.1812    144.0796     30.1757
   602.1000      7.9776      2.5595      0.2046      5.4830    140.9698     30.4922
   602.2000      7.9776      2.6318      0.2750      1.1005    140.8721     30.5874
   602.3000      7.9660      2.6676      0.3176     -1.0671    141.2523     30.5274
   602.4000      7.9660      2.6534      0.2818     -0.2053    140.3519     30.4628
   602.5000      7.9404      2.6107      0.1915      2.3846    136.4887     30.3886
   602.6000      7.9404      2.5860      0.0871      3.8761    128.2688     30.2048
   602.7000      7.9404      2.6008      0.1227      2.9830    119.9045     30.0101
   602.8000      7.9333      2.6279      0.1362      1.3408    116.0989     30.1765
   602.9000      7.9333      2.6404      0.0877      0.5807    116.5762     30.6555
   603.0000      7.9313      2.6366      0.1454      0.8143    116.3246     30.8283
   603.1000      7.9313      2.6224      0.0620      1.6738    111.8370     30.4832
   603.2000      7.9313      2.6063      0.0922      2.6509    107.0934     30.0719
   603.3000      7.9285      2.5861      0.0881      3.8718    107.4382     29.7799
   603.4000      7.9285      2.5523      0.0735      5.9228    113.3691     29.3569
   603.5000      7.9087      2.5102      0.0338      8.4757    120.6605     28.8263
   603.6000      7.9087      2.4916     -0.0663      9.6030    125.7204     28.5696
   603.7000      7.9087      2.5132     -0.0024      8.2902    128.5648     28.6564
   603.8000      7.9107      2.5368      0.0875      6.8623    129.8124     28.8354
   603.9000      7.9107      2.5317     -0.0312      7.1705    131.1035     28.9059
   604.0000      7.9464      2.5176      0.0033      8.0270    133.7589     28.8292
   604.1000      7.9464      2.5125      0.0150      8.3349    136.7946     28.6264
   604.2000      7.9464      2.5180     -0.0266      7.9996    137.2895     28.3360
   604.3000      7.9348      2.5299      0.0921      7.2759    132.5390     28.1702
   604.4000      7.9348      2.5379      0.0776      6.7949    127.6736     28.3889
   604.5000      7.9266      2.5399      0.0877      6.6745    128.8915     28.7364
   604.6000      7.9266      2.5379      0.0499      6.7955    132.8546     28.8555
   604.7000      7.9266      2.5300      0.0326      7.2721    133.1132     28.7029
   604.8000      7.9027      2.5206      0.0639      7.8420    130.7424     28.2490
   604.9000      7.9027      2.5309      0.0649      7.2192    129.1901     27.6687
   605.0000      7.8928      2.5672      0.1813      5.0165    127.9033     27.4255
   605.1000      7.8928      2.5992      0.1816      3.0813    127.1742     27.7147
   605.2000      7.8928      2.6047      0.1503      2.7463    127.9789     28.2052
   605.3000      7.8708      2.5913      0.1750      3.5595    128.9983     28.3481
   605.4000      7.8708      2.5717      0.1380      4.7457    130.2765     28.1520
   605.5000      7.8467      2.5512      0.1629      5.9863    131.2003     28.0199
   605.6000      7.8467      2.5282      0.1188      7.3823    130.3037     28.0140
   605.7000      7.8467      2.5062      0.0699      8.7180    129.7308     28.0878
   605.8000      7.8287      2.4885      0.0465      9.7861    131.5152     28.2891
   605.9000      7.8287      2.4669      0.0937     11.0981    136.2232     28.4402
   606.0000      7.8452      2.4429      0.0058     12.5536    143.1852     28.2211
   606.1000      7.8452      2.4351      0.0312     13.0233    148.5941     27.8622
   606.2000      7.8452      2.4424      0.1200     12.5847    150.2708     27.7627
   606.3000      7.8756      2.4434      0.1237     12.5218    151.7083     27.6887
