~Version Information
VERS.                      2.0: CWLS Log ASCII Standard - VERSION 2.0
WRAP.                       NO: One line per depth step
~Well Information Block
STRT.FT               545.0000: 
STOP.FT              1920.5000: 
STEP.FT                 0.1000: 
NULL.                -999.2500: 
COMP.          Pioneer Natural Resources: COMPANY
WELL.            Summers 21-19: WELL
FLD.           Purgatoire River: FIELD
LOC.           900' FNL & 1950' FWL: LOCATION
PROV.                 Colorado: PROVINCE
CNTY.               Las Animas: COUNTRY
SRVC.                Patterson: SERVICE COMPANY
DATE.          Mon Oct 17 07:05:22 2005: LOG DATE
UWI.           05 071 08315 00: UNIQUE WELL ID
~Curve Information Block
DEPT.FT            0 000 00 00: Depth
DCAL.in                       : CDL Caliper
RHOB.g/cc                     : CDL Bulk Density
RHOC.g/cc                     : CDL Density Correction
DPOR.pu                       : CDL Density Porosity
GR.GAPI                       : Gamma Ray
NPOR.pu                       : Neutron Porosity
~Parameter Information Block
~A  Depth       DCAL        RHOB        RHOC        DPOR         GR         NPOR    
# ...
  1725.8000      8.5706      1.8003      0.0528     51.4985     55.5753     34.2414
  1725.9000      8.5706      1.7805      0.0070     52.6962     55.4382     33.8714
  1726.0000      8.5927      1.7540     -0.0412     54.3038     52.8514     33.3852
  1726.1000      8.5927      1.7204     -0.0248     56.3401     51.3207     32.7995
  1726.2000      8.5927      1.6709     -0.0187     59.3401     54.3944     32.2155
  1726.3000      8.2237      1.6029     -0.0451     63.4602     58.0853     32.1889
  1726.4000      8.2237      1.5327     -0.0475     67.7145     58.1481     32.7925
  1726.5000      8.0321      1.4824     -0.0662     70.7617     54.7074     33.3986
  1726.6000      8.0321      1.4659     -0.0399     71.7661     49.8666     33.4489
  1726.7000      8.0321      1.4929     -0.0355     70.1262     47.4546     32.9453
  1726.8000      8.0067      1.5776     -0.0008     64.9954     48.3081     32.4615
  1726.9000      8.0067      1.7063      0.1387     57.1922     49.8016     32.1930
  1727.0000      8.0242      1.8317      0.1793     49.5965     50.0533     32.0063
  1727.1000      8.0242      1.9405      0.1588     43.0006     51.1683     31.9889
  1727.2000      8.0242      2.0658      0.1926     35.4041     58.5020     32.4765
  1727.3000      8.1056      2.2147      0.2407     26.3815     71.3300     33.7794
  1727.4000      8.1056      2.3395      0.2699     18.8206     81.8710     35.0232
  1727.5000      8.2093      2.3989      0.1913     15.2165     86.5651     34.6279
  1727.6000      8.2093      2.4206      0.0425     13.9041     88.7066     32.8568
  1727.7000      8.2093      2.4519      0.0868     12.0064     91.0061     31.2880
  1727.8000      8.1253      2.4915      0.0319      9.6064     92.3303     30.4290
  1727.9000      8.1253      2.5200      0.0846      7.8795     92.3365     30.1187
  1728.0000      8.0074      2.5338      0.0635      7.0397     92.9223     30.0396
  1728.1000      8.0074      2.5398      0.0641      6.6786     93.1682     30.1150
  1728.2000      8.0074      2.5468      0.0515      6.2531     94.2798     30.2530
  1728.3000      7.9874      2.5580      0.0665      5.5743     99.7158     29.8088
  1728.4000      7.9874      2.5625      0.0748      5.3043    104.0383     29.4052
  1728.5000      7.9886      2.5489      0.0409      6.1248     98.6703     29.9422
  1728.6000      7.9886      2.5215      0.0476      7.7865     88.2004     30.5339
  1728.7000      7.9886      2.4867      0.0581      9.8962     85.3260     30.2747
  1728.8000      7.9832      2.4517      0.0096     12.0204     92.8173     29.4268
  1728.9000      7.9832      2.4349     -0.0662     13.0357    101.7049     28.6015
  1729.0000      7.9810      2.4376      0.0223     12.8754    104.7865     28.3062
  1729.1000      7.9810      2.4332     -0.0140     13.1373    105.7957     28.7444
  1729.2000      7.9810      2.4137      0.0228     14.3212    109.3204     29.7175
  1729.3000      7.9842      2.3930     -0.0149     15.5777    113.4012     30.2780
  1729.4000      7.9842      2.3711      0.0785     16.9041    114.2799     30.0709
  1729.5000      7.9853      2.3403      0.0023     18.7690    110.7499     29.9699
  1729.6000      7.9853      2.3122      0.0110     20.4739    104.9884     30.2688
  1729.7000      7.9853      2.2889      0.0583     21.8824     99.0126     30.4212
  1729.8000      7.9818      2.2577      0.0753     23.7749     92.5004     30.3215
  1729.9000      7.9818      2.2281      0.0101     25.5667     89.2923     30.2514
  1730.0000      7.9915      2.2229      0.0214     25.8851     93.5488     30.1236
  1730.1000      7.9915      2.2397      0.0823     24.8656    100.9761     29.7229
  1730.2000      7.9915      2.2628      0.0204     23.4663    104.5044     29.2259
  1730.3000      7.9948      2.2861      0.0976     22.0521     99.3762     29.0514
  1730.4000      7.9948      2.2990      0.1351     21.2758     88.6482     29.4271
  1730.5000      7.9954      2.2977      0.0866     21.3530     84.0086     30.1956
  1730.6000      7.9954      2.2979      0.0840     21.3410     88.7761     30.6118
  1730.7000      7.9954      2.3067      0.0817     20.8037     94.7623     30.4395
  1730.8000      7.9978      2.3143      0.0415     20.3429     97.3585     30.4555
  1730.9000      7.9978      2.3127      0.0523     20.4407    100.1046     30.9798
  1731.0000      8.0174      2.3042      0.0216     20.9606    103.0802     31.7061
  1731.1000      8.0174      2.2940      0.0321     21.5762    104.2319     32.2599
  1731.2000      8.0174      2.2835     -0.0173     22.2119    103.9697     32.5269
  1731.3000      8.0189      2.2812     -0.0209     22.3526    100.6748     33.0489
  1731.4000      8.0189      2.2989      0.0085     21.2762     94.1184     33.4676
  1731.5000      8.0624      2.3295      0.0551     19.4228     91.2402     32.7599
  1731.6000      8.0624      2.3506      0.0614     18.1444    100.0202     31.3475
  1731.7000      8.0624      2.3588      0.0298     17.6515    113.7326     30.3980
  1731.8000      8.0500      2.3688      0.0343     17.0442    118.0048     30.3782
  1731.9000      8.0500      2.3776      0.0582     16.5081    113.9625     31.1452
  1732.0000      8.0855      2.3679      0.0180     17.0967    110.1751     31.8174
  1732.1000      8.0855      2.3391     -0.0270     18.8426    107.5865     31.5867
  1732.2000      8.0855      2.2949      0.0140     21.5210    104.0406     30.8075
  1732.3000      8.1004      2.2193      0.0306     26.1031     99.4071     30.2811
  1732.4000      8.1004      2.1101     -0.0321     32.7208     94.4210     30.4224
  1732.5000      8.0897      2.0041     -0.0384     39.1451     90.7191     30.8917
  1732.6000      8.0897      1.9340     -0.0125     43.3909     91.9337     30.8705
  1732.7000      8.0897      1.8970     -0.0074     45.6340     96.0122     30.5825
  1732.8000      8.0514      1.8746      0.0087     46.9928     96.4506     30.9630
  1732.9000      8.0514      1.8642     -0.0025     47.6267     92.7270     31.7919
  1733.0000      7.9606      1.8832     -0.0051     46.4698     88.5027     32.6553
  1733.1000      7.9606      1.9450      0.0784     42.7254     85.7148     32.7332
  1733.2000      7.9606      2.0432      0.1440     36.7744     84.1921     30.9895
  1733.3000      7.9479      2.1633      0.1739     29.4969     87.0928     29.2579
  1733.4000      7.9479      2.2793      0.2314     22.4677     96.9959     29.9631
  1733.5000      7.9487      2.3581      0.2126     17.6913    104.5470     32.0595
  1733.6000      7.9487      2.3937      0.1424     15.5355    103.8785     33.0741
  1733.7000      7.9487      2.4155      0.1041     14.2099    100.5331     32.3737
  1733.8000      7.9820      2.4524      0.0921     11.9737     94.0751     30.5101
  1733.9000      7.9820      2.4979      0.1219      9.2206     86.6608     28.6190
  1734.0000      8.0034      2.5284      0.0556      7.3711     85.6128     27.7054
  1734.1000      8.0034      2.5368      0.1107      6.8607     90.2922     27.2097
  1734.2000      8.0034      2.5345      0.0437      7.0020     94.8729     25.7891
  1734.3000      7.9692      2.5334      0.0644      7.0650     96.0635     23.7506
  1734.4000      7.9692      2.5329      0.0194      7.0983     96.0388     22.8130
  1734.5000      7.9336      2.5330      0.0063      7.0902     98.3853     23.1719
  1734.6000      7.9336      2.5387     -0.0065      6.7484    101.7828     23.9598
  1734.7000      7.9336      2.5467      0.0398      6.2606    103.1109     25.0980
  1734.8000      7.9407      2.5496      0.0804      6.0865    103.5885     26.4072
  1734.9000      7.9407      2.5521      0.0198      5.9362    106.4835     26.9042
  1735.0000      7.9549      2.5629      0.0018      5.2801    110.3098     26.1838
  1735.1000      7.9549      2.5702      0.0540      4.8348    109.6998     25.2072
  1735.2000      7.9549      2.5609      0.0139      5.4007    102.0812     24.9942
  1735.3000      7.9734      2.5495      0.0116      6.0923     91.1636     25.3505
