~Version Information
VERS.                      2.0: CWLS Log ASCII Standard - VERSION 2.0
WRAP.                       NO: One line per depth step
~Well Information Block
STRT.FT               588.6000: 
STOP.FT              2281.0000: 
STEP.FT                 0.1000: 
NULL.                -999.2500: 
COMP.          Petrogulf Corporation: COMPANY
WELL.             State 16-41V: WELL
FLD.           Purgatorie River: FIELD
LOC.           335' FNL & 823' FEL: LOCATION
CNTY.               Las Animas: COUNTY
SRVC.                         : SERVICE COMPANY
DATE.          Tue Aug 02 07:31:25 2005: LOG DATE
UWI.                          : UNIQUE WELL ID
STAT.                 Colorado: STATE
~Curve Information Block
DEPT.FT            0 000 00 00: Depth
DCAL.in                       : CDL Caliper
RHOB.g/cc                     : CDL Bulk Density
RHOC.g/cc                     : CDL Density Correction
DPOR.pu                       : CDL Density Porosity
GR.GAPI                       : Gamma Ray
NPOR.pu                       : Neutron Porosity
~Parameter Information Block
~A  Depth       DCAL        RHOB        RHOC        DPOR         GR         NPOR    
# ...
  1471.8000      8.1618      2.5064      0.0553      8.7043    126.0276     27.5258
  1471.9000      8.1618      2.5217      0.0915      7.7765    127.8075     27.6050
  1472.0000      8.1429      2.5369      0.0613      6.8527    129.7413     27.6863
  1472.1000      8.1429      2.5411      0.1097      6.5989    129.7218     27.7568
  1472.2000      8.1429      2.5351      0.0637      6.9609    128.2201     27.8042
  1472.3000      8.1205      2.5316      0.0779      7.1735    126.5150     27.8193
  1472.4000      8.1205      2.5321      0.0864      7.1472    125.8725     27.7970
  1472.5000      8.1535      2.5361      0.0503      6.9035    125.8674     27.7371
  1472.6000      8.1535      2.5456      0.1081      6.3277    124.4545     27.6452
  1472.7000      8.1535      2.5543      0.0961      5.8019    120.7162     27.5311
  1472.8000      8.1458      2.5620      0.0921      5.3334    117.5663     27.4081
  1472.9000      8.1458      2.5692      0.1107      4.8943    117.8649     27.2908
  1473.0000      8.1331      2.5730      0.0947      4.6676    121.0919     27.1928
  1473.1000      8.1331      2.5752      0.1595      4.5332    125.6040     27.1253
  1473.2000      8.1331      2.5730      0.1621      4.6641    129.0078     27.0947
  1473.3000      8.1149      2.5665      0.1100      5.0625    129.2240     27.1024
  1473.4000      8.1149      2.5669      0.1321      5.0363    127.0866     27.1440
  1473.5000      8.1578      2.5794      0.1527      4.2791    125.4936     27.2099
  1473.6000      8.1578      2.5952      0.2023      3.3241    125.9239     27.2863
  1473.7000      8.1578      2.6064      0.1479      2.6427    126.8176     27.3567
  1473.8000      8.1560      2.6131      0.2013      2.2393    125.5678     27.4034
  1473.9000      8.1560      2.6140      0.1296      2.1806    123.2627     27.4094
  1474.0000      8.1535      2.6080      0.1239      2.5480    123.4961     27.3602
  1474.1000      8.1535      2.5846      0.1201      3.9652    125.1092     27.2449
  1474.2000      8.1535      2.5286      0.0907      7.3597    124.6745     27.0573
  1474.3000      8.1495      2.4451      0.0814     12.4192    123.1534     26.7968
  1474.4000      8.1495      2.3658      0.0149     17.2231    122.2926     26.4682
  1474.5000      8.0587      2.3218     -0.0058     19.8927    121.3175     26.0813
  1474.6000      8.0587      2.3152      0.0204     20.2927    121.4849     25.6503
  1474.7000      8.0587      2.3300      0.0282     19.3957    125.1116     25.1920
  1474.8000      8.0667      2.3578      0.0845     17.7079    130.6595     24.7248
  1474.9000      8.0667      2.3906      0.2251     15.7191    135.5729     24.2671
  1475.0000      8.0980      2.4060      0.3028     14.7863    140.5529     23.8356
  1475.1000      8.0980      2.3817      0.3648     16.2620    146.1870     23.4451
  1475.2000      8.0980      2.3189      0.3560     20.0691    149.5744     23.1074
  1475.3000      8.1297      2.2459      0.3319     24.4902    148.4626     22.8320
  1475.4000      8.1297      2.1965      0.2924     27.4820    146.0612     22.6256
  1475.5000      8.2531      2.1923      0.3167     27.7416    145.8278     22.4932
  1475.6000      8.2531      2.2418      0.3640     24.7365    147.8028     22.4377
  1475.7000      8.2531      2.3437      0.3973     18.5628    150.0479     22.4607
  1475.8000      8.2500      2.4765      0.5180     10.5169    150.4058     22.5619
  1475.9000      8.2500      2.5952      0.5580      3.3239    149.1505     22.7392
  1476.0000      8.5317      2.6562      0.6105     -0.3733    147.3273     22.9878
  1476.1000      8.5317      2.6478      0.5579      0.1360    145.0630     23.3002
  1476.2000      8.5317      2.5999      0.3867      3.0385    143.6064     23.6658
  1476.3000      8.6252      2.5549      0.2817      5.7633    142.3333     24.0714
  1476.4000      8.6252      2.5285      0.2314      7.3649    139.9154     24.5011
  1476.5000      8.6931      2.5137      0.1881      8.2609    138.7336     24.9377
  1476.6000      8.6931      2.5036      0.1863      8.8713    139.6066     25.3635
  1476.7000      8.6931      2.4936      0.1665      9.4764    139.0548     25.7614
  1476.8000      8.6733      2.4820      0.1076     10.1824    135.6883     26.1165
  1476.9000      8.6733      2.4737      0.1221     10.6878    132.2064     26.4173
  1477.0000      8.3475      2.4732      0.1254     10.7147    131.8954     26.6562
  1477.1000      8.3475      2.4830      0.1114     10.1242    135.5744     26.8303
  1477.2000      8.3475      2.5071      0.0732      8.6630    140.1644     26.9411
  1477.3000      8.4031      2.5389      0.0954      6.7353    141.3890     26.9951
  1477.4000      8.4031      2.5602      0.1473      5.4444    138.7779     27.0021
  1477.5000      8.4988      2.5673      0.1660      5.0093    135.7384     26.9745
  1477.6000      8.4988      2.5702      0.2067      4.8357    136.1950     26.9262
  1477.7000      8.4988      2.5731      0.2093      4.6594    140.9035     26.8709
  1477.8000      8.6310      2.5712      0.2280      4.7760    145.7486     26.8206
  1477.9000      8.6310      2.5532      0.1700      5.8679    146.4561     26.7845
  1478.0000      8.4288      2.5148      0.0886      8.1912    143.1547     26.7683
  1478.1000      8.4288      2.4753      0.0302     10.5870    137.9311     26.7735
  1478.2000      8.4288      2.4607      0.0612     11.4720    132.5320     26.7980
  1478.3000      8.2382      2.4769      0.0770     10.4908    128.6423     26.8365
  1478.4000      8.2382      2.5099      0.1324      8.4904    126.7993     26.8814
  1478.5000      8.2056      2.5401      0.1229      6.6584    127.4353     26.9244
  1478.6000      8.2056      2.5599      0.1097      5.4601    129.9228     26.9571
  1478.7000      8.2056      2.5691      0.1286      4.9027    131.7885     26.9726
  1478.8000      8.1757      2.5624      0.1428      5.3099    133.2641     26.9657
  1478.9000      8.1757      2.5354      0.1359      6.9460    136.6844     26.9339
  1479.0000      8.1694      2.4981      0.0681      9.2064    141.8556     26.8770
  1479.1000      8.1694      2.4720      0.0709     10.7893    144.9818     26.7974
  1479.2000      8.1694      2.4677      0.0682     11.0506    144.4198     26.6993
  1479.3000      8.1660      2.4782      0.1059     10.4134    144.4512     26.5881
  1479.4000      8.1660      2.4926      0.1295      9.5414    146.9431     26.4698
  1479.5000      8.2046      2.5112      0.1506      8.4111    149.1463     26.3509
  1479.6000      8.2046      2.5395      0.1687      6.6976    148.9841     26.2372
  1479.7000      8.2046      2.5703      0.1959      4.8305    144.3772     26.1340
  1479.8000      8.2402      2.5915      0.2095      3.5473    137.1718     26.0455
  1479.9000      8.2402      2.5984      0.2444      3.1270    133.8704     25.9743
  1480.0000      8.1655      2.5914      0.2417      3.5517    134.5218     25.9216
  1480.1000      8.1655      2.5756      0.1649      4.5075    133.1288     25.8870
  1480.2000      8.1655      2.5580      0.1453      5.5781    129.3320     25.8682
  1480.3000      8.1648      2.5409      0.0945      6.6120    127.6721     25.8615
  1480.4000      8.1648      2.5226      0.1134      7.7215    130.2165     25.8623
  1480.5000      8.1895      2.4961      0.0977      9.3293    135.5823     25.8658
  1480.6000      8.1895      2.4617      0.0717     11.4129    140.1433     25.8672
  1480.7000      8.1895      2.4361      0.0573     12.9643    142.0976     25.8623
  1480.8000      8.1689      2.4334      0.0361     13.1252    142.9909     25.8483
  1480.9000      8.1689      2.4454      0.0805     12.4007    144.3350     25.8231
  1481.0000      8.1909      2.4533      0.0936     11.9235    145.9165     25.7855
  1481.1000      8.1909      2.4584      0.0480     11.6116    146.1686     25.7349
  1481.2000      8.1909      2.4725      0.1265     10.7582    145.1793     25.6712
  1481.3000      8.2110      2.4904      0.1574      9.6740    144.9029     25.5944
