~Version Information
VERS.                      2.0: CWLS Log ASCII Standard - VERSION 2.0
WRAP.                       NO: One line per depth step
~Well Information Block
STRT.FT               425.0000: 
STOP.FT              2461.0000: 
STEP.FT                 0.1000: 
NULL.                -999.2500: 
COMP.          Evergreen Operating Corporation: COMPANY
WELL.              Nomad 32-10: WELL
FLD.           Purgatorie River: FIELD
LOC.           2281' FNL & 1585' FEL: LOCATION
PROV.                 Colorado: PROVINCE
CNTY.               Las Animas: COUNTRY
SRVC.                Patterson: SERVICE COMPANY
DATE.          Thu Aug 12 11:13:52 2004: LOG DATE
UWI.           05 071 08127 00: UNIQUE WELL ID
~Curve Information Block
DEPT.FT            0 000 00 00: Depth
DCAL.in                       : CDL Caliper
RHOB.g/cc                     : CDL Bulk Density
RHOC.g/cc                     : CDL Density Correction
DPOR.pu                       : CDL Density Porosity
NPOR.pu                       : Neutron Porosity
GR.GAPI                       : Gamma Ray
~Parameter Information Block
~A  Depth       DCAL        RHOB        RHOC        DPOR        NPOR         GR     
# ...
  2421.8000      7.8536      2.4829      0.0736     10.1256     15.5437    103.0424
  2421.9000      7.8536      2.4880      0.0271      9.8173     15.8520    106.0990
  2422.0000      7.8512      2.4874      0.0393      9.8532     15.4744    116.9717
  2422.1000      7.8512      2.4840      0.0494     10.0589     15.0488    127.6580
  2422.2000      7.8512      2.4720      0.0504     10.7884     15.1340    133.6665
  2422.3000      7.8565      2.4543      0.0180     11.8603     15.6806    134.2185
  2422.4000      7.8565      2.4410      0.0253     12.6646     16.2306    133.6209
  2422.5000      7.8597      2.4326      0.0188     13.1782     16.3329    136.1909
  2422.6000      7.8597      2.4248      0.0461     13.6473     16.1694    139.3410
  2422.7000      7.8597      2.4256     -0.0150     13.5976     15.9885    139.8886
  2422.8000      7.8753      2.4401      0.0552     12.7236     15.7932    138.8605
  2422.9000      7.8753      2.4553      0.0598     11.8026     15.7282    135.5001
  2423.0000      7.8601      2.4651      0.0728     11.2031     15.8035    130.3248
  2423.1000      7.8601      2.4739      0.0515     10.6723     15.9384    130.2154
  2423.2000      7.8601      2.4834      0.0554     10.0965     16.2099    137.8796
  2423.3000      7.8535      2.4909      0.0619      9.6452     16.3858    144.6095
  2423.4000      7.8535      2.4909      0.0659      9.6429     16.0933    143.1640
  2423.5000      7.8561      2.4867      0.0564      9.8977     15.6783    138.7748
  2423.6000      7.8561      2.4949      0.0509      9.3982     15.5164    134.9388
  2423.7000      7.8561      2.5210      0.0712      7.8180     15.5250    121.9028
  2423.8000      7.8586      2.5429      0.1072      6.4930     15.8107     88.7671
  2423.9000      7.8586      2.5426      0.0574      6.5089     16.0659     45.0020
  2424.0000      7.8548      2.5288      0.0433      7.3447     15.9631     14.1740
  2424.1000      7.8548      2.5142      0.0473      8.2331     15.7042      2.5779
  2424.2000      7.8548      2.5049      0.0297      8.7923     15.4788      0.2593
  2424.3000      7.8582      2.5048      0.0264      8.8007     15.5880      0.0137
  2424.4000      7.8582      2.5037      0.0690      8.8680     16.2356      0.0000
  2424.5000      7.8603      2.4908      0.0435      9.6464     17.1124   -999.2500
  2424.6000      7.8603      2.4778      0.0369     10.4369     17.2373   -999.2500
  2424.7000      7.8603      2.4812      0.0134     10.2317     16.0686   -999.2500
  2424.8000      7.8577      2.4990      0.0510      9.1517     14.9861   -999.2500
  2424.9000      7.8577      2.5126      0.0674      8.3300     15.0115   -999.2500
  2425.0000      7.8499      2.5125      0.0652      8.3356     15.4574   -999.2500
  2425.1000      7.8499      2.5079      0.0522      8.6147     15.6464   -999.2500
  2425.2000      7.8499      2.5073      0.0553      8.6513     15.3596   -999.2500
  2425.3000      7.8502      2.5138      0.0363      8.2532     14.8607   -999.2500
  2425.4000      7.8502      2.5307      0.0372      7.2321     14.6115   -999.2500
  2425.5000      7.8527      2.5494      0.1138      6.0998     14.4137   -999.2500
  2425.6000      7.8527      2.5548      0.0834      5.7689     14.2871   -999.2500
  2425.7000      7.8527      2.5517      0.0723      5.9551     14.6305   -999.2500
  2425.8000      7.8100      2.5559      0.0665      5.7060     15.3039   -999.2500
  2425.9000      7.8100      2.5649      0.0975      5.1589     15.8279   -999.2500
  2426.0000      7.8530      2.5704      0.0763      4.8268     16.0570   -999.2500
  2426.1000      7.8530      2.5832      0.0640      4.0513     16.2739   -999.2500
  2426.2000      7.8530      2.6087      0.0653      2.5011     16.4955   -999.2500
  2426.3000      7.8606      2.6242      0.1283      1.5607     16.3756   -999.2500
  2426.4000      7.8606      2.6121      0.0583      2.2998     15.8529   -999.2500
  2426.5000      7.8551      2.5884      0.0654      3.7341     14.9448   -999.2500
  2426.6000      7.8551      2.5734      0.0599      4.6418     13.8217   -999.2500
  2426.7000      7.8551      2.5681      0.0861      4.9637     13.1307   -999.2500
  2426.8000      7.8218      2.5603      0.1050      5.4356     13.1378   -999.2500
  2426.9000      7.8218      2.5468      0.0128      6.2523     13.4238   -999.2500
  2427.0000      7.8293      2.5435      0.0128      6.4563     13.6907   -999.2500
  2427.1000      7.8293      2.5518      0.0828      5.9543     13.9434   -999.2500
  2427.2000      7.8293      2.5543      0.0484      5.8001     14.2491   -999.2500
  2427.3000      7.8310      2.5469      0.0392      6.2456     14.6932   -999.2500
  2427.4000      7.8310      2.5423      0.0381      6.5279     15.2319   -999.2500
  2427.5000      7.8311      2.5456      0.0690      6.3266     15.7368   -999.2500
  2427.6000      7.8311      2.5454      0.0284      6.3376     16.2954   -999.2500
  2427.7000      7.8311      2.5370      0.0404      6.8481     16.9253   -999.2500
  2427.8000      7.8320      2.5292      0.0159      7.3228     17.5058   -999.2500
  2427.9000      7.8320      2.5265      0.0538      7.4840     17.9784   -999.2500
  2428.0000      7.8315      2.5285      0.0376      7.3648     18.2401   -999.2500
  2428.1000      7.8315      2.5406      0.0425      6.6333     18.0207   -999.2500
  2428.2000      7.8315      2.5601      0.0561      5.4480     17.4138   -999.2500
  2428.3000      7.8272      2.5722      0.0906      4.7127     16.9876   -999.2500
  2428.4000      7.8272      2.5686      0.0806      4.9362     16.9063   -999.2500
  2428.5000      7.8274      2.5535      0.1073      5.8501     17.0372   -999.2500
  2428.6000      7.8274      2.5379      0.0581      6.7924     17.3148   -999.2500
  2428.7000      7.8274      2.5330      0.0591      7.0918     17.4564   -999.2500
  2428.8000      7.8121      2.5351      0.0900      6.9625     17.4105   -999.2500
  2428.9000      7.8121      2.5341      0.0703      7.0223     17.4095   -999.2500
  2429.0000      7.8051      2.5333      0.0866      7.0740     17.2793   -999.2500
  2429.1000      7.8051      2.5408      0.0969      6.6208     17.4463   -999.2500
  2429.2000      7.8051      2.5559      0.0875      5.7057     20.2336   -999.2500
  2429.3000      7.8033      2.5732      0.0579      4.6543     28.7940   -999.2500
  2429.4000      7.8033      2.5875      0.0825      3.7892     41.1016   -999.2500
  2429.5000      7.8078      2.5910      0.1181      3.5788     49.4530   -999.2500
  2429.6000      7.8078      2.5814      0.0783      4.1603     52.3600   -999.2500
  2429.7000      7.8078      2.5659      0.0850      5.0969     52.9204   -999.2500
  2429.8000      7.8024      2.5489      0.0453      6.1292     52.9793   -999.2500
  2429.9000      7.8024      2.5340      0.0206      7.0298     52.9826   -999.2500
  2430.0000      7.8039      2.5291      0.0519      7.3295   -999.2500   -999.2500
  2430.1000      7.8039      2.5359      0.0677      6.9163   -999.2500   -999.2500
  2430.2000      7.8039      2.5429      0.0803      6.4884   -999.2500   -999.2500
  2430.3000      7.8029      2.5406      0.0337      6.6319   -999.2500   -999.2500
  2430.4000      7.8029      2.5383      0.0576      6.7673   -999.2500   -999.2500
  2430.5000      7.8115      2.5431      0.0793      6.4816   -999.2500   -999.2500
  2430.6000      7.8115      2.5444      0.0801      6.4002   -999.2500   -999.2500
  2430.7000      7.8115      2.5385      0.0760      6.7554   -999.2500   -999.2500
  2430.8000      7.8025      2.5374      0.0597      6.8250   -999.2500   -999.2500
  2430.9000      7.8025      2.5449      0.1026      6.3708   -999.2500   -999.2500
  2431.0000      7.8010      2.5508      0.0930      6.0115   -999.2500   -999.2500
  2431.1000      7.8010      2.5484      0.0910      6.1571   -999.2500   -999.2500
  2431.2000      7.8010      2.5346      0.0829      6.9934   -999.2500   -999.2500
  2431.3000      7.8058      2.5074      0.0435      8.6394   -999.2500   -999.2500
