~Version Information
VERS.                      2.0: CWLS Log ASCII Standard - VERSION 2.0
WRAP.                       NO: One line per depth step
~Well Information Block
STRT.FT               480.0000: 
STOP.FT              1994.2500: 
STEP.FT                 0.2500: 
NULL.                -999.2500: 
COMP.          Evergreen Operating Corporation: COMPANY
WELL.          McCullough 34-32 Tr: WELL
FLD.           Purgatoire River: FIELD
LOC.           394' FSL & 2077' FEL: LOCATION
PROV.                 Colorado: PROVINCE
CNTY.               Las Animas: COUNTRY
SRVC.                Patterson: SERVICE COMPANY
DATE.          Sun Sep 19 05:48:59 2004: LOG DATE
UWI.           05 071 08157 00: UNIQUE WELL ID
~Curve Information Block
DEPT.FT            0 000 00 00: Depth
SN.Ohm-m                      : IEL Short Normal
SP.mV                         : IEL Spontaneous Potential
DIR.Ohm-m                     : IEL Induction Resistivity
GR.GAPI                       : Gamma Ray
~Parameter Information Block
~A  Depth        SN          SP         DIR          GR     
# ...
  1451.5000     13.8793    298.1178      9.8615    120.4757
  1451.7500     14.4524    298.0896     10.2954    116.2081
  1452.0000     15.1423    298.0549     10.8032    111.8577
  1452.2500     15.9318    298.0294     11.3855    110.1951
  1452.5000     16.8007    298.0278     12.0416    108.7246
  1452.7500     17.7346    298.0541     12.7678    107.9551
  1453.0000     18.7284    298.0973     13.5550    106.3634
  1453.2500     19.7928    298.1335     14.3889    104.5657
  1453.5000     20.9688    298.1357     15.2518    100.3206
  1453.7500     22.3339    298.0848     16.1281     96.5982
  1454.0000     23.9786    297.9758     17.0117     90.5417
  1454.2500     25.9532    297.8176     17.9101     86.7831
  1454.5000     28.2278    297.6266     18.8445     82.2337
  1454.7500     30.7051    297.4205     19.8419     80.0098
  1455.0000     33.2767    297.2138     20.9217     77.5313
  1455.2500     35.8608    297.0175     22.0842     76.0221
  1455.5000     38.3871    296.8398     23.3043     73.1494
  1455.7500     40.7664    296.6874     24.5372     70.5747
  1456.0000     42.9036    296.5647     25.7335     66.0460
  1456.2500     44.7414    296.4731     26.8524     63.0910
  1456.5000     46.2764    296.4106     27.8646     59.5312
  1456.7500     47.5315    296.3747     28.7431     57.9297
  1457.0000     48.5253    296.3643     29.4532     56.6694
  1457.2500     49.2648    296.3824     29.9557     56.4418
  1457.5000     49.7519    296.4351     30.2216     56.4218
  1457.7500     49.9964    296.5291     30.2472     56.1263
  1458.0000     50.0295    296.6672     30.0614     54.7485
  1458.2500     49.9060    296.8447     29.7274     53.3643
  1458.5000     49.6910    297.0490     29.3361     51.3450
  1458.7500     49.4404    297.2621     28.9853     50.3871
  1459.0000     49.1903    297.4646     28.7440     49.7174
  1459.2500     48.9561    297.6409     28.6254     49.7314
  1459.5000     48.7338    297.7816     28.5927     50.1140
  1459.7500     48.5025    297.8839     28.5994     50.3192
  1460.0000     48.2311    297.9500     28.6319     50.3231
  1460.2500     47.8921    297.9826     28.7179     50.2963
  1460.5000     47.4730    297.9836     28.8909     50.6900
  1460.7500     46.9686    297.9532     29.1379     51.3907
  1461.0000     46.3544    297.8933     29.3664     53.0985
  1461.2500     45.5634    297.8106     29.4164     54.5743
  1461.5000     44.4916    297.7183     29.1205     57.0951
  1461.7500     43.0405    297.6335     28.3804     58.9947
  1462.0000     41.1792    297.5720     27.2091     62.4809
  1462.2500     38.9873    297.5430     25.7164     65.4119
  1462.5000     36.6376    297.5454     24.0575     70.8869
  1462.7500     34.3227    297.5684     22.3847     75.2867
  1463.0000     32.1778    297.5950     20.8200     82.8433
  1463.2500     30.2559    297.6072     19.4451     88.2538
  1463.5000     28.5519    297.5899     18.3008     96.3845
  1463.7500     27.0292    297.5334     17.3906    101.4916
  1464.0000     25.6176    297.4330     16.6885    107.9156
  1464.2500     24.2135    297.2875     16.1501    110.7240
  1464.5000     22.7223    297.0978     15.7267    111.6612
  1464.7500     21.1361    296.8668     15.3786    110.0515
  1465.0000     19.5843    296.6014     15.0828    105.9254
  1465.2500     18.2891    296.3149     14.8314    103.6964
  1465.5000     17.4403    296.0278     14.6194    103.6408
  1465.7500     17.0843    295.7654     14.4314    106.4102
  1466.0000     17.1082    295.5515     14.2341    114.1753
  1466.2500     17.3118    295.4021     13.9826    120.7273
  1466.5000     17.5026    295.3208     13.6380    130.5796
  1466.7500     17.5564    295.2991     13.1881    136.2905
  1467.0000     17.4279    295.3193     12.6589    143.0209
  1467.2500     17.1317    295.3607     12.1055    146.4758
  1467.5000     16.7209    295.4035     11.5919    150.7621
  1467.7500     16.2720    295.4331     11.1711    153.1589
  1468.0000     15.8679    295.4406     10.8763    155.6038
  1468.2500     15.5783    295.4229     10.7224    156.0318
  1468.5000     15.4563    295.3804     10.7113    154.0688
  1468.7500     15.5581    295.3148     10.8384    150.4350
  1469.0000     15.9577    295.2269     11.0981    140.9827
  1469.2500     16.7306    295.1167     11.4867    132.8271
  1469.5000     17.9079    294.9862     12.0040    121.2176
  1469.7500     19.4322    294.8430     12.6505    115.8048
  1470.0000     21.1451    294.7014     13.4215    111.8517
  1470.2500     22.8241    294.5810     14.2992    110.8300
  1470.5000     24.2576    294.5009     15.2451    109.1597
  1470.7500     25.3215    294.4735     16.1994    107.2927
  1471.0000     26.0200    294.4998     17.0894    104.2338
  1471.2500     26.4730    294.5704     17.8480    103.1831
  1471.5000     26.8534    294.6693     18.4345    104.7424
  1471.7500     27.3026    294.7782     18.8485    108.1088
  1472.0000     27.8655    294.8805     19.1264    115.5051
  1472.2500     28.4802    294.9612     19.3218    120.4821
  1472.5000     29.0264    295.0070     19.4826    124.8126
  1472.7500     29.4047    295.0068     19.6412    124.3960
  1473.0000     29.6021    294.9542     19.8223    119.4771
  1473.2500     29.7103    294.8517     20.0593    115.0570
  1473.5000     29.8864    294.7121     20.4027    109.6010
  1473.7500     30.2741    294.5572     20.9085    107.3667
  1474.0000     30.9315    294.4124     21.6041    105.4768
  1474.2500     31.8041    294.2998     22.4430    104.5343
  1474.5000     32.7495    294.2334     23.2764    103.0768
  1474.7500     33.5977    294.2160     23.8906    102.2721
  1475.0000     34.2165    294.2420     24.1217    101.9932
  1475.2500     34.5501    294.3018     23.9603    102.5790
  1475.5000     34.6046    294.3884     23.5331    104.2378
  1475.7500     34.4032    294.5017     22.9968    105.5500
  1476.0000     33.9575    294.6489     22.4601    107.5376
  1476.2500     33.2726    294.8383     21.9737    108.7217
  1476.5000     32.3614    295.0720     21.5437    109.7981
  1476.7500     31.2472    295.3392     21.1388    109.9155
  1477.0000     29.9585    295.6176     20.6957    109.8866
  1477.2500     28.5296    295.8822     20.1400    110.5131
  1477.5000     27.0067    296.1186     19.4207    113.4014
  1477.7500     25.4532    296.3314     18.5369    116.6769
  1478.0000     23.9504    296.5414     17.5395    122.8369
  1478.2500     22.5822    296.7704     16.5091    127.0323
  1478.5000     21.3996    297.0211     15.5264    132.6499
  1478.7500     20.3899    297.2645     14.6530    136.2135
  1479.0000     19.4947    297.4463     13.9226    142.3610
  1479.2500     18.6741    297.5101     13.3425    147.0123
  1479.5000     17.9500    297.4261     12.8971    153.1266
  1479.7500     17.3768    297.2065     12.5547    155.3037
  1480.0000     16.9741    296.9007     12.2745    154.6386
  1480.2500     16.6955    296.5715     12.0159    152.0021
  1480.5000     16.4547    296.2689     11.7497    146.6909
  1480.7500     16.1804    296.0149     11.4669    143.4209
  1481.0000     15.8589    295.8043     11.1799    140.0412
  1481.2500     15.5348    295.6170     10.9143    138.8757
  1481.5000     15.2670    295.4326     10.6948    138.6328
  1481.7500     15.0765    295.2381     10.5325    139.6130
  1482.0000     14.9271    295.0287     10.4205    143.2199
  1482.2500     14.7470    294.8041     10.3371    146.9530
  1482.5000     14.4623    294.5649     10.2560    153.2452
  1482.7500     14.0153    294.3111     10.1567    156.5808
  1483.0000     13.3702    294.0440     10.0300    157.7848
  1483.2500     12.5221    293.7689      9.8767    154.9635
  1483.5000     11.5160    293.4979      9.7029    145.1068
  1483.7500     10.4549    293.2520      9.5167    135.9937
  1484.0000      9.4785    293.0602      9.3280    122.1594
  1484.2500      8.7214    292.9547      9.1494    114.9416
  1484.5000      8.2768    292.9630      8.9928    109.1534
  1484.7500      8.1842    293.0975      8.8651    108.5400
