~Version Information
VERS.                      2.0: CWLS Log ASCII Standard - VERSION 2.0
WRAP.                       NO: One line per depth step
~Well Information Block
STRT.FT               682.0000: 
STOP.FT              2190.5000: 
STEP.FT                 0.1000: 
NULL.                -999.2500: 
COMP.          Pioneer Natural Resources: COMPANY
WELL.               King 22-13: WELL
FLD.           Purgatoire River: FIELD
LOC.           2419' FNL & 1806' FWL----: LOCATION
PROV.                 Colorado: PROVINCE
CNTY.               Las Animas: COUNTRY
SRVC.                Patterson: SERVICE COMPANY
DATE.          Fri Apr 01 07:38:12 2005: LOG DATE
UWI.           05 071 08318 00: UNIQUE WELL ID
~Curve Information Block
DEPT.FT            0 000 00 00: Depth
DCAL.in                       : CDL Caliper
RHOB.g/cc                     : CDL Bulk Density
RHOC.g/cc                     : CDL Density Correction
DPOR.pu                       : CDL Density Porosity
NPOR.pu                       : Neutron Porosity
GR.GAPI                       : Gamma Ray
~Parameter Information Block
~A  Depth       DCAL        RHOB        RHOC        DPOR        NPOR         GR     
# ...
  1670.8000      7.9795      2.5291      0.0713      7.3279     26.2834    113.7493
  1670.9000      7.9795      2.5139      0.0525      8.2511     26.5525    115.5529
  1671.0000      7.9808      2.5106      0.0628      8.4456     26.1690    110.9620
  1671.1000      7.9808      2.5140      0.0567      8.2403     25.6280    104.1427
  1671.2000      7.9808      2.5129      0.0407      8.3099     25.2341    101.1698
  1671.3000      7.9848      2.5090      0.0383      8.5431     24.6513    101.1317
  1671.4000      7.9848      2.5111      0.0534      8.4172     23.9226    101.6269
  1671.5000      7.9835      2.5264      0.0656      7.4910     23.4546    102.9462
  1671.6000      7.9835      2.5522      0.0801      5.9283     23.2705    104.5628
  1671.7000      7.9835      2.5742      0.1119      4.5966     23.2463    104.9470
  1671.8000      7.9759      2.5819      0.0980      4.1275     23.1157    102.9242
  1671.9000      7.9759      2.5815      0.1054      4.1526     22.5515    100.7696
  1672.0000      7.9701      2.5803      0.0844      4.2250     21.9400    102.7049
  1672.1000      7.9701      2.5786      0.0856      4.3290     21.7258    108.4887
  1672.2000      7.9701      2.5765      0.0487      4.4539     21.8079    114.4201
  1672.3000      7.9683      2.5756      0.0684      4.5061     22.2458    115.3869
  1672.4000      7.9683      2.5757      0.0909      4.5055     22.9915    109.7682
  1672.5000      7.9673      2.5697      0.1370      4.8655     23.5161    104.7683
  1672.6000      7.9673      2.5545      0.0459      5.7868     23.4972    105.9316
  1672.7000      7.9673      2.5421      0.0690      6.5370     23.1931    108.6554
  1672.8000      7.9673      2.5431      0.0595      6.4807     23.1707    108.1425
  1672.9000      7.9673      2.5571      0.0677      5.6287     23.7487    106.5992
  1673.0000      7.9690      2.5752      0.0881      4.5342     24.5247    103.7944
  1673.1000      7.9690      2.5850      0.0970      3.9376     24.7669     96.7091
  1673.2000      7.9690      2.5801      0.1084      4.2340     24.4310     92.0938
  1673.3000      7.9719      2.5639      0.0563      5.2184     24.3572     98.0919
  1673.4000      7.9719      2.5488      0.0252      6.1325     24.6617    109.0597
  1673.5000      7.9691      2.5485      0.0611      6.1518     24.6599    114.5968
  1673.6000      7.9691      2.5670      0.1001      5.0325     24.2274    115.0359
  1673.7000      7.9691      2.5938      0.0803      3.4046     23.5444    115.7604
  1673.8000      7.9567      2.6107      0.1006      2.3800     22.9866    115.9008
  1673.9000      7.9567      2.6035      0.1073      2.8202     22.9053    112.7012
  1674.0000      7.9470      2.5841      0.0356      3.9925     23.0617    107.4940
  1674.1000      7.9470      2.5761      0.0740      4.4785     22.9409    102.6596
  1674.2000      7.9470      2.5763      0.0735      4.4692     22.7405     99.3493
  1674.3000      7.9430      2.5713      0.0705      4.7685     22.9449     99.7750
  1674.4000      7.9430      2.5636      0.0361      5.2386     22.9560    104.1064
  1674.5000      7.9418      2.5686      0.0086      4.9344     22.1877    105.7123
  1674.6000      7.9418      2.5898      0.0669      3.6507     21.5613     99.8647
  1674.7000      7.9418      2.6080      0.0638      2.5442     21.8580     92.8554
  1674.8000      7.9429      2.6068      0.1000      2.6207     22.4744     89.2810
  1674.9000      7.9429      2.5940      0.0575      3.3913     22.6157     85.9069
  1675.0000      7.9413      2.5887      0.0434      3.7122     22.7129     82.7299
  1675.1000      7.9413      2.5923      0.0304      3.4967     23.2593     81.1124
  1675.2000      7.9413      2.6003      0.0089      3.0118     23.8219     78.6650
  1675.3000      7.9319      2.6097      0.0904      2.4429     24.2004     77.7172
  1675.4000      7.9319      2.6129      0.0794      2.2498     24.5884     81.0442
  1675.5000      7.9226      2.6076      0.0605      2.5720     24.6615     86.1472
  1675.6000      7.9226      2.5971      0.0646      3.2080     24.2343     90.6625
  1675.7000      7.9226      2.5902      0.0593      3.6252     23.8881     93.4374
  1675.8000      7.9184      2.5859      0.0949      3.8872     23.6989     96.2165
  1675.9000      7.9184      2.5714      0.0826      4.7640     23.1204     99.5807
  1676.0000      7.9160      2.5549      0.0380      5.7657     22.5487     97.5055
  1676.1000      7.9160      2.5520      0.0853      5.9396     22.8671     89.9747
  1676.2000      7.9160      2.5529      0.1065      5.8848     23.6780     85.6244
  1676.3000      7.9169      2.5458      0.0769      6.3146     24.2542     86.6332
  1676.4000      7.9169      2.5382      0.0804      6.7770     24.9086     89.7935
  1676.5000      7.9057      2.5340      0.1305      7.0297     25.7562     94.0504
  1676.6000      7.9057      2.5270      0.1193      7.4516     25.9005     98.5050
  1676.7000      7.9057      2.5237      0.1234      7.6569     25.0408    102.7597
  1676.8000      7.8779      2.5356      0.1243      6.9337     24.0289    104.9355
  1676.9000      7.8779      2.5578      0.1245      5.5882     23.6636    103.2856
  1677.0000      7.8694      2.5736      0.1552      4.6332     23.7495    102.7642
  1677.1000      7.8694      2.5742      0.1367      4.5969     23.6307    106.2709
  1677.2000      7.8694      2.5693      0.1374      4.8929     22.9329    107.1192
  1677.3000      7.8835      2.5707      0.1196      4.8084     21.9920    101.3451
  1677.4000      7.8835      2.5781      0.1354      4.3551     21.4195     93.2365
  1677.5000      7.9013      2.5894      0.1044      3.6715     21.2973     86.7155
  1677.6000      7.9013      2.5985      0.1339      3.1192     21.1820     82.8794
  1677.7000      7.9013      2.5998      0.0567      3.0441     20.9229     81.8792
  1677.8000      7.9291      2.6026      0.0648      2.8754     20.8992     79.6861
  1677.9000      7.9291      2.6120      0.0729      2.3060     21.0618     73.5059
  1678.0000      7.9582      2.6191      0.0754      1.8745     20.8948     66.2255
  1678.1000      7.9582      2.6163      0.0795      2.0409     20.5606     62.4676
  1678.2000      7.9582      2.6092      0.0641      2.4723     20.4673     65.3609
  1678.3000      7.9708      2.6105      0.0812      2.3956     20.5827     71.3985
  1678.4000      7.9708      2.6179      0.0913      1.9434     20.8106     72.3434
  1678.5000      7.9756      2.6179      0.0625      1.9428     21.1680     66.3858
  1678.6000      7.9756      2.6121      0.0249      2.2977     21.5560     59.5879
  1678.7000      7.9756      2.6106      0.0132      2.3897     21.7959     59.1525
  1678.8000      7.9820      2.6095      0.0599      2.4570     22.0398     65.3202
  1678.9000      7.9820      2.6012      0.0569      2.9605     22.4118     71.9532
  1679.0000      7.9816      2.5901      0.0244      3.6279     22.4578     74.7648
  1679.1000      7.9816      2.5842      0.0625      3.9890     22.3550     73.8402
  1679.2000      7.9816      2.5823      0.0974      4.1055     22.5017     73.1813
  1679.3000      7.9727      2.5812      0.0741      4.1725     22.4954     74.7465
  1679.4000      7.9727      2.5836      0.0469      4.0261     22.5462     76.0323
  1679.5000      7.9658      2.5834      0.0888      4.0365     23.0951     77.3497
  1679.6000      7.9658      2.5723      0.0543      4.7088     23.6025     82.4215
  1679.7000      7.9658      2.5622      0.0333      5.3207     23.6918     93.4716
  1679.8000      7.9653      2.5607      0.0674      5.4101     23.7825    106.8313
  1679.9000      7.9653      2.5610      0.0648      5.3933     24.2283    116.4262
  1680.0000      7.9766      2.5588      0.0735      5.5278     24.5759    121.3403
  1680.1000      7.9766      2.5514      0.1144      5.9761     24.3689    123.2329
  1680.2000      7.9766      2.5418      0.0272      6.5562     24.2319    122.0507
  1680.3000      8.0050      2.5391      0.0171      6.7200     24.6420    117.8123
