~Version Information
VERS.                      2.0: CWLS Log ASCII Standard - VERSION 2.0
WRAP.                       NO: One line per depth step
~Well Information Block
STRT.FT                -9.5000: 
STOP.FT              2893.0000: 
STEP.FT                 0.2500: 
NULL.                -999.2500: 
COMP.          Pioneer Natural Resources: COMPANY
WELL.          Old Yeller 31-32: WELL
FLD.           Purgatoire River: FIELD
LOC.           1832' FEL & 793' FNL----: LOCATION
STAT.                 Colorado: State
CNTY.               Las Animas: COUNTY
CTRY. USA : Country
SECT. 32 : Section
TOWN. 32S : Township
RANG. 67W : Range
SRVC.                         : SERVICE COMPANY
DATE.          Fri Sep 02 16:45:38 2005: LOG DATE
API. 05-071-08356                         : UNIQUE WELL ID
~Curve Information Block
DEPT.FT            0 000 00 00: Depth
CCL.                          : Casing Collar Locator
TT3.usec                      : CBL 3' Travel Time
AMP5.mV                       : CBL 5' Amplitude
GR.GAPI                       : Gamma Ray
~Parameter Information Block
~A  Depth       CCL         TT3         AMP5         GR     
# ...
   359.0000      0.0000    261.5609    128.4325    101.4688
   359.2500      0.0000    261.5526    127.9102    102.2078
   359.5000      0.0000    261.5374    124.5154    101.8339
   359.7500      0.0000    261.5247    128.9548    100.0727
   360.0000      0.0000    261.5205    123.5579     98.5755
   360.2500      0.0000    261.5237    125.0377     99.1580
   360.5000      0.0000    261.5278    125.2118    102.1607
   360.7500      0.0000    261.5337    128.6936    106.8001
   361.0000      0.0000    261.5703     99.8812    112.1598
   361.2500      0.0000    261.7162     59.4916    116.8328
   361.5000      0.0000    262.0981     84.1258    118.4077
   361.7500      0.0000    262.8350     43.9974    115.0062
   362.0000      0.0000    263.9304     55.3134    107.3396
   362.2500      0.0000    265.2064     56.4450     98.1101
   362.5000      0.0000    266.3777     55.6616     89.5565
   362.7500      0.0000    267.2225     55.2264     82.4176
   363.0000      0.0000    267.6919     57.1414     76.6646
   363.2500     -2.0000    267.8803     54.9652     72.1842
   363.5000      0.0000    267.9204     55.4004     68.9806
   363.7500      2.0000    267.9024     54.0077     67.3050
   364.0000      0.0000    267.8538     55.5745     67.3872
   364.2500      0.0000    267.7559     52.4409     68.8575
   364.5000      0.0000    267.5470     53.7466     70.9260
   364.7500      0.0000    267.1084     58.7082     73.3066
   365.0000      0.0000    266.3057     54.5300     76.4942
   365.2500      0.0000    265.1291     57.7507     80.9802
   365.5000      0.0000    263.7942     57.4025     86.3648
   365.7500      0.0000    262.6350     68.2833     91.2295
   366.0000      0.0000    261.8679     54.4429     94.0575
   366.2500      0.0000    261.4838    107.8895     94.6747
   366.5000      0.0000    261.3420     75.4212     94.6639
   366.7500      0.0000    261.3077    122.3392     95.9897
   367.0000      0.0000    261.3056    123.3838     99.2054
   367.2500      0.0000    261.3056    125.7340    103.1479
   367.5000      0.0000    261.2995    125.6470    106.1397
   367.7500      0.0000    261.2890    122.5133    107.1227
   368.0000      0.0000    261.2784    126.0822    105.7404
   368.2500      0.0000    261.2704    126.0822    102.1012
   368.5000      0.0000    261.2657    128.8677     97.0118
   368.7500      0.0000    261.2656    126.4304     92.0490
   369.0000      0.0000    261.2715    126.9527     88.7219
   369.2500      0.0000    261.2821    126.2563     87.4651
   369.5000      0.0000    261.2930    126.6916     87.6580
   369.7500      0.0000    261.2991    122.3392     88.4281
   370.0000      0.0000    261.2987    127.4750     89.0068
   370.2500      0.0000    261.2932    126.2563     88.4914
   370.5000      0.0000    261.2843    126.6916     86.1445
   370.7500      0.0000    261.2738    122.1651     82.2457
   371.0000      0.0000    261.2646    123.9061     78.1275
   371.2500      0.0000    261.2592    125.9952     75.0851
   371.5000      0.0000    261.2573    123.6449     73.3395
   371.7500      0.0000    261.2567    124.0802     71.9643
   372.0000      0.0000    261.2556    125.0377     69.9077
   372.2500      0.0000    261.2534    121.4688     67.4672
   372.5000      0.0000    261.2509    124.6024     66.4680
   372.7500      0.0000    261.2491    123.1227     68.3450
   373.0000      0.0000    261.2481    124.3413     72.2695
   373.2500      0.0000    261.2473    124.9506     75.9178
   373.5000      0.0000    261.2470    122.5133     77.9733
   373.7500      0.0000    261.2485    125.2118     79.1313
   374.0000      0.0000    261.2527    123.9061     80.6328
   374.2500      0.0000    261.2582    124.4283     82.5414
   374.5000      0.0000    261.2621    125.6470     83.7125
   374.7500      0.0000    261.2636    121.5558     83.1395
   375.0000      0.0000    261.2640    120.4242     81.2494
   375.2500      0.0000    261.2637    122.7745     79.9702
   375.5000      0.0000    261.2614    123.8190     81.3853
   375.7500      0.0000    261.2562    124.3413     86.1695
   376.0000      0.0000    261.2493    122.9486     93.3774
   376.2500      0.0000    261.2426    124.8636    101.5598
   376.5000      0.0000    261.2382    122.0781    109.4630
   376.7500      0.0000    261.2377    122.9486    115.5662
   377.0000      0.0000    261.2418    123.9931    118.0356
   377.2500      0.0000    261.2501    123.8190    116.1342
   377.5000      0.0000    261.2606    123.9931    111.3359
   377.7500      0.0000    261.2705    121.9040    106.2222
   378.0000      0.0000    261.2766    125.7340    102.2876
   378.2500      0.0000    261.2769    121.1206     99.2333
   378.5000      0.0000    261.2721    121.7299     96.0784
   378.7500      0.0000    261.2645    124.0802     92.4127
   379.0000      0.0000    261.2573    125.4729     88.6076
   379.2500      0.0000    261.2535    124.5154     85.1422
   379.5000      0.0000    261.2549    121.2076     82.0052
   379.7500      0.0000    261.2597    124.6024     79.0235
   380.0000      0.0000    261.2642    124.5154     76.6552
   380.2500      0.0000    261.2679    124.7765     76.0207
   380.5000      0.0000    261.2735    125.3859     77.8513
   380.7500      0.0000    261.2820    121.4688     81.4564
   381.0000      0.0000    261.2895    122.6004     84.8951
   381.2500      0.0000    261.2909    121.6429     86.3842
   381.5000      0.0000    261.2862    122.9486     85.8133
   381.7500      0.0000    261.2807    121.1206     84.8347
   382.0000      0.0000    261.2808    122.6874     85.2057
   382.2500      0.0000    261.2899    123.5579     87.1118
   382.5000      0.0000    261.3067    123.0356     89.3336
   382.7500      0.0000    261.3253    124.3413     90.8341
   383.0000      0.0000    261.3376    121.2947     91.6272
   383.2500      0.0000    261.3377    124.6024     91.9628
   383.5000      0.0000    261.3259    121.6429     91.2405
   383.7500      0.0000    261.3078    125.1247     88.4368
   384.0000      0.0000    261.2902    123.2097     83.7098
   384.2500      0.0000    261.2768    121.9040     79.0077
   384.5000      0.0000    261.2674    120.8594     76.4213
   384.7500      0.0000    261.2601    121.9910     75.9625
   385.0000      0.0000    261.2549    124.4283     75.5817
   385.2500      0.0000    261.2530    124.6895     73.5655
   385.5000      0.0000    261.2540    122.7745     70.4656
   385.7500      0.0000    261.2550    123.7320     68.3236
   386.0000      0.0000    261.2535    122.8615     68.3285
   386.2500      0.0000    261.2504    126.2563     69.7210
   386.5000      0.0000    261.2489    123.9931     70.8451
   386.7500      0.0000    261.2518    123.2097     70.7542
   387.0000      0.0000    261.2597    125.3859     69.6506
   387.2500      0.0000    261.2721    124.9506     68.1587
   387.5000      0.0000    261.2878    124.7765     66.6545
   387.7500      0.0000    261.3039    124.3413     65.2419
   388.0000      0.0000    261.3162    123.0356     63.8092
   388.2500      0.0000    261.3216    122.5133     62.0135
   388.5000      0.0000    261.3204    123.2097     59.7450
   388.7500      0.0000    261.3155    125.2118     57.6740
   389.0000      0.0000    261.3088    124.4283     56.8296
   389.2500      0.0000    261.2997    122.2522     57.5836
   389.5000      0.0000    261.2867    124.1672     59.4631
   389.7500      0.0000    261.2708    127.2138     61.8301
   390.0000      0.0000    261.2555    121.5558     64.3791
   390.2500      0.0000    261.2441    128.5195     67.0472
   390.5000      0.0000    261.2383    123.4708     69.6193
   390.7500      0.0000    261.2397    123.9061     71.5147
   391.0000      0.0000    261.2490    124.3413     72.1685
   391.2500      0.0000    261.2646    123.7320     71.7583
   391.5000      0.0000    261.2815    121.6429     71.2733
   391.7500      0.0000    261.2918    121.0335     71.6625
   392.0000      0.0000    261.2899    122.7745     73.0034
   392.2500      0.0000    261.2782    127.8232     74.4373
