~Version Information
VERS.                      2.0: CWLS Log ASCII Standard - VERSION 2.0
WRAP.                       NO: One line per depth step
~Well Information Block
STRT.FT               270.0000: 
STOP.FT              1771.7000: 
STEP.FT                 0.1000: 
NULL.                -999.2500: 
COMP.          Pioneer Natural Resources: COMPANY
WELL.           Labrador 34-30: WELL
FLD.           Purgatoire River: FIELD
LOC.           926' FSL & 2080' FEL: LOCATION
PROV.                 Colorado: PROVINCE
CNTY.               Las Animas: COUNTRY
SRVC.                Patterson: SERVICE COMPANY
DATE.          Mon Dec 06 08:24:34 2004: LOG DATE
UWI.           05 071 08202 00: UNIQUE WELL ID
~Curve Information Block
DEPT.FT            0 000 00 00: Depth
DCAL.in                       : CDL Caliper
RHOB.g/cc                     : CDL Bulk Density
RHOC.g/cc                     : CDL Density Correction
DPOR.pu                       : CDL Density Porosity
NPOR.pu                       : Neutron Porosity
GR.GAPI                       : Gamma Ray
~Parameter Information Block
~A  Depth       DCAL        RHOB        RHOC        DPOR        NPOR         GR     
   270.0000      8.0556      2.4221     -0.1825     13.8092     39.7517     67.2715
   270.1000      8.0556      2.4155     -0.1489     14.2109     39.9446     67.5139
   270.2000      8.0556      2.3836     -0.2379     16.1482     40.0877     68.2914
   270.3000      8.0541      2.3512     -0.2366     18.1062     39.8292     69.6737
   270.4000      8.0541      2.3442     -0.2712     18.5318     39.2426     69.2219
   270.5000      8.0507      2.3602     -0.2249     17.5645     38.8593     66.5191
   270.6000      8.0507      2.3782     -0.2124     16.4744     38.9446     65.1080
   270.7000      8.0507      2.3786     -0.1596     16.4507     39.3114     66.9486
   270.8000      8.0493      2.3644     -0.2127     17.3106     39.5277     70.3197
   270.9000      8.0493      2.3655     -0.1956     17.2453     39.5233     73.8117
   271.0000      8.0503      2.3951     -0.1853     15.4498     39.5830     78.3268
   271.1000      8.0503      2.4248     -0.1327     13.6495     39.7385     80.7386
   271.2000      8.0503      2.4256     -0.1430     13.6009     39.8089     77.6553
   271.3000      8.0517      2.4044     -0.1852     14.8876     39.8503     71.6154
   271.4000      8.0517      2.3830     -0.2353     16.1848     39.8296     64.6004
   271.5000      8.0532      2.3669     -0.1733     17.1583     39.4950     58.9364
   271.6000      8.0532      2.3528     -0.2452     18.0135     39.0719     59.2588
   271.7000      8.0532      2.3500     -0.2268     18.1831     38.8876     63.5090
   271.8000      8.0546      2.3664     -0.2365     17.1899     38.7411     65.5704
   271.9000      8.0546      2.3934     -0.1902     15.5500     38.5090     65.6677
   272.0000      8.0532      2.4221     -0.2032     13.8092     38.5386     67.2416
   272.1000      8.0532      2.4584     -0.1823     11.6149     38.8443     69.8087
   272.2000      8.0532      2.5040     -0.1503      8.8469     38.9648     69.9902
   272.3000      8.0515      2.5416     -0.1430      6.5681     38.9973     66.2165
   272.4000      8.0515      2.5550     -0.1565      5.7548     39.2154     60.5836
   272.5000      8.0527      2.5425     -0.1484      6.5170     39.3200     55.1697
   272.6000      8.0527      2.5062     -0.1499      8.7174     39.0124     52.0349
   272.7000      8.0527      2.4581     -0.2128     11.6312     38.6803     52.8554
   272.8000      8.0549      2.4251     -0.2617     13.6324     38.7262     55.5581
   272.9000      8.0549      2.4204     -0.2356     13.9168     38.9363     56.1344
   273.0000      8.0543      2.4321     -0.2421     13.2064     38.9293     55.3016
   273.1000      8.0543      2.4457     -0.1856     12.3846     38.7427     55.7853
   273.2000      8.0543      2.4486     -0.1477     12.2039     38.7176     57.3057
   273.3000      8.0532      2.4368     -0.1411     12.9203     38.9695     58.7812
   273.4000      8.0532      2.4231     -0.1874     13.7506     39.2442     60.0312
   273.5000      8.0528      2.4086     -0.1703     14.6307     39.4100     61.0970
   273.6000      8.0528      2.3789     -0.1996     16.4333     39.5130     60.1894
   273.7000      8.0528      2.3481     -0.2699     18.2952     39.4992     56.3991
   273.8000      8.0502      2.3369     -0.2214     18.9776     39.3904     53.7294
   273.9000      8.0502      2.3319     -0.2507     19.2775     39.3534     55.1406
   274.0000      8.0483      2.3235     -0.2528     19.7895     39.5030     58.6555
   274.1000      8.0483      2.3292     -0.2659     19.4443     39.8070     60.7601
   274.2000      8.0483      2.3513     -0.1929     18.1049     40.0521     61.3227
   274.3000      8.0495      2.3631     -0.2385     17.3889     40.0547     63.2826
   274.4000      8.0495      2.3615     -0.2545     17.4844     39.8940     67.4317
   274.5000      8.0503      2.3665     -0.2172     17.1811     39.8143     72.7050
   274.6000      8.0503      2.3791     -0.2403     16.4196     39.9496     77.6516
   274.7000      8.0503      2.3856     -0.1854     16.0271     40.1009     80.2312
   274.8000      8.0499      2.3852     -0.2148     16.0497     40.1968     79.0488
   274.9000      8.0499      2.3904     -0.2148     15.7360     40.4108     75.7537
   275.0000      8.0482      2.3988     -0.1761     15.2225     40.4502     73.9746
   275.1000      8.0482      2.4009     -0.2357     15.0952     40.1314     75.5170
   275.2000      8.0482      2.4012     -0.1992     15.0761     39.9267     79.4608
   275.3000      8.0469      2.4054     -0.1785     14.8253     40.0095     81.5869
   275.4000      8.0469      2.4117     -0.1818     14.4435     40.1446     78.2017
   275.5000      8.0493      2.4173     -0.1923     14.1016     40.3988     71.8763
   275.6000      8.0493      2.4207     -0.1641     13.8972     40.7320     67.8642
   275.7000      8.0493      2.4223     -0.1739     13.8016     40.8308     68.6833
   275.8000      8.0529      2.4229     -0.1705     13.7609     40.6903     71.2000
   275.9000      8.0529      2.4202     -0.1534     13.9284     40.5434     71.6880
   276.0000      8.0540      2.4116     -0.2160     14.4464     40.5897     71.5998
   276.1000      8.0540      2.3918     -0.1557     15.6478     40.9916     73.3007
   276.2000      8.0540      2.3648     -0.2320     17.2837     41.6397     76.5941
   276.3000      8.0510      2.3546     -0.2408     17.9005     42.1550     77.2501
   276.4000      8.0510      2.3611     -0.2073     17.5077     42.2952     73.3377
   276.5000      8.0477      2.3542     -0.1950     17.9278     42.0759     70.5694
   276.6000      8.0477      2.3295     -0.2590     19.4234     41.5784     72.8424
   276.7000      8.0477      2.3094     -0.2487     20.6444     41.1549     77.6820
   276.8000      8.0459      2.3010     -0.2424     21.1513     41.1587     81.8518
   276.9000      8.0459      2.2978     -0.2099     21.3457     41.2729     84.9026
   277.0000      8.0444      2.2958     -0.2386     21.4641     41.1125     85.9136
   277.1000      8.0444      2.2971     -0.2770     21.3863     40.9962     84.5238
   277.2000      8.0444      2.3015     -0.2256     21.1215     41.2016     82.9339
   277.3000      8.0475      2.3074     -0.2795     20.7644     41.5057     81.0843
   277.4000      8.0475      2.3210     -0.2500     19.9383     41.5503     79.8226
   277.5000      8.0529      2.3387     -0.2198     18.8673     41.2639     81.4817
   277.6000      8.0529      2.3411     -0.1934     18.7204     40.9873     83.2112
   277.7000      8.0529      2.3196     -0.2442     20.0253     40.9211     81.3102
   277.8000      8.0554      2.2938     -0.2827     21.5851     40.9751     77.2751
   277.9000      8.0554      2.2856     -0.2355     22.0836     41.0546     74.8139
   278.0000      8.0558      2.2917     -0.2687     21.7159     41.0894     76.5131
   278.1000      8.0558      2.2994     -0.2487     21.2507     40.9561     80.1763
   278.2000      8.0558      2.3083     -0.2815     20.7089     40.6971     80.5907
   278.3000      8.0551      2.3284     -0.2646     19.4938     40.5142     74.2352
   278.4000      8.0551      2.3534     -0.2262     17.9744     40.5339     64.5401
   278.5000      8.0542      2.3584     -0.1713     17.6722     40.8188     59.1268
   278.6000      8.0542      2.3364     -0.2452     19.0057     41.1699     59.4962
   278.7000      8.0542      2.3018     -0.2300     21.1001     41.0627     60.5364
   278.8000      8.0575      2.2727     -0.3061     22.8671     40.6345     61.6017
   278.9000      8.0575      2.2666     -0.2377     23.2359     40.5663     66.4001
   279.0000      8.0618      2.2758     -0.2695     22.6791     40.8305     71.6575
   279.1000      8.0618      2.2771     -0.2779     22.6006     41.0727     71.5612
   279.2000      8.0618      2.2717     -0.2706     22.9253     41.3083     67.1043
   279.3000      8.0608      2.2778     -0.2628     22.5564     41.5019     64.5993
   279.4000      8.0608      2.2944     -0.2542     21.5511     41.4641     67.2369
   279.5000      8.0576      2.3073     -0.2482     20.7726     41.2107     71.0893
