~Version Information
VERS.                      2.0: CWLS Log ASCII Standard - VERSION 2.0
WRAP.                       NO: One line per depth step
~Well Information Block
STRT.FT               650.0000: 
STOP.FT              2000.5000: 
STEP.FT                 0.1000: 
NULL.                -999.2500: 
COMP.          Pioneer Natural Resources: COMPANY
WELL.           Firehawk 34-26: WELL
FLD.           Purgatoire River: FIELD
LOC.           1196' FSL & 1595' FEL--: LOCATION
STAT.                 Colorado: State
CNTY.               Las Animas: COUNTY
CTRY. USA : Country
SECT. 26 : Section
TOWN. 32S : Township
RANG. 66W : Range
SRVC.                Patterson: SERVICE COMPANY
DATE.          Mon Oct 17 07:23:34 2005: LOG DATE
API.           05 071 08389 00: UNIQUE WELL ID
~Curve Information Block
DEPT.FT            0 000 00 00: Depth
DCAL.in                       : CDL Caliper
RHOB.g/cc                     : CDL Bulk Density
RHOC.g/cc                     : CDL Density Correction
DPOR.pu                       : CDL Density Porosity
NPOR.pu                       : Neutron Porosity
GR.GAPI                       : Gamma Ray
~Parameter Information Block
~A  Depth       DCAL        RHOB        RHOC        DPOR        NPOR         GR     
# ...
   736.4000      8.1574      1.6918     -0.1478     58.0746     11.5408    133.6182
   736.5000      8.1618      1.5105     -0.1336     69.0620     10.2253    125.8051
   736.6000      8.1618      1.2834     -0.2369     82.8226      9.6381    122.3775
   736.7000      8.1618      1.0850     -0.3778     94.8484      9.5429    122.3061
   736.8000      8.2061      1.0476     -0.3805     97.1148     10.1115    124.1592
   736.9000      8.2061      1.2367      0.0014     85.6526     11.5148    125.3972
   737.0000      8.3212      1.5715      0.3988     65.3617     13.7480    123.4357
   737.1000      8.3212      1.9062      0.5668     45.0805     16.5363    123.1105
   737.2000      8.3212      2.1618      0.5708     29.5872     19.4899    126.8484
   737.3000      8.3891      2.3549      0.5352     17.8827     22.2004    128.6992
   737.4000      8.3891      2.5141      0.5404      8.2380     24.2751    125.0709
   737.5000      8.2811      2.6237      0.5069      1.5961     25.6727    117.6581
   737.6000      8.2811      2.6726      0.3169     -1.3681     26.4014    107.5152
   737.7000      8.2811      2.6885      0.2232     -2.3356     26.7039     96.1673
   737.8000      8.1687      2.6922      0.1890     -2.5556     27.5426     88.3790
   737.9000      8.1687      2.6829      0.1148     -1.9955     29.0738     84.7813
   738.0000      8.1449      2.6724      0.0232     -1.3592     30.2775     82.6247
   738.1000      8.1449      2.6717      0.0170     -1.3138     30.6808     82.8460
   738.2000      8.1449      2.6716     -0.0028     -1.3096     30.7377     88.3756
   738.3000      8.1605      2.6721     -0.0882     -1.3398     30.8565     97.2143
   738.4000      8.1605      2.6804     -0.0506     -1.8410     30.9057    102.0675
   738.5000      8.1789      2.6806     -0.0329     -1.8530     30.8395    100.0303
   738.6000      8.1789      2.6619     -0.0448     -0.7204     30.9679     96.0046
   738.7000      8.1789      2.6338      0.0359      0.9807     30.8731     97.1968
   738.8000      8.1741      2.6025     -0.0251      2.8789     29.8095    107.0220
   738.9000      8.1741      2.5769     -0.0220      4.4319     28.5093    122.2173
   739.0000      8.1496      2.5638     -0.0011      5.2270     27.8052    136.3228
   739.1000      8.1496      2.5528      0.0152      5.8924     27.1539    142.8324
   739.2000      8.1496      2.5287     -0.0012      7.3513     26.0659    139.1804
   739.3000      8.1277      2.5001     -0.0260      9.0833     24.9367    132.3950
   739.4000      8.1277      2.4906     -0.0086      9.6615     24.3372    129.1463
   739.5000      8.1126      2.5021      0.0237      8.9615     24.4869    126.8665
   739.6000      8.1126      2.5214      0.0056      7.7939     25.0415    122.5883
   739.7000      8.1126      2.5450      0.0267      6.3615     25.3767    118.6939
   739.8000      8.0981      2.5693      0.0666      4.8899     25.1964    117.1215
   739.9000      8.0981      2.5764      0.0941      4.4626     24.8061    117.2050
   740.0000      8.0809      2.5604      0.0268      5.4298     24.5555    119.4996
   740.1000      8.0809      2.5389      0.0180      6.7329     24.2954    122.6462
   740.2000      8.0809      2.5219      0.0120      7.7617     23.9984    122.7248
   740.3000      8.0621      2.5057     -0.0027      8.7485     23.8454    121.0665
   740.4000      8.0621      2.4941     -0.0069      9.4462     23.8035    119.9870
   740.5000      8.0416      2.5015      0.0060      9.0019     23.8348    118.6644
   740.6000      8.0416      2.5277      0.0372      7.4095     24.0079    117.8222
   740.7000      8.0416      2.5481      0.0493      6.1743     24.5072    118.2985
   740.8000      8.0276      2.5431      0.0461      6.4813     25.1084    117.5303
   740.9000      8.0276      2.5241     -0.0160      7.6298     25.4244    113.2755
   741.0000      8.0205      2.5166      0.0216      8.0850     25.5240    108.1720
   741.1000      8.0205      2.5260      0.0007      7.5173     25.3869    106.7833
   741.2000      8.0205      2.5415     -0.0102      6.5771     25.1456    108.4329
   741.3000      8.0182      2.5571      0.0256      5.6308     24.9292    108.7543
   741.4000      8.0182      2.5709      0.0211      4.7935     24.4137    109.5429
   741.5000      8.0186      2.5765      0.0521      4.4538     23.7268    112.9956
   741.6000      8.0186      2.5688      0.0531      4.9225     23.5427    116.3633
   741.7000      8.0186      2.5545      0.0154      5.7883     23.9932    117.8653
   741.8000      8.0197      2.5478      0.0067      6.1918     24.7277    118.0990
   741.9000      8.0197      2.5493      0.0182      6.1010     25.5531    116.6049
   742.0000      8.0201      2.5483     -0.0165      6.1643     26.2474    112.7414
   742.1000      8.0201      2.5453     -0.0014      6.3445     26.5614    109.0358
   742.2000      8.0201      2.5475     -0.0285      6.2105     26.7288    110.3524
   742.3000      8.0249      2.5491      0.0173      6.1175     27.3295    115.6927
   742.4000      8.0249      2.5315      0.0049      7.1820     28.1537    117.8896
   742.5000      8.0373      2.5006     -0.0325      9.0575     28.3743    114.6104
   742.6000      8.0373      2.4881     -0.0390      9.8121     27.7512    110.2776
   742.7000      8.0373      2.4972      0.0193      9.2598     26.9276    107.8483
   742.8000      8.0517      2.4960      0.0172      9.3336     26.6680    108.1788
   742.9000      8.0517      2.4744     -0.0208     10.6403     26.8340    112.9915
   743.0000      8.0641      2.4560     -0.0622     11.7594     27.0137    120.4987
   743.1000      8.0641      2.4595     -0.0269     11.5483     27.1610    128.2917
   743.2000      8.0641      2.4772     -0.0281     10.4698     26.9775    133.8077
   743.3000      8.0690      2.4922      0.0119      9.5619     26.2069    132.4147
   743.4000      8.0690      2.4922      0.0313      9.5628     25.0131    127.5288
   743.5000      8.0720      2.4724      0.0370     10.7617     23.2977    126.4352
   743.6000      8.0720      2.4435     -0.0140     12.5153     21.3368    127.2249
   743.7000      8.0720      2.4203     -0.0039     13.9217     19.9023    125.9878
   743.8000      8.0798      2.4022      0.0207     15.0161     19.2385    123.4579
   743.9000      8.0798      2.3907     -0.0162     15.7135     19.1171    118.5157
   744.0000      8.0832      2.3929     -0.0050     15.5830     19.5240    111.9893
   744.1000      8.0832      2.3968      0.0165     15.3451     20.4746    110.4435
   744.2000      8.0832      2.3865      0.0132     15.9693     21.4100    114.6672
   744.3000      8.0844      2.3627      0.0104     17.4135     21.7862    119.6954
   744.4000      8.0844      2.3272      0.0014     19.5627     21.7481    122.9409
   744.5000      8.0862      2.2692      0.0156     23.0788     21.5946    119.1363
   744.6000      8.0862      2.1816     -0.0007     28.3867     21.3967    106.9605
   744.7000      8.0862      2.0790     -0.0472     34.6046     20.9012     97.3988
   744.8000      8.0823      1.9763     -0.0310     40.8286     19.7329     97.5494
   744.9000      8.0823      1.8674     -0.0331     47.4295     17.9793    102.4724
   745.0000      8.0690      1.7497     -0.0903     54.5666     15.8425    103.0839
   745.1000      8.0690      1.6491     -0.1436     60.6631     13.4129     94.5725
   745.2000      8.0690      1.5981     -0.1168     63.7502     11.0553     84.1619
   745.3000      8.0467      1.6004      0.0214     63.6101      9.2425     80.4840
   745.4000      8.0467      1.6357      0.0945     61.4729      8.0114     79.9022
   745.5000      8.0295      1.6911      0.1058     58.1142      7.0926     77.8422
   745.6000      8.0295      1.7671      0.1392     53.5065      6.3810     78.5365
   745.7000      8.0295      1.8626      0.1629     47.7184      6.0903     85.5923
   745.8000      8.0228      1.9710      0.1900     41.1542      6.3807     94.0956
   745.9000      8.0228      2.0868      0.2042     34.1306      7.1440     97.8061
