~Version Information
VERS.                      2.0: CWLS Log ASCII Standard - VERSION 2.0
WRAP.                       NO: One line per depth step
~Well Information Block
STRT.FT               506.1000: 
STOP.FT              2140.0000: 
STEP.FT                 0.1000: 
NULL.                -999.2500: 
COMP.          Petrogulf Corporation: COMPANY
WELL.            Montoya 1-44R: WELL
FLD.           Purgatorie River: FIELD
LOC.           658' FSL & 1052' FWL: LOCATION
CNTY.               Las Animas: COUNTY
SRVC.                         : SERVICE COMPANY
DATE.          Tue Nov 16 04:33:40 2004: LOG DATE
UWI.           05 071 08239 00: UNIQUE WELL ID
STAT.                 Colorado: STATE
~Curve Information Block
DEPT.FT            0 000 00 00: Depth
DCAL.in                       : CDL Caliper
RHOB.g/cc                     : CDL Bulk Density
RHOC.g/cc                     : CDL Density Correction
DPOR.pu                       : CDL Density Porosity
GR.GAPI                       : Gamma Ray
NPOR.pu                       : Neutron Porosity
~Parameter Information Block
~A  Depth       DCAL        RHOB        RHOC        DPOR         GR         NPOR    
# ...
  1610.1000      8.0853      2.4455      0.0329     12.3947    146.1496     24.4034
  1610.2000      8.0853      2.4463      0.0514     12.3450    149.5300     24.1566
  1610.3000      8.0514      2.4461      0.0369     12.3598    150.5941     24.3035
  1610.4000      8.0514      2.4456      0.0827     12.3857    145.4621     24.9476
  1610.5000      8.0131      2.4443      0.0687     12.4647    138.1094     25.3041
  1610.6000      8.0131      2.4463      0.0730     12.3484    133.0363     25.1415
  1610.7000      8.0131      2.4611      0.1234     11.4458    130.7369     24.5236
  1610.8000      7.9772      2.4878      0.1499      9.8289    129.6272     23.8390
  1610.9000      7.9772      2.5071      0.1923      8.6598    125.8989     23.5779
  1611.0000      7.9451      2.5021      0.1234      8.9610    117.6305     23.4607
  1611.1000      7.9451      2.4849      0.0621     10.0044    109.4033     22.7111
  1611.2000      7.9451      2.4858      0.0673      9.9491    106.9918     21.6904
  1611.3000      7.9244      2.5234      0.0719      7.6704    108.5160     21.4565
  1611.4000      7.9244      2.5831      0.1603      4.0541    108.1127     21.9317
  1611.5000      7.9146      2.6278      0.2006      1.3463    105.7166     22.3360
  1611.6000      7.9146      2.6426      0.1753      0.4483    104.3399     22.3009
  1611.7000      7.9146      2.6389      0.1718      0.6756    104.9974     22.0210
  1611.8000      7.9042      2.6235      0.1450      1.6077    108.7896     21.9155
  1611.9000      7.9042      2.5987      0.1586      3.1078    112.5090     21.8412
  1612.0000      7.9036      2.5776      0.0855      4.3855    110.6100     21.5197
  1612.1000      7.9036      2.5772      0.0865      4.4120    106.2882     21.2105
  1612.2000      7.9036      2.5916      0.0869      3.5414    108.0036     21.0492
  1612.3000      7.9227      2.6018      0.0828      2.9218    118.2711     20.5672
  1612.4000      7.9227      2.6045      0.1186      2.7564    128.2888     19.5104
  1612.5000      7.9340      2.6064      0.0843      2.6424    126.5827     18.3351
  1612.6000      7.9340      2.6039      0.1366      2.7912    113.4479     17.4107
  1612.7000      7.9340      2.5927      0.0498      3.4751     99.9654     16.4650
  1612.8000      7.9194      2.5870      0.0591      3.8154     92.9107     15.4984
  1612.9000      7.9194      2.5940      0.1088      3.3952     91.0284     15.1405
  1613.0000      7.9015      2.5999      0.1072      3.0353     91.1643     15.4350
  1613.1000      7.9015      2.5999      0.0703      3.0380     92.5899     15.5340
  1613.2000      7.9015      2.6059      0.0383      2.6745     93.9940     14.8166
  1613.3000      7.8819      2.6304      0.0472      1.1850     93.0494     14.1080
  1613.4000      7.8819      2.6690      0.1059     -1.1504     92.2045     14.3425
  1613.5000      7.8578      2.6927      0.2035     -2.5896     94.3776     15.3529
  1613.6000      7.8578      2.6759      0.1528     -1.5679     97.8771     16.6771
  1613.7000      7.8578      2.6310      0.1350      1.1504     99.1440     17.9569
  1613.8000      7.8585      2.5894      0.1047      3.6703     98.6696     18.9206
  1613.9000      7.8585      2.5701      0.0747      4.8450    100.1259     19.1896
  1614.0000      7.8891      2.5769      0.0793      4.4286    101.0708     18.5680
  1614.1000      7.8891      2.5990      0.0801      3.0890     98.6576     17.8721
  1614.2000      7.8891      2.6123      0.1140      2.2838     97.7641     17.7261
  1614.3000      7.9176      2.6055      0.0629      2.6969    100.2034     17.5397
  1614.4000      7.9176      2.5964      0.0561      3.2472    102.1604     17.1510
  1614.5000      7.9285      2.6001      0.0973      3.0213    103.4429     17.0512
  1614.6000      7.9285      2.6072      0.1363      2.5953    106.1135     17.3775
  1614.7000      7.9285      2.6050      0.1510      2.7248    108.9852     18.4202
  1614.8000      7.9371      2.5922      0.0841      3.5007    113.2435     20.1049
  1614.9000      7.9371      2.5673      0.0788      5.0123    120.1950     21.1720
  1615.0000      7.9451      2.5318      0.0078      7.1654    126.2034     20.8304
  1615.1000      7.9451      2.5042      0.0290      8.8375    128.0782     19.9845
  1615.2000      7.9451      2.4977      0.0404      9.2287    126.7337     19.8586
  1615.3000      7.9503      2.5031      0.0469      8.9042    124.8350     20.2803
  1615.4000      7.9503      2.5117      0.0646      8.3822    122.6729     20.4107
  1615.5000      7.9550      2.5262      0.0675      7.5006    120.6450     20.0896
  1615.6000      7.9550      2.5476      0.0863      6.2047    119.2643     19.6861
  1615.7000      7.9550      2.5674      0.1092      5.0071    117.2557     20.0070
  1615.8000      7.9563      2.5729      0.1605      4.6746    117.8100     21.1154
  1615.9000      7.9563      2.5623      0.1157      5.3161    123.6407     21.6313
  1616.0000      7.9537      2.5466      0.1488      6.2685    130.3145     21.0884
  1616.1000      7.9537      2.5369      0.0927      6.8566    131.9594     20.2432
  1616.2000      7.9537      2.5415      0.1083      6.5779    128.9435     19.3023
  1616.3000      7.9473      2.5580      0.1078      5.5732    125.4395     18.6111
  1616.4000      7.9473      2.5781      0.1141      4.3593    120.0204     18.5663
  1616.5000      7.9415      2.5972      0.1538      3.1985    110.5599     18.5538
  1616.6000      7.9415      2.6177      0.1405      1.9580    101.6871     18.2309
  1616.7000      7.9415      2.6457      0.1551      0.2597     95.5590     18.2723
  1616.8000      7.9317      2.6759      0.1879     -1.5692     90.4358     18.5635
  1616.9000      7.9317      2.6885      0.1871     -2.3338     87.7550     18.1311
  1617.0000      7.9190      2.6703      0.1773     -1.2275     89.9133     16.7889
  1617.1000      7.9190      2.6339      0.1106      0.9756     93.9476     15.5308
  1617.2000      7.9190      2.5996      0.1226      3.0553     92.3191     15.6199
  1617.3000      7.9153      2.5725      0.0754      4.6963     84.6230     17.0725
  1617.4000      7.9153      2.5601      0.0217      5.4509     78.8482     18.3135
  1617.5000      7.9168      2.5678      0.0787      4.9807     77.5159     18.2773
  1617.6000      7.9168      2.5849      0.0932      3.9482     76.1578     17.6022
  1617.7000      7.9168      2.6048      0.0777      2.7406     72.0745     17.5288
  1617.8000      7.9052      2.6252      0.0950      1.5057     67.8406     18.8815
  1617.9000      7.9052      2.6309      0.1189      1.1548     66.5468     20.8993
  1618.0000      7.8818      2.6148      0.1034      2.1360     67.5712     21.4348
  1618.1000      7.8818      2.5886      0.0913      3.7230     68.2296     19.9461
  1618.2000      7.8818      2.5697      0.0638      4.8648     68.4751     17.7891
  1618.3000      7.8725      2.5720      0.0713      4.7249     71.8177     16.2755
  1618.4000      7.8725      2.5904      0.1063      3.6143     79.1048     16.2798
  1618.5000      7.8807      2.6014      0.1438      2.9475     85.1373     17.6312
  1618.6000      7.8807      2.5987      0.1016      3.1091     87.9234     19.3530
  1618.7000      7.8807      2.5944      0.0794      3.3706     93.0070     20.7528
  1618.8000      7.8998      2.5875      0.0777      3.7891    103.1447     21.3881
  1618.9000      7.8998      2.5742      0.0571      4.5963    113.9955     21.2018
  1619.0000      7.9157      2.5626      0.0788      5.2990    120.6295     21.0609
  1619.1000      7.9157      2.5561      0.0843      5.6918    125.6697     21.6355
  1619.2000      7.9157      2.5490      0.1118      6.1235    131.6456     22.2895
  1619.3000      7.9213      2.5385      0.1019      6.7573    132.5678     22.1443
  1619.4000      7.9213      2.5294      0.0687      7.3090    125.3248     21.3137
  1619.5000      7.9252      2.5270      0.0740      7.4530    118.5650     20.2791
  1619.6000      7.9252      2.5299      0.0750      7.2813    118.6168     19.7171
