~Version Information
VERS.                      2.0: CWLS Log ASCII Standard - VERSION 2.0
WRAP.                       NO: One line per depth step
~Well Information Block
STRT.FT                -9.7500: 
STOP.FT              2566.5000: 
STEP.FT                 0.2500: 
NULL.                -999.2500: 
COMP.          Petrogulf Corporation: COMPANY
WELL.             Valejo 8-12V: WELL
FLD.           Purgatorie River: FIELD
LOC.           1510' FNL & 1460' FWL: LOCATION
CNTY.               Las Animas: COUNTY
SRVC.                         : SERVICE COMPANY
DATE.          Tue Nov 18 14:36:15 2003: LOG DATE
UWI.                          : UNIQUE WELL ID
STAT.                 Colorado: STATE
~Curve Information Block
DEPT.FT            0 000 00 00: Depth
CCL.                          : Casing Collar Locator
TT3.usec                      : CBL 3' Travel Time
AMP3.mV                       : CBL 3' Amplitude
GR.GAPI                       : Gamma Ray
~Parameter Information Block
~A  Depth       CCL         TT3         AMP3         GR     
# ...
  1162.7500      0.0000    814.4117      6.3972    101.2141
  1163.0000      0.0000    815.1993      6.2924    105.5786
  1163.2500      0.0000    816.2719      5.9088    109.6885
  1163.5000      0.0000    819.2136      5.3467    113.0460
  1163.7500      0.0000    823.8826      4.7741    115.9303
  1164.0000      0.0000    828.4207      4.3209    118.5033
  1164.2500      0.0000    830.0909      4.0092    120.4479
  1164.5000      0.0000    826.5518      3.7991    121.3458
  1164.7500      0.0000    817.1872      3.6737    121.0853
  1165.0000      0.0000    804.0046      3.6368    119.8839
  1165.2500      0.0000    791.7211      3.6597    118.2778
  1165.5000      0.0000    786.0173      3.6993    117.1514
  1165.7500      0.0000    789.8393      3.7732    117.3554
  1166.0000      0.0000    800.7614      3.9651    119.1782
  1166.2500      0.0000    812.4479      4.3336    122.3803
  1166.5000      0.0000    818.6622      4.8372    126.4041
  1166.7500      0.0000    815.9429      5.3540    130.0877
  1167.0000      0.0000    803.7684      5.7681    131.4546
  1167.2500      0.0000    783.8093      6.0409    128.5215
  1167.5000      0.0000    759.3408      6.2182    120.7359
  1167.7500      0.0000    734.3915      6.3800    109.6520
  1168.0000      0.0000    712.7151      6.5756     97.9931
  1168.2500      0.0000    697.6228      6.7894     87.8851
  1168.5000      0.0000    692.2029      6.9528     79.9048
  1168.7500      0.0000    698.4796      6.9964     73.4846
  1169.0000      0.0000    715.9280      6.8897     67.8347
  1169.2500      0.0000    741.1149      6.6318     62.6022
  1169.5000      0.0000    768.6663      6.2385     58.2795
  1169.7500     -2.0000    792.7192      5.7834     56.1327
  1170.0000      0.0000    808.8488      5.4367     57.1607
  1170.2500      0.0000    816.0475      5.3974     60.7907
  1170.5000      0.0000    816.6115      5.7544     65.1466
  1170.7500      0.0000    814.1736      6.4193     69.0202
  1171.0000      0.0000    812.5730      7.1723     73.1663
  1171.2500      0.0000    815.0474      7.7517     79.3479
  1171.5000      0.0000    821.3929      7.9616     88.3970
  1171.7500      0.0000    826.4653      7.7775     99.2019
  1172.0000      0.0000    824.7098      7.3551    109.0861
  1172.2500      0.0000    816.1611      6.9037    115.1964
  1172.5000      0.0000    805.8223      6.5378    116.2419
  1172.7500      0.0000    798.0519      6.2421    113.4206
  1173.0000      0.0000    793.5594      5.9641    109.6209
  1173.2500      0.0000    791.0373      5.7254    107.5016
  1173.5000      0.0000    789.7943      5.6257    107.9805
  1173.7500      0.0000    790.5172      5.7316    109.8967
  1174.0000      0.0000    794.2191      5.9846    110.8365
  1174.2500      0.0000    800.8123      6.2312    108.8099
  1174.5000      0.0000    808.4655      6.3220    103.8929
  1174.7500      0.0000    814.3640      6.1662     98.6238
  1175.0000      0.0000    816.6326      5.7380     96.6615
  1175.2500      0.0000    815.8379      5.0963    100.5518
  1175.5000      0.0000    813.8452      4.4018    110.0930
  1175.7500      0.0000    810.5610      3.8565    122.4189
  1176.0000      0.0000    802.5019      3.5816    133.8041
  1176.2500      0.0000    786.0233      3.5499    141.7743
  1176.5000      0.0000    762.3858      3.6353    145.8457
  1176.7500      0.0000    738.9279      3.7025    146.7309
  1177.0000      0.0000    724.6350      3.6514    145.1779
  1177.2500      0.0000    724.5569      3.4294    141.5573
  1177.5000      0.0000    737.9956      3.0570    136.2339
  1177.7500      0.0000    760.6846      2.6406    129.8172
  1178.0000      0.0000    787.6850      2.3194    122.8393
  1178.2500      0.0000    814.5618      2.1749    115.7249
  1178.5000      0.0000    837.3931      2.1926    109.6058
  1178.7500      0.0000    853.2899      2.3044    106.5062
  1179.0000      0.0000    860.8875      2.4496    107.6916
  1179.2500      0.0000    859.7113      2.5851    112.0858
  1179.5000      0.0000    849.5844      2.6595    117.2071
  1179.7500      0.0000    831.6378      2.6218    121.6183
  1180.0000      0.0000    809.6461      2.4860    125.7138
  1180.2500      0.0000    789.2578      2.3807    130.1220
  1180.5000      0.0000    775.2845      2.4946    134.1897
  1180.7500      0.0000    769.4056      2.9317    136.5372
  1181.0000      0.0000    769.6345      3.6049    136.6577
  1181.2500      0.0000    771.7429      4.2778    135.6230
  1181.5000      0.0000    772.0246      4.7202    135.5903
  1181.7500      0.0000    769.4792      4.8443    138.5652
  1182.0000      0.0000    765.5801      4.7267    144.5419
  1182.2500      0.0000    762.2482      4.5316    150.4355
  1182.5000      0.0000    760.3028      4.4126    151.9662
  1182.7500      0.0000    759.5089      4.4468    147.3909
  1183.0000      0.0000    759.3608      4.6123    139.0089
  1183.2500      0.0000    759.6528      4.7993    130.8772
  1183.5000      0.0000    760.6238      4.8617    125.5500
  1183.7500      0.0000    762.8936      4.7058    123.0001
  1184.0000      0.0000    767.1163      4.3734    121.8647
  1184.2500      0.0000    773.3047      4.0470    121.1011
  1184.5000      0.0000    780.4340      3.9332    120.6809
  1184.7500      0.0000    787.0632      4.0949    121.2881
  1185.0000      0.0000    792.6102      4.3882    123.4675
  1185.2500      0.0000    797.9376      4.5858    126.7931
  1185.5000      0.0000    804.5331      4.5750    129.8641
  1185.7500      0.0000    812.9836      4.4455    131.2738
  1186.0000      0.0000    822.1855      4.3950    130.5088
  1186.2500      0.0000    830.1177      4.5486    127.8213
  1186.5000      0.0000    835.3988      4.8511    123.5811
  1186.7500      0.0000    838.0373      5.1161    118.1255
  1187.0000      0.0000    838.8406      5.1765    112.0111
  1187.2500      0.0000    838.3524      5.0033    105.8827
  1187.5000      0.0000    836.1652      4.7096     99.9588
  1187.7500      0.0000    830.9101      4.4646     94.1712
  1188.0000      0.0000    821.1355      4.3899     89.2412
  1188.2500      0.0000    807.0026      4.4938     87.1925
  1188.5000      0.0000    791.4859      4.6749     90.0441
  1188.7500      0.0000    779.2548      4.7909     97.9167
  1189.0000      0.0000    773.4153      4.7555    108.7164
  1189.2500      0.0000    773.0337      4.6015    119.6358
  1189.5000      0.0000    774.0751      4.4605    128.7426
  1189.7500      0.0000    772.8180      4.4652    135.2464
  1190.0000      0.0000    768.1786      4.6473    138.9502
  1190.2500      0.0000    761.0949      4.9135    139.9707
  1190.5000      0.0000    752.7816      5.1100    138.8058
  1190.7500      0.0000    744.4288      5.1278    136.3700
  1191.0000      0.0000    738.3479      4.9831    134.0264
  1191.2500      0.0000    738.4780      4.8165    133.4866
  1191.5000      0.0000    748.8066      4.7882    135.9802
  1191.7500      0.0000    770.4190      4.9389    140.9410
  1192.0000      0.0000    799.3770      5.1442    145.7089
  1192.2500      0.0000    827.6922      5.2175    147.0550
  1192.5000      0.0000    847.3358      5.0684    143.3070
  1192.7500      0.0000    854.6479      4.7822    135.3230
  1193.0000      2.0000    852.0334      4.5630    125.7959
  1193.2500      2.0000    845.6865      4.5729    117.6915
  1193.5000      0.0000    840.4950      4.7857    112.6907
  1193.7500      0.0000    835.8628      5.0058    110.2621
  1194.0000      0.0000    826.7015      5.0573    108.1418
  1194.2500      0.0000    809.4718      4.9456    104.3568
  1194.5000      0.0000    787.0699      4.8204     98.9889
  1194.7500      0.0000    766.7681      4.7859     93.5291
  1195.0000      0.0000    753.4016      4.7827     88.6444
  1195.2500      0.0000    745.6673      4.6668     83.4912
  1195.5000      0.0000    739.1752      4.3827     77.3266
  1195.7500      0.0000    731.6581      4.0317     70.9850
  1196.0000      0.0000    724.4774      3.7811     66.3847
