~Version Information
VERS.                      2.0: CWLS Log ASCII Standard - VERSION 2.0
WRAP.                       NO: One line per depth step
~Well Information Block
STRT.FT               952.6000: 
STOP.FT              2511.5000: 
STEP.FT                 0.1000: 
NULL.                -999.2500: 
COMP.          Petrogulf Corporation: COMPANY
WELL.             Royal 8-33 V: WELL
FLD.           Purgatoire River: FIELD
LOC.           2365' FSL & 2336' FEL: LOCATION
PROV.                 Colorado: PROVINCE
CNTY.               Las Animas: COUNTRY
SRVC.                Patterson: SERVICE COMPANY
DATE.          Fri Dec 05 09:15:49 2003: LOG DATE
UWI.                          : UNIQUE WELL ID
~Curve Information Block
DEPT.FT            0 000 00 00: Depth
DCAL.in                       : CDL Caliper
RHOB.g/cc                     : CDL Bulk Density
RHOC.g/cc                     : CDL Density Correction
DPOR.pu                       : CDL Density Porosity
GR.GAPI                       : Gamma Ray
NPOR.pu                       : Neutron Porosity
~Parameter Information Block
~A  Depth       DCAL        RHOB        RHOC        DPOR         GR         NPOR    
# ...
  1682.2000      8.1826      2.5430      0.0676      6.4838     36.3993     14.0321
  1682.3000      8.1514      2.5447      0.1183      6.3811     38.8300     13.6086
  1682.4000      8.1514      2.5650      0.1388      5.1506     42.6783     13.4012
  1682.5000      8.1197      2.5885      0.1701      3.7260     47.9482     13.4951
  1682.6000      8.1197      2.5984      0.1741      3.1248     52.0416     13.5063
  1682.7000      8.1197      2.5946      0.1570      3.3588     53.9914     13.1166
  1682.8000      8.1161      2.5847      0.1734      3.9554     55.9324     12.4753
  1682.9000      8.1161      2.5754      0.1183      4.5210     55.8809     11.9222
  1683.0000      8.1102      2.5732      0.1269      4.6550     53.8243     11.7768
  1683.1000      8.1102      2.5696      0.1463      4.8709     52.7991     12.0779
  1683.2000      8.1102      2.5498      0.1183      6.0702     51.6989     12.4820
  1683.3000      8.1555      2.5126      0.0833      8.3285     49.9737     12.7700
  1683.4000      8.1555      2.4706      0.0452     10.8730     49.6870     13.0822
  1683.5000      8.1744      2.4449      0.0222     12.4306     50.7345     13.3776
  1683.6000      8.1744      2.4454      0.0422     12.3971     49.8192     13.3905
  1683.7000      8.1744      2.4620      0.0735     11.3954     46.3664     13.2247
  1683.8000      8.1851      2.4881      0.0140      9.8139     47.0295     13.0962
  1683.9000      8.1851      2.5199      0.1457      7.8851     53.6743     12.6770
  1684.0000      8.1749      2.5335      0.1546      7.0608     57.9708     11.9159
  1684.1000      8.1749      2.5158      0.0487      8.1319     56.7065     11.5213
  1684.2000      8.1749      2.4855      0.0436      9.9719     55.8261     11.6299
  1684.3000      8.1640      2.4675      0.0310     11.0591     57.1557     11.7332
  1684.4000      8.1640      2.4759      0.0257     10.5529     57.7969     11.8635
  1684.5000      8.1503      2.4932      0.1169      9.5023     59.1303     12.3310
  1684.6000      8.1503      2.4960      0.0970      9.3345     63.5825     12.8526
  1684.7000      8.1503      2.4985      0.0736      9.1841     66.7486     12.8178
  1684.8000      8.1477      2.5142      0.0919      8.2296     64.7315     12.2900
  1684.9000      8.1477      2.5288      0.1099      7.3434     62.2650     12.0781
  1685.0000      8.1655      2.5390      0.0788      6.7296     61.9210     12.5524
  1685.1000      8.1655      2.5497      0.1202      6.0783     58.7879     13.0986
  1685.2000      8.1655      2.5523      0.0823      5.9227     53.4149     13.1526
  1685.3000      8.2177      2.5429      0.1075      6.4936     51.5327     12.8082
  1685.4000      8.2177      2.5282      0.0690      7.3821     57.1730     12.4531
  1685.5000      8.2754      2.5148      0.0583      8.1968     67.4161     12.2297
  1685.6000      8.2754      2.5065      0.0333      8.6959     72.9551     12.1225
  1685.7000      8.2754      2.5025      0.0443      8.9376     72.0199     12.3171
  1685.8000      8.2905      2.4988      0.0411      9.1649     69.9559     12.6739
  1685.9000      8.2905      2.4949      0.0526      9.4009     66.8768     12.7601
  1686.0000      8.2892      2.4895      0.0725      9.7282     63.3631     12.7895
  1686.1000      8.2892      2.4831      0.0186     10.1145     63.8197     13.2729
  1686.2000      8.2892      2.4821      0.0694     10.1730     65.3663     14.0067
  1686.3000      8.2512      2.4880      0.0498      9.8170     63.5837     14.5681
  1686.4000      8.2512      2.4939      0.1226      9.4609     60.1311     14.8861
  1686.5000      8.2321      2.4934      0.0528      9.4902     58.4103     14.9645
  1686.6000      8.2321      2.4888      0.0778      9.7725     60.4573     14.7983
  1686.7000      8.2321      2.4786      0.0654     10.3853     63.0739     14.5425
  1686.8000      8.2146      2.4676      0.0326     11.0540     60.2509     14.3982
  1686.9000      8.2146      2.4685      0.0595     10.9999     51.9581     14.5175
  1687.0000      8.1950      2.4828      0.0817     10.1307     43.6575     14.7587
  1687.1000      8.1950      2.5038      0.0947      8.8626     42.4103     14.6777
  1687.2000      8.1950      2.5321      0.0946      7.1446     49.5129     14.2488
  1687.3000      8.1657      2.5649      0.1299      5.1560     57.3357     13.6730
  1687.4000      8.1657      2.5797      0.1377      4.2621     60.2033     13.0370
  1687.5000      8.1564      2.5666      0.1074      5.0570     60.1003     12.5926
  1687.6000      8.1564      2.5479      0.0958      6.1896     59.3216     12.5374
  1687.7000      8.1564      2.5430      0.1277      6.4874     59.1576     12.5861
  1687.8000      8.1338      2.5478      0.1444      6.1926     61.8497     12.3906
  1687.9000      8.1338      2.5546      0.1700      5.7806     66.0904     12.0707
  1688.0000      8.1313      2.5568      0.1209      5.6488     67.0146     11.7788
  1688.1000      8.1313      2.5419      0.1148      6.5517     62.3613     11.6706
  1688.2000      8.1313      2.5124      0.1232      8.3364     55.8914     11.8722
  1688.3000      8.1564      2.4940      0.0915      9.4567     52.9069     12.0311
  1688.4000      8.1564      2.5015      0.0771      8.9984     53.3847     11.8762
  1688.5000      8.1321      2.5192      0.1223      7.9262     55.9512     11.5381
  1688.6000      8.1321      2.5244      0.1214      7.6140     60.4336     11.4189
  1688.7000      8.1321      2.5163      0.0536      8.1041     63.1297     11.9194
  1688.8000      8.1446      2.5061      0.0789      8.7216     62.3259     12.5789
  1688.9000      8.1446      2.4967      0.1223      9.2926     61.3356     12.5154
  1689.0000      8.1415      2.4873      0.0765      9.8585     61.0407     11.7981
  1689.1000      8.1415      2.4790      0.1045     10.3622     60.1805     11.1429
  1689.2000      8.1415      2.4743      0.0117     10.6474     58.9341     11.0198
  1689.3000      8.1093      2.4750      0.0925     10.6055     58.8060     11.3110
  1689.4000      8.1093      2.4771      0.0629     10.4759     61.5807     11.4513
  1689.5000      8.1569      2.4850      0.0364      9.9995     66.9436     11.2257
  1689.6000      8.1569      2.5095      0.0769      8.5160     71.5527     11.0678
  1689.7000      8.1569      2.5424      0.1266      6.5193     73.8091     11.1306
  1689.8000      8.1692      2.5566      0.1125      5.6599     75.0623     11.2483
  1689.9000      8.1692      2.5460      0.1105      6.3044     74.5828     11.4989
  1690.0000      8.1849      2.5276      0.0782      7.4193     72.4139     11.7355
  1690.1000      8.1849      2.5060      0.0877      8.7271     69.8587     11.6069
  1690.2000      8.1849      2.4830      0.0336     10.1189     67.0989     11.1877
  1690.3000      8.2034      2.4696      0.0965     10.9312     64.0407     10.8176
  1690.4000      8.2034      2.4722      0.0371     10.7748     61.4705     10.4541
  1690.5000      8.2184      2.4899      0.0635      9.7057     60.3548      9.8210
  1690.6000      8.2184      2.5086      0.0742      8.5709     59.4827      9.2291
  1690.7000      8.2184      2.5119      0.1016      8.3700     57.2457      9.1316
  1690.8000      8.2662      2.5064      0.0720      8.7053     54.5810      9.5099
  1690.9000      8.2662      2.5086      0.1097      8.5692     53.6914     10.1491
  1691.0000      8.2954      2.5142      0.1332      8.2303     53.7741     10.6046
  1691.1000      8.2954      2.5122      0.1221      8.3516     53.3661     10.5035
  1691.2000      8.2954      2.5140      0.0963      8.2422     53.4847     10.2162
  1691.3000      8.3038      2.5338      0.0837      7.0435     55.1744     10.1389
  1691.4000      8.3038      2.5497      0.1625      6.0762     56.5638     10.2535
  1691.5000      8.3121      2.5292      0.1162      7.3232     54.4614     10.5073
  1691.6000      8.3121      2.4876      0.1007      9.8441     50.6164     10.5674
  1691.7000      8.3121      2.4735      0.0036     10.6967     49.4894     10.2598
