~Version Information
VERS.                      2.0: CWLS Log ASCII Standard - VERSION 2.0
WRAP.                       NO: One line per depth step
~Well Information Block
STRT.FT               519.6000: 
STOP.FT              2727.5000: 
STEP.FT                 0.1000: 
NULL.                -999.2500: 
COMP.          Petrogulf Corporation: COMPANY
WELL.              Silva 6-22V: WELL
FLD.           Purgatorie River: FIELD
LOC.           1936' FNL & 1798' FWL: LOCATION
CNTY.               Las Animas: COUNTY
SRVC.                         : SERVICE COMPANY
DATE.          Tue Nov 09 12:21:27 2004: LOG DATE
UWI.           05 071 08143 00: UNIQUE WELL ID
STAT.                 Colorado: STATE
~Curve Information Block
DEPT.FT            0 000 00 00: Depth
DCAL.in                       : CDL Caliper
RHOB.g/cc                     : CDL Bulk Density
RHOC.g/cc                     : CDL Density Correction
DPOR.pu                       : CDL Density Porosity
GR.GAPI                       : Gamma Ray
NPOR.pu                       : Neutron Porosity
~Parameter Information Block
~A  Depth       DCAL        RHOB        RHOC        DPOR         GR         NPOR    
# ...
  1412.4000      8.0437      2.5835     -0.0322      4.0289    126.0157     23.5187
  1412.5000      8.0501      2.5668      0.0024      5.0418    130.6396     24.9783
  1412.6000      8.0501      2.5686      0.0375      4.9306    139.9671     25.9811
  1412.7000      8.0501      2.5803      0.0636      4.2217    153.3874     25.4316
  1412.8000      8.0524      2.5925      0.0348      3.4869    162.8854     24.2022
  1412.9000      8.0524      2.6005      0.0197      2.9991    161.1286     23.7814
  1413.0000      8.0521      2.6034      0.0523      2.8239    151.7142     24.3963
  1413.1000      8.0521      2.6201     -0.0137      1.8147    145.2848     25.6455
  1413.2000      8.0521      2.6712      0.0458     -1.2841    144.3896     26.7817
  1413.3000      8.0468      2.7327      0.0904     -5.0101    145.9615     26.7983
  1413.4000      8.0468      2.7669      0.1028     -7.0860    148.7451     26.0183
  1413.5000      8.0388      2.7703      0.0782     -7.2908    148.7227     25.8295
  1413.6000      8.0388      2.7545      0.1062     -6.3329    143.7813     26.5201
  1413.7000      8.0388      2.7305      0.0302     -4.8791    139.7432     27.2372
  1413.8000      8.0384      2.7048      0.0309     -3.3210    139.5140     27.3425
  1413.9000      8.0384      2.6666     -0.0204     -1.0077    139.7371     27.2681
  1414.0000      8.0427      2.6084     -0.1104      2.5224    137.7221     27.6703
  1414.1000      8.0427      2.5439     -0.1338      6.4320    131.6823     28.3367
  1414.2000      8.0427      2.5036     -0.2096      8.8722    123.8468     28.3205
  1414.3000      8.0399      2.5152     -0.1177      8.1694    118.2351     27.2678
  1414.4000      8.0399      2.5721      0.0129      4.7186    116.9473     25.8674
  1414.5000      8.0300      2.6325      0.1417      1.0625    121.7364     24.8669
  1414.6000      8.0300      2.6591      0.1917     -0.5491    131.7517     24.6271
  1414.7000      8.0300      2.6577      0.1455     -0.4687    139.7741     25.3064
  1414.8000      8.0227      2.6513      0.1446     -0.0795    141.5459     26.6275
  1414.9000      8.0227      2.6380      0.1659      0.7271    139.9089     27.7436
  1415.0000      8.0214      2.6070      0.1168      2.6075    136.9018     28.5752
  1415.1000      8.0214      2.5614      0.0937      5.3682    136.4786     29.4212
  1415.2000      8.0214      2.5162      0.0489      8.1093    141.7616     29.9303
  1415.3000      8.0225      2.4882      0.0483      9.8089    148.5462     29.9922
  1415.4000      8.0225      2.4777      0.0503     10.4395    149.4780     29.7992
  1415.5000      8.0271      2.4709      0.0392     10.8520    146.0972     29.3086
  1415.6000      8.0271      2.4668      0.0716     11.1008    146.5325     28.7037
  1415.7000      8.0271      2.4746      0.1217     10.6281    149.0799     28.4862
  1415.8000      8.0290      2.4869      0.2035      9.8841    148.7602     28.8480
  1415.9000      8.0290      2.4858      0.2227      9.9525    146.9142     29.5266
  1416.0000      8.0308      2.4739      0.1787     10.6719    145.7489     30.2886
  1416.1000      8.0308      2.4675      0.1770     11.0622    149.0987     30.8049
  1416.2000      8.0308      2.4666      0.1609     11.1132    155.0988     30.6019
  1416.3000      8.0338      2.4655      0.0951     11.1790    156.5357     29.6262
  1416.4000      8.0338      2.4687      0.0870     10.9851    152.2110     28.4402
  1416.5000      8.0355      2.4799      0.1049     10.3112    147.1415     27.7388
  1416.6000      8.0355      2.4925      0.1086      9.5446    146.3852     27.5532
  1416.7000      8.0355      2.4948      0.1191      9.4059    145.6762     27.5916
  1416.8000      8.0395      2.4819      0.0782     10.1889    139.9954     27.7230
  1416.9000      8.0395      2.4617      0.0617     11.4113    135.2747     27.7020
  1417.0000      8.0471      2.4476      0.0114     12.2650    135.7199     27.4464
  1417.1000      8.0471      2.4446      0.0724     12.4459    136.2310     27.1762
  1417.2000      8.0471      2.4433      0.0783     12.5267    134.2979     27.0892
  1417.3000      8.0503      2.4412      0.0857     12.6562    135.4093     27.1090
  1417.4000      8.0503      2.4495      0.0823     12.1506    139.5211     27.0769
  1417.5000      8.0497      2.4697      0.1342     10.9245    142.4737     27.2800
  1417.6000      8.0497      2.4937      0.1111      9.4734    148.3976     27.9259
  1417.7000      8.0497      2.5210      0.1180      7.8208    157.4564     28.5608
  1417.8000      8.0514      2.5537      0.0945      5.8364    162.1801     28.9126
  1417.9000      8.0514      2.5854      0.1274      3.9130    158.9750     29.1558
  1418.0000      8.0466      2.6047      0.1263      2.7433    157.0273     29.1669
  1418.1000      8.0466      2.6120      0.1043      2.3001    163.8853     28.6479
  1418.2000      8.0466      2.6118      0.1463      2.3174    170.8034     27.7242
  1418.3000      8.0352      2.6002      0.0776      3.0185    170.3504     26.7367
  1418.4000      8.0352      2.5810      0.0375      4.1795    167.4162     25.8609
  1418.5000      8.0270      2.5619      0.0374      5.3375    166.8788     25.2265
  1418.6000      8.0270      2.5426      0.0419      6.5081    165.9963     24.6941
  1418.7000      8.0270      2.5255      0.0060      7.5467    160.5384     23.9374
  1418.8000      8.0189      2.5182      0.0287      7.9897    151.9951     23.5303
  1418.9000      8.0189      2.5262     -0.0049      7.5015    147.1264     24.2498
  1419.0000      8.0106      2.5475      0.0283      6.2133    148.8097     25.1174
  1419.1000      8.0106      2.5675      0.0349      4.9985    150.6869     24.8431
  1419.2000      8.0106      2.5788      0.0104      4.3169    151.9662     23.7578
  1419.3000      8.0171      2.5880      0.0132      3.7573    155.6295     23.1401
  1419.4000      8.0171      2.5936      0.0380      3.4154    156.6326     23.9470
  1419.5000      8.0341      2.5882      0.0348      3.7482    152.0055     24.9789
  1419.6000      8.0341      2.5848     -0.0161      3.9494    149.2507     24.1222
  1419.7000      8.0341      2.5991      0.0413      3.0864    157.0928     21.9201
  1419.8000      8.0405      2.6128      0.0260      2.2570    168.4110     20.5967
  1419.9000      8.0405      2.6026      0.0495      2.8749    167.4299     20.9592
  1420.0000      8.0412      2.5818      0.0044      4.1342    154.0424     22.2117
  1420.1000      8.0412      2.5786      0.0103      4.3299    142.4288     23.1129
  1420.2000      8.0412      2.5904      0.0679      3.6146    142.7304     22.9515
  1420.3000      8.0474      2.5921      0.0507      3.5081    151.9586     22.4820
  1420.4000      8.0474      2.5821      0.0295      4.1129    159.1740     22.4431
  1420.5000      8.0512      2.5803     -0.0094      4.2267    158.5802     22.3721
  1420.6000      8.0512      2.5829      0.0338      4.0676    152.8533     21.9858
  1420.7000      8.0512      2.5712      0.0386      4.7770    144.2719     21.7114
  1420.8000      8.0455      2.5519     -0.0013      5.9445    133.3776     21.6567
  1420.9000      8.0455      2.5405      0.0087      6.6356    124.4781     21.3793
  1421.0000      8.0359      2.5373      0.0158      6.8286    122.9569     20.6294
  1421.1000      8.0359      2.5401      0.0233      6.6624    126.4224     19.9978
  1421.2000      8.0359      2.5485     -0.0079      6.1496    130.1378     20.2183
  1421.3000      8.0361      2.5567      0.0219      5.6549    132.3217     21.4655
  1421.4000      8.0361      2.5524      0.0283      5.9177    133.2618     23.1488
  1421.5000      8.0393      2.5348      0.0169      6.9801    135.6970     23.6888
  1421.6000      8.0393      2.5195     -0.0028      7.9070    137.7904     22.6744
  1421.7000      8.0393      2.5196      0.0207      7.9060    135.8048     21.3376
  1421.8000      8.0350      2.5373      0.0353      6.8313    130.7991     20.5986
  1421.9000      8.0350      2.5623      0.0549      5.3139    126.5011     20.6622
