~Version Information
VERS.                      2.0: CWLS Log ASCII Standard - VERSION 2.0
WRAP.                       NO: One line per depth step
~Well Information Block
STRT.FT                -7.5000: 
STOP.FT              2226.0000: 
STEP.FT                 0.2500: 
NULL.                -999.2500: 
COMP.          Pioneer Natural Resources: COMPANY
WELL.              Tonto 42-23: WELL
FLD.           Purgatorie River: FIELD
LOC.           2217' FNL & 423' FEL----: LOCATION
PROV.                       CO: PROVINCE
CNTY.               Las Animas: COUNTRY
SRVC.          Patterson Wireline: SERVICE COMPANY
DATE.          Fri Apr 22 11:40:07 2005: LOG DATE
UWI.           05 071 08335 00: UNIQUE WELL ID
~Curve Information Block
DEPT.FT            0 000 00 00: Depth
CCL.                          : Casing Collar Locator
TT3.usec                      : CBL 3' Travel Time
AMP3.mV                       : CBL 3' Amplitude
GR.GAPI                       : Gamma Ray
~Parameter Information Block
~A  Depth       CCL         TT3         AMP3         GR     
# ...
   595.5000      0.0000    653.4039      9.0440     99.3255
   595.7500      0.0000    584.2108      8.9695     98.7038
   596.0000      0.0000    505.7139      8.8558     95.4181
   596.2500      0.0000    436.3540      8.7256     90.5911
   596.5000      0.0000    388.6105      8.6113     85.5225
   596.7500      0.0000    363.0059      8.5389     81.1285
   597.0000      0.0000    352.3145      8.5171     78.0197
   597.2500      0.0000    348.8660      8.5386     76.9972
   597.5000      0.0000    348.0626      8.5871     79.0928
   597.7500      0.0000    348.0045      8.6423     84.5288
   598.0000      0.0000    348.0841      8.6859     91.4302
   598.2500      0.0000    348.1281      8.7130     96.2903
   598.5000      0.0000    348.1000      8.7361     96.5961
   598.7500      0.0000    348.0493      8.7700     92.9973
   599.0000      0.0000    348.0544      8.8134     88.4587
   599.2500      0.0000    348.1702      8.8495     85.3326
   599.5000      0.0000    348.3942      8.8659     83.6145
   599.7500      0.0000    348.6726      8.8649     81.8532
   600.0000      0.0000    348.9398      8.8548     79.0924
   600.2500      0.0000    349.1563      8.8364     75.6675
   600.5000      0.0000    349.3141      8.8061     72.5732
   600.7500      0.0000    349.4192      8.7707     70.5197
   601.0000      0.0000    349.4797      8.7539     69.4539
   601.2500      0.0000    349.5090      8.7839     68.6650
   601.5000      0.0000    349.5300      8.8719     67.3696
   601.7500      0.0000    349.5705      9.0001     65.5193
   602.0000      0.0000    349.6549      9.1285     64.1203
   602.2500      0.0000    349.7904      9.2187     64.3294
   602.5000      0.0000    349.9720      9.2566     65.9330
   602.7500      0.0000    350.2133      9.2540     67.1757
   603.0000      0.0000    350.7028      9.2313     66.5064
   603.2500      0.0000    352.1055      9.1992     64.1842
   603.5000      0.0000    355.8897      9.1518     61.8191
   603.7500      0.0000    364.3246      9.0673     60.5821
   604.0000      0.0000    379.8913      8.9170     60.2554
   604.2500      0.0000    405.3755      8.6737     59.9147
   604.5000      0.0000    445.5759      8.3074     59.0508
   604.7500      0.0000    506.6722      7.7937     57.8013
   605.0000      0.0000    588.1613      7.1703     56.3995
   605.2500      0.0000    674.1619      6.5875     54.8530
   605.5000      0.0000    739.1756      6.2381     53.2842
   605.7500      0.0000    767.0219      6.2013     52.2962
   606.0000      0.0000    762.3906      6.3819     52.7465
   606.2500      2.0000    742.8214      6.6090     55.1634
   606.5000      2.0000    722.5038      6.7602     59.3482
   606.7500      0.0000    704.9927      6.8031     64.4252
   607.0000      0.0000    687.6151      6.7767     69.3003
   607.2500      0.0000    666.8738      6.7539     73.3108
   607.5000      0.0000    638.1151      6.7988     76.5326
   607.7500      0.0000    595.6269      6.9495     79.3872
   608.0000      0.0000    538.6082      7.2382     81.9702
   608.2500      0.0000    475.8045      7.6817     83.8028
   608.5000      0.0000    420.7877      8.2232     84.3135
   608.7500      0.0000    382.5911      8.7235     83.6314
   609.0000      0.0000    361.5156      9.0511     82.8392
   609.2500      0.0000    352.2496      9.1693     83.1734
   609.5000      0.0000    349.0103      9.1274     84.9919
   609.7500      0.0000    348.1267      8.9927     87.7754
   610.0000      0.0000    347.9778      8.8118     90.8616
   610.2500      0.0000    347.9908      8.6169     93.5607
   610.5000      0.0000    347.9951      8.4431     94.8244
   610.7500      0.0000    347.9353      8.3258     93.7457
   611.0000      0.0000    347.8020      8.2873     90.5968
   611.2500      0.0000    347.6079      8.3291     86.6983
   611.5000      0.0000    347.3885      8.4369     83.0282
   611.7500      0.0000    347.2310      8.5930     79.4733
   612.0000      0.0000    347.3389      8.7812     75.5166
   612.2500      0.0000    348.3594      8.9865     71.2421
   612.5000      0.0000    352.0270      9.1950     67.6422
   612.7500      0.0000    361.7081      9.3899     65.9734
   613.0000      0.0000    381.3972      9.5463     66.6084
   613.2500      0.0000    412.2591      9.6376     68.5204
   613.5000      0.0000    450.0432      9.6497     70.1288
   613.7500      0.0000    488.8182      9.5846     70.7486
   614.0000      0.0000    528.2969      9.4523     71.1034
   614.2500      0.0000    573.4250      9.2691     72.2716
   614.5000      0.0000    624.3814      9.0662     74.2839
   614.7500      0.0000    670.6797      8.8905     76.0049
   615.0000      0.0000    697.2015      8.7850     76.3152
   615.2500      0.0000    693.9526      8.7678     75.1041
   615.5000      0.0000    662.0766      8.8249     73.0649
   615.7500      0.0000    616.3021      8.9192     70.7940
   616.0000      0.0000    580.8386      9.0131     68.3533
   616.2500      0.0000    575.1172      9.0848     65.5975
   616.5000      0.0000    599.1673      9.1277     62.6240
   616.7500      0.0000    634.5662      9.1416     59.8041
   617.0000      0.0000    659.5462      9.1334     57.5541
   617.2500      0.0000    661.8112      9.1142     56.2480
   617.5000      0.0000    641.5439      9.0831     56.2833
   617.7500      0.0000    609.8831      9.0204     58.0533
   618.0000      0.0000    584.0933      8.9207     61.7458
   618.2500      0.0000    576.6835      8.8240     67.1077
   618.5000      0.0000    586.5307      8.7939     73.4681
   618.7500      0.0000    603.8865      8.8636     80.0740
   619.0000      0.0000    622.6449      9.0110     86.1867
   619.2500      0.0000    642.8565      9.1851     90.6365
   619.5000      0.0000    663.8336      9.3429     91.9302
   619.7500      0.0000    681.5013      9.4605     89.6790
   620.0000      0.0000    692.5559      9.5196     85.7137
   620.2500      0.0000    696.9521      9.5041     82.9757
   620.5000      0.0000    695.4836      9.4125     83.2268
   620.7500      0.0000    686.1938      9.2655     86.0292
   621.0000      0.0000    663.3764      9.0979     89.4671
   621.2500      0.0000    621.3314      8.9469     91.3983
   621.5000      0.0000    561.8779      8.8472     90.5145
   621.7500      0.0000    499.1865      8.8193     87.0511
   622.0000      0.0000    454.4138      8.8479     82.7455
   622.2500      0.0000    442.6557      8.8856     79.7583
   622.5000      0.0000    464.1086      8.8987     79.1280
   622.7500      0.0000    506.8297      8.8937     80.1315
   623.0000      0.0000    555.5118      8.8875     81.2269
   623.2500      0.0000    596.1797      8.8716     81.4907
   623.5000      0.0000    616.0762      8.8211     81.0834
   623.7500      0.0000    606.3723      8.7202     80.7320
   624.0000      0.0000    569.4370      8.5698     81.0780
   624.2500      0.0000    522.3936      8.3938     82.1127
   624.5000      0.0000    490.0232      8.2428     82.8422
   624.7500      0.0000    490.6221      8.1722     81.8473
   625.0000      0.0000    525.4146      8.2082     78.6142
   625.2500      0.0000    579.2571      8.3364     74.1843
   625.5000      0.0000    631.7318      8.5158     70.3272
   625.7500      0.0000    669.8573      8.6903     68.2232
   626.0000      0.0000    692.7137      8.7966     68.0719
   626.2500      0.0000    706.8477      8.7862     69.6427
   626.5000      0.0000    719.3091      8.6559     72.7570
   626.7500      0.0000    734.0911      8.4572     77.2418
   627.0000      0.0000    752.1473      8.2681     82.7212
   627.2500      0.0000    772.5982      8.1484     88.7337
   627.5000      0.0000    793.9227      8.1175     95.0427
   627.7500      0.0000    814.7479      8.1690    101.5230
   628.0000      0.0000    833.7405      8.2887    107.5245
   628.2500      0.0000    849.2637      8.4510    111.6720
   628.5000      0.0000    860.0256      8.6072    112.9405
   628.7500      0.0000    866.1362      8.6971    111.9071
