~Version Information
VERS.                      2.0: CWLS Log ASCII Standard - VERSION 2.0
WRAP.                       NO: One line per depth step
~Well Information Block
STRT.FT               675.0000: 
STOP.FT              2371.5000: 
STEP.FT                 0.1000: 
NULL.                -999.2500: 
COMP.          Pioneer Natural Resources: COMPANY
WELL.            Harrier 44-33: WELL
FLD.           Purgatoire River: FIELD
LOC.           456' FSL & 930' FEL: LOCATION
PROV.                 Colorado: PROVINCE
CNTY.               Las Animas: COUNTRY
SRVC.                Patterson: SERVICE COMPANY
DATE.          Mon Jun 20 10:36:59 2005: LOG DATE
UWI.           05 071 08398 00: UNIQUE WELL ID
~Curve Information Block
DEPT.FT            0 000 00 00: Depth
DCAL.in                       : CDL Caliper
RHOB.g/cc                     : CDL Bulk Density
RHOC.g/cc                     : CDL Density Correction
DPOR.pu                       : CDL Density Porosity
GR.GAPI                       : Gamma Ray
NPOR.pu                       : Neutron Porosity
~Parameter Information Block
~A  Depth       DCAL        RHOB        RHOC        DPOR         GR         NPOR    
# ...
  1798.2000      7.9583      2.6072      0.0731      2.5920     86.5989     17.8114
  1798.3000      7.9679      2.5999      0.0632      3.0381     86.3328     17.7130
  1798.4000      7.9679      2.6116      0.0214      2.3291     87.0260     17.5277
  1798.5000      7.9365      2.6306      0.1143      1.1743     85.7293     17.4200
  1798.6000      7.9365      2.6287      0.0844      1.2903     81.4914     17.4229
  1798.7000      7.9365      2.6051      0.0563      2.7203     75.3262     17.4574
  1798.8000      7.9339      2.5948      0.0152      3.3459     72.9683     17.8564
  1798.9000      7.9339      2.6136      0.0773      2.2039     77.1487     18.5140
  1799.0000      7.9325      2.6331      0.1251      1.0232     83.2120     18.9561
  1799.1000      7.9325      2.6328      0.1406      1.0420     85.8663     19.3649
  1799.2000      7.9325      2.6347      0.0923      0.9297     84.7226     19.6043
  1799.3000      7.9146      2.6623      0.1171     -0.7453     82.4516     19.6691
  1799.4000      7.9146      2.6924      0.1872     -2.5724     82.2170     20.0613
  1799.5000      7.8693      2.6888      0.1270     -2.3525     87.3800     20.3069
  1799.6000      7.8693      2.6564      0.0898     -0.3862     97.5705     20.0342
  1799.7000      7.8693      2.6195      0.0488      1.8498    107.3717     19.4748
  1799.8000      7.8853      2.5829      0.0850      4.0663    111.3688     18.8103
  1799.9000      7.8853      2.5439      0.0452      6.4287    107.9309     18.6368
  1800.0000      7.9538      2.5185     -0.0226      7.9699    100.5296     19.6145
  1800.1000      7.9538      2.5212      0.0274      7.8054     96.3481     20.9343
  1800.2000      7.9538      2.5330      0.0897      7.0891     97.6604     20.7091
  1800.3000      7.9583      2.5307      0.0534      7.2318    101.3099     19.3441
  1800.4000      7.9583      2.5239      0.0428      7.6405    103.7956     19.2571
  1800.5000      7.9226      2.5303      0.0614      7.2527    102.3261     20.9103
  1800.6000      7.9226      2.5478      0.1080      6.1938     99.6582     22.0529
  1800.7000      7.9226      2.5664      0.0974      5.0654    101.1422     21.2887
  1800.8000      7.9206      2.5827      0.1377      4.0793    105.4044     20.1414
  1800.9000      7.9206      2.5998      0.1401      3.0447    109.4943     19.9951
  1801.0000      7.8938      2.6265      0.1270      1.4213    113.2107     20.2218
  1801.1000      7.8938      2.6561      0.1997     -0.3668    114.9232     20.2901
  1801.2000      7.8938      2.6644      0.1673     -0.8752    113.6631     20.4578
  1801.3000      7.8580      2.6503      0.1548     -0.0190    111.1717     20.7964
  1801.4000      7.8580      2.6311      0.1744      1.1459    109.8494     21.3932
  1801.5000      7.8675      2.6115      0.1279      2.3356    111.1236     21.8814
  1801.6000      7.8675      2.5923      0.0791      3.4960    113.7348     21.6770
  1801.7000      7.8675      2.5825      0.0679      4.0880    116.7220     21.1491
  1801.8000      7.8916      2.5862      0.0765      3.8667    120.9539     20.7370
  1801.9000      7.8916      2.5985      0.0868      3.1236    126.4729     20.6399
  1802.0000      7.9094      2.6031      0.1127      2.8429    131.4499     21.0137
  1802.1000      7.9094      2.5881      0.0681      3.7518    135.1955     21.4168
  1802.2000      7.9094      2.5670      0.0553      5.0313    139.3555     21.7404
  1802.3000      7.9387      2.5573      0.0585      5.6203    143.1444     21.8639
  1802.4000      7.9387      2.5537      0.0404      5.8365    142.6932     21.4449
  1802.5000      7.9497      2.5479      0.0173      6.1892    137.9195     21.2882
  1802.6000      7.9497      2.5516      0.0122      5.9611    133.5444     21.9564
  1802.7000      7.9497      2.5747      0.0340      4.5619    131.0653     23.1557
  1802.8000      7.9500      2.5972      0.0841      3.1989    129.7099     24.5616
  1802.9000      7.9500      2.5923      0.0697      3.4987    130.2025     25.5409
  1803.0000      7.9523      2.5652      0.0770      5.1399    132.6302     25.5066
  1803.1000      7.9523      2.5433      0.0409      6.4653    135.5182     24.7790
  1803.2000      7.9523      2.5368      0.0708      6.8629    141.1686     23.8710
  1803.3000      7.9608      2.5299      0.0632      7.2801    151.1132     22.7637
  1803.4000      7.9608      2.5134      0.0941      8.2776    157.5654     21.9763
  1803.5000      7.9667      2.5051     -0.0208      8.7806    153.9895     22.6941
  1803.6000      7.9667      2.5267      0.0410      7.4750    146.6012     24.8458
  1803.7000      7.9667      2.5641      0.1196      5.2083    143.4251     26.6918
  1803.8000      7.9580      2.5845      0.1210      3.9720    145.5779     26.6320
  1803.9000      7.9580      2.5864      0.0621      3.8546    150.0679     24.7232
  1804.0000      7.9815      2.5909      0.0942      3.5847    153.8390     22.9015
  1804.1000      7.9815      2.5982      0.1184      3.1378    155.1957     22.2597
  1804.2000      7.9815      2.5986      0.0920      3.1136    155.7596     22.1913
  1804.3000      7.9745      2.5921      0.0705      3.5069    157.4215     22.0752
  1804.4000      7.9745      2.5829      0.0694      4.0692    157.0979     22.5812
  1804.5000      7.9745      2.5749      0.0725      4.5494    152.8336     24.3708
  1804.6000      7.9745      2.5682      0.1015      4.9580    145.8131     25.7941
  1804.7000      7.9745      2.5691      0.0271      4.9011    136.3880     25.6613
  1804.8000      7.9751      2.5968      0.0223      3.2256    128.0996     25.1020
  1804.9000      7.9751      2.6431      0.0842      0.4164    124.1600     24.4308
  1805.0000      7.9786      2.6747      0.1355     -1.4968    122.4865     23.1118
  1805.1000      7.9786      2.6799      0.1130     -1.8129    122.3009     21.8140
  1805.2000      7.9786      2.6620      0.1113     -0.7293    124.6214     21.5922
  1805.3000      7.9793      2.6208      0.0731      1.7705    126.0570     22.3527
  1805.4000      7.9793      2.5708      0.0582      4.7974    122.9120     23.1759
  1805.5000      7.9709      2.5465     -0.0686      6.2706    115.2006     23.3786
  1805.6000      7.9709      2.5618      0.0362      5.3484    107.7930     22.8605
  1805.7000      7.9709      2.5853      0.0474      3.9204    108.2997     21.9425
  1805.8000      7.9705      2.5937      0.0461      3.4146    115.4273     21.1125
  1805.9000      7.9705      2.5872      0.1002      3.8054    119.5473     20.7120
  1806.0000      7.9555      2.5698      0.0364      4.8624    120.0056     20.9738
  1806.1000      7.9555      2.5535      0.0816      5.8514    123.5656     21.8475
  1806.2000      7.9555      2.5481      0.1075      6.1756    129.3344     22.5027
  1806.3000      7.9509      2.5615      0.0693      5.3620    132.3422     22.8141
  1806.4000      7.9509      2.5995      0.0813      3.0599    131.1525     23.0716
  1806.5000      7.9534      2.6502      0.1214     -0.0093    126.5110     23.0494
  1806.6000      7.9534      2.6898      0.1112     -2.4136    122.4427     23.1470
  1806.7000      7.9534      2.7023      0.1077     -3.1714    122.5934     23.5364
  1806.8000      7.9611      2.6897      0.0299     -2.4050    125.8778     23.9271
  1806.9000      7.9611      2.6643      0.1121     -0.8641    130.5059     24.3682
  1807.0000      7.9626      2.6442      0.0349      0.3492    134.2208     24.1589
  1807.1000      7.9626      2.6547      0.1033     -0.2869    132.6807     22.8087
  1807.2000      7.9626      2.6950      0.0282     -2.7284    124.8071     21.8755
  1807.3000      7.9679      2.7380      0.0527     -5.3333    117.6338     22.7267
  1807.4000      7.9679      2.7579     -0.0103     -6.5391    116.9587     24.3816
  1807.5000      7.9563      2.7452     -0.0327     -5.7701    119.3203     25.0890
  1807.6000      7.9563      2.7142     -0.0519     -3.8880    117.9490     24.7061
  1807.7000      7.9563      2.6840      0.0259     -2.0580    112.1875     24.5040
