~Version Information
VERS.                      2.0: CWLS Log ASCII Standard - VERSION 2.0
WRAP.                       NO: One line per depth step
~Well Information Block
STRT.FT               480.0000: 
STOP.FT              1994.2500: 
STEP.FT                 0.2500: 
NULL.                -999.2500: 
COMP.          Evergreen Operating Corporation: COMPANY
WELL.          McCullough 34-32 Tr: WELL
FLD.           Purgatoire River: FIELD
LOC.           394' FSL & 2077' FEL: LOCATION
PROV.                 Colorado: PROVINCE
CNTY.               Las Animas: COUNTRY
SRVC.                Patterson: SERVICE COMPANY
DATE.          Sun Sep 19 05:48:59 2004: LOG DATE
UWI.           05 071 08157 00: UNIQUE WELL ID
~Curve Information Block
DEPT.FT            0 000 00 00: Depth
SN.Ohm-m                      : IEL Short Normal
SP.mV                         : IEL Spontaneous Potential
DIR.Ohm-m                     : IEL Induction Resistivity
GR.GAPI                       : Gamma Ray
~Parameter Information Block
~A  Depth        SN          SP         DIR          GR     
# ...
  1753.0000     19.7981    291.9495     14.3606     88.4685
  1753.2500     19.1617    292.1490     14.3821     93.1643
  1753.5000     18.4337    292.3545     14.2304    103.9666
  1753.7500     17.7296    292.5506     13.9647    112.2635
  1754.0000     17.0685    292.7287     13.6468    123.5502
  1754.2500     16.4139    292.8846     13.3225    129.0033
  1754.5000     15.7319    293.0160     13.0111    132.9071
  1754.7500     15.0218    293.1219     12.7086    132.6600
  1755.0000     14.3122    293.2031     12.3998    129.2545
  1755.2500     13.6431    293.2625     12.0731    126.2645
  1755.5000     13.0490    293.3048     11.7292    123.0432
  1755.7500     12.5460    293.3343     11.3814    122.5319
  1756.0000     12.1272    293.3530     11.0465    124.1154
  1756.2500     11.7626    293.3602     10.7342    126.1749
  1756.5000     11.4091    293.3535     10.4416    129.9531
  1756.7500     11.0317    293.3329     10.1585    132.7107
  1757.0000     10.6312    293.3029      9.8781    136.9591
  1757.2500     10.2544    293.2731      9.6030    139.7554
  1757.5000      9.9654    293.2546      9.3434    143.9084
  1757.7500      9.7942    293.2550      9.1088    146.5878
  1758.0000      9.7123    293.2748      8.9035    149.6689
  1758.2500      9.6570    293.3065      8.7270    150.3853
  1758.5000      9.5760    293.3383      8.5780    148.9076
  1758.7500      9.4500    293.3598      8.4549    146.6216
  1759.0000      9.2856    293.3662      8.3554    142.5573
  1759.2500      9.1017    293.3601      8.2749    140.0948
  1759.5000      8.9205    293.3491      8.2079    137.6223
  1759.7500      8.7603    293.3413      8.1496    137.2674
  1760.0000      8.6292    293.3423      8.0951    139.1349
  1760.2500      8.5243    293.3525      8.0387    141.6249
  1760.5000      8.4368    293.3687      7.9733    145.7689
  1760.7500      8.3571    293.3857      7.8921    148.1898
  1761.0000      8.2763    293.3998      7.7918    151.2887
  1761.2500      8.1873    293.4099      7.6733    153.0857
  1761.5000      8.0862    293.4194      7.5422    154.8778
  1761.7500      7.9745    293.4345      7.4071    155.1421
  1762.0000      7.8581    293.4619      7.2786    154.3897
  1762.2500      7.7453    293.5066      7.1669    153.5673
  1762.5000      7.6436    293.5694      7.0797    152.3014
  1762.7500      7.5587    293.6471      7.0198    151.4623
  1763.0000      7.4922    293.7325      6.9843    150.4307
  1763.2500      7.4415    293.8155      6.9653    150.2704
  1763.5000      7.4000    293.8834      6.9538    151.4244
  1763.7500      7.3595    293.9223      6.9426    153.0670
  1764.0000      7.3130    293.9202      6.9291    155.8326
  1764.2500      7.2583    293.8705      6.9144    157.0683
  1764.5000      7.2006    293.7766      6.9006    157.2436
  1764.7500      7.1508    293.6530      6.8877    156.4271
  1765.0000      7.1183    293.5227      6.8740    154.7498
  1765.2500      7.1049    293.4106      6.8571    153.8513
  1765.5000      7.1036    293.3360      6.8360    153.3876
  1765.7500      7.1035    293.3074      6.8111    153.7397
  1766.0000      7.0973    293.3223      6.7838    154.7194
  1766.2500      7.0859    293.3708      6.7565    155.0483
  1766.5000      7.0787    293.4409      6.7323    154.2640
  1766.7500      7.0850    293.5226      6.7158    153.0200
  1767.0000      7.1034    293.6096      6.7127    151.0450
  1767.2500      7.1162    293.6998      6.7290    150.0388
  1767.5000      7.1004    293.7935      6.7689    148.6159
  1767.7500      7.0525    293.8908      6.8329    147.2089
  1768.0000      7.0069    293.9900      6.9167    144.0985
  1768.2500      7.0208    294.0864      7.0119    141.6814
  1768.5000      7.1261    294.1731      7.1073    138.5255
  1768.7500      7.3046    294.2441      7.1921    137.2366
  1769.0000      7.5128    294.2961      7.2585    136.6364
  1769.2500      7.7174    294.3302      7.3034    136.6593
  1769.5000      7.8962    294.3513      7.3302    136.5290
  1769.7500      8.0303    294.3651      7.3478    136.4717
  1770.0000      8.1199    294.3754      7.3695    137.4858
  1770.2500      8.1947    294.3813      7.4086    139.3277
  1770.5000      8.2909    294.3763      7.4749    143.3788
  1770.7500      8.4187    294.3489      7.5714    145.9085
  1771.0000      8.5602    294.2858      7.6952    147.1266
  1771.2500      8.6908    294.1765      7.8404    145.3677
  1771.5000      8.7989    294.0179      8.0025    139.2997
  1771.7500      8.8894    293.8164      8.1806    134.0325
  1772.0000      8.9782    293.5869      8.3765    126.1841
  1772.2500      9.0828    293.3494      8.5914    121.8062
  1772.5000      9.2122    293.1246      8.8216    117.7316
  1772.7500      9.3593    292.9321      9.0539    117.3056
  1773.0000      9.5014    292.7876      9.2656    120.4788
  1773.2500      9.6108    292.7016      9.4291    124.7685
  1773.5000      9.6723    292.6772      9.5230    133.2860
  1773.7500      9.6970    292.7085      9.5412    139.6064
  1774.0000      9.7162    292.7813      9.4948    148.5897
  1774.2500      9.7534    292.8770      9.4059    153.2811
  1774.5000      9.7966    292.9773      9.2998    157.2431
  1774.7500      9.8083    293.0700      9.1994    157.9263
  1775.0000      9.7694    293.1506      9.1224    157.3391
  1775.2500      9.7054    293.2205      9.0805    156.7096
  1775.5000      9.6650    293.2834      9.0795    155.9527
  1775.7500      9.6764    293.3403      9.1209    155.4091
  1776.0000      9.7342    293.3876      9.2028    154.3506
  1776.2500      9.8254    293.4175      9.3222    153.7074
  1776.5000      9.9603    293.4202      9.4763    153.1354
  1776.7500     10.1747    293.3870      9.6647    152.6697
  1777.0000     10.5126    293.3126      9.8896    150.6933
  1777.2500     11.0082    293.1950     10.1554    148.1550
  1777.5000     11.6736    293.0340     10.4664    142.7992
  1777.7500     12.4897    292.8275     10.8250    138.5246
  1778.0000     13.4096    292.5704     11.2302    131.2372
  1778.2500     14.3831    292.2549     11.6769    125.7356
  1778.5000     15.3880    291.8751     12.1582    116.6995
  1778.7500     16.4401    291.4351     12.6672    110.5180
  1779.0000     17.5715    290.9544     13.1955    101.6697
  1779.2500     18.7888    290.4713     13.7283     96.3239
  1779.5000     20.0292    290.0369     14.2387     89.5862
  1779.7500     21.1288    289.7051     14.6822     86.2295
  1780.0000     21.8461    289.5182     14.9939     83.1707
  1780.2500     21.9653    289.4957     15.0942     82.5632
  1780.5000     21.4246    289.6306     14.9141     84.4485
  1780.7500     20.3573    289.8927     14.4326     88.2812
  1781.0000     19.0055    290.2379     13.6984     98.9423
  1781.2500     17.5842    290.6194     12.8134    109.1931
  1781.5000     16.2114    290.9957     11.8892    127.1551
  1781.7500     14.9311    291.3354     11.0129    138.8861
  1782.0000     13.7667    291.6180     10.2357    153.1388
  1782.2500     12.7457    291.8343      9.5789    159.6003
  1782.5000     11.8905    291.9852      9.0447    164.8769
  1782.7500     11.2053    292.0822      8.6250    165.8551
  1783.0000     10.6757    292.1452      8.3075    164.0326
  1783.2500     10.2769    292.1976      8.0785    161.0810
  1783.5000      9.9811    292.2599      7.9250    155.7737
  1783.7500      9.7652    292.3428      7.8351    152.8814
  1784.0000      9.6203    292.4436      7.7994    150.5803
  1784.2500      9.5553    292.5470      7.8121    150.0668
  1784.5000      9.5873    292.6307      7.8714    149.2947
  1784.7500      9.7253    292.6725      7.9791    148.0152
  1785.0000      9.9645    292.6576      8.1402    144.8888
  1785.2500     10.2923    292.5813      8.3605    142.7173
  1785.5000     10.6937    292.4482      8.6452    140.5794
  1785.7500     11.1536    292.2672      8.9960    139.7714
  1786.0000     11.6582    292.0468      9.4090    137.6233
  1786.2500     12.2002    291.7928      9.8743    134.4087
