~Version Information
 VERS.                                  2.0 : CWLS LAS VERSION
 WRAP.                                   NO : WRAPING MODE
 SWARE .                 MController 2.5.0N : SOFTWARE VERSION
~Well Information
 WELL.                    Santisteven 13-22 : WELL
 COMP.    Pioneer Natural Resources USA Inc : COMPANY
 FLD.                      Purgatoire River : FIELD
 LOC.                NW/SW Sec 22 T33S R65W : LOCATION
 DATE.                               4/2/05 : DATE(S) LOGGED
 SRVC.       Blanco Geological Services LLC : SERVICE COMPANY
 STAT.                                   CO : STATE
 CNTY.                           Las Animas : COUNTY
 CTRY.                                  USA : COUNTRY
 API.                       05-071-08337-00 : API NUMBER
 STRT.FT                             254.00 : START DEPTH
 STOP.FT                             894.00 : STOP DEPTH
 STEP.FT                               1.00 : DEPTH INCREMENT
 NULL.                                -9999 : NULL VALUE
~Curve information
 DEPTH.FT                                   :
 ROP.MIN/FT                                 :
 GAS.UNITS                                  :
~ASCII Log data
# ...
       654.0         0.37        920.3 
       655.0         0.30        826.3 
       656.0         0.23        740.7 
       657.0         0.17        732.6 
       658.0         0.17        668.3 
       659.0         0.33        663.2 
       660.0         0.43        600.5 
       661.0         0.52        652.4 
       662.0         0.43        657.1 
       663.0         0.43        640.0 
       664.0         0.47        621.1 
       665.0         0.47        618.1 
       666.0         0.43        612.7 
       667.0         0.40        604.9 
       668.0         0.38        603.2 
       669.0         0.20        595.2 
       670.0         0.13        595.8 
       671.0         0.33        592.8 
       672.0         0.40        617.1 
       673.0         0.40        658.8 
       674.0         0.33        672.3 
       675.0         0.30        672.6 
       676.0         0.20        669.3 
       677.0         0.33        665.9 
       678.0         0.40        673.3 
       679.0         0.45        673.3 
       680.0         0.47        671.6 
       681.0         3.02       1781.1 
       682.0         0.97       1578.3 
       683.0         0.50       1000.8 
       684.0         0.40        894.7 
       685.0         0.37        827.3 
       686.0         0.40        740.7 
       687.0         0.42        689.8 
       688.0         0.43        670.6 
       689.0         0.43        666.6 
       690.0         0.47        656.5 
       691.0         0.40        648.4 
       692.0         0.33        644.0 
       693.0         0.37        642.0 
       694.0         0.37        641.0 
       695.0         0.45        640.3 
       696.0         0.37        642.3 
       697.0         0.40        646.4 
       698.0         0.50        643.3 
       699.0         0.50        641.6 
       700.0         0.50        646.4 
       701.0         0.47        643.0 
       702.0         0.52        637.6 
       703.0         0.43        643.7 
       704.0         0.50        644.0 
       705.0         0.40        644.3 
       706.0         0.47        635.6 
       707.0         0.40        627.8 
       708.0         0.23        617.4 
       709.0         0.40        628.2 
       710.0         0.48        638.3 
       711.0         3.38       1644.6 
       712.0         0.43       1004.8 
       713.0         0.33        977.2 
       714.0         0.17        983.3 
       715.0         0.23        931.1 
       716.0         0.43        875.8 
       717.0         0.50        785.8 
       718.0         0.47        732.9 
       719.0         0.33        870.7 
       720.0         0.32        891.3 
       721.0         0.10        775.1 
       722.0         0.27        690.2 
       723.0         0.40        682.7 
       724.0         0.40        672.3 
       725.0         0.40        685.8 
       726.0         0.27        687.1 
       727.0         0.33        686.5 
       728.0         0.57        678.4 
       729.0         0.40        678.4 
       730.0         0.18        666.6 
       731.0         0.17        663.9 
       732.0         0.37        661.2 
       733.0         0.37        712.7 
       734.0         0.40        757.9 
       735.0         0.33        761.6 
       736.0         0.37        759.2 
       737.0         0.33        723.5 
       738.0         0.47        725.9 
       739.0         0.52        727.2 
       740.0         0.70        726.2 
       741.0         3.25       1762.9 
       742.0         0.33       1382.2 
       743.0         0.50        870.7 
       744.0         0.50        976.9 
       745.0         0.47       1016.3 
       746.0         0.57        964.4 
       747.0         0.58        845.8 
       748.0         0.53        772.7 
       749.0         0.50        734.0 
       750.0         0.50        717.1 
       751.0         0.43        707.7 
       752.0         0.40        703.0 
       753.0         0.37        700.6 
       754.0         0.35        698.9 
       755.0         0.50        684.8 
       756.0         0.57        699.3 
       757.0         0.40        704.0 
       758.0         0.40        701.6 
       759.0         0.47        686.5 
       760.0         0.43        686.5 
       761.0         0.48        686.5 
       762.0         0.40        696.6 
       763.0         0.50        692.9 
       764.0         0.30        690.8 
       765.0         0.30        696.6 
       766.0         0.30        678.0 
       767.0         0.37        660.9 
       768.0         0.47        683.4 
       769.0         0.58        718.1 
       770.0         0.50        725.5 
       771.0         4.58       3077.2 
       772.0         0.50       2261.9 
       773.0         0.40       1279.4 
       774.0         0.40       1150.7 
       775.0         0.38       1009.6 
       776.0         0.40        912.9 
       777.0         0.40        825.9 
       778.0         0.37        744.7 
       779.0         0.33        708.7 
       780.0         0.40        723.9 
       781.0         0.40        722.8 
       782.0         0.40        719.5 
       783.0         0.40        707.3 
       784.0         0.38        711.4 
       785.0         0.43        700.3 
       786.0         0.43        692.5 
       787.0         0.47        692.2 
       788.0         0.40        705.0 
       789.0         0.35        705.0 
       790.0         0.33        691.8 
       791.0         0.33        685.4 
       792.0         0.33        687.5 
       793.0         0.43        703.3 
       794.0         0.37        722.5 
       795.0         0.37        723.2 
       796.0         0.33        699.6 
       797.0         0.37        695.2 
       798.0         0.42        703.3 
       799.0         0.33        706.7 
       800.0         0.37        699.6 
       801.0         4.90       3445.1 
       802.0         0.30       2382.8 
       803.0         0.33       1546.3 
       804.0         0.33       1103.6 
       805.0         0.33       1025.7 
       806.0         0.37       1023.0 
       807.0         0.40        987.3 
       808.0         0.43        923.3 
       809.0         0.33        813.1 
       810.0         0.38        789.9 
       811.0         0.37        736.3 
       812.0         0.40        710.4 
       813.0         0.37        696.2 
       814.0         0.37        703.3 
       815.0         0.40        718.5 
       816.0         0.43        714.4 
       817.0         0.43        705.7 
       818.0         0.37        706.3 
       819.0         0.42        686.8 
       820.0         0.40        665.9 
       821.0         0.33        693.5 
       822.0         0.33        694.5 
       823.0         0.33        680.7 
       824.0         0.33        690.2 
       825.0         0.33        691.8 
       826.0         0.37        690.8 
       827.0         0.33        694.2 
       828.0         0.42        702.0 
       829.0         0.40        703.6 
       830.0         0.37        704.6 
       831.0         4.78       3376.0 
       832.0         0.43       3393.6 
       833.0         0.53       1545.9 
       834.0         0.38       1053.7 
       835.0         0.43        981.3 
       836.0         0.40        944.2 
       837.0         0.37        869.7 
       838.0         0.37        846.5 
       839.0         0.33        785.8 
       840.0         0.33        760.6 
       841.0         0.37        734.3 
       842.0         0.37        718.5 
       843.0         0.28        709.4 
       844.0         0.30        704.3 
       845.0         0.33        686.5 
       846.0         0.37        683.8 
       847.0         0.27        676.7 
       848.0         0.27        678.7 
       849.0         0.33        685.1 
       850.0         0.30        685.4 
       851.0         0.30        684.1 
       852.0         0.30        685.4 
       853.0         0.38        686.5 
