~Version Information
 VERS.                                  2.0 : CWLS LAS VERSION
 WRAP.                                   NO : WRAPING MODE
 SWARE .                 MController 2.5.0J : SOFTWARE VERSION
~Well Information
 WELL.                       Lavedure 7-44R : WELL
 COMP.                Petrogulf Corporation : COMPANY
 FLD.                      Purgatoire River : FIELD
 LOC.                 SE/SE Sec 7 T33S R67W : LOCATION
 DATE.                             09/23/05 : DATE(S) LOGGED
 SRVC.       BLANCO Geological Services LLC : SERVICE COMPANY
 STAT.                                   CO : STATE
 CNTY.                           Las Animas : COUNTY
 CTRY.                                  USA : COUNTRY
 API.                       05-071-08090-00 : API NUMBER
 STRT.FT                             828.00 : START DEPTH
 STOP.FT                            2020.00 : STOP DEPTH
 STEP.FT                               1.00 : DEPTH INCREMENT
 NULL.                                -9999 : NULL VALUE
~Curve information
 DEPTH.FT                                   :
 ROP.MIN/FT                                 :
 GAS.UNITS                                  :
~ASCII Log data
# ...
      1828.0         0.40         41.4 
      1829.0         0.50         41.3 
      1830.0         0.47         40.2 
      1831.0         0.50         38.2 
      1832.0         0.58         37.3 
      1833.0         0.70         35.8 
      1834.0         0.87         35.6 
      1835.0         0.90         35.2 
      1836.0         0.98         36.4 
      1837.0         0.77         38.2 
      1838.0         0.50         38.3 
      1839.0         0.23         37.8 
      1840.0         0.43         41.6 
      1841.0         0.37         43.4 
      1842.0         0.37         42.9 
      1843.0         0.38         41.2 
      1844.0         0.30         39.7 
      1845.0         0.40         38.4 
      1846.0         0.57         39.2 
      1847.0         0.60         38.9 
      1848.0         0.43         36.6 
      1849.0         0.33         34.9 
      1850.0         0.38         32.9 
      1851.0         3.68        153.3 
      1852.0         0.43         80.3 
      1853.0         0.47         57.1 
      1854.0         0.37         46.7 
      1855.0         0.47         45.9 
      1856.0         0.37         46.7 
      1857.0         0.33         47.1 
      1858.0         0.42         46.9 
      1859.0         0.40         46.3 
      1860.0         0.40         43.6 
      1861.0         0.27         41.4 
      1862.0         0.27         39.6 
      1863.0         0.40         38.7 
      1864.0         0.50         38.4 
      1865.0         0.47         37.4 
      1866.0         0.78         36.4 
      1867.0         1.33         35.6 
      1868.0         0.60         35.2 
      1869.0         0.27         36.0 
      1870.0         0.27         36.5 
      1871.0         0.32         37.0 
      1872.0         0.33         37.4 
      1873.0         0.40         37.3 
      1874.0         0.50         37.4 
      1875.0         0.40         36.6 
      1876.0         0.43         35.5 
      1877.0         0.30         34.4 
      1878.0         0.20         34.0 
      1879.0         0.47         33.8 
      1880.0         0.58         37.2 
      1881.0         4.32        201.2 
      1882.0         0.93        106.7 
      1883.0         0.43         44.6 
      1884.0         0.48         48.1 
      1885.0         0.43         48.9 
      1886.0         0.37         48.8 
      1887.0         0.40         47.6 
      1888.0         0.60         42.7 
      1889.0         0.33         37.2 
      1890.0         0.33         35.7 
      1891.0         0.33         34.1 
      1892.0         0.33         33.4 
      1893.0         0.35         33.2 
      1894.0         0.30         33.3 
      1895.0         0.37         33.3 
      1896.0         0.37         33.4 
      1897.0         0.47         33.0 
      1898.0         0.63         33.1 
      1899.0         0.77         32.7 
      1900.0         0.45         33.0 
      1901.0         0.47         33.8 
      1902.0         0.40         34.6 
      1903.0         0.57         34.8 
      1904.0         0.30         34.9 
      1905.0         0.40         34.7 
      1906.0         0.37         34.2 
      1907.0         0.40         33.8 
      1908.0         0.42         33.2 
      1909.0         0.47         33.0 
      1910.0         0.37         31.3 
      1911.0         3.35        145.7 
      1912.0         0.47        112.1 
      1913.0         0.43         70.8 
      1914.0         0.50         51.5 
      1915.0         0.57         42.5 
      1916.0         0.68         38.2 
      1917.0         0.43         36.2 
      1918.0         0.43         34.9 
      1919.0         0.43         33.0 
      1920.0         0.40         32.4 
      1921.0         0.43         32.9 
      1922.0         0.45         34.0 
      1923.0         0.37         34.8 
      1924.0         0.43         35.0 
      1925.0         0.37         35.1 
      1926.0         0.47         34.5 
      1927.0         0.47         34.2 
      1928.0         0.47         34.1 
      1929.0         0.35         34.4 
      1930.0         1.00         37.3 
      1931.0         0.30         34.6 
      1932.0         0.40         39.7 
      1933.0         0.40         45.0 
      1934.0         0.40         47.5 
      1935.0         0.42         47.6 
      1936.0         0.43         45.9 
      1937.0         0.43         42.8 
      1938.0         0.47         40.1 
      1939.0         0.37         36.9 
      1940.0         0.50         32.7 
      1941.0         2.88        158.3 
      1942.0         0.43        147.2 
      1943.0         0.65         95.5 
      1944.0         0.53         49.1 
      1945.0         0.70         38.2 
      1946.0         0.77         33.4 
      1947.0         0.60         32.1 
      1948.0         0.58         32.2 
      1949.0         0.50         32.4 
      1950.0         0.60         32.8 
      1951.0         0.67         33.3 
      1952.0         0.37         33.2 
      1953.0         0.53         33.1 
      1954.0         0.62         32.9 
      1955.0         0.47         32.6 
      1956.0         0.43         32.3 
      1957.0         0.50         31.9 
      1958.0         0.47         32.0 
      1959.0         0.48         31.7 
      1960.0         0.47         31.5 
      1961.0         0.43         31.3 
      1962.0         0.57         31.8 
      1963.0         0.53         33.0 
      1964.0         0.53         33.5 
      1965.0         0.55         33.5 
      1966.0         0.53         34.3 
      1967.0         0.53         33.8 
      1968.0         0.53         33.3 
      1969.0         0.47         32.8 
      1970.0         0.50         30.6 
      1971.0         4.00        169.3 
      1972.0         0.40         62.2 
      1973.0         0.33         43.7 
      1974.0         0.53         38.1 
      1975.0         0.58         39.7 
      1976.0         0.57         40.6 
      1977.0         0.50         40.0 
      1978.0         0.50         38.5 
      1979.0         0.50         35.5 
      1980.0         0.53         33.5 
      1981.0         0.55         31.7 
      1982.0         0.60         31.1 
      1983.0         0.57         31.0 
      1984.0         0.57         30.9 
      1985.0         0.63         30.6 
      1986.0         0.62         30.4 
      1987.0         0.43         30.3 
      1988.0         0.53         30.3 
      1989.0         0.73         30.3 
      1990.0         0.73         29.6 
      1991.0         0.60         29.3 
      1992.0         0.55         29.3 
      1993.0         1.13         29.5 
      1994.0         0.87         28.7 
      1995.0         0.47         28.5 
      1996.0         0.48         28.2 
      1997.0         0.47         28.2 
      1998.0         0.53         28.3 
      1999.0         0.57         28.6 
      2000.0         0.50         27.7 
      2001.0         3.25        123.8 
      2002.0         0.37         77.4 
      2003.0         0.37         53.3 
      2004.0         0.37         40.0 
      2005.0         0.58         34.9 
      2006.0         0.60         32.4 
      2007.0         0.53         30.5 
      2008.0         0.47         29.5 
      2009.0         0.43         29.2 
      2010.0         0.50         28.6 
      2011.0         0.45         28.5 
      2012.0         0.60         29.1 
      2013.0         0.70         29.5 
      2014.0         0.83         29.8 
      2015.0         0.53         29.6 
      2016.0         0.78         29.0 
      2017.0         0.53         28.5 
      2018.0         0.53         28.3 
      2019.0         0.47         28.2 
      2020.0         0.47         28.0 
