~Version Information
VERS.                      2.0: CWLS Log ASCII Standard - VERSION 2.0
WRAP.                       NO: One line per depth step
~Well Information Block
STRT.FT               580.0000: 
STOP.FT              2729.7500: 
STEP.FT                 0.2500: 
NULL.                -999.2500: 
COMP.          Pioneer Natural Resources: COMPANY
WELL.          Sand Pebbles 13-33: WELL
FLD.           Purgatoire River: FIELD
LOC.           1883' FSL & 63' FWL----: LOCATION
PROV.                 Colorado: PROVINCE
CNTY.               Las Animas: COUNTRY
SRVC.                Patterson: SERVICE COMPANY
DATE.          Fri Mar 11 13:47:45 2005: LOG DATE
UWI.           05 071 08224 00: UNIQUE WELL ID
~Curve Information Block
DEPT.FT            0 000 00 00: Depth
SN.Ohm-m                      : IEL Short Normal
SP.mV                         : IEL Spontaneous Potential
DIR.Ohm-m                     : IEL Induction Resistivity
GR.GAPI                       : Gamma Ray
~Parameter Information Block
~A  Depth        SN          SP         DIR          GR     
# ...
  2121.0000     21.0323    -22.5407     22.3185     40.4164
  2121.2500     21.2188    -23.4940     22.7529     39.6329
  2121.5000     21.3815    -24.6007     23.0871     38.5075
  2121.7500     21.5478    -25.8247     23.3024     37.9464
  2122.0000     21.7652    -27.1194     23.4101     37.3969
  2122.2500     22.0729    -28.4378     23.4420     37.0623
  2122.5000     22.4755    -29.7427     23.4349     36.5277
  2122.7500     22.9406    -31.0109     23.4178     36.4616
  2123.0000     23.4191    -32.2303     23.4120     37.6678
  2123.2500     23.8681    -33.3916     23.4364     39.5732
  2123.5000     24.2573    -34.4798     23.5069     43.5148
  2123.7500     24.5594    -35.4686     23.6279     46.1960
  2124.0000     24.7366    -36.3217     23.7835     49.4371
  2124.2500     24.7408    -36.9984     23.9418     51.0586
  2124.5000     24.5354    -37.4618     24.0706     53.5957
  2124.7500     24.1227    -37.6856     24.1487     56.4177
  2125.0000     23.5554    -37.6572     24.1649     64.7671
  2125.2500     22.9202    -37.3804     24.1081     74.2206
  2125.5000     22.3112    -36.8763     23.9612     93.8788
  2125.7500     21.8123    -36.1861     23.7025    108.5860
  2126.0000     21.4885    -35.3716     23.3147    127.8887
  2126.2500     21.3766    -34.5121     22.7959    136.6044
  2126.5000     21.4704    -33.6936     22.1695    142.7521
  2126.7500     21.7120    -32.9933     21.4875    143.4979
  2127.0000     22.0069    -32.4619     20.8211    142.5012
  2127.2500     22.2630    -32.1108     20.2434    141.5341
  2127.5000     22.4280    -31.9067     19.8105    139.9632
  2127.7500     22.4929    -31.7730     19.5498    138.4051
  2128.0000     22.4575    -31.5980     19.4590    134.3712
  2128.2500     22.2886    -31.2456     19.5090    130.2556
  2128.5000     21.9130    -30.5688     19.6504    122.1614
  2128.7500     21.2618    -29.4234     19.8191    115.9909
  2129.0000     20.3393    -27.6866     19.9459    106.7319
  2129.2500     19.2651    -25.2775     19.9696    101.1710
  2129.5000     18.2452    -22.1789     19.8484     94.5684
  2129.7500     17.4791    -18.4530     19.5646     91.7767
  2130.0000     17.0564    -14.2438     19.1221     90.7604
  2130.2500     16.9160     -9.7619     18.5414     92.3864
  2130.5000     16.8994     -5.2530     17.8537     97.5629
  2130.7500     16.8540     -0.9578     17.0952    101.8744
  2131.0000     16.7004      2.9246     16.3027    108.1194
  2131.2500     16.4236      6.2611     15.5104    111.8897
  2131.5000     16.0285      8.9927     14.7489    117.4710
  2131.7500     15.5161     11.1286     14.0443    121.4228
  2132.0000     14.8970     12.7295     13.4176    127.3300
  2132.2500     14.2149     13.8883     12.8841    130.5465
  2132.5000     13.5513     14.7101     12.4510    133.0059
  2132.7500     12.9997     15.2959     12.1142    132.8373
  2133.0000     12.6246     15.7303     11.8578    130.7707
  2133.2500     12.4310     16.0743     11.6553    129.1609
  2133.5000     12.3634     16.3643     11.4762    127.8893
  2133.7500     12.3350     16.6156     11.2932    128.1429
  2134.0000     12.2716     16.8308     11.0885    129.6281
  2134.2500     12.1418     17.0073     10.8571    130.6881
  2134.5000     11.9594     17.1437     10.6049    131.6465
  2134.7500     11.7626     17.2419     10.3451    131.9006
  2135.0000     11.5875     17.3060     10.0933    132.0397
  2135.2500     11.4533     17.3396      9.8640    131.9894
  2135.5000     11.3613     17.3439      9.6679    131.4941
  2135.7500     11.3031     17.3167      9.5107    130.8168
  2136.0000     11.2681     17.2533      9.3951    129.1603
  2136.2500     11.2482     17.1454      9.3221    127.4464
  2136.5000     11.2418     16.9812      9.2938    123.8332
  2136.7500     11.2558     16.7456      9.3138    121.0390
  2137.0000     11.3032     16.4220      9.3857    117.1061
  2137.2500     11.3943     15.9947      9.5130    114.8880
  2137.5000     11.5313     15.4506      9.6986    112.0190
  2137.7500     11.7082     14.7784      9.9456    110.3659
  2138.0000     11.9152     13.9664     10.2562    108.5221
  2138.2500     12.1424     12.9983     10.6299    107.7275
  2138.5000     12.3832     11.8533     11.0593    106.5082
  2138.7500     12.6360     10.5096     11.5274    105.1943
  2139.0000     12.9014      8.9519     12.0087    102.5112
  2139.2500     13.1782      7.1814     12.4766    100.9035
  2139.5000     13.4623      5.2239     12.9132    100.3019
  2139.7500     13.7481      3.1322     13.3159    101.7414
  2140.0000     14.0314      0.9796     13.6976    106.5187
  2140.2500     14.3060     -1.1521     14.0800    110.5583
  2140.5000     14.5560     -3.1885     14.4835    115.8738
  2140.7500     14.7504     -5.0724     14.9177    118.1798
  2141.0000     14.8491     -6.7647     15.3754    119.6231
  2141.2500     14.8217     -8.2320     15.8337    119.3869
  2141.5000     14.6697     -9.4300     16.2633    117.2743
  2141.7500     14.4439    -10.2891     16.6414    114.7040
  2142.0000     14.2436    -10.7163     16.9600    109.5648
  2142.2500     14.1907    -10.6177     17.2245    105.7782
  2142.5000     14.3761     -9.9387     17.4438    100.1662
  2142.7500     14.8015     -8.7041     17.6166     96.3808
  2143.0000     15.3563     -7.0358     17.7201     90.0778
  2143.2500     15.8610     -5.1317     17.7097     85.5019
  2143.5000     16.1548     -3.2089     17.5323     79.4406
  2143.7500     16.1678     -1.4354     17.1508     77.1720
  2144.0000     15.9235      0.1140     16.5647     77.9775
  2144.2500     15.4875      1.4590     15.8094     81.2982
  2144.5000     14.9155      2.6730     14.9390     88.8208
  2144.7500     14.2372      3.8279     14.0077     94.2833
  2145.0000     13.4717      4.9559     13.0623    101.7806
  2145.2500     12.6442      6.0414     12.1414    106.0490
  2145.5000     11.7896      7.0414     11.2754    111.1358
  2145.7500     10.9529      7.9134     10.4853    113.5019
  2146.0000     10.1890      8.6343      9.7816    115.5586
  2146.2500      9.5548      9.2050      9.1661    116.2423
  2146.5000      9.0890      9.6422      8.6341    116.9430
  2146.7500      8.7941      9.9668      8.1773    117.4368
  2147.0000      8.6349     10.1955      7.7866    118.0686
  2147.2500      8.5534     10.3376      7.4550    118.1150
  2147.5000      8.4946     10.3974      7.1796    117.4480
  2147.7500      8.4279     10.3781      6.9612    116.8610
  2148.0000      8.3527     10.2842      6.8033    116.6331
  2148.2500      8.2854     10.1230      6.7091    117.0450
  2148.5000      8.2426      9.9032      6.6795    117.7896
  2148.7500      8.2306      9.6327      6.7112    117.7527
  2149.0000      8.2463      9.3172      6.7975    116.3478
  2149.2500      8.2841      8.9613      6.9285    114.6589
  2149.5000      8.3414      8.5693      7.0938    111.7030
  2149.7500      8.4206      8.1477      7.2835    109.7979
  2150.0000      8.5236      7.7045      7.4900    107.3091
  2150.2500      8.6488      7.2481      7.7078    105.9966
  2150.5000      8.7904      6.7846      7.9329    104.7595
  2150.7500      8.9394      6.3166      8.1604    104.4412
  2151.0000      9.0839      5.8437      8.3823    104.5031
  2151.2500      9.2098      5.3638      8.5869    104.7916
  2151.5000      9.3035      4.8753      8.7602    105.5354
  2151.7500      9.3541      4.3767      8.8892    106.0844
  2152.0000      9.3554      3.8657      8.9647    106.4705
  2152.2500      9.3077      3.3376      8.9830    106.3365
  2152.5000      9.2190      2.7847      8.9465    106.0769
  2152.7500      9.1044      2.1973      8.8632    106.2681
  2153.0000      8.9804      1.5668      8.7454    107.1396
  2153.2500      8.8599      0.8870      8.6079    107.7495
  2153.5000      8.7494      0.1545      8.4638    108.1908
  2153.7500      8.6485     -0.6328      8.3221    108.2713
  2154.0000      8.5527     -1.4774      8.1853    108.9354
  2154.2500      8.4555     -2.3821      8.0521    110.2867
