~Version Information
VERS.                      2.0: CWLS Log ASCII Standard - VERSION 2.0
WRAP.                       NO: One line per depth step
~Well Information Block
STRT.FT                -6.7500: 
STOP.FT              1181.0000: 
STEP.FT                 0.2500: 
NULL.                -999.2500: 
COMP.          Pioneer Natural Resources: COMPANY
WELL.          Pacheco 33-27 Tr: WELL
FLD.           Purgatorie River: FIELD
LOC.           2251' FSL & 2342' FEL--: LOCATION
PROV.                       CO: PROVINCE
CNTY.               Las Animas: COUNTRY
SRVC.          Patterson Wireline: SERVICE COMPANY
DATE.          Wed Jun 15 10:58:02 2005: LOG DATE
UWI.           05 071 08384 00: UNIQUE WELL ID
~Curve Information Block
DEPT.FT            0 000 00 00: Depth
CCL.                          : Casing Collar Locator
TT3.usec                      : CBL 3' Travel Time
AMP3.mV                       : CBL 3' Amplitude
GR.GAPI                       : Gamma Ray
~Parameter Information Block
~A  Depth       CCL         TT3         AMP3         GR     
# ...
   294.7500      0.0000    826.3790     14.1360    140.4692
   295.0000      0.0000    822.8287     13.9399    131.7923
   295.2500      0.0000    833.8771     13.7632    121.6968
   295.5000      0.0000    854.3912     13.6184    109.7053
   295.7500      0.0000    873.5109     13.5256     95.9148
   296.0000      0.0000    883.0787     13.4874     82.3916
   296.2500      0.0000    883.1467     13.4860     72.2382
   296.5000      0.0000    880.3586     13.5018     67.4410
   296.7500      0.0000    881.7604     13.5182     67.9715
   297.0000      0.0000    889.4838     13.5104     72.5556
   297.2500      0.0000    900.2883     13.4525     79.5377
   297.5000      0.0000    909.3345     13.3464     87.2370
   297.7500      0.0000    913.2960     13.2374     94.3017
   298.0000      0.0000    909.7265     13.1958     99.7939
   298.2500      0.0000    894.7488     13.2773    102.6385
   298.5000      0.0000    864.2263     13.4857    101.6750
   298.7500      0.0000    820.1935     13.7590     97.0501
   299.0000      0.0000    776.1019     13.9939     91.0972
   299.2500      0.0000    750.9134     14.0995     87.0899
   299.5000      0.0000    753.8906     14.0469     87.1889
   299.7500      0.0000    776.6317     13.8749     91.6280
   300.0000      0.0000    802.1038     13.6504     99.0965
   300.2500      0.0000    819.6489     13.4285    107.3383
   300.5000      0.0000    830.1669     13.2493    113.8826
   300.7500      0.0000    839.6165     13.1500    117.1736
   301.0000      0.0000    850.8231     13.1518    117.3511
   301.2500      0.0000    861.8915     13.2293    115.7473
   301.5000      0.0000    869.9557     13.3059    113.7344
   301.7500      0.0000    874.0584     13.2894    112.2080
   302.0000      0.0000    874.7394     13.1168    111.5732
   302.2500      0.0000    872.4983     12.7741    111.2959
   302.5000      0.0000    867.5769     12.2953    109.7034
   302.7500      0.0000    860.9145     11.7561    105.3026
   303.0000      0.0000    854.7543     11.2557     98.5631
   303.2500      0.0000    851.5576     10.8714     91.9349
   303.5000      0.0000    851.6537     10.6168     87.9828
   303.7500      0.0000    852.0128     10.4534     87.4940
   304.0000      0.0000    848.0389     10.3368     89.2331
   304.2500      0.0000    837.2377     10.2424     91.5851
   304.5000      0.0000    821.1875     10.1703     94.3747
   304.7500      0.0000    803.8434     10.1482     98.7408
   305.0000      0.0000    788.4167     10.2161    105.3379
   305.2500      0.0000    776.4710     10.3838    113.2432
   305.5000      0.0000    769.3880     10.6091    120.6635
   305.7500      0.0000    769.2858     10.8284    126.1637
   306.0000      0.0000    777.8475     11.0034    129.2050
   306.2500      0.0000    794.4940     11.1372    130.0392
   306.5000      0.0000    815.7418     11.2582    129.4761
   306.7500      0.0000    836.3842     11.3909    128.7084
   307.0000      0.0000    852.0524     11.5404    129.0296
   307.2500      0.0000    861.5303     11.6965    131.1300
   307.5000      0.0000    866.6982     11.8469    134.2901
   307.7500      0.0000    870.1471     11.9879    136.7259
   308.0000      0.0000    873.0984     12.1309    137.4016
   308.2500      0.0000    875.4470     12.2946    137.1556
   308.5000      0.0000    876.9045     12.4805    137.4456
   308.7500      0.0000    877.5020     12.6587    138.4141
   309.0000      0.0000    877.1685     12.7934    138.9813
   309.2500      0.0000    875.0819     12.8813    138.4927
   309.5000      0.0000    869.4592     12.9470    137.2606
   309.7500      0.0000    858.3969     13.0041    135.4052
   310.0000      0.0000    841.6086     13.0410    132.3576
   310.2500      0.0000    821.5104     13.0481    128.2034
   310.5000      0.0000    802.0684     13.0442    124.7424
   310.7500      0.0000    786.3108     13.0733    124.0696
   311.0000      0.0000    775.0012     13.1808    126.0770
   311.2500      0.0000    767.4140     13.3852    128.3097
   311.5000      0.0000    762.9356     13.6572    128.6512
   311.7500      0.0000    761.9127     13.9274    127.4279
   312.0000      0.0000    765.5904     14.1266    126.4746
   312.2500      0.0000    775.9251     14.2241    126.6474
   312.5000      0.0000    794.9444     14.2268    126.7317
   312.7500      0.0000    822.5142     14.1547    124.6999
   313.0000      0.0000    854.1506     14.0276    119.9424
   313.2500      0.0000    882.5611     13.8682    114.0902
   313.5000      0.0000    902.4306     13.7032    109.4112
   313.7500      0.0000    913.3110     13.5580    106.5011
   314.0000      0.0000    918.1104     13.4521    103.8607
   314.2500      0.0000    919.9877     13.3925     99.4352
   314.5000      0.0000    920.7728     13.3668     92.2170
   314.7500      0.0000    921.1279     13.3535     82.7978
   315.0000      0.0000    921.1793     13.3521     73.0541
   315.2500      0.0000    920.8890     13.3953     65.2232
   315.5000      0.0000    919.7264     13.5214     60.7119
   315.7500      0.0000    915.7377     13.7321     59.5120
   316.0000      0.0000    904.2257     13.9860     60.7585
   316.2500      0.0000    877.8190     14.2394     63.8604
   316.5000      0.0000    829.8784     14.4909     69.0777
   316.7500      0.0000    759.4716     14.7847     77.0255
   317.0000      0.0000    672.5049     15.1730     87.6904
   317.2500      0.0000    578.3688     15.6751    100.1232
   317.5000      0.0000    487.7382     16.2612    113.0322
   317.7500      0.0000    411.9961     16.8648    125.1711
   318.0000      0.0000    359.3318     17.4118    135.0307
   318.2500      0.0000    329.9188     17.8477    140.9007
   318.5000      0.0000    316.9978     18.1469    141.9979
   318.7500      0.0000    312.6384     18.3096    139.3373
   319.0000      0.0000    311.7791     18.3577    135.0583
   319.2500      0.0000    312.8849     18.3282    130.9931
   319.5000      0.0000    317.7786     18.2564    127.9543
   319.7500      0.0000    332.5739     18.1541    125.9286
   320.0000      0.0000    367.6271     17.9998    124.5935
   320.2500      0.0000    432.6620     17.7505    123.7830
   320.5000      0.0000    527.0983     17.3725    123.7017
   320.7500      0.0000    634.7913     16.8677    124.6845
   321.0000      0.0000    731.8547     16.2763    126.5222
   321.2500      0.0000    801.5376     15.6527    128.0931
   321.5000      0.0000    841.5046     15.0428    128.0425
   321.7500      0.0000    859.5198     14.4753    125.9249
   322.0000      0.0000    865.7048     13.9637    122.4527
   322.2500      0.0000    867.8911     13.5034    118.7546
   322.5000      0.0000    870.1597     13.0722    115.7304
   322.7500      0.0000    873.2621     12.6436    113.9137
   323.0000      0.0000    876.2861     12.2137    113.4491
   323.2500      0.0000    878.3934     11.8193    114.0128
   323.5000      0.0000    879.4218     11.5218    114.8695
   323.7500      0.0000    879.6393     11.3631    115.2519
   324.0000      0.0000    879.3749     11.3363    114.9423
   324.2500      0.0000    878.8843     11.3975    114.5663
   324.5000      0.0000    878.3212     11.4935    114.9855
   324.7500      0.0000    877.7520     11.5726    116.1177
   325.0000      0.0000    877.2308     11.5845    116.6502
   325.2500      0.0000    876.8619     11.4818    115.3421
   325.5000      0.0000    876.7990     11.2282    112.4543
   325.7500      0.0000    877.1668     10.8226    109.4347
   326.0000      0.0000    877.9987     10.3340    107.2514
   326.2500      0.0000    879.1036      9.8947    105.4846
   326.5000      0.0000    879.8246      9.6077    103.0055
   326.7500      0.0000    879.1870      9.4557     98.9036
   327.0000      0.0000    876.9067      9.3358     92.6390
   327.2500      0.0000    874.3096      9.1701     84.1085
   327.5000      0.0000    873.5148      8.9500     74.1166
   327.7500      0.0000    875.3461      8.7068     64.3403
   328.0000      0.0000    878.4601      8.4893     56.4027
