~Version Information
VERS.                      2.0: CWLS Log ASCII Standard - VERSION 2.0
WRAP.                       NO: One line per depth step
~Well Information Block
STRT.FT               720.0000: 
STOP.FT              2265.7000: 
STEP.FT                 0.1000: 
NULL.                -999.2500: 
COMP.          Pioneer Natural Resources: COMPANY
WELL.          Casablanca 11-28 Tr: WELL
FLD.           Purgatoire River: FIELD
LOC.           422' FNL & 215' FWL----: LOCATION
PROV.                 Colorado: PROVINCE
CNTY.               Las Animas: COUNTRY
SRVC.                Patterson: SERVICE COMPANY
DATE.          Mon Mar 07 07:16:34 2005: LOG DATE
UWI.           05 071 08314 00: UNIQUE WELL ID
~Curve Information Block
DEPT.FT            0 000 00 00: Depth
DCAL.in                       : CDL Caliper
RHOB.g/cc                     : CDL Bulk Density
RHOC.g/cc                     : CDL Density Correction
DPOR.pu                       : CDL Density Porosity
NPOR.pu                       : Neutron Porosity
GR.GAPI                       : Gamma Ray
~Parameter Information Block
~A  Depth       DCAL        RHOB        RHOC        DPOR        NPOR         GR     
# ...
  1526.4000      8.7546      2.1887      0.5787     27.9554     10.0202     88.0741
  1526.5000      8.7168      2.3261      0.5694     19.6297     11.0827     94.4301
  1526.6000      8.7168      2.4381      0.5454     12.8401     12.5506    101.4546
  1526.7000      8.7168      2.5390      0.4352      6.7281     14.2982    107.4908
  1526.8000      8.4150      2.6275      0.4300      1.3623     16.0215    114.5328
  1526.9000      8.4150      2.6654      0.3304     -0.9355     17.6732    123.1128
  1527.0000      8.1620      2.6475      0.1191      0.1510     19.0056    127.1498
  1527.1000      8.1620      2.6196      0.1082      1.8421     19.6999    125.1856
  1527.2000      8.1620      2.6017      0.1198      2.9269     20.0597    122.7540
  1527.3000      8.0761      2.5807      0.0644      4.2013     20.6844    119.7927
  1527.4000      8.0761      2.5542      0.0420      5.8074     21.2176    115.4896
  1527.5000      8.0634      2.5282      0.0299      7.3846     21.1191    113.8401
  1527.6000      8.0634      2.5036      0.0225      8.8699     20.8903    115.2793
  1527.7000      8.0634      2.4849     -0.0222     10.0063     20.8264    116.5319
  1527.8000      8.0625      2.4757      0.0074     10.5630     20.5744    115.7841
  1527.9000      8.0625      2.4716      0.0203     10.8143     20.1325    114.3014
  1528.0000      8.0623      2.4685      0.0180     11.0007     20.0186    111.4397
  1528.1000      8.0623      2.4747     -0.0388     10.6247     20.5658    105.8002
  1528.2000      8.0623      2.4990      0.0118      9.1517     21.5127    101.7250
  1528.3000      8.0641      2.5243      0.0613      7.6175     22.2249    104.2354
  1528.4000      8.0641      2.5319      0.0299      7.1565     22.2744    110.0957
  1528.5000      8.0651      2.5341     -0.0112      7.0215     21.8098    113.3254
  1528.6000      8.0651      2.5426      0.0479      6.5109     21.4436    114.0305
  1528.7000      8.0651      2.5437      0.0435      6.4402     21.5965    113.0810
  1528.8000      8.0638      2.5324      0.0126      7.1246     22.1786    108.2695
  1528.9000      8.0638      2.5263      0.0139      7.4942     22.9242    100.8625
  1529.0000      8.0631      2.5376     -0.0016      6.8136     23.5274     97.3017
  1529.1000      8.0631      2.5611      0.0083      5.3864     23.6139    102.3406
  1529.2000      8.0631      2.5864      0.0123      3.8574     23.4789    112.7009
  1529.3000      8.0632      2.5971      0.0976      3.2032     23.8195    118.6479
  1529.4000      8.0632      2.5881      0.0558      3.7491     24.3746    116.5000
  1529.5000      8.0633      2.5851     -0.0178      3.9342     24.4083    110.2001
  1529.6000      8.0633      2.6083      0.0062      2.5248     24.1837    104.1081
  1529.7000      8.0633      2.6397      0.0671      0.6257     24.4281    101.9624
  1529.8000      8.0624      2.6514      0.0125     -0.0862     25.0656    105.6373
  1529.9000      8.0624      2.6387      0.0668      0.6846     25.7257    112.3951
  1530.0000      8.0587      2.6078      0.0268      2.5587     26.3177    118.3153
  1530.1000      8.0587      2.5655      0.0156      5.1215     26.5897    121.4422
  1530.2000      8.0587      2.5244     -0.0363      7.6098     26.2802    118.8205
  1530.3000      8.0562      2.4978     -0.0368      9.2229     25.6452    111.9626
  1530.4000      8.0562      2.4813     -0.0131     10.2225     25.0593    109.4304
  1530.5000      8.0580      2.4582     -0.0030     11.6270     24.4331    112.4181
  1530.6000      8.0580      2.4206     -0.0446     13.9057     23.6940    113.9083
  1530.7000      8.0580      2.3775     -0.0664     16.5146     22.9750    114.4032
  1530.8000      8.0597      2.3413     -0.0573     18.7065     22.1878    116.4931
  1530.9000      8.0597      2.3143      0.0139     20.3479     21.1461    118.0938
  1531.0000      8.0608      2.2915     -0.0201     21.7298     20.0485    117.6966
  1531.1000      8.0608      2.2731      0.0062     22.8429     19.3189    115.4128
  1531.2000      8.0608      2.2697     -0.0133     23.0509     18.7947    113.9898
  1531.3000      8.0593      2.2918      0.0360     21.7067     18.1827    113.4579
  1531.4000      8.0593      2.3273      0.0952     19.5564     17.7185    109.9348
  1531.5000      8.0524      2.3536      0.1229     17.9615     17.6466    104.2660
  1531.6000      8.0524      2.3805      0.0271     16.3360     17.6643    101.1017
  1531.7000      8.0524      2.4347      0.1183     13.0458     17.5525    101.2179
  1531.8000      8.0399      2.5064      0.1733      8.7016     17.5003    101.5348
  1531.9000      8.0399      2.5620      0.2077      5.3317     17.7082    101.3729
  1532.0000      8.0310      2.5889      0.1858      3.7027     18.3852    102.5630
  1532.1000      8.0310      2.5980      0.1518      3.1488     19.5451    105.4384
  1532.2000      8.0310      2.6020      0.1380      2.9078     20.8717    109.7412
  1532.3000      8.0292      2.5957      0.1628      3.2914     21.8388    114.0595
  1532.4000      8.0292      2.5733      0.0724      4.6458     22.2595    116.2230
  1532.5000      8.0307      2.5513      0.0325      5.9835     22.5523    115.4464
  1532.6000      8.0307      2.5430      0.0289      6.4829     23.0155    111.9949
  1532.7000      8.0307      2.5549     -0.0466      5.7626     23.6578    109.6699
  1532.8000      8.0317      2.5971     -0.0170      3.2054     24.3667    110.6520
  1532.9000      8.0317      2.6569      0.0464     -0.4163     24.7165    112.7286
  1533.0000      8.0314      2.7031      0.0826     -3.2164     24.4893    114.3065
  1533.1000      8.0314      2.7281      0.0313     -4.7347     24.1750    114.3391
  1533.2000      8.0314      2.7512      0.0591     -6.1314     24.4126    112.9809
  1533.3000      8.0315      2.7934      0.0607     -8.6925     25.0154    110.6955
  1533.4000      8.0315      2.8578      0.1290    -12.5969     25.6629    107.9840
  1533.5000      8.0335      2.9089      0.1989    -15.6903     26.5155    105.0360
  1533.6000      8.0335      2.9131      0.1194    -15.9481     27.2999    101.1486
  1533.7000      8.0335      2.8978      0.0350    -15.0180     27.5914     97.2734
  1533.8000      8.0361      2.9059     -0.0159    -15.5099     27.9495     93.8921
  1533.9000      8.0361      2.9324      0.0251    -17.1179     28.9047     90.6253
  1534.0000      8.0367      2.9497     -0.0203    -18.1633     29.9325     87.4278
  1534.1000      8.0367      2.9430      0.0378    -17.7585     30.3845     86.3101
  1534.2000      8.0367      2.9116     -0.0574    -15.8555     30.3971     89.2859
  1534.3000      8.0357      2.8691     -0.0500    -13.2815     30.7554     94.3454
  1534.4000      8.0357      2.8353     -0.1105    -11.2311     31.6131     98.1074
  1534.5000      8.0329      2.8314     -0.1239    -10.9938     32.0066     99.5029
  1534.6000      8.0329      2.8492     -0.0252    -12.0703     31.4177    100.6630
  1534.7000      8.0329      2.8412      0.0460    -11.5873     30.4727    102.2018
  1534.8000      8.0273      2.7873     -0.0064     -8.3183     29.6667    103.7317
  1534.9000      8.0273      2.7195     -0.0799     -4.2116     28.7721    106.9664
  1535.0000      8.0203      2.6538     -0.0146     -0.2294     27.4828    110.6357
  1535.1000      8.0203      2.5815     -0.0453      4.1538     26.0124    113.0263
  1535.2000      8.0203      2.5119     -0.0803      8.3712     25.1341    116.1618
  1535.3000      8.0102      2.4595     -0.0425     11.5467     25.3403    119.0057
  1535.4000      8.0102      2.4286     -0.0465     13.4210     26.0967    119.0965
  1535.5000      7.9988      2.4236     -0.0215     13.7238     26.4988    115.0563
  1535.6000      7.9988      2.4425      0.0054     12.5742     26.4526    108.6489
  1535.7000      7.9988      2.4780      0.0648     10.4233     26.2393    107.3034
  1535.8000      7.9959      2.5219      0.1142      7.7665     25.8103    110.6401
  1535.9000      7.9959      2.5603      0.1275      5.4337     25.4415    110.7575
