~Version Information
VERS.                      2.0: CWLS Log ASCII Standard - VERSION 2.0
WRAP.                       NO: One line per depth step
~Well Information Block
STRT.FT               860.0000: 
STOP.FT              2733.7000: 
STEP.FT                 0.1000: 
NULL.                -999.2500: 
COMP.          Pioneer Natural Resources: COMPANY
WELL.          Beacon 11-18 Tr: WELL
FLD.           Purgatoire River: FIELD
LOC.           409' FNL & 203' FWL: LOCATION
PROV.                 Colorado: PROVINCE
CNTY.               Las Animas: COUNTRY
SRVC.                Patterson: SERVICE COMPANY
DATE.          Mon Jan 17 07:36:09 2005: LOG DATE
UWI.           05 071 08251 00: UNIQUE WELL ID
~Curve Information Block
DEPT.FT            0 000 00 00: Depth
DCAL.in                       : CDL Caliper
RHOB.g/cc                     : CDL Bulk Density
RHOC.g/cc                     : CDL Density Correction
DPOR.pu                       : CDL Density Porosity
NPOR.pu                       : Neutron Porosity
GR.GAPI                       : Gamma Ray
~Parameter Information Block
~A  Depth       DCAL        RHOB        RHOC        DPOR        NPOR         GR     
# ...
  1474.4000      8.4568      1.3047      0.0868     81.5354      9.6407     51.2159
  1474.5000      8.5223      1.2734      0.0682     83.4301     10.2659     45.2266
  1474.6000      8.5223      1.2529      0.0588     84.6756     10.4723     38.2063
  1474.7000      8.5223      1.2307      0.0582     86.0164      9.9954     35.4235
  1474.8000      8.5742      1.1957      0.0381     88.1364      9.0253     36.9200
  1474.9000      8.5742      1.1480      0.0042     91.0297      7.6529     39.1835
  1475.0000      8.5942      1.1033     -0.0441     93.7373      5.7463     41.5396
  1475.1000      8.5942      1.0746     -0.0041     95.4799      3.6350     42.5897
  1475.2000      8.5942      1.0533      0.0361     96.7726      1.9307     39.9661
  1475.3000      8.6585      1.0269      0.0181     98.3722      0.8774     35.3846
  1475.4000      8.6585      0.9951      0.0134    100.2941      0.2832     32.3997
  1475.5000      8.8553      0.9667     -0.0168    102.0188     -0.1194     32.7698
  1475.6000      8.8553      0.9604      0.0116    102.4014     -0.2038     34.8764
  1475.7000      8.8553      1.0002      0.0567     99.9896      0.2475     35.1133
  1475.8000      9.1626      1.0903      0.2062     94.5290      1.0664     33.1453
  1475.9000      9.1626      1.2061      0.3354     87.5087      2.0544     31.6127
  1476.0000      9.5152      1.3240      0.3578     80.3639      3.2095     32.1980
  1476.1000      9.5152      1.4337      0.3879     73.7130      4.5135     34.3010
  1476.2000      9.5152      1.5328      0.3704     67.7068      5.9152     36.9576
  1476.3000      9.7774      1.6410      0.3397     61.1514      7.3682     41.4742
  1476.4000      9.7774      1.7809      0.3819     52.6713      8.7365     46.7342
  1476.5000      9.6746      1.9352      0.4347     43.3209      9.7584     49.8999
  1476.6000      9.6746      2.0762      0.4148     34.7730     10.3836     54.1423
  1476.7000      9.6746      2.2237      0.3787     25.8348     10.9150     62.0706
  1476.8000      9.1647      2.4010      0.4548     15.0897     11.7254     70.0608
  1476.9000      9.1647      2.5641      0.5209      5.2051     13.0900     74.8452
  1477.0000      8.6003      2.6511      0.4402     -0.0663     15.0030     78.2328
  1477.1000      8.6003      2.6656      0.2686     -0.9485     17.1277     83.9894
  1477.2000      8.6003      2.6552      0.1809     -0.3136     18.9728     90.2137
  1477.3000      8.2641      2.6429      0.1371      0.4332     20.3344     92.4521
  1477.4000      8.2641      2.6226      0.0960      1.6621     21.5359     91.2447
  1477.5000      8.1489      2.5918      0.0720      3.5250     22.6950     90.6352
  1477.6000      8.1489      2.5634      0.0337      5.2459     23.6459     93.6150
  1477.7000      8.1489      2.5478      0.0643      6.1925     24.4351     99.5966
  1477.8000      8.1291      2.5392      0.0385      6.7180     25.0386    105.7311
  1477.9000      8.1291      2.5305      0.0500      7.2431     25.1520    109.1978
  1478.0000      8.1297      2.5213      0.0301      7.8011     24.8233    109.6659
  1478.1000      8.1297      2.5130      0.0346      8.3036     24.6304    107.3117
  1478.2000      8.1297      2.5096      0.0006      8.5083     24.6330    103.9082
  1478.3000      8.1370      2.5167      0.0159      8.0771     24.3779    102.1910
  1478.4000      8.1370      2.5256      0.0565      7.5395     24.1297    104.6474
  1478.5000      8.1442      2.5179      0.0519      8.0077     24.5321    112.7815
  1478.6000      8.1442      2.4984     -0.0232      9.1869     25.2300    123.2055
  1478.7000      8.1442      2.4903      0.0052      9.6768     25.4291    131.0911
  1478.8000      8.1395      2.4971      0.0371      9.2675     25.3270    135.8231
  1478.9000      8.1395      2.5074      0.0432      8.6401     25.5483    135.9340
  1479.0000      8.1304      2.5157      0.0244      8.1387     25.9378    129.3876
  1479.1000      8.1304      2.5178      0.0698      8.0128     25.8941    120.0257
  1479.2000      8.1304      2.5174      0.0289      8.0334     25.5199    114.4210
  1479.3000      8.1270      2.5263      0.0804      7.4979     25.3407    115.0027
  1479.4000      8.1270      2.5372      0.1199      6.8371     25.3769    119.3300
  1479.5000      8.1279      2.5339      0.1182      7.0375     25.4869    123.9543
  1479.6000      8.1279      2.5182      0.1006      7.9853     25.5572    127.5441
  1479.7000      8.1279      2.4923      0.1498      9.5585     25.3472    129.2781
  1479.8000      8.1262      2.4464      0.0852     12.3383     24.9850    128.3017
  1479.9000      8.1262      2.3897      0.0224     15.7770     24.6485    127.0527
  1480.0000      8.1239      2.3495     -0.0059     18.2092     24.2047    127.9587
  1480.1000      8.1239      2.3393      0.0145     18.8274     23.7666    130.2469
  1480.2000      8.1239      2.3462      0.0548     18.4138     23.5911    132.9126
  1480.3000      8.1249      2.3476      0.0454     18.3279     23.5145    132.8490
  1480.4000      8.1249      2.3367      0.0714     18.9891     23.4438    127.1321
  1480.5000      8.1224      2.3384      0.0410     18.8875     23.4959    123.5682
  1480.6000      8.1224      2.3827      0.1678     16.1996     23.7536    129.4985
  1480.7000      8.1224      2.4595      0.2223     11.5472     24.3852    137.3626
  1480.8000      8.1167      2.5355      0.2780      6.9373     25.1375    137.1767
  1480.9000      8.1167      2.5876      0.2984      3.7829     25.5831    128.9252
  1481.0000      8.1171      2.6048      0.2867      2.7394     25.7793    119.7972
  1481.1000      8.1171      2.5808      0.2396      4.1929     26.0112    116.2219
  1481.2000      8.1171      2.5155      0.1587      8.1528     26.4430    120.7380
  1481.3000      8.1230      2.4369      0.0297     12.9123     27.0935    128.2630
  1481.4000      8.1230      2.3792      0.0496     16.4100     27.9046    130.8962
  1481.5000      8.1259      2.3437      0.0433     18.5638     28.5943    129.0519
  1481.6000      8.1259      2.3220      0.0284     19.8769     28.6872    124.7036
  1481.7000      8.1259      2.3157     -0.0025     20.2590     28.2134    119.2935
  1481.8000      8.1190      2.3232      0.0005     19.8042     27.6856    115.4448
  1481.9000      8.1190      2.3296      0.0705     19.4206     27.4120    113.3923
  1482.0000      8.0962      2.3245      0.0240     19.7272     27.1558    116.2496
  1482.1000      8.0962      2.3203      0.0501     19.9838     26.8083    123.3534
  1482.2000      8.0962      2.3346      0.0882     19.1152     26.6577    127.3355
  1482.3000      8.0700      2.3758      0.1732     16.6164     26.5747    126.6858
  1482.4000      8.0700      2.4303      0.2066     13.3180     26.0734    126.1698
  1482.5000      8.0718      2.4621      0.2189     11.3908     25.2822    127.7843
  1482.6000      8.0718      2.4482      0.1256     12.2286     24.9468    130.8638
  1482.7000      8.0718      2.3972      0.0713     15.3206     25.0580    136.2183
  1482.8000      8.0861      2.3122      0.0792     20.4738     24.8891    144.1874
  1482.9000      8.0861      2.1717      0.0649     28.9861     24.1840    149.7247
  1483.0000      8.0792      1.9719      0.0121     41.0948     23.3364    148.2019
  1483.1000      8.0792      1.7634     -0.1096     53.7356     22.8110    144.1486
  1483.2000      8.0792      1.6150     -0.1118     62.7278     22.4998    141.9866
  1483.3000      8.0807      1.5565     -0.1068     66.2744     22.1915    139.4393
  1483.4000      8.0807      1.5896     -0.0702     64.2654     21.8665    135.5915
  1483.5000      8.1121      1.7151      0.0296     56.6618     21.5346    134.4631
  1483.6000      8.1121      1.9207      0.2210     44.2015     21.2459    139.4610
  1483.7000      8.1121      2.1708      0.5066     29.0433     21.2986    147.6021
  1483.8000      8.1376      2.4119      0.7018     14.4326     22.0410    152.3662
  1483.9000      8.1376      2.5892      0.7944      3.6834     23.1909    150.6596
