~Version Information
VERS.                      2.0: CWLS Log ASCII Standard - VERSION 2.0
WRAP.                       NO: One line per depth step
~Well Information Block
STRT.FT               -19.2500: 
STOP.FT              2421.5000: 
STEP.FT                 0.2500: 
NULL.                -999.2500: 
COMP.          Petrogulf Corporation: COMPANY
WELL.           Montoya 13-41V: WELL
FLD.           Purgatorie River: FIELD
LOC.           449' FNL & 891' FEL: LOCATION
CNTY.               Las Animas: COUNTY
SRVC.                         : SERVICE COMPANY
DATE.          Mon Sep 13 13:48:36 2004: LOG DATE
UWI.                       N/A: UNIQUE WELL ID
STAT.                 Colorado: STATE
~Curve Information Block
DEPT.FT            0 000 00 00: Depth
TT3.usec                      : CBL 3' Travel Time
AMP3.mV                       : CBL 3' Amplitude
GR.GAPI                       : Gamma Ray
CCL.                          : Casing Collar Locator
~Parameter Information Block
~A  Depth       TT3         AMP3         GR         CCL     
# ...
  2392.7500    788.9148      5.1028     67.1217      4.2419
  2393.0000    775.8300      4.9325     65.8728      0.0000
  2393.2500    770.2439      4.7040     65.4280      0.0000
  2393.5000    762.2985      4.5003     64.8665      0.0000
  2393.7500    752.5628      4.5301     63.7709      0.0000
  2394.0000    748.2245      4.8483     62.7228      0.0000
  2394.2500    748.5361      5.1912     62.7923      0.0000
  2394.5000    745.6461      5.3958     64.6041      0.0000
  2394.7500    737.3644      5.6825     67.7061      0.0000
  2395.0000    729.4755      6.2452     70.7143      0.0000
  2395.2500    727.0746      6.9646     72.2469      0.0000
  2395.5000    730.4321      7.5996     71.9315      0.0000
  2395.7500    736.3625      7.9673     70.4921      0.0000
  2396.0000    739.6583      8.0159     68.9527      0.0000
  2396.2500    737.5895      7.8845     68.0473      0.0000
  2396.5000    733.9595      7.8323     68.3254      0.0000
  2396.7500    735.2748      8.0291     70.2381      0.0000
  2397.0000    744.2246      8.4181     73.6873      0.0000
  2397.2500    757.3767      8.7989     77.6642      0.0000
  2397.5000    768.5760      9.0222     80.6827      0.0000
  2397.7500    774.7703      9.1128     81.6911      0.0000
  2398.0000    777.1243      9.2009     80.6228      0.0000
  2398.2500    778.3596      9.3249     78.2539      0.0000
  2398.5000    781.5403      9.3709     75.6004      0.0000
  2398.7500    788.6097      9.2187     73.2496      0.0000
  2399.0000    797.7829      8.8936     71.0958      0.0000
  2399.2500    804.7810      8.5868     68.7259      0.0000
  2399.5000    805.8873      8.5251     66.0271      0.0000
  2399.7500    794.5861      8.8189     63.3431      0.0000
  2400.0000    758.5002      9.4150     61.1346      0.0000
  2400.2500    693.5166     10.1469     59.6411      0.0000
  2400.5000    616.1295     10.8518     58.9984      0.0000
  2400.7500    540.9073     11.4769     59.5575      0.0000
  2401.0000    468.3257     12.0745     61.7049      0.0000
  2401.2500    408.0362     12.7005     65.2219      0.0000
  2401.5000    373.3846     13.3448     69.1461      0.0000
  2401.7500    360.5895     13.9463     72.5663      0.0000
  2402.0000    357.5462     14.3776     75.4013      0.0000
  2402.2500    357.2144     14.4423     78.1384      0.0000
  2402.5000    357.5099     14.0446     80.8748      0.0000
  2402.7500    357.8776     13.3539     82.8618      0.0000
  2403.0000    358.0848     12.6609     83.0402      0.0000
  2403.2500    358.2070     12.1266     80.9202      0.0000
  2403.5000    358.7706     11.7741     77.0096      0.0000
  2403.7500    362.3630     11.5866     72.5635      0.0000
  2404.0000    378.5081     11.5050     68.8859      0.0000
  2404.2500    425.9407     11.4249     66.6277      0.0000
  2404.5000    514.0144     11.2619     65.7100      0.0000
  2404.7500    612.1938     11.0170     65.9120      0.0000
  2405.0000    667.1917     10.7847     67.2625      5.0000
  2405.2500    669.2467     10.6753     69.6387      0.0000
  2405.5000    666.3196     10.7123     72.3450      0.0000
  2405.7500    690.9926     10.8121     74.5546      0.0000
  2406.0000    712.6769     10.8785     75.9042   -999.2500
  2406.2500    685.1095     10.9228     75.9510   -999.2500
  2406.5000    601.5818     11.0998     73.0732   -999.2500
  2406.7500    496.8793     11.6073     64.9569   -999.2500
  2407.0000    415.3497     12.4780     51.0540   -999.2500
  2407.2500    373.9746     13.5314     34.2151   -999.2500
  2407.5000    360.0602     14.5561     19.0550   -999.2500
  2407.7500    356.6510     15.4384      8.6666   -999.2500
  2408.0000    355.4426     16.2143      3.1814   -999.2500
  2408.2500    353.4693     17.0403      0.9345   -999.2500
  2408.5000    348.6176     17.9919      0.2181   -999.2500
  2408.7500    339.6516     18.9948      0.0398   -999.2500
  2409.0000    328.5823     19.9806      0.0050   -999.2500
  2409.2500    319.6442     20.9100      0.0000   -999.2500
  2409.5000    314.9790     21.6958   -999.2500   -999.2500
  2409.7500    313.5589     22.2102   -999.2500   -999.2500
  2410.0000    313.6136     22.3559   -999.2500   -999.2500
  2410.2500    314.2697     22.1616   -999.2500   -999.2500
  2410.5000    316.0035     21.8080   -999.2500   -999.2500
  2410.7500    320.6327     21.4721   -999.2500   -999.2500
  2411.0000    329.4405     21.1257   -999.2500   -999.2500
  2411.2500    340.1377     20.6648   -999.2500   -999.2500
  2411.5000    347.4465     20.1810   -999.2500   -999.2500
  2411.7500    347.3919     19.9165   -999.2500   -999.2500
  2412.0000    339.9798     20.0182   -999.2500   -999.2500
  2412.2500    329.1270     20.4406   -999.2500   -999.2500
  2412.5000    319.7163     21.1187   -999.2500   -999.2500
  2412.7500    312.2263     21.9466   -999.2500   -999.2500
  2413.0000    298.8266     22.2028   -999.2500   -999.2500
  2413.2500    263.9510     20.3805   -999.2500   -999.2500
  2413.5000    197.3421     15.5695   -999.2500   -999.2500
  2413.7500    114.4111      9.1734   -999.2500   -999.2500
  2414.0000     48.0290      3.9794   -999.2500   -999.2500
  2414.2500     13.9418      1.3051   -999.2500   -999.2500
  2414.5000      2.7180      0.4245   -999.2500   -999.2500
  2414.7500      0.3485      0.2386   -999.2500   -999.2500
  2415.0000      0.0278      0.2134   -999.2500   -999.2500
  2415.2500   -999.2500   -999.2500   -999.2500   -999.2500
  2415.5000   -999.2500   -999.2500   -999.2500   -999.2500
  2415.7500   -999.2500   -999.2500   -999.2500   -999.2500
  2416.0000   -999.2500   -999.2500   -999.2500   -999.2500
  2416.2500   -999.2500   -999.2500   -999.2500   -999.2500
  2416.5000   -999.2500   -999.2500   -999.2500   -999.2500
  2416.7500   -999.2500   -999.2500   -999.2500   -999.2500
  2417.0000   -999.2500   -999.2500   -999.2500   -999.2500
  2417.2500   -999.2500   -999.2500   -999.2500   -999.2500
  2417.5000   -999.2500   -999.2500   -999.2500   -999.2500
  2417.7500   -999.2500   -999.2500   -999.2500   -999.2500
  2418.0000   -999.2500   -999.2500   -999.2500   -999.2500
  2418.2500   -999.2500   -999.2500   -999.2500   -999.2500
  2418.5000   -999.2500   -999.2500   -999.2500   -999.2500
  2418.7500   -999.2500   -999.2500   -999.2500   -999.2500
  2419.0000   -999.2500   -999.2500   -999.2500   -999.2500
  2419.2500   -999.2500   -999.2500   -999.2500   -999.2500
  2419.5000   -999.2500   -999.2500   -999.2500   -999.2500
  2419.7500   -999.2500   -999.2500   -999.2500   -999.2500
  2420.0000   -999.2500   -999.2500   -999.2500   -999.2500
  2420.2500   -999.2500   -999.2500   -999.2500   -999.2500
  2420.5000   -999.2500   -999.2500   -999.2500   -999.2500
  2420.7500   -999.2500   -999.2500   -999.2500   -999.2500
  2421.0000   -999.2500   -999.2500   -999.2500   -999.2500
  2421.2500   -999.2500   -999.2500   -999.2500   -999.2500
  2421.5000   -999.2500   -999.2500   -999.2500   -999.2500
