~Version Information
VERS.                      2.0: CWLS Log ASCII Standard - VERSION 2.0
WRAP.                       NO: One line per depth step
~Well Information Block
STRT.FT                12.0000: 
STOP.FT              1671.7500: 
STEP.FT                 0.2500: 
NULL.                -999.2500: 
COMP.          Pioneer Natural Resources: COMPANY
WELL.          Scott Canyon 11-18 Tr: WELL
FLD.           Purgatoire River: FIELD
LOC.           411' FNL & 580' FWL: LOCATION
PROV.                 Colorado: PROVINCE
CNTY.               Las Animas: COUNTRY
SRVC.                Patterson: SERVICE COMPANY
DATE.          Tue Feb 22 09:52:18 2005: LOG DATE
UWI.           05 071 08286 00: UNIQUE WELL ID
~Curve Information Block
DEPT.FT            0 000 00 00: Depth
GR.GAPI                       : Gamma Ray
CCL.                          : Casing Collar Locator
TT3.usec                      : CBL 3' Travel Time
AMP3.mV                       : CBL 3' Amplitude
~Parameter Information Block
~A  Depth        GR         CCL         TT3         AMP3    
# ...
  1318.5000    143.0144      0.0000    803.0705      7.1142
  1318.7500    136.6373      0.0000    810.1562      7.1993
  1319.0000    128.9235      0.0000    817.9675      7.2520
  1319.2500    120.9434      0.0000    824.5065      7.2637
  1319.5000    113.1619      0.0000    828.1466      7.2407
  1319.7500    106.3715      0.0000    828.1140      7.2157
  1320.0000    101.6026      0.0000    824.3863      7.2391
  1320.2500     99.4801      0.0000    817.7240      7.3497
  1320.5000    100.0913      0.0000    809.7994      7.5524
  1320.7500    103.0961      0.0000    802.6714      7.8275
  1321.0000    107.5411      0.0000    797.7080      8.1552
  1321.2500    111.6848      0.0000    795.0250      8.5179
  1321.5000    113.3860      0.0000    793.9374      8.8859
  1321.7500    111.1346      0.0000    793.7824      9.2110
  1322.0000    105.2675      0.0000    794.3840      9.4436
  1322.2500     98.2953      0.0000    795.9181      9.5564
  1322.5000     93.5927      0.0000    798.3234      9.5584
  1322.7500     93.2173      0.0000    800.7797      9.4876
  1323.0000     96.5265      0.0000    801.9906      9.3836
  1323.2500    100.6636      0.0000    801.2578      9.2627
  1323.5000    102.6687      0.0000    799.1381      9.1194
  1323.7500    101.5037      0.0000    796.8496      8.9496
  1324.0000     98.1822      0.0000    795.2255      8.7644
  1324.2500     94.3489      0.0000    794.3818      8.5821
  1324.5000     91.1814      0.0000    794.0684      8.4154
  1324.7500     89.1129      0.0000    794.0031      8.2684
  1325.0000     87.6206      0.0000    793.9479      8.1384
  1325.2500     85.3816      0.0000    793.7153      8.0171
  1325.5000     81.5140      0.0000    793.2289      7.8961
  1325.7500     76.8342      0.0000    792.5331      7.7764
  1326.0000     73.4251      0.0000    791.6705      7.6692
  1326.2500     72.8856      0.0000    790.4886      7.5883
  1326.5000     75.2290      0.0000    788.6716      7.5419
  1326.7500     79.2213      0.0000    786.1961      7.5291
  1327.0000     83.2853      0.0000    783.8587      7.5304
  1327.2500     86.1756      0.0000    783.0623      7.5010
  1327.5000     87.4603      0.0000    784.7865      7.3811
  1327.7500     87.8283      0.0000    788.8127      7.1260
  1328.0000     88.8631      0.0000    793.9232      6.7224
  1328.2500     92.1564      0.0000    798.5391      6.1770
  1328.5000     98.1822      0.0000    801.3847      5.5118
  1328.7500    105.6825      0.0000    802.2504      4.7993
  1329.0000    112.0795      0.0000    802.1617      4.1860
  1329.2500    114.8317      0.0000    802.3452      3.8292
  1329.5000    113.0861      0.0000    803.1327      3.7814
  1329.7500    108.4217      0.0000    804.1012      3.9522
  1330.0000    103.6976      0.0000    805.0383      4.1927
  1330.2500    100.7484      0.0000    806.7640      4.4090
  1330.5000     99.2600      0.0000    811.6563      4.6266
  1330.7500     98.1424      0.0000    822.6520      4.9799
  1331.0000     97.6494      0.0000    839.5155      5.6021
  1331.2500     99.3925      0.0000    855.5845      6.4590
  1331.5000    104.1684      0.0000    861.0034      7.3159
  1331.7500    110.4575      0.0000    851.4692      7.9482
  1332.0000    115.4418      0.0000    832.5305      8.3689
  1332.2500    117.4158      0.0000    814.0125      8.7788
  1332.5000    117.3351      0.0000    801.8809      9.3143
  1332.7500    118.2160      0.0000    796.1865      9.9135
  1333.0000    122.6689      0.0000    794.2578     10.4128
  1333.2500    130.5811      0.0000    793.7711     10.7021
  1333.5000    139.0670      0.0000    793.6024     10.7726
  1333.7500    144.6087      0.0000    793.5241     10.6703
  1334.0000    145.4348      0.0000    793.8442     10.4489
  1334.2500    142.1014      0.0000    795.0342     10.1547
  1334.5000    135.9249      0.0000    797.1925      9.8290
  1334.7500    127.3542      0.0000    799.5540      9.5063
  1335.0000    116.3117      0.0000    800.8057      9.2101
  1335.2500    103.4662      0.0000    800.1852      8.9496
  1335.5000     90.3440      0.0000    798.1854      8.7230
  1335.7500     78.5016      0.0000    796.0901      8.5229
  1336.0000     69.0939      0.0000    795.1229      8.3411
  1336.2500     62.8758      0.0000    796.0944      8.1703
  1336.5000     60.0871      0.0000    799.1791      8.0054
  1336.7500     60.3676      0.0000    803.3745      7.8469
  1337.0000     62.8996      0.0000    806.4834      7.7022
  1337.2500     66.6935      0.0000    806.5074      7.5814
  1337.5000     70.9304      0.0000    803.4048      7.4895
  1337.7500     75.2700      0.0000    799.1705      7.4230
  1338.0000     79.9320      0.0000    796.1874      7.3731
  1338.2500     85.4233      0.0000    795.6952      7.3317
  1338.5000     91.9705      0.0000    797.4105      7.2955
  1338.7500     98.9702      0.0000    799.8851      7.2638
  1339.0000    104.8683      0.0000    801.3385      7.2353
  1339.2500    107.8592      0.0000    800.8476      7.2050
  1339.5000    107.3282      0.0000    798.9724      7.1670
  1339.7500    104.8154      0.0000    797.1097      7.1212
  1340.0000    103.0550      0.0000    796.4299      7.0765
  1340.2500    103.5303      0.0000    797.4629      7.0416
  1340.5000    104.9175      0.0000    800.2783      7.0160
  1340.7500    104.2299      0.0000    804.8621      6.9938
  1341.0000     99.7325      0.0000    811.8056      6.9749
  1341.2500     92.6890      0.0000    822.5736      6.9648
  1341.5000     86.0631      0.0000    837.7424      6.9643
  1341.7500     81.5944      0.0000    854.6727      6.9653
  1342.0000     78.6136      0.0000    868.6376      6.9561
  1342.2500     75.8962      0.0000    876.8780      6.9250
  1342.5000     73.9400      0.0000    880.1301      6.8608
  1342.7500     74.5282      0.0000    881.6270      6.7610
  1343.0000     78.2817      0.0000    887.8997      6.6386
  1343.2500     83.6031      0.0000    907.4026      6.5143
  1343.5000     88.2885      0.0000    941.5568      6.3995
  1343.7500     91.6138      0.0000    978.0621      6.2922
  1344.0000     94.5118      0.0000    999.2516      6.1898
  1344.2500     98.0239      0.0000    997.0753      6.1005
  1344.5000    102.0767      0.0000    976.2256      6.0388
  1344.7500    105.7582      0.0000    945.5179      6.0086
  1345.0000    108.1205      0.0000    911.9424      5.9956
  1345.2500    108.4333      0.0000    881.1003      5.9775
  1345.5000    106.3127      0.0000    857.0959      5.9423
  1345.7500    102.1669      0.0000    840.5082      5.8968
  1346.0000     97.3058      0.0000    828.6052      5.8575
  1346.2500     93.3873      0.0000    818.3851      5.8350
  1346.5000     91.8939      0.0000    808.9160      5.8279
  1346.7500     93.9176      0.0000    801.0363      5.8286
  1347.0000     99.9198      0.0000    795.6630      5.8289
  1347.2500    109.3536      0.0000    792.7635      5.8192
  1347.5000    120.5109      0.0000    791.6003      5.7883
  1347.7500    130.9331      0.0000    791.3895      5.7293
  1348.0000    138.4486      0.0000    791.6158      5.6493
  1348.2500    142.2777      0.0000    792.0640      5.5639
  1348.5000    143.2802      0.0000    792.8543      5.4714
  1348.7500    143.0068      0.0000    794.6862      5.3255
  1349.0000    142.3248      0.0000    799.1353      5.0436
  1349.2500    140.7369      0.0000    808.5620      4.5800
  1349.5000    137.0093      0.0000    825.1279      4.0122
  1349.7500    130.7663      0.0000    849.1718      3.5155
  1350.0000    123.4175      0.0000    879.2682      3.2023
  1350.2500    117.1609      0.0000    915.7997      3.0164
  1350.5000    113.1219      0.0000    964.2858      2.8380
  1350.7500    110.6923      0.0000   1031.4504      2.6500
  1351.0000    108.4641      0.0000   1115.3433      2.5388
  1351.2500    105.4631      0.0000   1201.2041      2.5702
  1351.5000    101.6326     -3.0000   1269.7437      2.7327
  1351.7500     97.4990      0.0000   1309.6012      2.9867
