~Version Information
VERS.                      2.0: CWLS Log ASCII Standard - VERSION 2.0
WRAP.                       NO: One line per depth step
~Well Information Block
STRT.FT               298.0000: 
STOP.FT              1325.5000: 
STEP.FT                 0.2500: 
NULL.                -999.2500: 
COMP.          Pioneer Natural Resources: COMPANY
WELL.          Santa Fe 43-27 Tr: WELL
FLD.           Purgatoire River: FIELD
LOC.           2018' FSL & 534' FEL: LOCATION
PROV.                 Colorado: PROVINCE
CNTY.               Las Animas: COUNTRY
SRVC.                Patterson: SERVICE COMPANY
DATE.          Tue Mar 08 10:44:11 2005: LOG DATE
UWI.           05 071 08303 00: UNIQUE WELL ID
~Curve Information Block
DEPT.FT            0 000 00 00: Depth
SN.Ohm-m                      : IEL Short Normal
SP.mV                         : IEL Spontaneous Potential
DIR.Ohm-m                     : IEL Induction Resistivity
GR.GAPI                       : Gamma Ray
~Parameter Information Block
~A  Depth        SN          SP         DIR          GR     
# ...
   633.0000   2000.0000   2000.0000      8.5146    111.9218
   633.2500   2000.0000   2000.0000      8.4610    105.4882
   633.5000   2000.0000   2000.0000      8.3917     99.3956
   633.7500   2000.0000   2000.0000      8.3275     98.6747
   634.0000   2000.0000   2000.0000      8.2878    103.2066
   634.2500   2000.0000   2000.0000      8.2829    109.5138
   634.5000   2000.0000   2000.0000      8.3096    121.9755
   634.7500   2000.0000   2000.0000      8.3528    130.7693
   635.0000   2000.0000   2000.0000      8.3897    141.9257
   635.2500   2000.0000   2000.0000      8.3970    146.6644
   635.5000   2000.0000   2000.0000      8.3580    148.8063
   635.7500   2000.0000   2000.0000      8.2671    147.4744
   636.0000   2000.0000   2000.0000      8.1305    143.6095
   636.2500   2000.0000   2000.0000      7.9638    141.2201
   636.5000   2000.0000   2000.0000      7.7869    139.4873
   636.7500   2000.0000   2000.0000      7.6197    139.7271
   637.0000   2000.0000   2000.0000      7.4780    141.3273
   637.2500   2000.0000   2000.0000      7.3706    142.4659
   637.5000   2000.0000   2000.0000      7.3004    143.5365
   637.7500   2000.0000   2000.0000      7.2664    143.9203
   638.0000   2000.0000   2000.0000      7.2680    144.3551
   638.2500   2000.0000   2000.0000      7.3053    144.4008
   638.5000   2000.0000   2000.0000      7.3771    143.5032
   638.7500   2000.0000   2000.0000      7.4763    142.2495
   639.0000   2000.0000   2000.0000      7.5871    140.0697
   639.2500   2000.0000   2000.0000      7.6874    138.6420
   639.5000   2000.0000   2000.0000      7.7580    135.8695
   639.7500   2000.0000   2000.0000      7.7929    132.9874
   640.0000   2000.0000   2000.0000      7.8031    127.0691
   640.2500   2000.0000   2000.0000      7.8091    122.8274
   640.5000   2000.0000   2000.0000      7.8293    117.7568
   640.7500   2000.0000   2000.0000      7.8729    115.9461
   641.0000   2000.0000   2000.0000      7.9390    116.0859
   641.2500   2000.0000   2000.0000      8.0206    118.0533
   641.5000   2000.0000   2000.0000      8.1084    123.1102
   641.7500   2000.0000   2000.0000      8.1916    127.1625
   642.0000   2000.0000   2000.0000      8.2572    133.2700
   642.2500   2000.0000   2000.0000      8.2915    137.1441
   642.5000   2000.0000   2000.0000      8.2832    142.2975
   642.7500   2000.0000   2000.0000      8.2269    144.7744
   643.0000   2000.0000   2000.0000      8.1244    146.2155
   643.2500   2000.0000   2000.0000      7.9830    145.7425
   643.5000   2000.0000   2000.0000      7.8136    144.0661
   643.7500   2000.0000   2000.0000      7.6310    143.0783
   644.0000   2000.0000   2000.0000      7.4532    142.3092
   644.2500   2000.0000   2000.0000      7.2989    142.0413
   644.5000   2000.0000   2000.0000      7.1823    141.3477
   644.7500   2000.0000   2000.0000      7.1099    140.5490
   645.0000   2000.0000   2000.0000      7.0797    139.2209
   645.2500   2000.0000   2000.0000      7.0831    138.5887
   645.5000   2000.0000   2000.0000      7.1081    138.2565
   645.7500   2000.0000   2000.0000      7.1431    138.3501
   646.0000   2000.0000   2000.0000      7.1796    138.9257
   646.2500   2000.0000   2000.0000      7.2146    139.8914
   646.5000   2000.0000   2000.0000      7.2488    143.0476
   646.7500   2000.0000   2000.0000      7.2836    146.6262
   647.0000   2000.0000   2000.0000      7.3183    153.8384
   647.2500   2000.0000   2000.0000      7.3500    158.9010
   647.5000   2000.0000   2000.0000      7.3770    164.2701
   647.7500   2000.0000   2000.0000      7.4008    164.9558
   648.0000   2000.0000   2000.0000      7.4263    160.6653
   648.2500   2000.0000   2000.0000      7.4592    154.7582
   648.5000   2000.0000   2000.0000      7.5035    143.4480
   648.7500   2000.0000   2000.0000      7.5606    135.6843
   649.0000   2000.0000   2000.0000      7.6301    125.5600
   649.2500   2000.0000   2000.0000      7.7109    120.3637
   649.5000   2000.0000   2000.0000      7.8011    114.9114
   649.7500   2000.0000   2000.0000      7.8974    112.5979
   650.0000   2000.0000   2000.0000      7.9939    111.0420
   650.2500   2000.0000   2000.0000      8.0837    111.4318
   650.5000   2000.0000   2000.0000      8.1606    113.7155
   650.7500   2000.0000   2000.0000      8.2228    115.3880
   651.0000   2000.0000   2000.0000      8.2728    116.1163
   651.2500   2000.0000   2000.0000      8.3181    114.8641
   651.5000   2000.0000   2000.0000      8.3681    110.9939
   651.7500   2000.0000   2000.0000      8.4312    107.9375
   652.0000   2000.0000   2000.0000      8.5122    104.0229
   652.2500   2000.0000   2000.0000      8.6114    102.4703
   652.5000   2000.0000   2000.0000      8.7266    102.3565
   652.7500   2000.0000   2000.0000      8.8574    103.6370
   653.0000   2000.0000   2000.0000      9.0088    106.3168
   653.2500   2000.0000   2000.0000      9.1915    107.7102
   653.5000   2000.0000   2000.0000      9.4186    108.6331
   653.7500   2000.0000   2000.0000      9.7013    108.7907
   654.0000   2000.0000   2000.0000     10.0458    109.0983
   654.2500   2000.0000   2000.0000     10.4519    109.4702
   654.5000   2000.0000   2000.0000     10.9140    109.7494
   654.7500   2000.0000   2000.0000     11.4241    109.0997
   655.0000   2000.0000   2000.0000     11.9767    105.7254
   655.2500   2000.0000   2000.0000     12.5723    101.7258
   655.5000   2000.0000   2000.0000     13.2156     94.4907
   655.7500   2000.0000   2000.0000     13.9077     90.3863
   656.0000   2000.0000   2000.0000     14.6373     87.5544
   656.2500   2000.0000   2000.0000     15.3796     88.1573
   656.5000   2000.0000   2000.0000     16.1047     91.7881
   656.7500   2000.0000   2000.0000     16.7891     95.4221
   657.0000   2000.0000   2000.0000     17.4210    102.3037
   657.2500   2000.0000   2000.0000     17.9971    107.5374
   657.5000   2000.0000   2000.0000     18.5122    115.1004
   657.7500   2000.0000   2000.0000     18.9503    119.1750
   658.0000   2000.0000   2000.0000     19.2818    123.3719
   658.2500   2000.0000   2000.0000     19.4714    125.1661
   658.5000   2000.0000   2000.0000     19.4990    127.2972
   658.7500   2000.0000   2000.0000     19.3791    128.9972
   659.0000   2000.0000   2000.0000     19.1635    132.9923
   659.2500   2000.0000   2000.0000     18.9214    136.9358
   659.5000   2000.0000   2000.0000     18.7111    144.2827
   659.7500   2000.0000   2000.0000     18.5604    149.0953
   660.0000   2000.0000   2000.0000     18.4628    153.6741
   660.2500   2000.0000   2000.0000     18.3888    153.8929
   660.5000   2000.0000   2000.0000     18.3068    150.1478
   660.7500   2000.0000   2000.0000     18.2029    146.1501
   661.0000   2000.0000   2000.0000     18.0928    140.2703
   661.2500   2000.0000   2000.0000     18.0159    137.1413
   661.5000   2000.0000   2000.0000     18.0188    133.6357
   661.7500   2000.0000   2000.0000     18.1363    131.8655
   662.0000   2000.0000   2000.0000     18.3793    129.8940
   662.2500   2000.0000   2000.0000     18.7334    129.1012
   662.5000   2000.0000   2000.0000     19.1654    128.7185
   662.7500   2000.0000   2000.0000     19.6325    128.5714
   663.0000   2000.0000   2000.0000     20.0932    126.7036
   663.2500   2000.0000   2000.0000     20.5152    123.3443
   663.5000   2000.0000   2000.0000     20.8773    115.3819
   663.7500   2000.0000   2000.0000     21.1634    109.6075
   664.0000   2000.0000   2000.0000     21.3627    103.1581
   664.2500   2000.0000   2000.0000     21.4865    101.0442
   664.5000   2000.0000   2000.0000     21.5918    100.1769
   664.7500   2000.0000   2000.0000     21.7718     99.9096
   665.0000   2000.0000   2000.0000     22.1084     98.3623
   665.2500   2000.0000   2000.0000     22.6163     96.4398
   665.5000   2000.0000   2000.0000     23.2258     93.1305
   665.7500   2000.0000   2000.0000     23.8203     91.2310
   666.0000   2000.0000   2000.0000     24.3082     89.2520
   666.2500   2000.0000   2000.0000     24.6678     88.5068
