~Version Information
VERS.                      2.0: CWLS Log ASCII Standard - VERSION 2.0
WRAP.                       NO: One line per depth step
~Well Information Block
STRT.FT               -13.5000: 
STOP.FT              2474.2500: 
STEP.FT                 0.2500: 
NULL.                -999.2500: 
COMP.          Pioneer Natural Resources: COMPANY
WELL.              Tiaga 23-14: WELL
FLD.           Purgatorie River: FIELD
LOC.           2168' FSL & 2030' FWL--: LOCATION
PROV.                       CO: PROVINCE
CNTY.               Las Animas: COUNTRY
SRVC.                         : SERVICE COMPANY
DATE.          Thu May 12 17:01:37 2005: LOG DATE
UWI.                          : UNIQUE WELL ID
~Curve Information Block
DEPT.FT            0 000 00 00: Depth
TT3.usec                      : CBL 3' Travel Time
AMP3.mV                       : CBL 3' Amplitude
GR.GAPI                       : Gamma Ray
CCL.                          : Casing Collar Locator
~Parameter Information Block
~A  Depth       TT3         AMP3         GR         CCL     
# ...
   489.0000    700.4120      6.8422     59.2167      0.0000
   489.2500    699.9586      6.7956     56.6028      0.0000
   489.5000    699.7478      6.7629     54.1298      0.0000
   489.7500    699.8759      6.7421     52.1698      0.0000
   490.0000    700.2054      6.7298     51.0430      0.0000
   490.2500    700.4653      6.7229     51.0574      0.0000
   490.5000    700.6703      6.7206     52.1543      0.0000
   490.7500    701.6117      6.7201     53.5422      0.0000
   491.0000    704.7782      6.7167     54.0316      0.0000
   491.2500    710.9993      6.7072     52.8754      0.0000
   491.5000    718.6671      6.6848     50.1419      0.0000
   491.7500    724.6572      6.6422     46.3920      0.0000
   492.0000    727.4918      6.5791     42.3831      0.0000
   492.2500    728.0778      6.4983     39.0189      0.0000
   492.5000    727.8571      6.4005     37.0240      0.0000
   492.7500    727.6373      6.2977     36.3563      0.0000
   493.0000    727.7784      6.2245     36.1510      0.0000
   493.2500    728.9517      6.2172     35.5112      0.0000
   493.5000    733.1014      6.2780     34.2732      0.0000
   493.7500    743.0865      6.3695     32.9007      0.0000
   494.0000    757.3997      6.4377     31.9218      0.0000
   494.2500    764.9366      6.4513     31.7151      0.0000
   494.5000    755.0787      6.4288     32.5943      0.0000
   494.7500    733.7209      6.4071     34.7094      0.0000
   495.0000    717.1287      6.3937     37.7504      0.0000
   495.2500    713.1932      6.3680     40.7984      0.0000
   495.5000    717.5862      6.3116     42.6749      0.0000
   495.7500    722.8729      6.2300     42.7977      0.0000
   496.0000    725.5495      6.1528     41.8168      0.0000
   496.2500    726.0290      6.1072     41.0677      0.0000
   496.5000    725.6489      6.0903     41.2088      0.0000
   496.7500    725.1672      6.0778     41.6001      0.0000
   497.0000    724.8565      6.0546     41.1695      0.0000
   497.2500    724.7977      6.0287     39.7836      0.0000
   497.5000    724.9728      6.0194     38.6419      0.0000
   497.7500    725.2995      6.0344     39.3820      0.0000
   498.0000    725.7089      6.0635     42.9998      0.0000
   498.2500    726.2180      6.0992     49.5428      0.0000
   498.5000    726.8577      6.1407     58.1877      0.0000
   498.7500    727.5063      6.1694     67.0965      0.0000
   499.0000    727.9506      6.1647     73.6527      0.0000
   499.2500    728.1417      6.1420     75.8304      0.0000
   499.5000    728.2209      6.1319     73.7548      0.0000
   499.7500    728.3111      6.1378     69.6582      0.0000
   500.0000    728.4152      6.1402     66.1291      0.0000
   500.2500    728.5105      6.1312     64.4388      0.0000
   500.5000    728.6324      6.1215     64.3843      0.0000
   500.7500    728.8029      6.1147     65.3619      0.0000
   501.0000    728.9658      6.1015     67.2116      0.0000
   501.2500    729.0764      6.0796     69.8691      0.0000
   501.5000    729.1378      6.0522     72.5430      0.0000
   501.7500    729.0983      6.0142     73.8840      0.0000
   502.0000    728.9017      5.9657     73.2017      0.0000
   502.2500    728.6131      5.9244     71.1500      0.0000
   502.5000    728.3199      5.9053     69.0791      0.0000
   502.7500    728.0193      5.8977     68.0689      0.0000
   503.0000    727.7071      5.8752     68.6167      0.0000
   503.2500    727.4775      5.8226     70.7279      0.0000
   503.5000    727.4119      5.7518     73.9297      0.0000
   503.7500    727.4385      5.6923     77.3339      0.0000
   504.0000    727.4299      5.6715     79.8905      0.0000
   504.2500    727.3376      5.6967     80.7735      0.0000
   504.5000    727.1779      5.7499     79.7775      0.0000
   504.7500    727.0104      5.8023     77.3084      0.0000
   505.0000    726.9266      5.8335     73.7613      0.0000
   505.2500    726.9447      5.8416     69.0904      0.0000
   505.5000    726.9817      5.8390     63.2628      0.0000
   505.7500    726.9998      5.8382     56.8937      0.0000
   506.0000    727.0287      5.8416     51.1555      0.0000
   506.2500    727.0499      5.8480     47.1404      0.0000
   506.5000    727.0201      5.8638     45.2699      0.0000
   506.7500    726.9401      5.8969     45.0008      0.0000
   507.0000    726.8262      5.9437     45.1000      0.0000
   507.2500    726.6989      6.0002     44.4919      0.0000
   507.5000    726.6284      6.0708     42.9841      0.0000
   507.7500    726.6733      6.1505     41.2076      0.0000
   508.0000    726.6621      6.2214     39.8949      0.0000
   508.2500    725.8366      6.2629     39.2048      0.0000
   508.5000    722.3870      6.2311     38.6622      0.0000
   508.7500    714.6437      6.0453     37.7232      0.0000
   509.0000    706.7488      5.6774     36.4060      0.0000
   509.2500    710.9337      5.2553     35.2959      0.0000
   509.5000    734.0504      4.9720     34.9278      0.0000
   509.7500    765.3066      4.9024     35.3251      0.0000
   510.0000    786.7385      4.9783     36.1821      0.0000
   510.2500    790.6935      5.0895     37.2424      0.0000
   510.5000    785.1970      5.1737     38.3596      0.0000
   510.7500    785.0906      5.2333     39.4153      0.0000
   511.0000    796.1181      5.2898     40.4014      2.0000
   511.2500    806.9856      5.3494     41.4943     -2.0000
   511.5000    802.1019      5.4464     42.8315      0.0000
   511.7500    781.3524      5.7007     44.1738      0.0000
   512.0000    757.6948      6.1768     44.9171      0.0000
   512.2500    740.5069      6.6572     44.5257      0.0000
   512.5000    730.9664      6.8414     42.8946      0.0000
   512.7500    726.7481      6.7459     40.3267      0.0000
   513.0000    725.2485      6.6001     37.3521      0.0000
   513.2500    724.8248      6.5143     34.5601      0.0000
   513.5000    724.8293      6.4555     32.3971      0.0000
   513.7500    725.1493      6.3824     31.0888      0.0000
   514.0000    726.5551      6.3001     30.8413      0.0000
   514.2500    731.9030      6.2340     32.0055      0.0000
   514.5000    744.7971      6.1852     34.8646      0.0000
   514.7500    761.3007      6.1302     39.2137      0.0000
   515.0000    766.7869      6.0596     44.2112      0.0000
   515.2500    755.0873      5.9909     48.8052      0.0000
   515.5000    740.1923      5.9364     52.4945      0.0000
   515.7500    733.8090      5.8895     55.6111      0.0000
   516.0000    732.2784      5.8442     58.5940      0.0000
   516.2500    730.6434      5.8042     61.1263      0.0000
   516.5000    729.2083      5.7705     62.3167      0.0000
   516.7500    728.6404      5.7393     61.7433      0.0000
   517.0000    728.5515      5.7126     60.0806      0.0000
   517.2500    728.5899      5.7007     58.5345      0.0000
   517.5000    728.5977      5.7120     57.6536      0.0000
   517.7500    728.4860      5.7395     56.8394      0.0000
   518.0000    728.2690      5.7696     55.0948      0.0000
   518.2500    728.0577      5.8045     52.0464      0.0000
   518.5000    727.9500      5.8598     48.2293      0.0000
   518.7500    727.9592      5.9473     44.7716      0.0000
   519.0000    727.9998      6.0661     42.9312      0.0000
   519.2500    727.9364      6.1815     43.4279      0.0000
   519.5000    727.7551      6.2252     45.8412      0.0000
   519.7500    727.5864      6.1760     48.7509      0.0000
   520.0000    727.4871      6.1018     50.6184      0.0000
   520.2500    727.4160      6.0689     50.6774      0.0000
   520.5000    727.3889      6.0860     49.2047      0.0000
   520.7500    727.4203      6.1254     47.0583      0.0000
   521.0000    727.3990      6.1408     44.8507      0.0000
   521.2500    727.2066      6.1104     42.4977      0.0000
   521.5000    726.8988      6.0683     39.5915      0.0000
   521.7500    726.6346      6.0514     36.1668      0.0000
   522.0000    726.5168      6.0459     32.9644      0.0000
   522.2500    726.5942      6.0134     30.9085      0.0000
