~Version Information
VERS.                      2.0: CWLS Log ASCII Standard - VERSION 2.0
WRAP.                       NO: One line per depth step
~Well Information Block
STRT.FT                15.0000: 
STOP.FT              2556.5000: 
STEP.FT                 0.2500: 
NULL.                -999.2500: 
COMP.          Pioneer Natural Resources: COMPANY
WELL.              Quack 22-24: WELL
FLD.           Purgatoire River: FIELD
LOC.           2492' FNL & 2459' FWL: LOCATION
PROV.                 Colorado: PROVINCE
CNTY.               Las Animas: COUNTRY
SRVC.                Patterson: SERVICE COMPANY
DATE.          Tue Jul 26 07:02:30 2005: LOG DATE
UWI.           05 071 08402 00: UNIQUE WELL ID
~Curve Information Block
DEPT.FT            0 000 00 00: Depth
GR.GAPI                       : Gamma Ray
CCL.                          : Casing Collar Locator
TT3.usec                      : CBL 3' Travel Time
AMP3.mV                       : CBL 3' Amplitude
~Parameter Information Block
~A  Depth        GR         CCL         TT3         AMP3    
# ...
  2192.5000    121.3252      0.0000    652.7312      7.9446
  2192.7500    118.1467      0.0000    654.9780      7.9319
  2193.0000    114.2112      0.0000    655.1432      7.9421
  2193.2500    110.4422      0.0000    654.4700      7.9653
  2193.5000    107.2589      0.0000    653.2966      7.9785
  2193.7500    104.3262      0.0000    651.6548      7.9563
  2194.0000    101.3899      0.0000    649.7794      7.8905
  2194.2500     99.0792      0.0000    647.9774      7.7973
  2194.5000     98.5638      0.0000    646.0368      7.7029
  2194.7500    100.4275      0.0000    643.2137      7.6254
  2195.0000    104.0439      0.0000    639.1071      7.5689
  2195.2500    108.1035      0.0000    634.3547      7.5292
  2195.5000    111.5884      0.0000    630.2158      7.5000
  2195.7500    114.1278      0.0000    627.6267      7.4763
  2196.0000    115.6621      0.0000    626.7024      7.4541
  2196.2500    116.2067      0.0000    626.8720      7.4282
  2196.5000    116.0920      0.0000    627.3819      7.3959
  2196.7500    116.1494      0.0000    627.8054      7.3620
  2197.0000    117.2332      0.0000    628.1886      7.3360
  2197.2500    119.4052      0.0000    628.8333      7.3228
  2197.5000    121.7730      0.0000    629.9932      7.3177
  2197.7500    123.3462      0.0000    631.5988      7.3109
  2198.0000    124.0801      0.0000    633.1005      7.2959
  2198.2500    124.9581      0.0000    633.7023      7.2757
  2198.5000    126.8626      0.0000    633.0005      7.2614
  2198.7500    129.3320      0.0000    631.3523      7.2610
  2199.0000    130.7114      0.0000    629.4923      7.2705
  2199.2500    129.7807      0.0000    627.8658      7.2796
  2199.5000    126.9769      0.0000    626.3809      7.2847
  2199.7500    123.6565      0.0000    624.5914      7.2937
  2200.0000    120.3717      0.0000    621.8961      7.3134
  2200.2500    116.4894      0.0000    617.4608      7.3353
  2200.5000    111.6066      0.0000    610.0373      7.3363
  2200.7500    106.6535      0.0000    598.6514      7.2980
  2201.0000    103.0092      0.0000    584.5386      7.2280
  2201.2500    100.9529      0.0000    572.1955      7.1575
  2201.5000     99.8300      0.0000    566.9615      7.1184
  2201.7500     99.5975      0.0000    570.7984      7.1212
  2202.0000    101.1144      0.0000    580.9102      7.1524
  2202.2500    104.4983      0.0000    592.4333      7.1893
  2202.5000    108.1093      0.0000    601.9814      7.2154
  2202.7500    109.7642      0.0000    608.7294      7.2257
  2203.0000    108.3615      0.0000    612.7730      7.2230
  2203.2500    104.0104      0.0000    613.0682      7.2123
  2203.5000     97.3796      0.0000    607.8016      7.1989
  2203.7500     89.5349      0.0000    597.4452      7.1862
  2204.0000     81.9251      0.0000    587.0107      7.1746
  2204.2500     75.9071      0.0000    583.3213      7.1639
  2204.5000     72.3052      0.0000    588.8881      7.1588
  2204.7500     71.4406      0.0000    599.7410      7.1638
  2205.0000     73.1263      0.0000    609.7053      7.1688
  2205.2500     76.5586      0.0000    614.3312      7.1492
  2205.5000     80.8716      0.0000    610.1404      7.0874
  2205.7500     86.1685      0.0000    594.1702      6.9943
  2206.0000     93.3976      0.0000    568.1682      6.9070
  2206.2500    102.5847      0.0000    542.2393      6.8653
  2206.5000    111.4995      0.0000    530.1970      6.8883
  2206.7500    116.8158      0.0000    538.8448      6.9651
  2207.0000    116.9100      0.0000    562.5728      7.0632
  2207.2500    113.3098      0.0000    589.0084      7.1493
  2207.5000    109.2667      0.0000    608.8145      7.2098
  2207.7500    107.1036      0.0000    619.8824      7.2534
  2208.0000    106.9766      0.0000    624.7711      7.2958
  2208.2500    107.6819      0.0000    626.7534      7.3437
  2208.5000    108.1874      0.0000    628.1943      7.3943
  2208.7500    108.5365      0.0000    630.7491      7.4435
  2209.0000    109.5443      0.0000    635.5905      7.4879
  2209.2500    111.6231      0.0000    642.9562      7.5204
  2209.5000    114.0148      0.0000    651.7645      7.5290
  2209.7500    115.3774      0.0000    660.1336      7.5054
  2210.0000    115.0319      0.0000    666.5676      7.4524
  2210.2500    113.5490      0.0000    670.7017      7.3824
  2210.5000    112.2282      0.0000    673.1383      7.3074
  2210.7500    111.9900      0.0000    674.7648      7.2347
  2211.0000    112.6361      0.0000    675.9769      7.1702
  2211.2500    113.1552      0.0000    676.3115      7.1203
  2211.5000    112.6946      0.0000    674.9794      7.0864
  2211.7500    111.1712      0.0000    671.9299      7.0594
  2212.0000    109.1389      0.0000    668.2937      7.0249
  2212.2500    107.2992      0.0000    665.6099      6.9759
  2212.5000    106.0955      0.0000    664.6649      6.9178
  2212.7500    105.6230      0.0000    665.2776      6.8596
  2213.0000    105.8438      0.0000    667.0659      6.8049
  2213.2500    106.7103      0.0000    669.8980      6.7536
  2213.5000    107.9404      0.0000    673.4677      6.7085
  2213.7500    108.9434      0.0000    676.9755      6.6761
  2214.0000    109.3641      0.0000    679.6033      6.6613
  2214.2500    109.5023      0.0000    681.0983      6.6643
  2214.5000    109.6306      0.0000    681.7539      6.6819
  2214.7500    109.0884      0.0000    682.0101      6.7109
  2215.0000    106.8517      0.0000    682.1666      6.7478
  2215.2500    103.1275      0.0000    682.3269      6.7867
  2215.5000     99.7553      0.0000    682.4566      6.8195
  2215.7500     98.7078      0.0000    682.4189      6.8405
  2216.0000    100.3611      0.0000    681.9228      6.8513
  2216.2500    103.3225      0.0000    680.2885      6.8584
  2216.5000    105.7416      0.0000    676.1254      6.8669
  2216.7500    106.6941      0.0000    667.3174      6.8805
  2217.0000    106.5359      0.0000    651.8859      6.9093
  2217.2500    106.2164      0.0000    630.1975      6.9704
  2217.5000    106.2568      0.0000    607.4334      7.0723
  2217.7500    106.1924      0.0000    592.7148      7.1957
  2218.0000    104.9836      0.0000    592.6763      7.2959
  2218.2500    102.0356      0.0000    605.0301      7.3331
  2218.5000     97.7710      0.0000    620.7093      7.3056
  2218.7500     93.2751      0.0000    632.8391      7.2545
  2219.0000     89.6172      0.0000    641.5065      7.2322
  2219.2500     87.4666      0.0000    649.9955      7.2641
  2219.5000     86.8165      0.0000    659.2990      7.3402
  2219.7500     86.7008      0.0000    667.3224      7.4404
  2220.0000     85.5306      0.0000    671.4897      7.5606
  2220.2500     82.2275      0.0000    670.5805      7.7079
  2220.5000     77.0321      0.0000    664.8947      7.8787
  2220.7500     71.0767      0.0000    655.9589      8.0461
  2221.0000     65.3839      0.0000    646.3746      8.1712
  2221.2500     60.4324      0.0000    639.6854      8.2285
  2221.5000     56.4113      0.0000    639.5873      8.2253
  2221.7500     53.5505      0.0000    647.3232      8.1958
  2222.0000     52.1791      0.0000    658.2285      8.1755
  2222.2500     52.5208      0.0000    662.1266      8.1793
  2222.5000     54.3180      0.0000    650.3832      8.1978
  2222.7500     56.6174      0.0000    624.8523      8.2074
  2223.0000     58.1942      0.0000    599.4601      8.1853
  2223.2500     58.5491      0.0000    590.1567      8.1251
  2223.5000     58.5320      0.0000    601.7310      8.0458
  2223.7500     59.7679      0.0000    625.3718      7.9814
  2224.0000     63.3013      0.0000    648.1166      7.9537
  2224.2500     68.7721      0.0000    662.1102      7.9515
  2224.5000     74.8534      0.0000    665.9409      7.9356
  2224.7500     80.3762      0.0000    661.1292      7.8682
  2225.0000     85.0580      0.0000    648.9775      7.7351
  2225.2500     89.3330      0.0000    629.6375      7.5442
  2225.5000     93.5834      0.0000    604.0546      7.3074
  2225.7500     97.5352      0.0000    577.5803      7.0255
