~Version Information
VERS.                      2.0: CWLS Log ASCII Standard - VERSION 2.0
WRAP.                       NO: One line per depth step
~Well Information Block
STRT.FT               430.0000: 
STOP.FT              2826.2500: 
STEP.FT                 0.2500: 
NULL.                -999.2500: 
COMP.          Pioneer Natural Resources: COMPANY
WELL.           Ei-ei-oh 31-24: WELL
FLD.           Purgatoire River: FIELD
LOC.           235' FNL & 2001' FEL--: LOCATION
PROV.                 Colorado: PROVINCE
CNTY.               Las Animas: COUNTRY
SRVC.                Patterson: SERVICE COMPANY
DATE.          Thu Jun 16 06:46:37 2005: LOG DATE
UWI.           05 071 08403 00: UNIQUE WELL ID
~Curve Information Block
DEPT.FT            0 000 00 00: Depth
DIR.Ohm-m                     : IEL Induction Resistivity
SN.Ohm-m                      : IEL Short Normal
SP.mV                         : IEL Spontaneous Potential
GR.GAPI                       : Gamma Ray
~Parameter Information Block
~A  Depth       DIR          SN          SP          GR     
# ...
  2105.0000      0.0137   2000.0000   2000.0000    104.2336
  2105.2500      0.0137   2000.0000   2000.0000    106.1083
  2105.5000      0.0137   2000.0000   2000.0000    107.9610
  2105.7500      0.0137   2000.0000   2000.0000    108.4286
  2106.0000      0.0137   2000.0000   2000.0000    107.9509
  2106.2500      0.0137   2000.0000   2000.0000    107.2133
  2106.5000      0.0137   2000.0000   2000.0000    106.8847
  2106.7500      0.0137   2000.0000   2000.0000    107.8983
  2107.0000      0.0137   2000.0000   2000.0000    111.2689
  2107.2500      0.0137   2000.0000   2000.0000    114.1286
  2107.5000      0.0137   2000.0000   2000.0000    118.2217
  2107.7500      0.0137   2000.0000   2000.0000    120.5761
  2108.0000      0.0137   2000.0000   2000.0000    123.6165
  2108.2500      0.0137   2000.0000   2000.0000    125.1658
  2108.5000      0.0137   2000.0000   2000.0000    126.1597
  2108.7500      0.0137   2000.0000   2000.0000    125.9759
  2109.0000      0.0137   2000.0000   2000.0000    125.7337
  2109.2500      0.0137   2000.0000   2000.0000    126.4712
  2109.5000      0.0137   2000.0000   2000.0000    129.1031
  2109.7500      0.0137   2000.0000   2000.0000    130.9695
  2110.0000      0.0137   2000.0000   2000.0000    131.6618
  2110.2500      0.0137   2000.0000   2000.0000    129.9407
  2110.5000      0.0137   2000.0000   2000.0000    124.9017
  2110.7500      0.0137   2000.0000   2000.0000    121.3489
  2111.0000      0.0137   2000.0000   2000.0000    117.9376
  2111.2500      0.0137   2000.0000   2000.0000    117.2592
  2111.5000      0.0137   2000.0000   2000.0000    117.7971
  2111.7500      0.0137   2000.0000   2000.0000    118.7099
  2112.0000      0.0137   2000.0000   2000.0000    121.0388
  2112.2500      0.0137   2000.0000   2000.0000    123.6237
  2112.5000      0.0137   2000.0000   2000.0000    128.8746
  2112.7500      0.0137   2000.0000   2000.0000    132.3727
  2113.0000      0.0137   2000.0000   2000.0000    135.8552
  2113.2500      0.0137   2000.0000   2000.0000    136.8147
  2113.5000      0.0137   2000.0000   2000.0000    137.0030
  2113.7500      0.0137   2000.0000   2000.0000    136.4127
  2114.0000      0.0137   2000.0000   2000.0000    133.8022
  2114.2500      0.0137   2000.0000   2000.0000    130.8533
  2114.5000      0.0137   2000.0000   2000.0000    125.5534
  2114.7500      0.0137   2000.0000   2000.0000    121.8720
  2115.0000      0.0137   2000.0000   2000.0000    116.1507
  2115.2500      0.0137   2000.0000   2000.0000    112.4734
  2115.5000      0.0137   2000.0000   2000.0000    108.9660
  2115.7500      0.0137   2000.0000   2000.0000    109.0086
  2116.0000      0.0137   2000.0000   2000.0000    112.0524
  2116.2500      0.0137   2000.0000   2000.0000    114.2927
  2116.5000      0.0137   2000.0000   2000.0000    115.3359
  2116.7500      0.0137   2000.0000   2000.0000    114.6237
  2117.0000      0.0137   2000.0000   2000.0000    114.1289
  2117.2500      0.0137   2000.0000   2000.0000    115.6714
  2117.5000      0.0137   2000.0000   2000.0000    121.0320
  2117.7500      0.0137   2000.0000   2000.0000    125.4054
  2118.0000      0.0137   2000.0000   2000.0000    130.3951
  2118.2500      0.0137   2000.0000   2000.0000    131.6248
  2118.5000      0.0137   2000.0000   2000.0000    130.2823
  2118.7500      0.0137   2000.0000   2000.0000    128.1864
  2119.0000      0.0137   2000.0000   2000.0000    125.4883
  2119.2500      0.0137   2000.0000   2000.0000    124.8711
  2119.5000      0.0137   2000.0000   2000.0000    125.6399
  2119.7500      0.0137   2000.0000   2000.0000    126.5999
  2120.0000      0.0137   2000.0000   2000.0000    127.5954
  2120.2500      0.0137   2000.0000   2000.0000    127.6230
  2120.5000      0.0137   2000.0000   2000.0000    126.5750
  2120.7500      0.0137   2000.0000   2000.0000    125.4090
  2121.0000      0.0137   2000.0000   2000.0000    124.1322
  2121.2500      0.0137   2000.0000   2000.0000    124.2231
  2121.5000      0.0137   2000.0000   2000.0000    125.3308
  2121.7500      0.0137   2000.0000   2000.0000    125.6167
  2122.0000      0.0137   2000.0000   2000.0000    124.0751
  2122.2500      0.0137   2000.0000   2000.0000    122.2150
  2122.5000      0.0137   2000.0000   2000.0000    120.2815
  2122.7500      0.0137   2000.0000   2000.0000    120.2304
  2123.0000      0.0137   2000.0000   2000.0000    121.0843
  2123.2500      0.0137   2000.0000   2000.0000    121.2790
  2123.5000      0.0137   2000.0000   2000.0000    120.4964
  2123.7500      0.0137   2000.0000   2000.0000    119.8177
  2124.0000      0.0137   2000.0000   2000.0000    119.6541
  2124.2500      0.0137   2000.0000   2000.0000    120.1070
  2124.5000      0.0137   2000.0000   2000.0000    120.5350
  2124.7500      0.0137   2000.0000   2000.0000    120.0974
  2125.0000      0.0137   2000.0000   2000.0000    118.7454
  2125.2500      0.0137   2000.0000   2000.0000    118.2016
  2125.5000      0.0137   2000.0000   2000.0000    118.6800
  2125.7500      0.0137   2000.0000   2000.0000    119.4128
  2126.0000      0.0137   2000.0000   2000.0000    119.7047
  2126.2500      0.0137   2000.0000   2000.0000    118.8460
  2126.5000      0.0137   2000.0000   2000.0000    115.7880
  2126.7500      0.0137   2000.0000   2000.0000    112.6134
  2127.0000      0.0137   2000.0000   2000.0000    106.6658
  2127.2500      0.0137   2000.0000   2000.0000    102.8866
  2127.5000      0.0137   2000.0000   2000.0000    100.3474
  2127.7500      0.0137   2000.0000   2000.0000    102.2216
  2128.0000      0.0137   2000.0000   2000.0000    110.2452
  2128.2500      0.0137   2000.0000   2000.0000    116.9761
  2128.5000      0.0137   2000.0000   2000.0000    124.3466
  2128.7500      0.0137   2000.0000   2000.0000    125.8298
  2129.0000      0.0137   2000.0000   2000.0000    123.6917
  2129.2500      0.0137   2000.0000   2000.0000    121.0931
  2129.5000      0.0115   2000.0000   2000.0000    118.1950
  2129.7500      0.0116   2000.0000   2000.0000    117.5936
  2130.0000      0.0117   2000.0000   2000.0000    118.0302
  2130.2500      0.0117   2000.0000   2000.0000    118.1781
  2130.5000      0.0118   2000.0000   2000.0000    116.3673
  2130.7500      0.0118   2000.0000   2000.0000    113.2751
  2131.0000      0.0119   2000.0000   2000.0000    106.5818
  2131.2500      0.0119   2000.0000   2000.0000    102.1272
  2131.5000      0.0119   2000.0000   2000.0000     97.8991
  2131.7500      0.0120   2000.0000   2000.0000     97.0991
  2132.0000      0.0120   2000.0000   2000.0000     97.5621
  2132.2500      0.0120   2000.0000   2000.0000     98.0667
  2132.5000      0.0120   2000.0000   2000.0000     99.0572
  2132.7500      0.0120   2000.0000   2000.0000    100.5026
  2133.0000      0.0148   2000.0000   2000.0000    104.5647
  2133.2500      0.0147   2000.0000   2000.0000    108.3561
  2133.5000      0.0146   2000.0000   2000.0000    114.6503
  2133.7500      0.0144   2000.0000   2000.0000    118.5003
  2134.0000      0.0143   2000.0000   2000.0000    122.5142
  2134.2500      0.0142   2000.0000   2000.0000    123.5393
  2134.5000      0.0141   2000.0000   2000.0000    122.7462
  2134.7500      0.0140   2000.0000   2000.0000    121.3127
  2135.0000      0.0139   2000.0000   2000.0000    119.1700
  2135.2500      0.0138   2000.0000   2000.0000    118.2687
  2135.5000      0.0137   2000.0000   2000.0000    117.9897
  2135.7500      0.0137   2000.0000   2000.0000    118.5935
  2136.0000      1.6365   2000.0000   2000.0000    121.1442
  2136.2500      1.1490   2000.0000   2000.0000    124.1194
  2136.5000      0.8790   2000.0000   2000.0000    129.4982
  2136.7500      0.7158   2000.0000   2000.0000    132.2883
  2137.0000      0.6106   2000.0000   2000.0000    133.0534
  2137.2500      0.5393   2000.0000   2000.0000    130.9988
  2137.5000      0.4891   2000.0000   2000.0000    125.3278
  2137.7500      0.4527   2000.0000   2000.0000    120.9691
  2138.0000      0.4260   2000.0000   2000.0000    115.3584
  2138.2500      0.4058   2000.0000   2000.0000    112.9261
