~Version Information
VERS.                      2.0: CWLS Log ASCII Standard - VERSION 2.0
WRAP.                       NO: One line per depth step
~Well Information Block
STRT.FT               235.0000: 
STOP.FT              1634.5000: 
STEP.FT                 0.2500: 
NULL.                -999.2500: 
COMP.          Petrogulf Corporation: COMPANY
WELL.             State 16-41R: WELL
FLD.           Purgatorie River: FIELD
LOC.           280' FNL & 907' FEL: LOCATION
SECT.                       16: SECTION
TOWN.                      33S: TOWNSHIP
RANG.                      67W: RANGE
STAT.                 Colorado: STATE
CNTY.               Las Animas: COUNTY
CTRY.                      USA: COUNTRY
SRVC.                Patterson: SERVICE COMPANY
DATE.         Tue Oct 18 15:59:41 2005: LOG DATE
API.              05-071-08345: UNIQUE WELL ID
~Curve Information Block
DEPT.FT            0 000 00 00: Depth
SP.mV                         : DIL Spontaneous Potential
RILD.Ohm-m                    : DIL Deep Resistivity
RILM.Ohm-m                    : DIL Medium Resistivity
RLL3.Ohm-m                    : DIL Shallow Resistivity
GR.GAPI                       : Gamma Ray
~Parameter Information Block
~A  Depth        SP         RILD        RILM        RLL3         GR     
# ...
   515.0000   2000.0000     17.7994     21.6985   2000.0000     81.9024
   515.2500   2000.0000     17.8054     22.4277   2000.0000     76.0509
   515.5000   2000.0000     17.7503     22.7795   2000.0000     68.3104
   515.7500   2000.0000     17.6647     22.7179   2000.0000     64.8501
   516.0000   2000.0000     17.5622     22.2874   2000.0000     62.7971
   516.2500   2000.0000     17.4390     21.5890   2000.0000     63.4948
   516.5000   2000.0000     17.2797     20.7397   2000.0000     67.5798
   516.7500   2000.0000     17.0661     19.8409   2000.0000     72.1216
   517.0000   2000.0000     16.7855     18.9632   2000.0000     80.4414
   517.2500   2000.0000     16.4342     18.1461   2000.0000     85.9553
   517.5000   2000.0000     16.0181     17.4060   2000.0000     92.8753
   517.7500   2000.0000     15.5509     16.7444   2000.0000     96.3831
   518.0000   2000.0000     15.0515     16.1555   2000.0000    100.1776
   518.2500   2000.0000     14.5410     15.6302   2000.0000    101.7699
   518.5000   2000.0000     14.0387     15.1588   2000.0000    102.5025
   518.7500   2000.0000     13.5614     14.7316   2000.0000    101.7808
   519.0000   2000.0000     13.1222     14.3393   2000.0000     99.5368
   519.2500   2000.0000     12.7314     13.9729   2000.0000     98.2605
   519.5000   2000.0000     12.3939     13.6249   2000.0000     98.3289
   519.7500   2000.0000     12.1074     13.2894   2000.0000     99.6941
   520.0000   2000.0000     11.8628     12.9627   2000.0000    101.6974
   520.2500   2000.0000     11.6461     12.6428   2000.0000    101.6430
   520.5000   2000.0000     11.4432     12.3291   2000.0000     99.0487
   520.7500   2000.0000     11.2428     12.0209   2000.0000     96.6337
   521.0000   2000.0000     11.0388     11.7176   2000.0000     94.1609
   521.2500   2000.0000     10.8298     11.4187   2000.0000     93.9822
   521.5000   2000.0000     10.6179     11.1249   2000.0000     95.7267
   521.7500   2000.0000     10.4086     10.8385   2000.0000     97.4205
   522.0000   2000.0000     10.2096     10.5642   2000.0000     98.8451
   522.2500   2000.0000     10.0295     10.3084   2000.0000     98.3872
   522.5000   2000.0000      9.8747     10.0784   2000.0000     96.2302
   522.7500   2000.0000      9.7471      9.8808   2000.0000     94.8286
   523.0000   2000.0000      9.6444      9.7205   2000.0000     93.9693
   523.2500   2000.0000      9.5617      9.6000   2000.0000     94.1769
   523.5000   2000.0000      9.4942      9.5190   2000.0000     94.7954
   523.7500   2000.0000      9.4377      9.4748   2000.0000     94.9117
   524.0000   2000.0000      9.3888      9.4625   2000.0000     94.3873
   524.2500   2000.0000      9.3438      9.4759   2000.0000     93.8715
   524.5000   2000.0000      9.3003      9.5081   2000.0000     93.7779
   524.7500   2000.0000      9.2577      9.5515   2000.0000     94.5059
   525.0000   2000.0000      9.2184      9.5987   2000.0000     96.4031
   525.2500   2000.0000      9.1864      9.6431   2000.0000     97.6093
   525.5000   2000.0000      9.1659      9.6790   2000.0000     98.6572
   525.7500   2000.0000      9.1593      9.7031   2000.0000     98.9350
   526.0000   2000.0000      9.1657      9.7139   2000.0000     99.3929
   526.2500   2000.0000      9.1816      9.7124   2000.0000    100.1156
   526.5000   2000.0000      9.2018      9.7015   2000.0000    102.0728
   526.7500   2000.0000      9.2222      9.6848   2000.0000    103.8230
   527.0000   2000.0000      9.2394      9.6657   2000.0000    106.5860
   527.2500   2000.0000      9.2505      9.6470   2000.0000    108.0939
   527.5000   2000.0000      9.2523      9.6296   2000.0000    109.0258
   527.7500   2000.0000      9.2413      9.6135   2000.0000    108.5316
   528.0000   2000.0000      9.2166      9.5976   2000.0000    106.7206
   528.2500   2000.0000      9.1804      9.5804   2000.0000    105.5259
   528.5000   2000.0000      9.1383      9.5608   2000.0000    104.6747
   528.7500   2000.0000      9.0957      9.5382   2000.0000    104.8292
   529.0000   2000.0000      9.0563      9.5125   2000.0000    105.6935
   529.2500   2000.0000      9.0202      9.4840   2000.0000    106.2551
   529.5000   2000.0000      8.9859      9.4530   2000.0000    106.5024
   529.7500   2000.0000      8.9525      9.4196   2000.0000    106.2682
   530.0000   2000.0000      8.9211      9.3839   2000.0000    105.7602
   530.2500   2000.0000      8.8948      9.3465   2000.0000    105.5382
   530.5000   2000.0000      8.8774      9.3091   2000.0000    105.3659
   530.7500   2000.0000      8.8714      9.2746   2000.0000    105.2233
   531.0000   2000.0000      8.8768      9.2473   2000.0000    104.8864
   531.2500   2000.0000      8.8910      9.2322   2000.0000    104.6618
   531.5000   2000.0000      8.9103      9.2339   2000.0000    104.5954
   531.7500   2000.0000      8.9315      9.2562   2000.0000    104.9769
   532.0000   2000.0000      8.9522      9.3002   2000.0000    106.6236
   532.2500   2000.0000      8.9701      9.3641   2000.0000    108.3551
   532.5000   2000.0000      8.9813      9.4425   2000.0000    110.8516
   532.7500   2000.0000      8.9811      9.5265   2000.0000    111.7618
   533.0000   2000.0000      8.9651      9.6042   2000.0000    111.8125
   533.2500   2000.0000      8.9314      9.6622   2000.0000    111.4191
   533.5000   2000.0000      8.8815      9.6870   2000.0000    110.7578
   533.7500   2000.0000      8.8201      9.6676   2000.0000    110.0485
   534.0000   2000.0000      8.7530      9.5984   2000.0000    107.6610
   534.2500   2000.0000      8.6855      9.4805   2000.0000    104.8933
   534.5000   2000.0000      8.6213      9.3226   2000.0000     99.5666
   534.7500   2000.0000      8.5624      9.1387   2000.0000     96.2663
   535.0000   2000.0000      8.5100      8.9456   2000.0000     94.0436
   535.2500   2000.0000      8.4652      8.7593   2000.0000     95.2806
   535.5000   2000.0000      8.4289      8.5933   2000.0000    100.4823
   535.7500   2000.0000      8.4013      8.4566   2000.0000    104.5941
   536.0000   2000.0000      8.3819      8.3548   2000.0000    109.1224
   536.2500   2000.0000      8.3700      8.2904   2000.0000    110.5296
   536.5000   2000.0000      8.3662      8.2643   2000.0000    110.8828
   536.7500   2000.0000      8.3728      8.2763   2000.0000    110.6212
   537.0000   2000.0000      8.3938      8.3260   2000.0000    110.2781
   537.2500   2000.0000      8.4336      8.4123   2000.0000    110.0605
   537.5000   2000.0000      8.4951      8.5330   2000.0000    108.9580
   537.7500   2000.0000      8.5793      8.6843   2000.0000    107.2877
   538.0000   2000.0000      8.6854      8.8606   2000.0000    103.7578
   538.2500   2000.0000      8.8116      9.0553   2000.0000    101.6581
   538.5000   2000.0000      8.9560      9.2615   2000.0000    100.8869
   538.7500   2000.0000      9.1175      9.4728   2000.0000    102.5188
   539.0000   2000.0000      9.2940      9.6842   2000.0000    106.7323
   539.2500   2000.0000      9.4823      9.8920   2000.0000    108.7167
   539.5000   2000.0000      9.6763     10.0931   2000.0000    107.7168
   539.7500   2000.0000      9.8681     10.2850   2000.0000    104.5879
   540.0000   2000.0000     10.0500     10.4653   2000.0000     99.3333
   540.2500   2000.0000     10.2164     10.6319   2000.0000     97.4254
   540.5000   2000.0000     10.3654     10.7839   2000.0000     98.0342
   540.7500   2000.0000     10.4975     10.9219   2000.0000     99.9877
   541.0000   2000.0000     10.6152     11.0478   2000.0000    103.2683
   541.2500   2000.0000     10.7212     11.1641   2000.0000    104.9141
   541.5000   2000.0000     10.8183     11.2733   2000.0000    105.9515
   541.7500   2000.0000     10.9091     11.3775   2000.0000    105.6204
   542.0000   2000.0000     10.9955     11.4779   2000.0000    104.1800
   542.2500   2000.0000     11.0796     11.5759   2000.0000    103.2193
   542.5000   2000.0000     11.1648     11.6735   2000.0000    102.3834
   542.7500   2000.0000     11.2569     11.7742   2000.0000    102.1110
