~Version Information
VERS.                      2.0: CWLS Log ASCII Standard - VERSION 2.0
WRAP.                       NO: One line per depth step
~Well Information Block
STRT.FT               510.0000: 
STOP.FT              1845.5000: 
STEP.FT                 0.1000: 
NULL.                -999.2500: 
COMP.          Pioneer Natural Resources: COMPANY
WELL.           Stampede 42-18: WELL
FLD.           Purgatoire River: FIELD
LOC.           2479' FNL & 160' FEL--: LOCATION
CNTY.               Las Animas: COUNTY
SRVC.          Superior Well Services: SERVICE COMPANY
DATE.          Sat Jun 09 02:39:23 2007: LOG DATE
UWI.           05 071 08237 00: UNIQUE WELL ID
STAT.                 Colorado: STATE
~Curve Information Block
DEPT.FT            0 000 00 00: Depth
DCAL.in                       : CDL Caliper
RHOB.g/cc                     : CDL Bulk Density
RHOC.g/cc                     : CDL Density Correction
DPOR.pu                       : CDL Density Porosity
GR.GAPI                       : Gamma Ray
~Parameter Information Block
~A  Depth       DCAL        RHOB        RHOC        DPOR         GR     
# ...
   689.2000      7.9395      2.5131      0.0462      8.2984     90.5997
   689.3000      7.9352      2.5038      0.0562      8.8578     97.3649
   689.4000      7.9352      2.4855      0.0195      9.9702    104.3309
   689.5000      7.9324      2.4659      0.0318     11.1550    108.7212
   689.6000      7.9324      2.4539     -0.0107     11.8834    110.3210
   689.7000      7.9324      2.4660     -0.0355     11.1494    110.9013
   689.8000      7.9305      2.5042      0.0832      8.8358    110.9550
   689.9000      7.9305      2.5536      0.0603      5.8402    110.9870
   690.0000      7.9292      2.6067      0.1335      2.6231    111.5982
   690.1000      7.9292      2.6496      0.1747      0.0218    111.7802
   690.2000      7.9292      2.6684      0.1991     -1.1167    112.3239
   690.3000      7.9296      2.6655      0.1632     -0.9373    115.0659
   690.4000      7.9296      2.6465      0.1497      0.2094    118.5259
   690.5000      7.9315      2.6176      0.1118      1.9666    120.7757
   690.6000      7.9315      2.5863      0.0950      3.8577    119.8986
   690.7000      7.9315      2.5543      0.0868      5.8028    115.4861
   690.8000      7.9324      2.5206      0.0478      7.8400    111.3966
   690.9000      7.9324      2.4999      0.0068      9.0952    110.1607
   691.0000      7.9308      2.5153      0.0224      8.1646    107.0551
   691.1000      7.9308      2.5701      0.0698      4.8424     96.4802
   691.2000      7.9308      2.6400      0.1375      0.6054     86.8204
   691.3000      7.9275      2.6944      0.1526     -2.6881     87.3101
   691.4000      7.9275      2.7250      0.1709     -4.5480     90.6575
   691.5000      7.9253      2.7395      0.2159     -5.4244     90.7717
   691.6000      7.9253      2.7332      0.1922     -5.0449     90.4611
   691.7000      7.9253      2.7011      0.1588     -3.0969     90.2965
   691.8000      7.9267      2.6575      0.0663     -0.4553     90.2104
   691.9000      7.9267      2.6167      0.0457      2.0154     91.7064
   692.0000      7.9308      2.5764      0.0196      4.4632     93.2697
   692.1000      7.9308      2.5432     -0.0285      6.4742     92.8402
   692.2000      7.9308      2.5262      0.0100      7.5057     92.5582
   692.3000      7.9331      2.5105      0.0226      8.4520     94.4563
   692.4000      7.9331      2.4861      0.0315      9.9332     99.3233
   692.5000      7.9320      2.4656     -0.0208     11.1787    106.9790
   692.6000      7.9320      2.4566      0.0189     11.7222    112.4295
   692.7000      7.9320      2.4467      0.0459     12.3238    111.0353
   692.8000      7.9281      2.4304     -0.0321     13.3104    106.3109
   692.9000      7.9281      2.4201      0.0190     13.9325    105.6197
   693.0000      7.9227      2.4165      0.0981     14.1542    112.0352
   693.1000      7.9227      2.4159      0.0643     14.1883    119.3838
   693.2000      7.9227      2.4355      0.1181     13.0020    117.5316
   693.3000      7.9200      2.4853      0.2069      9.9816    108.2690
   693.4000      7.9200      2.5456      0.2381      6.3296    103.9730
   693.5000      7.9243      2.5873      0.2771      3.8016    105.5368
   693.6000      7.9243      2.6050      0.2283      2.7298    102.5532
   693.7000      7.9243      2.6191      0.2310      1.8707     92.4063
   693.8000      7.9338      2.6398      0.2775      0.6204     81.4479
   693.9000      7.9338      2.6533      0.2363     -0.2030     76.7440
   694.0000      7.9433      2.6475      0.2138      0.1524     77.7028
   694.1000      7.9433      2.6269      0.1606      1.3984     76.7223
   694.2000      7.9433      2.6105      0.1012      2.3953     73.2415
   694.3000      7.9481      2.6132      0.0734      2.2321     71.5924
   694.4000      7.9481      2.6343      0.0610      0.9512     71.2368
   694.5000      7.9490      2.6549      0.1233     -0.2997     69.2366
   694.6000      7.9490      2.6529      0.1084     -0.1757     65.5284
   694.7000      7.9490      2.6364      0.0647      0.8260     62.1386
   694.8000      7.9488      2.6241      0.0973      1.5691     60.5844
   694.9000      7.9488      2.6083      0.0664      2.5248     61.2252
   695.0000      7.9485      2.5784      0.0362      4.3373     62.5410
   695.1000      7.9485      2.5419      0.0006      6.5527     64.1220
   695.2000      7.9485      2.5222     -0.0602      7.7464     67.1119
   695.3000      7.9486      2.5330      0.0017      7.0886     69.4867
   695.4000      7.9486      2.5501      0.0427      6.0517     68.7349
   695.5000      7.9489      2.5497      0.0427      6.0783     66.9267
   695.6000      7.9489      2.5476      0.0114      6.2084     67.1340
   695.7000      7.9489      2.5589      0.0734      5.5192     67.8827
   695.8000      7.9489      2.5631      0.1008      5.2669     66.5651
   695.9000      7.9489      2.5431      0.0538      6.4758     63.6674
   696.0000      7.9490      2.5148      0.0337      8.1964     60.7288
   696.1000      7.9490      2.4906      0.0469      9.6633     60.2728
   696.2000      7.9490      2.4702     -0.0045     10.8951     63.8232
   696.3000      7.9494      2.4643      0.0152     11.2538     71.1542
   696.4000      7.9494      2.4836      0.0193     10.0824     79.2324
   696.5000      7.9491      2.5186      0.0827      7.9607     81.7823
   696.6000      7.9491      2.5532      0.0618      5.8696     76.9179
   696.7000      7.9491      2.5801      0.0859      4.2335     70.0905
   696.8000      7.9488      2.5904      0.1163      3.6115     65.7574
   696.9000      7.9488      2.5802      0.0967      4.2306     63.1389
   697.0000      7.9492      2.5615      0.0580      5.3628     60.9000
   697.1000      7.9492      2.5461      0.0542      6.2963     59.8281
   697.2000      7.9492      2.5382      0.0343      6.7785     60.0139
   697.3000      7.9495      2.5346      0.0138      6.9968     59.8382
   697.4000      7.9495      2.5265      0.0349      7.4878     58.3154
   697.5000      7.9495      2.5180     -0.0481      8.0026     56.9494
   697.6000      7.9495      2.5225     -0.0105      7.7254     57.3972
   697.7000      7.9495      2.5403     -0.0102      6.6455     57.3976
   697.8000      7.9490      2.5712      0.0043      4.7768     55.4516
   697.9000      7.9490      2.6139      0.0454      2.1890     54.1538
   698.0000      7.9483      2.6460      0.0981      0.2426     53.3659
   698.1000      7.9483      2.6464      0.0689      0.2200     52.2240
   698.2000      7.9483      2.6242      0.0248      1.5653     53.3059
   698.3000      7.9484      2.5989      0.0408      3.0979     56.6109
   698.4000      7.9484      2.5856     -0.0327      3.9028     57.8153
   698.5000      7.9489      2.5936      0.0046      3.4202     55.8989
   698.6000      7.9489      2.6061      0.0201      2.6593     55.4850
   698.7000      7.9489      2.6017      0.0289      2.9299     57.5043
   698.8000      7.9494      2.5858      0.0183      3.8914     59.2989
   698.9000      7.9494      2.5729      0.0476      4.6755     61.8736
   699.0000      7.9500      2.5600      0.0478      5.4547     64.5881
   699.1000      7.9500      2.5396      0.0437      6.6913     65.0568
   699.2000      7.9500      2.5135      0.0327      8.2741     64.9903
   699.3000      7.9505      2.4955     -0.0222      9.3619     64.2602
   699.4000      7.9505      2.5000     -0.0065      9.0932     61.6656
   699.5000      7.9512      2.5183      0.0697      7.9848     60.2560
   699.6000      7.9512      2.5304      0.0532      7.2515     62.1692
   699.7000      7.9512      2.5289      0.0511      7.3416     63.4423
   699.8000      7.9521      2.5171      0.0406      8.0563     60.4144
   699.9000      7.9521      2.5060      0.0136      8.7244     56.1956
   700.0000      7.9529      2.5060      0.0425      8.7253     54.8889
   700.1000      7.9529      2.5123      0.0660      8.3469     55.8504
   700.2000      7.9529      2.5166      0.0620      8.0835     58.3971
   700.3000      7.9531      2.5213      0.0680      7.8002     61.5048
