~Version Information
VERS.                      2.0: CWLS Log ASCII Standard - VERSION 2.0
WRAP.                       NO: One line per depth step
~Well Information Block
STRT.FT               260.0000: 
STOP.FT              2272.0000: 
STEP.FT                 0.2500: 
NULL.                -999.2500: 
COMP.          Pioneer Natural Resources: COMPANY
WELL.            Moo Moo 31-36: WELL
FLD.           Purgatoire River: FIELD
LOC.           612' FNL & 2326' FEL: LOCATION
PROV.                 Colorado: PROVINCE
CNTY.               Las Animas: COUNTRY
SRVC.                Patterson: SERVICE COMPANY
DATE.          Fri Jun 17 07:45:39 2005: LOG DATE
UWI.           05 071 08395 00: UNIQUE WELL ID
~Curve Information Block
DEPT.FT            0 000 00 00: Depth
DIR.Ohm-m                     : IEL Induction Resistivity
SN.Ohm-m                      : IEL Short Normal
SP.mV                         : IEL Spontaneous Potential
GR.GAPI                       : Gamma Ray
~Parameter Information Block
~A  Depth       DIR          SN          SP          GR     
# ...
  1968.5000     16.6354     19.8101    225.8860    112.6534
  1968.7500     16.2877     19.6019    226.2500    110.8365
  1969.0000     16.0926     19.0319    226.5525    108.7289
  1969.2500     16.0390     18.0927    226.6999    107.5443
  1969.5000     16.0928     16.9819    226.6772    105.9380
  1969.7500     16.2022     16.0377    226.5641    104.9865
  1970.0000     16.3094     15.5806    226.4858    103.6864
  1970.2500     16.3634     15.7103    226.5210    102.7069
  1970.5000     16.3332     16.2255    226.6392    100.4712
  1970.7500     16.2132     16.7760    226.7319     98.2233
  1971.0000     16.0167     17.1137    226.7140     94.0592
  1971.2500     15.7633     17.2564    226.6129     91.4023
  1971.5000     15.4718     17.4093    226.5698     88.6981
  1971.7500     15.1619     17.6947    226.7503     87.9481
  1972.0000     14.8582     17.9983    227.2347     87.9461
  1972.2500     14.5871     18.1193    227.9725     88.3644
  1972.5000     14.3683     18.0105    228.8169     89.6693
  1972.7500     14.2081     17.7598    229.5949     91.3441
  1973.0000     14.0988     17.4359    230.1739     95.3626
  1973.2500     14.0219     17.0742    230.5163     98.6619
  1973.5000     13.9558     16.6886    230.6985    103.2786
  1973.7500     13.8825     16.2594    230.8584    105.5480
  1974.0000     13.7929     15.7576    231.0854    107.3823
  1974.2500     13.6875     15.1406    231.3407    107.6444
  1974.5000     13.5738     14.3576    231.4843    107.2744
  1974.7500     13.4627     13.4443    231.3886    107.2106
  1975.0000     13.3652     12.5682    231.0332    108.2807
  1975.2500     13.2927     11.9241    230.5121    109.5773
  1975.5000     13.2583     11.6429    229.9764    110.9859
  1975.7500     13.2788     11.7992    229.5777    110.7918
  1976.0000     13.3721     12.3691    229.4299    108.4297
  1976.2500     13.5499     13.1787    229.5758    105.6837
  1976.5000     13.8078     14.0196    229.9680    100.3781
  1976.7500     14.1193     14.8150    230.4948     96.5396
  1977.0000     14.4411     15.5813    231.0394     91.7513
  1977.2500     14.7292     16.2732    231.5247     90.1647
  1977.5000     14.9558     16.7752    231.9187     91.0343
  1977.7500     15.1143     17.0187    232.2203     93.3979
  1978.0000     15.2089     17.0245    232.4496     97.7653
  1978.2500     15.2397     16.8378    232.6415    100.1416
  1978.5000     15.1957     16.4922    232.8265    102.3509
  1978.7500     15.0588     16.0720    232.9972    103.4549
  1979.0000     14.8119     15.7425    233.0846    105.7330
  1979.2500     14.4424     15.5996    232.9818    107.7940
  1979.5000     13.9434     15.5350    232.6205    111.0261
  1979.7500     13.3198     15.3701    232.0331    112.9765
  1980.0000     12.6005     15.0494    231.3370    115.9416
  1980.2500     11.8437     14.6288    230.6600    118.3360
  1980.5000     11.1235     14.1816    230.0804    122.5346
  1980.7500     10.5044     13.7634    229.6179    125.2320
  1981.0000     10.0236     13.3984    229.2478    128.1081
  1981.2500      9.6896     13.0755    228.9245    128.9054
  1981.5000      9.4947     12.7700    228.6185    128.3704
  1981.7500      9.4367     12.4759    228.3441    127.1015
  1982.0000      9.5477     12.2395    228.1470    124.6981
  1982.2500      9.9402     12.1676    228.0559    123.3903
  1982.5000     10.9033     12.3453    228.0482    122.4852
  1982.7500     13.2195     12.7116    228.0531    122.3074
  1983.0000     19.8687     13.0784    227.9932    121.3055
  1983.2500     63.9587     13.3296    227.8434    119.4732
  1983.5000 100000.0000     13.5274    227.6561    115.0895
  1983.7500 100000.0000     13.7725    227.5169    111.7854
  1984.0000 100000.0000     14.0396    227.4604    107.6020
  1984.2500 100000.0000     14.2168    227.4314    105.7955
  1984.5000 100000.0000     14.2698    227.3309    104.6832
  1984.7500 100000.0000     14.2958    227.0966    104.7182
  1985.0000 100000.0000     14.3612    226.7291    104.9465
  1985.2500 100000.0000     14.3868    226.2539    104.5919
  1985.5000 100000.0000     14.2893    225.6779    102.9974
  1985.7500 100000.0000     14.1041    224.9901    101.6908
  1986.0000 100000.0000     13.9188    224.1903    100.5128
  1986.2500 100000.0000     13.7935    223.3135    100.5755
  1986.5000 100000.0000     13.7255    222.4290    101.8359
  1986.7500 100000.0000     13.6256    221.5940    103.2911
  1987.0000 100000.0000     13.4077    220.7754    106.1714
  1987.2500 100000.0000     13.1267    219.8116    108.3727
  1987.5000 100000.0000     12.9282    218.4589    111.6055
  1987.7500 100000.0000     12.8643    216.4788    113.4224
  1988.0000 100000.0000     12.8614    213.6872    115.4753
  1988.2500 100000.0000     12.8220    209.9396    116.5964
  1988.5000 100000.0000     12.6813    205.0854    118.3976
  1988.7500 100000.0000     12.4304    198.9400    119.6168
  1989.0000     18.2247     12.1269    191.3087    120.4703
  1989.2500      2.9725     11.8565    182.0627    119.8160
  1989.5000      1.1046     11.6667    171.2361    117.4427
  1989.7500      0.5034     11.4979    159.0990    116.0081
  1990.0000      0.2394     11.1723    146.1803    115.6046
  1990.2500      0.1132     10.4956    133.2174    116.4244
  1990.5000      0.0577      9.3902    121.0270    117.6620
  1990.7500      0.0350      7.9630    110.3191    117.2761
  1991.0000      0.0262      6.4485    101.5193    113.2713
  1991.2500      0.0239      5.1129     94.6825    107.9300
  1991.5000      0.0257      4.1861     89.5408     96.3037
  1991.7500      0.0308      3.7858     85.6516     86.8922
  1992.0000      0.0394      3.8388     82.5591     72.2609
  1992.2500      0.0526      4.1925     79.8929     63.5403
  1992.5000      0.0726      5.0276     77.3836     53.9105
  1992.7500      0.1055      7.1018     74.8348     50.1491
  1993.0000      0.1635     11.2189     72.1100     47.7889
  1993.2500      0.2694     17.1593     69.1424     47.6595
  1993.5000      0.4670     23.3537     65.9186     48.4351
  1993.7500      0.8676     27.9080     62.3880     48.9903
  1994.0000      1.8692     29.7026     58.3506     49.0930
  1994.2500      5.8571     28.5087     53.4509     48.6407
  1994.5000 100000.0000     24.6613     47.3643     48.2009
  1994.7500 100000.0000     19.0174     40.1053     49.0635
  1995.0000 100000.0000     13.0076     32.2751     53.5747
  1995.2500 100000.0000      8.1391     25.0767     58.9854
  1995.5000 100000.0000      5.1595     20.0232     69.5458
  1995.7500 100000.0000      3.8251     18.3984     76.6448
  1996.0000 100000.0000      3.4261     20.7521     84.1435
  1996.2500 100000.0000      3.3782     26.8009     85.6469
  1996.5000 100000.0000      3.4170     35.8138     82.2635
  1996.7500 100000.0000      3.4581     47.1459     77.2717
  1997.0000 100000.0000      3.4764     60.5222     68.6833
  1997.2500 100000.0000      3.4899     75.9738     63.8940
  1997.5000 100000.0000      3.4912     93.5658     59.5736
  1997.7500 100000.0000      3.4224    113.0792     58.4225
  1998.0000 100000.0000      3.2645    133.7592     58.0017
  1998.2500 100000.0000      3.0820    154.2829     58.0922
  1998.5000 100000.0000      2.9864    173.0742     59.4252
  1998.7500      2.7107      3.1230    188.8523     62.0987
  1999.0000      0.8813      3.6576    201.0635     69.9807
  1999.2500      0.4610      4.7089    209.9235     77.6281
  1999.5000      0.3063      6.2641    216.1058     91.0655
  1999.7500      0.2597      8.1392    220.3378    100.1796
  2000.0000      0.2856     10.0616    223.1781    112.5620
  2000.2500      0.3958     11.8078    225.0294    119.4655
  2000.5000      0.6608     13.2458    226.2236    127.5514
  2000.7500      1.3692     14.3085    227.0210    131.5556
  2001.0000      4.8331     14.9819    227.5610    135.8486
  2001.2500 100000.0000     15.3537    227.8833    137.6732
  2001.5000 100000.0000     15.6165    228.0301    138.8621
  2001.7500 100000.0000     15.9244    228.1160    138.7581
