~Version Information
VERS.                      2.0: CWLS Log ASCII Standard - VERSION 2.0
WRAP.                       NO: One line per depth step
~Well Information Block
STRT.FT               704.0000: 
STOP.FT              2530.0000: 
STEP.FT                 0.2500: 
NULL.                -999.2500: 
COMP.          Pioneer Natural Resources: COMPANY
WELL.          Aztec Federal 41-15: WELL
FLD.           Purgatorie River: FIELD
LOC.           706' FNL & 1253' FEL: LOCATION
CNTY.               Las Animas: COUNTY
SRVC.          Superior Well Services: SERVICE COMPANY
DATE.          Tue Mar 18 09-04-19 2008: LOG DATE
UWI.           05-071-08342-00: UNIQUE WELL ID
STAT.                       CO: STATE
~Curve Information Block
DEPT.FT            0 000 00 00: Depth
DIR.Ohm-m                     : IEL Induction Resistivity
SN.Ohm-m                      : IEL Short Normal
SP.mV                         : IEL Spontaneous Potential
GR.GAPI                       : Gamma Ray
~Parameter Information Block
~A  Depth       DIR          SN          SP          GR     
# ...
  2144.5000     13.7644     15.7117    167.9170    128.5103
  2144.7500     14.3347     16.1763    167.9710    122.7235
  2145.0000     14.7439     16.9731    167.9597    119.2321
  2145.2500     15.3939     17.5755    167.8932    114.6116
  2145.5000     15.8521     18.5823    167.7276    111.7602
  2145.7500     16.5942     19.3092    167.5970    107.8546
  2146.0000     17.1434     20.4739    167.4136    105.7352
  2146.2500     18.0796     21.3146    167.3140    103.5656
  2146.5000     18.7874     22.6850    167.2000    102.6902
  2146.7500     19.9672     23.6477    167.1438    101.8032
  2147.0000     20.8188     25.0825    167.0926    101.3626
  2147.2500     22.1691     25.9880    167.0892    101.0419
  2147.5000     23.1080     27.2659    167.1463    101.1375
  2147.7500     24.5580     28.1085    167.2281    101.5475
  2148.0000     25.5370     29.4239    167.3997    101.7064
  2148.2500     26.9865     30.3309    167.5249    101.2955
  2148.5000     27.9201     31.6720    167.6832    100.4563
  2148.7500     29.2525     32.5215    167.7484     98.3818
  2149.0000     30.0926     33.7229    167.7785     96.5708
  2149.2500     31.2741     34.4682    167.7671     93.5516
  2149.5000     32.0005     35.4388    167.7418     91.6227
  2149.7500     32.9774     35.9562    167.7404     89.3273
  2150.0000     33.5438     36.5598    167.7842     88.2721
  2150.2500     34.2576     36.8875    167.8481     87.0662
  2150.5000     34.6389     37.3206    167.9806     86.2941
  2150.7500     35.0536     37.5678    168.0700     85.3251
  2151.0000     35.2107     37.8197    168.1594     85.0816
  2151.2500     35.2433     37.8799    168.1766     85.3519
  2151.5000     35.1236     37.7787    168.1562     85.5676
  2151.7500     34.7398     37.5467    168.1345     85.2195
  2152.0000     34.3595     36.8706    168.1149     84.4632
  2152.2500     33.6283     36.1967    168.1068     83.0152
  2152.5000     33.0508     34.9686    168.0787     82.3081
  2152.7500     32.0816     34.1172    168.0397     82.6794
  2153.0000     31.3869     32.9272    167.9494     84.5539
  2153.2500     30.3041     32.1979    167.8698     90.3998
  2153.5000     29.5719     31.1608    167.7199     95.9382
  2153.7500     28.4866     30.4974    167.5977    104.8817
  2154.0000     27.7932     29.5354    167.3858    110.0715
  2154.2500     26.8446     28.9215    167.2362    115.5040
  2154.5000     26.2999     28.0869    167.0246    117.4928
  2154.7500     25.6437     27.6264    166.9047    118.4908
  2155.0000     25.3168     27.1503    166.7687    118.2185
  2155.2500     24.9799     27.0040    166.7112    117.2656
  2155.5000     24.8461     27.0442    166.6836    116.8482
  2155.7500     24.7619     27.2375    166.7113    117.2448
  2156.0000     24.7716     27.7712    166.8253    118.1440
  2156.2500     24.8638     28.2591    166.9387    119.3702
  2156.5000     24.9644     29.0776    167.1191    119.1493
  2156.7500     25.1496     29.6239    167.2124    116.2906
  2157.0000     25.2774     30.4144    167.2716    113.0519
  2157.2500     25.4314     30.9150    167.2556    107.9187
  2157.5000     25.4817     31.5339    167.1761    105.2517
  2157.7500     25.4539     31.7619    167.1067    103.1832
  2158.0000     25.3763     31.6995    167.0051    103.2754
  2158.2500     25.2264     31.3900    166.9508    105.8022
  2158.5000     25.1432     30.6775    166.9021    108.9257
  2158.7500     25.0875     30.1505    166.8878    114.6239
  2159.0000     25.0970     29.3839    166.8692    118.1581
  2159.2500     25.1394     28.8958    166.8475    122.1107
  2159.5000     25.1465     28.1642    166.8156    123.9699
  2159.7500     25.0569     27.6302    166.8242    126.3179
  2160.0000     24.9015     26.6964    166.9411    127.6867
  2160.2500     24.5009     26.0201    167.1074    128.5480
  2160.5000     24.1178     25.0967    167.4717    127.5825
  2160.7500     23.3665     24.6138    167.7539    123.5946
  2161.0000     22.7509     24.0349    168.1558    120.0054
  2161.2500     21.6837     23.6267    168.3762    114.9787
  2161.5000     20.9112     22.7362    168.6329    112.3963
  2161.7500     19.7383     21.8736    168.7844    109.6694
  2162.0000     18.9861     20.2720    169.0501    108.5555
  2162.2500     17.9397     19.1707    169.2801    108.3143
  2162.5000     17.3017     17.7378    169.7084    109.4827
  2162.7500     16.4253     16.9978    170.0288    113.4831
  2163.0000     15.8834     16.1925    170.5079    117.2774
  2163.2500     15.1092     15.7905    170.7977    123.2459
  2163.5000     14.6054     15.2576    171.1618    126.5248
  2163.7500     13.8604     14.9015    171.3573    129.3863
  2164.0000     13.3774     14.3327    171.5919    129.6537
  2164.2500     12.6954     13.9396    171.7090    127.5503
  2164.5000     12.2806     13.3916    171.7934    124.7937
  2164.7500     11.7284     13.0851    171.7565    119.8607
  2165.0000     11.4087     12.7310    171.5269    116.9354
  2165.2500     11.0019     12.5661    171.2818    114.2016
  2165.5000     10.7794     12.4097    170.9277    113.5974
  2165.7500     10.5192     12.3497    170.8281    113.8373
  2166.0000     10.3952     12.3106    171.0364    114.2517
  2166.2500     10.2838     12.3103    171.3997    115.1186
  2166.5000     10.2579     12.3109    172.0973    116.1988
  2166.7500     10.2846     12.2873    172.5395    118.7517
  2167.0000     10.3384     12.2086    173.0480    120.4549
  2167.2500     10.4555     12.1488    173.2784    121.1795
  2167.5000     10.5473     12.1205    173.5150    119.6906
  2167.7500     10.6899     12.1846    173.6406    114.7274
  2168.0000     10.7811     12.4342    173.8374    110.4542
  2168.2500     10.9035     12.6915    173.9934    104.2398
  2168.5000     10.9720     13.1351    174.2724    100.9272
  2168.7500     11.0524     13.3868    174.4793     98.0453
  2169.0000     11.0927     13.5703    174.7872     97.8784
  2169.2500     11.1388     13.5375    174.9667    100.3388
  2169.5000     11.1632     13.2844    175.1679    103.3366
  2169.7500     11.1886     13.0242    175.2526    108.5823
  2170.0000     11.1928     12.6100    175.3164    111.9588
  2170.2500     11.1662     12.3799    175.3290    116.3679
  2170.5000     11.1206     12.1601    175.3291    118.7585
  2170.7500     11.0077     12.1023    175.3325    121.2252
  2171.0000     10.9061     12.1185    175.3654    121.9568
  2171.2500     10.7238     12.1641    175.4127    121.8256
  2171.5000     10.5879     12.2257    175.5201    121.3032
  2171.7500     10.3712     12.2373    175.6115    120.7024
  2172.0000     10.2228     12.1728    175.7745    120.7884
  2172.2500     10.0028     12.0508    175.9029    121.7728
  2172.5000      9.8631     11.7130    176.1292    122.6736
  2172.7500      9.6718     11.3887    176.2991    123.2992
  2173.0000      9.5597     10.8538    176.5612    122.7266
  2173.2500      9.4173     10.5611    176.7195    120.7294
  2173.5000      9.3399     10.3374    176.8893    119.5491
  2173.7500      9.2497     10.3478    176.9376    119.4955
  2174.0000      9.2070     10.5680    176.9072    120.7127
  2174.2500      9.1710     10.8089    176.8338    123.2529
  2174.5000      9.1672     11.2176    176.6787    124.5320
  2174.7500      9.1915     11.4706    176.5533    125.0126
  2175.0000      9.2247     11.7702    176.3133    124.5152
  2175.2500      9.2902     11.9141    176.1016    123.4233
  2175.5000      9.3386     12.0597    175.7036    122.8792
  2175.7500      9.4143     12.1189    175.4132    122.3215
  2176.0000      9.4692     12.1903    175.0326    121.8447
  2176.2500      9.5692     12.2583    174.8680    120.7288
  2176.5000      9.6554     12.4249    174.7886    119.8590
  2176.7500      9.8273     12.5823    174.8254    118.8018
  2177.0000      9.9760     12.8816    174.9370    118.3910
  2177.2500     10.2559     13.1154    175.0018    118.0391
  2177.5000     10.4793     13.4942    175.0309    117.7630
  2177.7500     10.8578     13.7482    174.9974    117.0982
