~Version Information
VERS.                      2.0: CWLS Log ASCII Standard - VERSION 2.0
WRAP.                       NO: One line per depth step
~Well Information Block
STRT.FT                -7.2500: 
STOP.FT              2827.7500: 
STEP.FT                 0.2500: 
NULL.                -999.2500: 
COMP.          Pioneer Natural Resources: COMPANY
WELL.           Ei-ei-oh 31-24: WELL
FLD.           Purgatorie River: FIELD
LOC.           235' FNL & 2001' FEL--: LOCATION
PROV.                       CO: PROVINCE
CNTY.               Las Animas: COUNTRY
SRVC.          Patterson Wireline: SERVICE COMPANY
DATE.          Tue Aug 23 12:06:00 2005: LOG DATE
UWI.           05 071 08403 00: UNIQUE WELL ID
~Curve Information Block
DEPT.FT            0 000 00 00: Depth
CCL.                          : Casing Collar Locator
TT3.usec                      : CBL 3' Travel Time
AMP3.mV                       : CBL 3' Amplitude
GR.GAPI                       : Gamma Ray
~Parameter Information Block
~A  Depth       CCL         TT3         AMP3         GR     
# ...
  1500.2500      0.0000    728.8542     17.1339    134.1944
  1500.5000      0.0000    687.4019     17.1435    131.1357
  1500.7500      0.0000    640.7636     17.0112    126.5014
  1501.0000      0.0000    609.3385     16.7427    120.3534
  1501.2500      0.0000    610.4850     16.3196    113.0487
  1501.5000      0.0000    643.6539     15.7634    105.5050
  1501.7500      0.0000    692.0542     15.1428     99.5184
  1502.0000      0.0000    737.4058     14.5217     96.8944
  1502.2500      0.0000    770.8243     13.9249     97.9144
  1502.5000      0.0000    792.3943     13.3567    100.8643
  1502.7500      0.0000    805.2787     12.8322    103.4881
  1503.0000      0.0000    811.5944     12.3807    105.1336
  1503.2500      0.0000    812.2717     12.0337    107.1889
  1503.5000      0.0000    808.8807     11.8068    110.9532
  1503.7500      0.0000    804.2912     11.6776    115.4456
  1504.0000      0.0000    801.2783     11.5863    118.0378
  1504.2500      0.0000    800.8384     11.4742    117.2670
  1504.5000      0.0000    801.9971     11.3244    114.4154
  1504.7500      0.0000    803.1229     11.1559    112.1923
  1505.0000      0.0000    803.5374     10.9906    112.3004
  1505.2500      0.0000    803.7770     10.8385    114.2845
  1505.5000      0.0000    804.3281     10.7067    116.1019
  1505.7500      0.0000    804.7749     10.6084    115.4190
  1506.0000      0.0000    804.2745     10.5617    110.7041
  1506.2500      0.0000    801.5027     10.5851    101.9433
  1506.5000      0.0000    792.7007     10.6957     90.8420
  1506.7500      0.0000    770.9339     10.9091     80.0685
  1507.0000      0.0000    731.4836     11.2275     71.7359
  1507.2500      0.0000    681.7225     11.5971     66.4170
  1507.5000      0.0000    643.6656     11.8712     63.6385
  1507.7500      0.0000    639.4542     11.8617     63.1588
  1508.0000      0.0000    670.1974     11.4841     65.4352
  1508.2500      0.0000    712.4479     10.8555     70.7877
  1508.5000      0.0000    738.8989     10.2198     78.3629
  1508.7500      0.0000    740.9928      9.7720     86.2572
  1509.0000      0.0000    730.2328      9.5645     92.7052
  1509.2500     -2.0000    721.5071      9.5425     97.0351
  1509.5000      0.0000    719.4403      9.6200     99.6130
  1509.7500      0.0000    719.6152      9.7178    101.2484
  1510.0000      0.0000    718.2001      9.7701    102.6970
  1510.2500      0.0000    717.8397      9.7352    104.3804
  1510.5000      0.0000    724.8382      9.6268    106.3437
  1510.7500      0.0000    741.9286      9.5270    108.4900
  1511.0000      0.0000    764.4597      9.5331    110.8365
  1511.2500      0.0000    783.8864      9.6723    113.4500
  1511.5000      0.0000    794.4841      9.8851    116.1220
  1511.7500      0.0000    795.9502     10.0884    118.3539
  1512.0000      0.0000    790.5848     10.2311    119.9624
  1512.2500      0.0000    780.3416     10.2987    121.5531
  1512.5000      0.0000    767.3455     10.3081    123.8794
  1512.7500      0.0000    755.5317     10.3148    126.6259
  1513.0000      0.0000    749.4380     10.4019    128.2563
  1513.2500      0.0000    750.7206     10.6339    127.1974
  1513.5000      0.0000    756.8726     11.0094    123.0182
  1513.7500      0.0000    764.0568     11.4557    116.6652
  1514.0000      0.0000    770.3636     11.8680    109.8059
  1514.2500      0.0000    775.5779     12.1541    103.7466
  1514.5000      0.0000    779.1817     12.2551     98.7244
  1514.7500      0.0000    780.4790     12.1510     94.2353
  1515.0000      0.0000    780.1893     11.8624     90.0753
  1515.2500      0.0000    779.8182     11.4484     86.9224
  1515.5000      0.0000    778.7902     10.9954     85.8441
  1515.7500      0.0000    773.9525     10.5810     87.3235
  1516.0000      0.0000    763.4250     10.2262     90.9580
  1516.2500      0.0000    749.7658      9.8845     96.0530
  1516.5000      0.0000    737.5239      9.4895    102.1484
  1516.7500      0.0000    728.3543      9.0121    108.7776
  1517.0000      0.0000    720.2240      8.4763    114.9505
  1517.2500      0.0000    710.9195      7.9369    119.3001
  1517.5000      0.0000    700.8449      7.4530    121.0272
  1517.7500      0.0000    692.6565      7.0766    120.6388
  1518.0000      0.0000    689.1232      6.8471    119.5334
  1518.2500      0.0000    691.0745      6.7842    118.8068
  1518.5000      0.0000    696.7735      6.8841    118.5607
  1518.7500      0.0000    703.2201      7.1217    118.2702
  1519.0000      0.0000    708.1921      7.4515    117.4443
  1519.2500      0.0000    711.2347      7.8063    115.7293
  1519.5000      0.0000    713.2715      8.1102    112.8030
  1519.7500      0.0000    715.9581      8.3097    108.6101
  1520.0000      0.0000    721.2494      8.4027    103.7530
  1520.2500      0.0000    730.5085      8.4340     99.6336
  1520.5000      0.0000    742.8781      8.4576     97.8994
  1520.7500      0.0000    754.4901      8.4942     99.0424
  1521.0000      0.0000    760.6040      8.5220    101.5684
  1521.2500      0.0000    759.5883      8.5033    103.3643
  1521.5000      0.0000    754.5166      8.4142    103.9564
  1521.7500      0.0000    750.2656      8.2519    104.7759
  1522.0000      0.0000    749.4774      8.0298    107.2984
  1522.2500      0.0000    751.8334      7.7752    111.5560
  1522.5000      0.0000    756.3952      7.5270    116.3899
  1522.7500      0.0000    763.3195      7.3218    120.5556
  1523.0000      0.0000    772.7628      7.1737    123.4262
  1523.2500      0.0000    782.5870      7.0659    124.9529
  1523.5000      0.0000    788.3997      6.9660    125.2346
  1523.7500      0.0000    786.9222      6.8539    124.2381
  1524.0000      0.0000    778.8597      6.7360    121.9086
  1524.2500      0.0000    767.6773      6.6318    118.5266
  1524.5000      0.0000    756.2762      6.5530    114.9705
  1524.7500      0.0000    745.9545      6.4993    112.5772
  1525.0000      0.0000    737.6506      6.4668    112.3992
  1525.2500      0.0000    732.0144      6.4517    114.1853
  1525.5000      0.0000    727.9938      6.4498    116.1921
  1525.7500      0.0000    723.3442      6.4568    116.3675
  1526.0000      0.0000    718.1382      6.4727    113.8970
  1526.2500      0.0000    716.8632      6.5063    109.6109
  1526.5000      0.0000    725.0294      6.5769    105.3103
  1526.7500      0.0000    743.1145      6.7089    102.9886
  1527.0000      0.0000    764.4733      6.9187    103.8833
  1527.2500      0.0000    779.4671      7.2010    107.2717
  1527.5000      0.0000    781.9571      7.5267    110.4728
  1527.7500      0.0000    773.2129      7.8527    110.8810
  1528.0000      0.0000    760.7478      8.1404    108.0824
  1528.2500      0.0000    752.8262      8.3722    103.7809
  1528.5000      0.0000    753.0596      8.5581     99.9943
  1528.7500      0.0000    759.5060      8.7243     97.7360
  1529.0000      0.0000    767.6354      8.8906     97.0714
  1529.2500      0.0000    773.5395      9.0483     97.7463
  1529.5000      0.0000    775.6747      9.1604     99.6561
  1529.7500      0.0000    774.7979      9.1814    102.9776
  1530.0000      0.0000    772.2176      9.0835    107.9727
  1530.2500      0.0000    768.1993      8.8681    114.4563
  1530.5000      0.0000    762.7390      8.5643    121.1464
  1530.7500      0.0000    757.5445      8.2184    125.6994
  1531.0000      0.0000    755.6331      7.8794    126.1698
  1531.2500      0.0000    758.6683      7.5840    122.7588
  1531.5000      0.0000    766.0943      7.3482    117.5355
  1531.7500      0.0000    776.3659      7.1703    112.3756
  1532.0000      0.0000    786.4304      7.0402    107.9772
  1532.2500      0.0000    790.7474      6.9447    104.9011
  1532.5000      0.0000    785.2722      6.8689    104.2793
  1532.7500      0.0000    773.2952      6.8013    106.7720
  1533.0000      0.0000    763.5577      6.7410    111.4328
  1533.2500      0.0000    760.9937      6.7000    116.1626
  1533.5000      0.0000    761.7825      6.6974    119.0782
