~Version Information
VERS.                      2.0: CWLS Log ASCII Standard - VERSION 2.0
WRAP.                       NO: One line per depth step
~Well Information Block
STRT.FT               870.0000: 
STOP.FT              2517.5000: 
STEP.FT                 0.1000: 
NULL.                -999.2500: 
COMP.          Pioneer Natural Resources: COMPANY
WELL.              Tiaga 23-14: WELL
FLD.           Purgatoire River: FIELD
LOC.           2168' FSL & 2030' FWL: LOCATION
PROV.                 Colorado: PROVINCE
CNTY.               Las Animas: COUNTRY
SRVC.                         : SERVICE COMPANY
DATE.          Sat May 07 09:09:05 2005: LOG DATE
UWI.           05 071 08329 00: UNIQUE WELL ID
~Curve Information Block
DEPT.FT            0 000 00 00: Depth
LTEN.lb                       : Surface Line Tension
DCAL.in                       : CDL Caliper
RHOC.g/cc                     : CDL Density Correction
DPOR.pu                       : CDL Density Porosity
GR.GAPI                       : Gamma Ray
NPOR.pu                       : Neutron Porosity
~Parameter Information Block
~A  Depth       LTEN        DCAL        RHOC        DPOR         GR         NPOR    
# ...
  2070.0000   1151.3256      8.0164      0.0906     17.3902     40.8162     14.7967
  2070.1000   1151.3256      8.0164      0.0606     15.7807     44.4428     14.2604
  2070.2000   1151.3256      8.0164      0.1003     15.5636     47.9279     13.4611
  2070.3000   1148.5083      8.0098      0.0419     16.7778     48.8885     13.0244
  2070.4000   1148.5083      8.0098      0.0299     18.1813     46.1173     13.4100
  2070.5000   1156.1552      8.0174      0.0281     18.1325     42.0264     14.2054
  2070.6000   1156.1552      8.0174      0.0706     16.7999     42.6769     14.6707
  2070.7000   1156.1552      8.0174      0.0767     15.6046     47.7788     14.6667
  2070.8000   1150.9369      8.0222      0.0499     15.0480     51.1827     14.5045
  2070.9000   1150.9369      8.0222      0.0861     15.4158     51.4338     14.8050
  2071.0000   1151.8606      8.0341      0.0293     17.2581     50.5872     15.7868
  2071.1000   1151.8606      8.0341     -0.0256     19.2692     48.2258     17.0684
  2071.2000   1151.8606      8.0341     -0.0089     19.5548     44.3799     18.0648
  2071.3000   1144.9204      8.0473      0.0329     18.7932     43.0678     17.9715
  2071.4000   1144.9204      8.0473      0.0177     18.6626     47.1487     17.1677
  2071.5000   1145.1743      8.0475      0.0327     19.1165     52.4733     16.8519
  2071.6000   1145.1743      8.0475     -0.0362     19.0162     55.0522     17.1343
  2071.7000   1145.1743      8.0475      0.0242     17.8446     57.2840     17.3862
  2071.8000   1147.0618      8.0541      0.0341     16.2743     60.2103     17.2559
  2071.9000   1147.0618      8.0541      0.0155     15.1177     59.6846     17.0350
  2072.0000   1124.0441      8.0570      0.0385     14.7858     54.9018     17.3077
  2072.1000   1124.0441      8.0570      0.0611     15.3584     51.8890     17.9211
  2072.2000   1124.0441      8.0570     -0.0176     15.9906     53.3697     18.0105
  2072.3000   1127.0420      8.0542      0.0645     15.6403     55.8790     17.5820
  2072.4000   1127.0420      8.0542      0.0460     14.5693     58.2776     17.2266
  2072.5000   1132.1287      8.0486      0.0634     13.6008     62.7871     17.1981
  2072.6000   1132.1287      8.0486      0.0387     12.7863     69.9357     17.7348
  2072.7000   1132.1287      8.0486      0.0949     12.1950     76.5633     18.7600
  2072.8000   1131.1986      8.0468      0.0956     12.6042     79.1276     19.5009
  2072.9000   1131.1986      8.0468     -0.0186     13.3346     78.8892     19.5928
  2073.0000   1134.3368      8.0448      0.0476     13.0407     79.7234     19.3120
  2073.1000   1134.3368      8.0448      0.0410     12.3258     81.3444     18.8689
  2073.2000   1134.3368      8.0448      0.0530     11.8975     81.4207     18.6418
  2073.3000   1148.7729      8.0369      0.0761     11.2190     78.6169     18.9163
  2073.4000   1148.7729      8.0369      0.0931     10.2675     72.8790     19.5231
  2073.5000   1136.5658      8.0004      0.1275     10.2957     65.7818     20.0251
  2073.6000   1136.5658      8.0004      0.0545     12.0507     58.3085     20.3505
  2073.7000   1136.5658      8.0004      0.0134     14.3305     51.6781     20.9893
  2073.8000   1145.4060      7.9732      0.0101     15.4865     48.0732     21.8554
  2073.9000   1145.4060      7.9732      0.0277     15.6507     47.7493     22.2244
  2074.0000   1120.1305      7.9753      0.0404     16.0312     47.9846     22.1501
  2074.1000   1120.1305      7.9753      0.0480     16.8544     46.5385     21.8854
  2074.2000   1120.1305      7.9753      0.0644     17.2502     44.2931     21.2415
  2074.3000   1144.8009      7.9752      0.0701     16.6905     43.6061     20.4488
  2074.4000   1144.8009      7.9752      0.0624     15.9272     44.2581     19.9016
  2074.5000   1119.3300      7.9662      0.0319     15.4993     43.7954     19.8833
  2074.6000   1119.3300      7.9662      0.0361     14.8550     41.9457     20.3618
  2074.7000   1119.3300      7.9662      0.1191     14.2647     40.9586     20.4882
  2074.8000   1143.5446      7.9643      0.0613     14.6852     40.7528     19.7162
  2074.9000   1143.5446      7.9643      0.0739     15.8859     39.0311     18.7059
  2075.0000   1136.0721      7.9657      0.0240     16.9596     36.0813     18.4656
  2075.1000   1136.0721      7.9657      0.0280     17.4025     33.6919     18.9793
  2075.2000   1136.0721      7.9657      0.0389     17.3892     33.8778     19.2299
  2075.3000   1150.5176      7.9629      0.0597     17.4383     36.7999     18.8024
  2075.4000   1150.5176      7.9629      0.0451     17.6509     39.0174     18.4199
  2075.5000   1134.0804      7.9661      0.0202     17.6765     38.4127     18.4284
  2075.6000   1134.0804      7.9661      0.0502     17.6040     37.5258     18.3409
  2075.7000   1134.0804      7.9661     -0.0042     17.7735     38.3245     18.0338
  2075.8000   1152.1233      8.0068      0.0222     18.1487     39.9218     18.0380
  2075.9000   1152.1233      8.0068     -0.0308     18.7859     42.9831     18.4971
  2076.0000   1141.6559      8.0169     -0.0321     19.4344     46.3678     18.8337
  2076.1000   1141.6559      8.0169     -0.0102     19.3436     47.1820     18.9588
  2076.2000   1141.6559      8.0169      0.0080     18.3892     47.7715     19.1340
  2076.3000   1162.8157      8.0159      0.0174     17.3987     52.2257     19.1386
  2076.4000   1162.8157      8.0159      0.0421     16.9262     58.4796     18.9217
  2076.5000   1149.9513      8.0122      0.0292     16.6697     61.3537     18.8235
  2076.6000   1149.9513      8.0122      0.0152     16.4215     60.8071     18.9897
  2076.7000   1149.9513      8.0122      0.0041     16.6470     59.2073     19.0045
  2076.8000   1145.6409      8.0217      0.0144     17.4234     57.4638     18.5423
  2076.9000   1145.6409      8.0217      0.0494     18.1085     56.8555     17.5823
  2077.0000   1147.1382      8.0116      0.0427     18.8247     56.1652     16.1588
  2077.1000   1147.1382      8.0116      0.0499     20.3861     54.1493     14.9435
  2077.2000   1147.1382      8.0116     -0.0317     22.2992     53.4856     14.8981
  2077.3000   1123.9133      8.0051     -0.0113     23.0591     54.4234     16.1438
  2077.4000   1123.9133      8.0051      0.0190     22.8054     53.5005     17.7325
  2077.5000   1119.2990      8.0196      0.0564     22.7301     49.0805     18.6596
  2077.6000   1119.2990      8.0196     -0.0271     22.4029     42.4781     18.8290
  2077.7000   1119.2990      8.0196      0.0029     20.8429     37.8720     18.4462
  2077.8000   1112.0441      8.0250      0.0433     19.2659     37.9524     17.8744
  2077.9000   1112.0441      8.0250      0.0752     19.3542     40.5406     17.2659
  2078.0000   1131.5557      8.0287      0.0068     20.2093     43.6364     16.3811
  2078.1000   1131.5557      8.0287      0.0194     20.1369     46.9411     15.3329
  2078.2000   1131.5557      8.0287      0.0367     19.5294     48.3595     14.6762
  2078.3000   1125.9531      8.0182      0.0197     19.5215     47.4953     14.7692
  2078.4000   1125.9531      8.0182      0.0311     19.9932     47.3725     15.3510
  2078.5000   1131.1621      8.0130     -0.0362     19.6860     49.3842     15.9129
  2078.6000   1131.1621      8.0130      0.0670     18.2070     50.7531     16.7223
  2078.7000   1131.1621      8.0130      0.0349     16.9927     48.4471     18.2042
  2078.8000   1123.1106      8.0034      0.0544     16.6704     45.0267     19.4665
  2078.9000   1123.1106      8.0034      0.0497     16.7085     44.3749     19.4708
  2079.0000   1132.5647      8.0079      0.0061     16.5199     46.0189     18.6088
  2079.1000   1132.5647      8.0079      0.0291     15.6320     47.9519     17.5923
  2079.2000   1132.5647      8.0079      0.0309     14.2201     49.6470     16.5628
  2079.3000   1125.2183      8.0195      0.0218     12.7868     51.5270     16.3034
  2079.4000   1125.2183      8.0195      0.0846     11.6915     53.7436     17.4962
  2079.5000   1141.5496      8.0199      0.0641     11.1829     57.8375     18.9145
