~Version Information
VERS.                      2.0: CWLS Log ASCII Standard - VERSION 2.0
WRAP.                       NO: One line per depth step
~Well Information Block
STRT.FT               430.0000: 
STOP.FT              2826.2500: 
STEP.FT                 0.2500: 
NULL.                -999.2500: 
COMP.          Pioneer Natural Resources: COMPANY
WELL.           Ei-ei-oh 31-24: WELL
FLD.           Purgatoire River: FIELD
LOC.           235' FNL & 2001' FEL--: LOCATION
PROV.                 Colorado: PROVINCE
CNTY.               Las Animas: COUNTRY
SRVC.                Patterson: SERVICE COMPANY
DATE.          Thu Jun 16 06:46:37 2005: LOG DATE
UWI.           05 071 08403 00: UNIQUE WELL ID
~Curve Information Block
DEPT.FT            0 000 00 00: Depth
DIR.Ohm-m                     : IEL Induction Resistivity
SN.Ohm-m                      : IEL Short Normal
SP.mV                         : IEL Spontaneous Potential
GR.GAPI                       : Gamma Ray
~Parameter Information Block
~A  Depth       DIR          SN          SP          GR     
   430.0000      3.5438   2000.0000   2000.0000     92.1924
   430.2500      4.3391   2000.0000   2000.0000     91.4087
   430.5000      5.3796   2000.0000   2000.0000     91.0794
   430.7500      6.7903   2000.0000   2000.0000     91.5234
   431.0000      7.9039   2000.0000   2000.0000     92.8223
   431.2500      7.1459   2000.0000   2000.0000     93.8066
   431.5000      5.1460   2000.0000   2000.0000     95.2751
   431.7500      3.6421   2000.0000   2000.0000     96.3820
   432.0000      2.9209   2000.0000   2000.0000     98.2357
   432.2500      2.8079   2000.0000   2000.0000     99.1746
   432.5000      3.3312   2000.0000   2000.0000     99.2037
   432.7500      5.1471   2000.0000   2000.0000     98.1406
   433.0000     13.1448   2000.0000   2000.0000     95.3621
   433.2500 100000.0000   2000.0000   2000.0000     93.0438
   433.5000 100000.0000   2000.0000   2000.0000     89.1642
   433.7500 100000.0000   2000.0000   2000.0000     86.4070
   434.0000 100000.0000   2000.0000   2000.0000     82.2763
   434.2500 100000.0000   2000.0000   2000.0000     79.7713
   434.5000 100000.0000   2000.0000   2000.0000     76.9393
   434.7500 100000.0000   2000.0000   2000.0000     76.0187
   435.0000 100000.0000   2000.0000   2000.0000     76.5936
   435.2500    116.2900   2000.0000   2000.0000     78.4723
   435.5000     58.8652   2000.0000   2000.0000     83.7644
   435.7500     50.6302   2000.0000   2000.0000     89.0187
   436.0000     51.3422   2000.0000   2000.0000     99.0529
   436.2500     55.2488   2000.0000   2000.0000    106.2628
   436.5000     58.8021   2000.0000   2000.0000    115.1732
   436.7500     58.1723   2000.0000   2000.0000    118.1890
   437.0000     52.4873   2000.0000   2000.0000    116.8152
   437.2500     45.4040   2000.0000   2000.0000    112.3437
   437.5000     40.5414   2000.0000   2000.0000    102.8011
   437.7500     39.3683   2000.0000   2000.0000     96.4632
   438.0000     42.4674   2000.0000   2000.0000     89.7463
   438.2500     50.2507   2000.0000   2000.0000     87.8564
   438.5000     61.1384   2000.0000   2000.0000     88.3385
   438.7500     67.5411   2000.0000   2000.0000     89.9370
   439.0000     61.9975   2000.0000   2000.0000     92.8714
   439.2500     50.1365   2000.0000   2000.0000     94.7437
   439.5000     39.9241   2000.0000   2000.0000     96.9351
   439.7500     33.2682   2000.0000   2000.0000     97.7806
   440.0000     29.4994   2000.0000   2000.0000     98.2074
   440.2500     27.7799   2000.0000   2000.0000     98.2115
   440.5000     27.5102   2000.0000   2000.0000     98.0203
   440.7500     28.2242   2000.0000   2000.0000     97.4280
   441.0000     29.4784   2000.0000   2000.0000     94.8206
   441.2500     30.8631   2000.0000   2000.0000     91.6665
   441.5000     32.1098   2000.0000   2000.0000     85.6150
   441.7500     33.1497   2000.0000   2000.0000     81.6593
   442.0000     34.0480   2000.0000   2000.0000     77.2167
   442.2500     34.8880   2000.0000   2000.0000     75.5101
   442.5000     35.7060   2000.0000   2000.0000     74.4586
   442.7500     36.4907   2000.0000   2000.0000     74.3636
   443.0000     37.2065   2000.0000   2000.0000     74.5666
   443.2500     37.8150   2000.0000   2000.0000     74.7287
   443.5000     38.2913   2000.0000   2000.0000     74.7643
   443.7500     38.6315   2000.0000   2000.0000     74.5848
   444.0000     38.8629   2000.0000   2000.0000     74.3181
   444.2500     39.0466   2000.0000   2000.0000     74.5534
   444.5000     39.2700   2000.0000   2000.0000     75.9480
   444.7500     39.6261   2000.0000   2000.0000     77.2989
   445.0000     40.1842   2000.0000   2000.0000     78.8720
   445.2500     40.9671   2000.0000   2000.0000     79.1257
   445.5000     41.9507   2000.0000   2000.0000     78.2355
   445.7500     43.0937   2000.0000   2000.0000     77.0612
   446.0000     44.3775   2000.0000   2000.0000     74.8660
   446.2500     45.8205   2000.0000   2000.0000     73.1970
   446.5000     47.4477   2000.0000   2000.0000     70.3360
   446.7500     49.2373   2000.0000   2000.0000     68.2454
   447.0000     51.0783   2000.0000   2000.0000     65.2771
   447.2500     52.7819   2000.0000   2000.0000     63.7234
   447.5000     54.1566   2000.0000   2000.0000     62.2099
   447.7500     55.1221   2000.0000   2000.0000     61.6348
   448.0000     55.7736   2000.0000   2000.0000     61.2311
   448.2500     56.3286   2000.0000   2000.0000     61.1920
   448.5000     56.9912   2000.0000   2000.0000     61.1586
   448.7500     57.8279   2000.0000   2000.0000     60.8754
   449.0000     58.7266   2000.0000   2000.0000     59.8196
   449.2500     59.4624   2000.0000   2000.0000     58.7511
   449.5000     59.8385   2000.0000   2000.0000     56.8081
   449.7500     59.8111   2000.0000   2000.0000     55.4604
   450.0000     59.5053   2000.0000   2000.0000     53.8922
   450.2500     59.1310   2000.0000   2000.0000     53.4593
   450.5000     58.8918   2000.0000   2000.0000     53.7007
   450.7500     58.9422   2000.0000   2000.0000     54.0510
   451.0000     59.3719   2000.0000   2000.0000     54.0883
   451.2500     60.1831   2000.0000   2000.0000     53.6675
   451.5000     61.2639   2000.0000   2000.0000     52.8244
   451.7500     62.3826   2000.0000   2000.0000     52.4551
   452.0000     63.2279   2000.0000   2000.0000     52.2923
   452.2500     63.5108   2000.0000   2000.0000     52.2737
   452.5000     63.1006   2000.0000   2000.0000     52.3008
   452.7500     62.1096   2000.0000   2000.0000     52.5836
   453.0000     60.8378   2000.0000   2000.0000     53.8480
   453.2500     59.6103   2000.0000   2000.0000     55.2595
   453.5000     58.6340   2000.0000   2000.0000     57.8212
   453.7500     57.9503   2000.0000   2000.0000     59.4843
   454.0000     57.4787   2000.0000   2000.0000     61.3420
   454.2500     57.0951   2000.0000   2000.0000     61.9453
   454.5000     56.6995   2000.0000   2000.0000     61.9874
   454.7500     56.2425   2000.0000   2000.0000     61.7099
   455.0000     55.7191   2000.0000   2000.0000     61.2910
   455.2500     55.1532   2000.0000   2000.0000     61.1421
   455.5000     54.5821   2000.0000   2000.0000     61.1423
   455.7500     54.0223   2000.0000   2000.0000     61.2347
   456.0000     53.4170   2000.0000   2000.0000     61.4324
   456.2500     52.6042   2000.0000   2000.0000     61.6907
   456.5000     51.3582   2000.0000   2000.0000     62.5747
   456.7500     49.5106   2000.0000   2000.0000     63.6016
   457.0000     47.0721   2000.0000   2000.0000     65.9982
   457.2500     44.2510   2000.0000   2000.0000     68.6326
   457.5000     41.3496   2000.0000   2000.0000     75.4280
   457.7500     38.6341   2000.0000   2000.0000     82.1613
   458.0000     36.2635   2000.0000   2000.0000     94.1435
   458.2500     34.2898   2000.0000   2000.0000    101.6806
   458.5000     32.6880   2000.0000   2000.0000    109.5662
   458.7500     31.3896   2000.0000   2000.0000    111.7618
   459.0000     30.3118   2000.0000   2000.0000    110.6395
   459.2500     29.3876   2000.0000   2000.0000    107.5907
   459.5000     28.5889   2000.0000   2000.0000    100.9834
   459.7500     27.9301   2000.0000   2000.0000     96.0214
   460.0000     27.4458   2000.0000   2000.0000     88.7578
   460.2500     27.1606   2000.0000   2000.0000     84.3363
   460.5000     27.0661   2000.0000   2000.0000     78.5269
   460.7500     27.1179   2000.0000   2000.0000     75.2935
   461.0000     27.2519   2000.0000   2000.0000     71.6559
   461.2500     27.4115   2000.0000   2000.0000     70.1555
   461.5000     27.5688   2000.0000   2000.0000     69.0871
   461.7500     27.7238   2000.0000   2000.0000     68.7567
   462.0000     27.8814   2000.0000   2000.0000     68.2090
   462.2500     28.0264   2000.0000   2000.0000     67.8539
   462.5000     28.1172   2000.0000   2000.0000     68.0110
   462.7500     28.1034   2000.0000   2000.0000     68.8787
   463.0000     27.9537   2000.0000   2000.0000     71.1330
   463.2500     27.6757   2000.0000   2000.0000     72.8513
