~Version Information
VERS.                      2.0: CWLS Log ASCII Standard - VERSION 2.0
WRAP.                       NO: One line per depth step
~Well Information Block
STRT.FT                -8.2500: 
STOP.FT              2356.2500: 
STEP.FT                 0.2500: 
NULL.                -999.2500: 
COMP.          Petrogulf Corporation: COMPANY
WELL.             State 16-12V: WELL
FLD.           Purgatorie River: FIELD
LOC.           1992' FNL & 1237' FWL: LOCATION
PROV.                 Colorado: PROVINCE
CNTY.               Las Animas: COUNTRY
SRVC.                Patterson: SERVICE COMPANY
DATE.          Thu Aug 11 14:44:06 2005: LOG DATE
UWI.                          : UNIQUE WELL ID
~Curve Information Block
DEPT.FT            0 000 00 00: Depth
GR.GAPI                       : Gamma Ray
CCL.                          : Casing Collar Locator
TT3.usec                      : CBL 3' Travel Time
AMP3.mV                       : CBL 3' Amplitude
~Parameter Information Block
~A  Depth        GR         CCL         TT3         AMP3    
# ...
  2035.2500     68.3396      0.0000    751.5657      1.7444
  2035.5000     73.9130      0.0000    730.2095      1.7899
  2035.7500     80.2140      0.0000    723.2480      1.8625
  2036.0000     85.2149      0.0000    717.6171      1.9510
  2036.2500     88.1419      0.0000    705.6194      2.0298
  2036.5000     89.2778      0.0000    692.6723      2.1014
  2036.7500     89.1596      0.0000    685.4105      2.1789
  2037.0000     88.1503      0.0000    683.4866      2.2462
  2037.2500     86.5130      0.0000    683.5648      2.2788
  2037.5000     84.7099      0.0000    683.6525      2.2748
  2037.7500     83.4176      0.0000    683.3566      2.2456
  2038.0000     83.0556      0.0000    683.0435      2.2045
  2038.2500     83.4560      0.0000    683.1840      2.1673
  2038.5000     84.1879      0.0000    683.8362      2.1477
  2038.7500     84.9921      0.0000    684.5765      2.1503
  2039.0000     85.6113      0.0000    685.0701      2.1778
  2039.2500     85.3357      0.0000    685.8162      2.2382
  2039.5000     83.2067      0.0000    688.4579      2.3410
  2039.7500     79.0567      0.0000    695.2416      2.4977
  2040.0000     74.3217      0.0000    706.5414      2.7087
  2040.2500     71.4205      0.0000    718.4884      2.9368
  2040.5000     71.9714      0.0000    728.3196      3.1345
  2040.7500     75.5115      0.0000    743.0793      3.2760
  2041.0000     79.9245      0.0000    770.8191      3.3260
  2041.2500     83.0180      0.0000    801.5678      3.3076
  2041.5000     83.8071      0.0000    815.2826      3.3681
  2041.7500     82.6731      0.0000    807.1865      3.5870
  2042.0000     80.6798      0.0000    787.7430      3.8783
  2042.2500     78.9137      0.0000    767.2349      4.1552
  2042.5000     78.2350     -2.0000    753.1072      4.3920
  2042.7500     79.0894     -2.0000    748.4520      4.5540
  2043.0000     81.2366      0.0000    746.6661      4.6272
  2043.2500     83.9033      0.0000    738.8726      4.7292
  2043.5000     86.4981      0.0000    723.2618      5.0211
  2043.7500     89.0773      0.0000    705.1628      5.4655
  2044.0000     92.0003      0.0000    693.5676      5.9325
  2044.2500     95.2635      0.0000    693.4442      6.4343
  2044.5000     98.3299      0.0000    700.1291      6.9560
  2044.7500    100.4935      0.0000    704.4890      7.3550
  2045.0000    101.2577      0.0000    702.4491      7.5555
  2045.2500    100.4827      0.0000    697.3017      7.6084
  2045.5000     98.5328      0.0000    693.3900      7.6006
  2045.7500     96.3232      0.0000    691.5639      7.6015
  2046.0000     94.9138      0.0000    690.6960      7.6514
  2046.2500     94.8021      0.0000    689.8408      7.7499
  2046.5000     95.5295      0.0000    688.7296      7.8660
  2046.7500     95.9689      0.0000    687.6151      7.9897
  2047.0000     95.1030      0.0000    686.8722      8.1567
  2047.2500     92.7316      0.0000    687.1887      8.4022
  2047.5000     89.5752      0.0000    690.9256      8.7133
  2047.7500     86.8640      0.0000    702.3172      9.0358
  2048.0000     85.8982      0.0000    721.8483      9.2837
  2048.2500     87.4366      0.0000    739.6827      9.3403
  2048.5000     90.7573      0.0000    743.4742      9.1155
  2048.7500     93.4930      0.0000    732.7093      8.6144
  2049.0000     93.3012      0.0000    716.1237      7.9127
  2049.2500     90.0040      0.0000    700.8967      7.0874
  2049.5000     85.7854      0.0000    690.4408      6.2166
  2049.7500     83.2304      0.0000    686.2809      5.3941
  2050.0000     83.4247      0.0000    690.0060      4.6762
  2050.2500     85.8224      0.0000    703.7162      4.0488
  2050.5000     89.3673      0.0000    726.1894      3.4859
  2050.7500     93.2983      0.0000    751.3137      3.0047
  2051.0000     97.0159      0.0000    772.9764      2.6441
  2051.2500     99.7808      0.0000    784.9642      2.4122
  2051.5000    100.9095      0.0000    777.5483      2.2720
  2051.7500    100.1323      0.0000    748.8637      2.1656
  2052.0000     97.6639      0.0000    712.8674      2.0512
  2052.2500     94.0910      0.0000    683.0510      1.9269
  2052.5000     90.2076      0.0000    662.1128      1.8170
  2052.7500     86.7496      0.0000    649.0619      1.7404
  2053.0000     84.0635      0.0000    642.5450      1.7029
  2053.2500     81.8213      0.0000    639.9685      1.7024
  2053.5000     79.0869      0.0000    638.9933      1.7215
  2053.7500     75.0412      0.0000    638.5613      1.7346
  2054.0000     69.9563      0.0000    638.3939      1.7352
  2054.2500     65.3319      0.0000    638.4153      1.7397
  2054.5000     62.7701      0.0000    638.5517      1.7610
  2054.7500     62.6351      0.0000    638.7214      1.7880
  2055.0000     63.8926      0.0000    638.8861      1.7977
  2055.2500     65.2482      0.0000    639.0660      1.7803
  2055.5000     66.3342      0.0000    639.2411      1.7436
  2055.7500     67.6978      0.0000    639.3542      1.7079
  2056.0000     69.7576      0.0000    639.7156      1.6925
  2056.2500     72.1539      0.0000    641.4489      1.7018
  2056.5000     74.3309      0.0000    646.0571      1.7292
  2056.7500     76.4377      0.0000    653.6220      1.7637
  2057.0000     79.0750      0.0000    662.1913      1.7948
  2057.2500     82.0511      0.0000    670.7230      1.8248
  2057.5000     84.0334      0.0000    679.6919      1.8679
  2057.7500     83.9280      0.0000    687.6786      1.9366
  2058.0000     82.2842      0.0000    692.0295      2.0359
  2058.2500     80.7537      0.0000    691.7544      2.1705
  2058.5000     80.2542      0.0000    687.9551      2.3568
  2058.7500     80.1695      0.0000    682.9979      2.6280
  2059.0000     79.3365      0.0000    678.2523      3.0105
  2059.2500     77.2069      0.0000    674.1888      3.4813
  2059.5000     73.8630      0.0000    673.4017      3.9762
  2059.7500     69.5916      0.0000    678.6929      4.4438
  2060.0000     65.1146      0.0000    689.3313      4.8690
  2060.2500     61.8682      0.0000    703.8668      5.2423
  2060.5000     61.3440      0.0000    722.9439      5.5518
  2060.7500     64.1293      0.0000    743.1155      5.8294
  2061.0000     69.7096      0.0000    756.1672      6.1504
  2061.2500     76.8196      0.0000    767.4438      6.5338
  2061.5000     83.8099      0.0000    797.8790      6.8838
  2061.7500     89.2465      0.0000    842.1177      7.0640
  2062.0000     92.6566      0.0000    853.0044      7.0039
  2062.2500     94.5907      0.0000    806.3564      6.7403
  2062.5000     95.8997      0.0000    740.1284      6.3677
  2062.7500     97.0788      0.0000    697.4316      5.9600
  2063.0000     98.0935      0.0000    682.0210      5.5540
  2063.2500     98.5355      0.0000    679.3442      5.1796
  2063.5000     98.0819      0.0000    680.1010      4.8718
  2063.7500     96.9743      0.0000    681.2095      4.6457
  2064.0000     95.8555      0.0000    681.9269      4.4746
  2064.2500     95.0309      0.0000    682.9506      4.3174
  2064.5000     94.1472      0.0000    686.5935      4.1613
  2064.7500     92.7603      0.0000    695.8821      4.0201
  2065.0000     91.0439      0.0000    711.4943      3.9037
  2065.2500     89.7290      0.0000    727.7538      3.8182
  2065.5000     89.3987      0.0000    734.0135      3.7776
  2065.7500     89.9056      0.0000    726.4807      3.7889
  2066.0000     90.4022      0.0000    715.3412      3.8489
  2066.2500     90.0623      0.0000    711.6982      3.9493
  2066.5000     88.9537      0.0000    715.1831      4.0619
  2066.7500     88.1075      0.0000    719.5472      4.1504
  2067.0000     88.5335      0.0000    721.4584      4.2202
  2067.2500     90.3297      0.0000    722.6821      4.3238
  2067.5000     92.7982      0.0000    726.6837      4.4804
  2067.7500     94.9961      0.0000    730.9933      4.6324
  2068.0000     96.0655      0.0000    728.8258      4.7197
  2068.2500     95.6834      0.0000    722.8126      4.7383
  2068.5000     94.6149      0.0000    726.0389      4.6916
