~Version Information
VERS.                      2.0: CWLS Log ASCII Standard - VERSION 2.0
WRAP.                       NO: One line per depth step
~Well Information Block
STRT.FT               671.6000: 
STOP.FT              1890.7000: 
STEP.FT                 0.1000: 
NULL.                -999.2500: 
COMP.          Petrogulf Corporation: COMPANY
WELL.             State 16-14R: WELL
FLD.           Purgatorie River: FIELD
LOC.           598' FSL & 682' FWL: LOCATION
CNTY.               Las Animas: COUNTY
SRVC.                         : SERVICE COMPANY
DATE.          Fri Nov 05 07:21:30 2004: LOG DATE
UWI.           05 071 08034 00: UNIQUE WELL ID
STAT.                 Colorado: STATE
~Curve Information Block
DEPT.FT            0 000 00 00: Depth
DCAL.in                       : CDL Caliper
RHOB.g/cc                     : CDL Bulk Density
RHOC.g/cc                     : CDL Density Correction
DPOR.pu                       : CDL Density Porosity
GR.GAPI                       : Gamma Ray
NPOR.pu                       : Neutron Porosity
~Parameter Information Block
~A  Depth       DCAL        RHOB        RHOC        DPOR         GR         NPOR    
# ...
   844.4000      8.1681      2.6834      0.1129     -2.0262    111.9698     27.2617
   844.5000      8.1434      2.6716      0.0373     -1.3071    114.8405     27.0542
   844.6000      8.1434      2.6703      0.0389     -1.2293    117.2029     26.3676
   844.7000      8.1434      2.6815      0.0923     -1.9114    115.3588     25.7606
   844.8000      8.1323      2.6826      0.0416     -1.9759    108.7362     25.7253
   844.9000      8.1323      2.6603      0.0461     -0.6214    101.1341     25.6884
   845.0000      8.1159      2.6208      0.0335      1.7669     96.5466     25.1199
   845.1000      8.1159      2.5792      0.0172      4.2888     94.4290     24.4071
   845.2000      8.1159      2.5478     -0.0122      6.1950     92.4287     24.0827
   845.3000      8.1434      2.5369     -0.0167      6.8573     90.5318     24.1451
   845.4000      8.1434      2.5500      0.0113      6.0588     90.5815     24.1023
   845.5000      8.1527      2.5748      0.0569      4.5561     92.2233     23.6652
   845.6000      8.1527      2.5909      0.0583      3.5816     91.9626     23.0984
   845.7000      8.1527      2.5830      0.0692      4.0607     90.2314     22.7788
   845.8000      8.1403      2.5541      0.0413      5.8131     90.1232     22.7590
   845.9000      8.1403      2.5322     -0.0062      7.1419     91.3473     22.6954
   846.0000      8.1201      2.5342      0.0216      7.0174     94.0786     22.3793
   846.1000      8.1201      2.5371      0.0487      6.8405     99.3931     22.1068
   846.2000      8.1201      2.5216      0.0248      7.7815    103.3897     22.1047
   846.3000      8.1554      2.5047      0.0044      8.8074    103.6474     22.3190
   846.4000      8.1554      2.4990      0.0777      9.1529    103.9247     22.6514
   846.5000      8.1396      2.4974      0.0083      9.2456    106.6937     23.1291
   846.6000      8.1396      2.5069     -0.0031      8.6737    109.7195     23.7184
   846.7000      8.1396      2.5345      0.0279      7.0005    110.4124     23.9961
   846.8000      8.1460      2.5634      0.0722      5.2479    108.3588     23.7936
   846.9000      8.1460      2.5718      0.0786      4.7424    108.5688     23.6118
   847.0000      8.1328      2.5589      0.0408      5.5208    117.5031     23.9027
   847.1000      8.1328      2.5436      0.0352      6.4514    128.2388     24.5281
   847.2000      8.1328      2.5409      0.0663      6.6117    129.0944     24.9470
   847.3000      8.1576      2.5528      0.0518      5.8921    123.5015     24.8697
   847.4000      8.1576      2.5725      0.0867      4.7000    120.6525     24.6258
   847.5000      8.1745      2.5854      0.0846      3.9133    121.2059     24.4591
   847.6000      8.1745      2.5818      0.0479      4.1357    121.7671     24.3751
   847.7000      8.1745      2.5664      0.0693      5.0670    123.0986     24.7023
   847.8000      8.1510      2.5545      0.0576      5.7890    126.5300     25.2302
   847.9000      8.1510      2.5537      0.0656      5.8345    128.8970     25.1689
   848.0000      8.1314      2.5551      0.1062      5.7544    127.9014     24.7880
   848.1000      8.1314      2.5654      0.0107      5.1264    124.1310     24.7754
   848.2000      8.1314      2.5970      0.1246      3.2094    120.8841     24.7484
   848.3000      8.1261      2.6269      0.0999      1.3977    120.0853     24.1973
   848.4000      8.1261      2.6387      0.0822      0.6842    117.9598     23.7212
   848.5000      8.0850      2.6468      0.0752      0.1969    111.5174     23.9529
   848.6000      8.0850      2.6537      0.1114     -0.2224    103.8846     24.4324
   848.7000      8.0850      2.6372      0.1240      0.7770     97.7280     24.3657
   848.8000      8.0651      2.5953      0.0335      3.3139     92.8403     23.7720
   848.9000      8.0651      2.5624     -0.0413      5.3078     90.4041     23.2058
   849.0000      8.0496      2.5555      0.0119      5.7291     90.6048     23.0434
   849.1000      8.0496      2.5597     -0.0064      5.4731     89.8942     23.4295
   849.2000      8.0496      2.5654      0.0311      5.1293     86.6737     23.8553
   849.3000      8.1079      2.5702      0.0868      4.8362     85.2538     23.7947
   849.4000      8.1079      2.5686      0.0684      4.9352     87.1323     23.4318
   849.5000      8.0947      2.5559      0.0213      5.7010     89.4013     23.1187
   849.6000      8.0947      2.5379      0.0058      6.7917     91.8276     22.9056
   849.7000      8.0947      2.5293     -0.0082      7.3144     97.6085     22.7027
   849.8000      8.0729      2.5315      0.0610      7.1814    106.8273     22.6798
   849.9000      8.0729      2.5291      0.0635      7.3270    115.0303     22.9869
   850.0000      8.1148      2.5197      0.0559      7.8984    117.9015     23.4371
   850.1000      8.1148      2.5136      0.0450      8.2679    113.1885     23.7069
   850.2000      8.1148      2.5183     -0.0070      7.9843    105.1048     23.6523
   850.3000      8.0822      2.5349      0.0556      6.9777     99.1539     23.6297
   850.4000      8.0822      2.5542      0.0359      5.8058     96.2828     23.8876
   850.5000      8.1261      2.5671      0.1138      5.0221     98.3605     23.9821
   850.6000      8.1261      2.5743      0.0660      4.5857    102.7957     23.6768
   850.7000      8.1261      2.5787      0.0975      4.3204    104.5610     23.4041
   850.8000      8.1252      2.5722      0.1058      4.7174    106.2919     23.3845
   850.9000      8.1252      2.5528      0.0879      5.8898    108.2049     23.2835
   851.0000      8.1046      2.5403     -0.0005      6.6466    107.3741     23.0099
   851.1000      8.1046      2.5509      0.0684      6.0084    106.4833     22.9145
   851.2000      8.1046      2.5737      0.0798      4.6249    107.5869     23.2330
   851.3000      8.1153      2.5929      0.0916      3.4607    106.8381     23.7306
   851.4000      8.1153      2.6058      0.0669      2.6783    104.1364     23.9467
   851.5000      8.1006      2.6132      0.0628      2.2284    104.2799     23.6852
   851.6000      8.1006      2.6098      0.0733      2.4363    106.7249     23.1657
   851.7000      8.1006      2.5948      0.0741      3.3426    106.0642     22.7990
   851.8000      8.0995      2.5825      0.0621      4.0915    103.1517     22.8652
   851.9000      8.0995      2.5797      0.0914      4.2624    103.7183     23.1616
   852.0000      8.1283      2.5755      0.0983      4.5132    107.8114     23.2498
   852.1000      8.1283      2.5677      0.0726      4.9885    111.0261     23.1919
   852.2000      8.1283      2.5647      0.0567      5.1727    111.2362     23.3630
   852.3000      8.0808      2.5608      0.0775      5.4043    110.3387     23.7112
   852.4000      8.0808      2.5410      0.0585      6.6031    111.4857     23.9201
   852.5000      8.0680      2.5228     -0.0395      7.7090    112.4332     23.9078
   852.6000      8.0680      2.5361      0.0429      6.9014    108.8470     23.9687
   852.7000      8.0680      2.5576      0.1053      5.6010    101.4286     24.1526
   852.8000      8.0367      2.5482      0.0603      6.1696     96.8119     23.9243
   852.9000      8.0367      2.5301     -0.0195      7.2653     96.4614     23.2903
   853.0000      8.0411      2.5407      0.0679      6.6249     95.2662     22.8121
   853.1000      8.0411      2.5656      0.0936      5.1150     95.1191     22.5219
   853.2000      8.0411      2.5779      0.0666      4.3726     97.8586     22.5405
   853.3000      8.0702      2.5812      0.0642      4.1682     97.1529     23.1014
   853.4000      8.0702      2.5803      0.1098      4.2217     92.8265     23.6748
   853.5000      8.0472      2.5627      0.0671      5.2913     91.6359     23.8109
   853.6000      8.0472      2.5372      0.0099      6.8339     93.8163     23.8381
   853.7000      8.0472      2.5300      0.0446      7.2724     93.7182     23.9245
   853.8000      8.0635      2.5371      0.0906      6.8450     89.2348     23.8877
   853.9000      8.0635      2.5410      0.0663      6.6065     85.1302     23.6937
