~Version Information
VERS.                      2.0: CWLS Log ASCII Standard - VERSION 2.0
WRAP.                       NO: One line per depth step
~Well Information Block
STRT.FT               588.6000: 
STOP.FT              2281.0000: 
STEP.FT                 0.1000: 
NULL.                -999.2500: 
COMP.          Petrogulf Corporation: COMPANY
WELL.             State 16-41V: WELL
FLD.           Purgatorie River: FIELD
LOC.           335' FNL & 823' FEL: LOCATION
CNTY.               Las Animas: COUNTY
SRVC.                         : SERVICE COMPANY
DATE.          Tue Aug 02 07:31:25 2005: LOG DATE
UWI.                          : UNIQUE WELL ID
STAT.                 Colorado: STATE
~Curve Information Block
DEPT.FT            0 000 00 00: Depth
DCAL.in                       : CDL Caliper
RHOB.g/cc                     : CDL Bulk Density
RHOC.g/cc                     : CDL Density Correction
DPOR.pu                       : CDL Density Porosity
GR.GAPI                       : Gamma Ray
NPOR.pu                       : Neutron Porosity
~Parameter Information Block
~A  Depth       DCAL        RHOB        RHOC        DPOR         GR         NPOR    
# ...
   598.2000   -999.2500   -999.2500   -999.2500   -999.2500     87.0081     46.2384
   598.3000   -999.2500   -999.2500   -999.2500   -999.2500     84.3963     46.1503
   598.4000   -999.2500   -999.2500   -999.2500   -999.2500     82.7957     46.0599
   598.5000   -999.2500   -999.2500   -999.2500   -999.2500     82.3883     45.9684
   598.6000   -999.2500   -999.2500   -999.2500   -999.2500     81.8839     45.8787
   598.7000   -999.2500   -999.2500   -999.2500   -999.2500     81.2471     45.7954
   598.8000   -999.2500   -999.2500   -999.2500   -999.2500     80.5379     45.7237
   598.9000   -999.2500   -999.2500   -999.2500   -999.2500     78.9632     45.6692
   599.0000   -999.2500   -999.2500   -999.2500   -999.2500     77.3285     45.6371
   599.1000   -999.2500   -999.2500   -999.2500   -999.2500     76.7732     45.6312
   599.2000   -999.2500   -999.2500   -999.2500   -999.2500     77.3056     45.6538
   599.3000   -999.2500   -999.2500   -999.2500   -999.2500     79.9541     45.7049
   599.4000   -999.2500   -999.2500   -999.2500   -999.2500     84.1982     45.7828
   599.5000   -999.2500   -999.2500   -999.2500   -999.2500     86.5827     45.8839
   599.6000   -999.2500   -999.2500   -999.2500   -999.2500     85.9196     46.0032
   599.7000   -999.2500   -999.2500   -999.2500   -999.2500     84.9335     46.1347
   599.8000   -999.2500   -999.2500   -999.2500   -999.2500     85.9256     46.2718
   599.9000   -999.2500   -999.2500   -999.2500   -999.2500     88.7371     46.4080
   600.0000   -999.2500   -999.2500   -999.2500   -999.2500     91.6033     46.5373
   600.1000   -999.2500   -999.2500   -999.2500   -999.2500     93.7520     46.6544
   600.2000   -999.2500   -999.2500   -999.2500   -999.2500     95.7624     46.7558
   600.3000   -999.2500   -999.2500   -999.2500   -999.2500     98.3576     46.8389
   600.4000   -999.2500   -999.2500   -999.2500   -999.2500    100.6669     46.9029
   600.5000   -999.2500   -999.2500   -999.2500   -999.2500    101.0641     46.9488
   600.6000   -999.2500   -999.2500   -999.2500   -999.2500     99.8271     46.9781
   600.7000   -999.2500   -999.2500   -999.2500   -999.2500     97.3451     46.9936
   600.8000   -999.2500   -999.2500   -999.2500   -999.2500     93.6924     46.9982
   600.9000   -999.2500   -999.2500   -999.2500   -999.2500     91.2464     46.9948
   601.0000   -999.2500   -999.2500   -999.2500   -999.2500     91.9577     46.9857
   601.1000   -999.2500   -999.2500   -999.2500   -999.2500     95.8216     46.9727
   601.2000   -999.2500   -999.2500   -999.2500   -999.2500    100.6927     46.9570
   601.3000   -999.2500   -999.2500   -999.2500   -999.2500    103.0163     46.9390
   601.4000   -999.2500   -999.2500   -999.2500   -999.2500    102.2302     46.9185
   601.5000      8.4908   -999.2500   -999.2500   -999.2500    100.9258     46.8952
   601.6000      8.4908   -999.2500     -0.4560   -999.2500     99.6770     46.8686
   601.7000      8.4908   -999.2500     -0.4180   -999.2500     97.1538     46.8386
   601.8000      8.4907   -999.2500     -0.4455   -999.2500     95.4558     46.8054
   601.9000      8.4907   -999.2500     -0.3768   -999.2500     96.3996     46.7704
   602.0000      8.4918   -999.2500     -0.3846   -999.2500     98.5178     46.7358
   602.1000      8.4918      2.1900     -0.3476     27.8776    100.6062     46.7054
   602.2000      8.4918      2.1800     -0.3995     28.4822    101.5796     46.6847
   602.3000      8.4911      2.1700     -0.4210     29.0936    100.0445     46.6804
   602.4000      8.4911      2.1639     -0.4356     29.4604     98.8334     46.7007
   602.5000      8.4837      2.1627     -0.4416     29.5320    100.9447     46.7542
   602.6000      8.4837      2.1686     -0.3921     29.1775    101.8388     46.8499
   602.7000      8.4837      2.1787     -0.4165     28.5646     97.7097     46.9953
   602.8000      8.4778      2.1931     -0.4037     27.6925     91.9532     47.1960
   602.9000      8.4778      2.2063     -0.3560     26.8917     88.8280     47.4543
   603.0000      8.4886      2.2151     -0.4424     26.3584     88.6987     47.7687
   603.1000      8.4886      2.2379     -0.3868     24.9772     88.9885     48.1327
   603.2000      8.4886      2.2926     -0.3828     21.6632     87.1716     48.5353
   603.3000      8.4894      2.3858     -0.3680     16.0096     83.7681     48.9609
   603.4000      8.4894      2.5051     -0.3395      8.7804     82.1176     49.3908
   603.5000      8.4910      2.6011     -0.2867      2.9607     83.8679     49.8037
   603.6000      8.4910      2.6285     -0.3224      1.3016     86.6035     50.1778
   603.7000      8.4910      2.5914     -0.4054      3.5486     88.0331     50.4928
   603.8000      8.4744      2.5001     -0.4519      9.0829     86.6852     50.7310
   603.9000      8.4744      2.3503     -0.7511     18.1661     82.3150     50.8794
   604.0000      8.4598      2.1741     -1.0211     28.8411     78.0644     50.9301
   604.1000      8.4598      2.0292     -1.0510     37.6264     76.3625     50.8814
   604.2000      8.4598      1.9723     -1.3266     41.0741     75.1413     50.7373
   604.3000      8.4399      2.0341     -1.2402     37.3245     72.0572     50.5070
   604.4000      8.4399      2.1537     -1.1271     30.0785     69.4323     50.2038
   604.5000      8.4122      2.2434     -1.0582     24.6426     71.2324     49.8435
   604.6000      8.4122      2.3021     -1.0380     21.0867     75.7539     49.4432
   604.7000      8.4122      2.3816     -0.9646     16.2682     77.7259     49.0197
   604.8000      8.4452      2.4650     -0.6160     11.2123     75.8457     48.5885
   604.9000      8.4452      2.4596     -0.4477     11.5384     73.8231     48.1634
   605.0000      8.4816      2.3497     -0.6003     18.2019     75.0364     47.7559
   605.1000      8.4816      2.2378     -0.7006     24.9812     78.7542     47.3757
   605.2000      8.4816      2.2088     -0.6781     26.7374     82.5297     47.0305
   605.3000      8.4902      2.2583     -0.5944     23.7422     85.3870     46.7263
   605.4000      8.4902      2.3297     -0.4340     19.4131     87.7016     46.4673
   605.5000      8.4919      2.3647     -0.3549     17.2914     89.6983     46.2563
   605.6000      8.4919      2.3471     -0.3774     18.3576     90.7776     46.0938
   605.7000      8.4919      2.3064     -0.3773     20.8252     91.1252     45.9788
   605.8000      8.4818      2.2748     -0.3819     22.7413     90.9616     45.9082
   605.9000      8.4818      2.2619     -0.3930     23.5213     89.2591     45.8776
   606.0000      8.4787      2.2642     -0.4261     23.3838     86.3840     45.8810
   606.1000      8.4787      2.2732     -0.3602     22.8382     85.2060     45.9114
   606.2000      8.4787      2.2759     -0.3375     22.6737     87.9871     45.9611
   606.3000      8.4652      2.2695     -0.4069     23.0598     92.3639     46.0214
   606.4000      8.4652      2.2672     -0.4013     23.2019     93.9039     46.0840
   606.5000      8.4496      2.2733     -0.3810     22.8274     91.8520     46.1404
   606.6000      8.4496      2.2773     -0.3316     22.5900     88.4363     46.1831
   606.7000      8.4496      2.2775     -0.4564     22.5749     87.2579     46.2063
   606.8000      8.4421      2.2817     -0.3869     22.3214     89.1235     46.2065
   606.9000      8.4421      2.2788     -0.3823     22.5000     90.6452     46.1828
   607.0000      8.4474      2.2670     -0.4184     23.2148     89.3702     46.1374
   607.1000      8.4474      2.2704     -0.4679     23.0036     87.0700     46.0750
   607.2000      8.4474      2.2949     -0.3674     21.5232     86.4797     46.0025
   607.3000      8.4468      2.3143     -0.3862     20.3456     86.1206     45.9273
   607.4000      8.4468      2.3091     -0.3438     20.6609     82.8667     45.8571
   607.5000      8.4557      2.2919     -0.4243     21.7043     78.9979     45.7978
   607.6000      8.4557      2.2868     -0.3901     22.0124     78.6759     45.7536
   607.7000      8.4557      2.2920     -0.3762     21.6994     80.5847     45.7269
