~Version Information
VERS.                      2.0: CWLS Log ASCII Standard - VERSION 2.0
WRAP.                       NO: One line per depth step
~Well Information Block
STRT.FT               595.0000: 
STOP.FT              1508.7500: 
STEP.FT                 0.2500: 
NULL.                -999.2500: 
COMP.          Pioneer Natural Resources: COMPANY
WELL.          Sumatra 34-22 Tr: WELL
FLD.           Purgatoire River: FIELD
LOC.           443' FSL & 2424' FEL--: LOCATION
PROV.                 Colorado: PROVINCE
CNTY.               Las Animas: COUNTRY
SRVC.                Patterson: SERVICE COMPANY
DATE.          Wed Jun 08 23:53:01 2005: LOG DATE
UWI.           05 071 08383 00: UNIQUE WELL ID
~Curve Information Block
DEPT.FT            0 000 00 00: Depth
SN.Ohm-m                      : IEL Short Normal
SP.mV                         : IEL Spontaneous Potential
DIR.Ohm-m                     : IEL Induction Resistivity
GR.GAPI                       : Gamma Ray
~Parameter Information Block
~A  Depth        SN          SP         DIR          GR     
# ...
  1365.5000    682.8896   -528.9651     21.2868    105.6690
  1365.7500    682.8896   -528.9611     22.2907    104.8171
  1366.0000    682.8896   -528.9564     23.3244    102.6787
  1366.2500    682.8896   -528.9513     24.3349    101.0508
  1366.5000    682.8896   -528.9459     25.2521     98.8843
  1366.7500    682.8896   -528.9404     26.0117     97.6829
  1367.0000    682.8896   -528.9351     26.5720     96.0206
  1367.2500    682.8896   -528.9302     26.9163     95.0074
  1367.5000    682.8896   -528.9261     27.0478     94.1636
  1367.7500    682.8896   -528.9231     26.9885     94.4493
  1368.0000    682.8896   -528.9213     26.7804     96.1437
  1368.2500    682.8896   -528.9209     26.4739     97.5051
  1368.5000    682.8896   -528.9221     26.1017     98.4452
  1368.7500    682.8896   -528.9247     25.6557     97.8806
  1369.0000    682.8896   -528.9286     25.0865     95.6396
  1369.2500    682.8896   -528.9336     24.3273     93.8879
  1369.5000    682.8896   -528.9391     23.3281     92.0908
  1369.7500    682.8896   -528.9449     22.0786     92.0208
  1370.0000    682.8896   -528.9502     20.6134     94.2530
  1370.2500    682.8896   -528.9548     19.0062     97.3524
  1370.5000    682.8896   -528.9583     17.3558    103.7885
  1370.7500    682.8896   -528.9606     15.7640    108.7128
  1371.0000    682.8896   -528.9617     14.3104    116.5851
  1371.2500    682.8896   -528.9619     13.0395    122.3696
  1371.5000    682.8896   -528.9614     11.9646    132.3145
  1371.7500    682.8896   -528.9603     11.0791    139.4628
  1372.0000    682.8896   -528.9589     10.3669    148.9887
  1372.2500    682.8896   -528.9574      9.8077    153.1620
  1372.5000    682.8896   -528.9561      9.3800    154.9547
  1372.7500    682.8896   -528.9550      9.0645    153.3734
  1373.0000    682.8896   -528.9543      8.8477    147.9736
  1373.2500    682.8896   -528.9540      8.7235    143.2373
  1373.5000    682.8896   -528.9541      8.6922    136.4845
  1373.7500    682.8896   -528.9546      8.7548    133.4849
  1374.0000    682.8896   -528.9553      8.9076    132.1170
  1374.2500    682.8896   -528.9562      9.1366    132.6026
  1374.5000    682.8896   -528.9571      9.4145    133.1354
  1374.7500    682.8896   -528.9581      9.7032    132.3692
  1375.0000    682.8896   -528.9589      9.9621    129.4380
  1375.2500    682.8896   -528.9598     10.1610    127.0143
  1375.5000    682.8896   -528.9605     10.2887    124.4225
  1375.7500    682.8896   -528.9612     10.3515    124.2825
  1376.0000    682.8896   -528.9619     10.3622    126.9993
  1376.2500    682.8896   -528.9624     10.3284    130.2451
  1376.5000    682.8896   -528.9628     10.2496    135.4390
  1376.7500    682.8896   -528.9630     10.1230    138.1788
  1377.0000    682.8896   -528.9626      9.9530    140.5603
  1377.2500    682.8896   -528.9618      9.7568    141.0470
  1377.5000    682.8896   -528.9603      9.5615    140.5327
  1377.7500    682.8896   -528.9581      9.3966    139.7887
  1378.0000    682.8896   -528.9553      9.2871    139.1238
  1378.2500    682.8896   -528.9520      9.2515    139.5142
  1378.5000    682.8896   -528.9483      9.3036    141.3450
  1378.7500    682.8896   -528.9445      9.4545    142.5965
  1379.0000    682.8896   -528.9407      9.7127    142.2570
  1379.2500    682.8896   -528.9371     10.0826    139.4415
  1379.5000    682.8896   -528.9340     10.5639    131.0434
  1379.7500    682.8896   -528.9316     11.1522    123.5718
  1380.0000    682.8896   -528.9300     11.8398    112.1357
  1380.2500    682.8896   -528.9293     12.6145    105.6949
  1380.5000    682.8896   -528.9296     13.4523     98.7115
  1380.7500    682.8896   -528.9308     14.3061     95.5905
  1381.0000    682.8896   -528.9327     15.0998     92.4599
  1381.2500    682.8896   -528.9351     15.7393     91.2244
  1381.5000    682.8896   -528.9377     16.1434     90.8589
  1381.7500    682.8896   -528.9404     16.2787     91.9074
  1382.0000    682.8896   -528.9429     16.1701     95.9162
  1382.2500    682.8896   -528.9451     15.8821    100.2316
  1382.5000    682.8896   -528.9468     15.4902    108.4694
  1382.7500    682.8896   -528.9476     15.0632    114.4407
  1383.0000    682.8896   -528.9475     14.6568    122.7625
  1383.2500    682.8896   -528.9464     14.3123    127.0220
  1383.5000    682.8896   -528.9444     14.0564    130.0314
  1383.7500    682.8896   -528.9415     13.9018    129.3368
  1384.0000    682.8896   -528.9382     13.8517    124.8685
  1384.2500    682.8896   -528.9347     13.9017    120.6469
  1384.5000    682.8896   -528.9313     14.0388    114.2515
  1384.7500    682.8896   -528.9282     14.2367    110.5231
  1385.0000    682.8896   -528.9256     14.4526    105.9908
  1385.2500    682.8896   -528.9235     14.6317    103.7133
  1385.5000    682.8896   -528.9219     14.7183    101.5732
  1385.7500    682.8896   -528.9208     14.6721    101.1798
  1386.0000    682.8896   -528.9200     14.4797    102.6821
  1386.2500    682.8896   -528.9197     14.1565    105.4516
  1386.5000    682.8896   -528.9197     13.7378    112.3302
  1386.7500    682.8896   -528.9200     13.2652    118.1092
  1387.0000    682.8896   -528.9206     12.7761    126.5459
  1387.2500    682.8896   -528.9214     12.2993    130.8372
  1387.5000    682.8896   -528.9224     11.8564    134.3860
  1387.7500    682.8896   -528.9233     11.4640    135.1255
  1388.0000    682.8896   -528.9241     11.1352    134.8886
  1388.2500    682.8896   -528.9248     10.8793    134.3067
  1388.5000    682.8896   -528.9252     10.7014    133.2782
  1388.7500    682.8896   -528.9254     10.6030    132.7787
  1389.0000    682.8896   -528.9253     10.5825    132.7015
  1389.2500    682.8896   -528.9250     10.6350    133.0435
  1389.5000    682.8896   -528.9244     10.7501    133.5966
  1389.7500    682.8896   -528.9238     10.9105    133.6496
  1390.0000    682.8896   -528.9230     11.0957    132.9418
  1390.2500    682.8896   -528.9220     11.2903    131.8533
  1390.5000    682.8896   -528.9209     11.4944    129.2394
  1390.7500    682.8896   -528.9197     11.7266    127.0795
  1391.0000    682.8896   -528.9186     12.0195    124.1961
  1391.2500    682.8896   -528.9178     12.4079    122.8877
  1391.5000    682.8896   -528.9172     12.9177    120.9945
  1391.7500    682.8896   -528.9173     13.5570    118.5725
  1392.0000    682.8896   -528.9180     14.3123    111.5955
  1392.2500    682.8896   -528.9194     15.1527    104.7594
  1392.5000    682.8896   -528.9213     16.0423     92.8172
  1392.7500    682.8896   -528.9234     16.9575     85.0073
  1393.0000    682.8896   -528.9254     17.9000     75.5735
  1393.2500    682.8896   -528.9270     18.8943     71.7111
  1393.5000    682.8896   -528.9280     19.9711     70.1685
  1393.7500    682.8896   -528.9282     21.1426     71.5586
  1394.0000    682.8896   -528.9276     22.3761     75.3927
  1394.2500    682.8896   -528.9265     23.5741     77.8673
  1394.5000    682.8896   -528.9249     24.5775     80.2830
  1394.7500    682.8896   -528.9233     25.2107     81.1850
  1395.0000    682.8896   -528.9219     25.3572     82.6129
  1395.2500    682.8896   -528.9208     25.0169     84.2489
  1395.5000    682.8896   -528.9203     24.3004     88.1513
  1395.7500    682.8896   -528.9204     23.3728     91.5090
  1396.0000    682.8896   -528.9209     22.3934     96.7037
  1396.2500    682.8896   -528.9216     21.4799     99.6375
  1396.5000    682.8896   -528.9223     20.6969    102.7665
  1396.7500    682.8896   -528.9225     20.0579    104.1443
  1397.0000    682.8896   -528.9223     19.5345    105.4292
  1397.2500    682.8896   -528.9216     19.0688    105.6602
  1397.5000    682.8896   -528.9207     18.5883    104.6229
  1397.7500    682.8896   -528.9199     18.0243    102.9017
  1398.0000    682.8896   -528.9196     17.3323     99.2834
  1398.2500    682.8896   -528.9201     16.5078     96.9043
  1398.5000    682.8896   -528.9215     15.5867     94.8683
  1398.7500    682.8896   -528.9238     14.6270     95.1548
