~Version Information
VERS.                      2.0: CWLS Log ASCII Standard - VERSION 2.0
WRAP.                       NO: One line per depth step
~Well Information Block
STRT.FT               472.0000: 
STOP.FT              2641.5000: 
STEP.FT                 0.1000: 
NULL.                -999.2500: 
COMP.          Pioneer Natural Resources: COMPANY
WELL.              Wagner 13-9: WELL
FLD.           Purgatoire River: FIELD
LOC.           1819' FSL & 1111' FWL: LOCATION
PROV.                 Colorado: PROVINCE
CNTY.               Las Animas: COUNTRY
SRVC.                Patterson: SERVICE COMPANY
DATE.          Tue Apr 19 08:56:38 2005: LOG DATE
UWI.           05 071 08302 00: UNIQUE WELL ID
~Curve Information Block
DEPT.FT            0 000 00 00: Depth
DCAL.in                       : CDL Caliper
RHOB.g/cc                     : CDL Bulk Density
RHOC.g/cc                     : CDL Density Correction
DPOR.pu                       : CDL Density Porosity
GR.GAPI                       : Gamma Ray
NPOR.pu                       : Neutron Porosity
~Parameter Information Block
~A  Depth       DCAL        RHOB        RHOC        DPOR         GR         NPOR    
# ...
  2056.0000      7.8642      2.5988      0.1034      3.1053    103.6361     25.3502
  2056.1000      7.8642      2.5939      0.1003      3.4003     99.8955     24.7151
  2056.2000      7.8642      2.5684      0.0793      4.9479     99.9679     24.3869
  2056.3000      7.8894      2.5447      0.0360      6.3801    103.7728     23.9598
  2056.4000      7.8894      2.5398      0.0730      6.6807    109.1550     23.8530
  2056.5000      7.9277      2.5430      0.0803      6.4849    115.1690     24.5605
  2056.6000      7.9277      2.5395      0.1042      6.6956    120.5680     24.8983
  2056.7000      7.9277      2.5277      0.0812      7.4115    122.7403     24.4184
  2056.8000      7.9595      2.5177      0.0670      8.0169    121.5762     24.2785
  2056.9000      7.9595      2.5123      0.1096      8.3457    119.3384     25.0079
  2057.0000      7.9686      2.4976      0.0950      9.2339    117.6293     26.1718
  2057.1000      7.9686      2.4717      0.0831     10.8090    118.6759     26.9168
  2057.2000      7.9686      2.4609      0.0516     11.4580    121.2806     26.9485
  2057.3000      7.9794      2.4819      0.1432     10.1892    124.8515     26.7786
  2057.4000      7.9794      2.5083      0.1717      8.5888    129.3531     26.7297
  2057.5000      8.0198      2.5177      0.1351      8.0160    131.2494     26.7922
  2057.6000      8.0198      2.5197      0.1045      7.8963    129.7784     26.9560
  2057.7000      8.0198      2.5168      0.1365      8.0725    126.4616     27.3061
  2057.8000      8.0506      2.4999      0.0752      9.0942    125.5171     27.9635
  2057.9000      8.0506      2.4817      0.0751     10.2015    129.5943     28.5182
  2058.0000      8.0681      2.4773      0.1159     10.4647    134.1824     28.5622
  2058.1000      8.0681      2.4750      0.1475     10.6084    134.8148     28.3651
  2058.2000      8.0681      2.4611      0.1401     11.4514    130.5060     28.1221
  2058.3000      8.1370      2.4484      0.1045     12.2165    126.3624     27.6685
  2058.4000      8.1370      2.4561      0.0869     11.7512    128.6592     27.3669
  2058.5000      8.2522      2.4827      0.1242     10.1410    134.0104     27.8612
  2058.6000      8.2522      2.5227      0.0886      7.7156    134.7260     28.5881
  2058.7000      8.2522      2.5781      0.1589      4.3597    129.5149     28.5797
  2058.8000      8.2855      2.6338      0.2350      0.9842    119.5333     28.2085
  2058.9000      8.2855      2.6632      0.2566     -0.7988    107.2190     28.1369
  2059.0000      8.1804      2.6546      0.2524     -0.2759     96.8979     27.9721
  2059.1000      8.1804      2.6207      0.2048      1.7787     91.2141     27.4542
  2059.2000      8.1804      2.5868      0.1460      3.8311     92.7733     27.0159
  2059.3000      8.0255      2.5627      0.1404      5.2916     98.8402     26.5984
  2059.4000      8.0255      2.5388      0.0984      6.7387     98.4542     25.9191
  2059.5000      7.9303      2.5130      0.0652      8.3007     91.0667     25.1191
  2059.6000      7.9303      2.4934      0.0303      9.4904     87.7430     24.2995
  2059.7000      7.9303      2.4918     -0.0188      9.5866     89.4726     23.6330
  2059.8000      7.8988      2.5149      0.0220      8.1896     90.5408     23.7665
  2059.9000      7.8988      2.5455      0.0717      6.3328     90.4916     24.6657
  2060.0000      7.8774      2.5625      0.0974      5.3046     90.5777     25.0937
  2060.1000      7.8774      2.5671      0.1041      5.0223     91.2529     24.7469
  2060.2000      7.8774      2.5687      0.1113      4.9290     92.7869     24.4808
  2060.3000      7.8279      2.5678      0.1116      4.9831     94.4946     24.4805
  2060.4000      7.8279      2.5678      0.1169      4.9806     93.8636     24.6640
  2060.5000      7.7642      2.5780      0.1328      4.3650     91.0246     24.9102
  2060.6000      7.7642      2.6033      0.1203      2.8289     90.7876     24.4833
  2060.7000      7.7642      2.6376      0.1276      0.7540     92.9617     23.4704
  2060.8000      7.7345      2.6620      0.2026     -0.7290     90.9120     23.0312
  2060.9000      7.7345      2.6656      0.1597     -0.9425     86.0238     23.0354
  2061.0000      7.7387      2.6603      0.1711     -0.6254     83.8403     22.5235
  2061.1000      7.7387      2.6584      0.1623     -0.5067     82.7988     21.9003
  2061.2000      7.7387      2.6578      0.1563     -0.4752     79.0524     21.9854
  2061.3000      7.7531      2.6587      0.0985     -0.5299     72.5479     22.4752
  2061.4000      7.7531      2.6663      0.0621     -0.9885     66.5938     22.6977
  2061.5000      7.7702      2.6742      0.1209     -1.4695     63.8021     22.7282
  2061.6000      7.7702      2.6673      0.1116     -1.0480     63.7153     23.0113
  2061.7000      7.7702      2.6434      0.1093      0.3976     64.0100     23.5145
  2061.8000      7.7860      2.6149      0.0558      2.1288     62.1322     23.6437
  2061.9000      7.7860      2.5944      0.0625      3.3671     58.8214     22.8542
  2062.0000      7.7970      2.5810      0.0433      4.1799     56.8211     21.8435
  2062.1000      7.7970      2.5684      0.0223      4.9446     55.2040     21.7913
  2062.2000      7.7970      2.5625      0.0117      5.3060     53.7194     22.1217
  2062.3000      7.7991      2.5745      0.0255      4.5731     53.6816     21.5549
  2062.4000      7.7991      2.6025      0.0498      2.8763     53.2695     20.5594
  2062.5000      7.7828      2.6344      0.1241      0.9452     51.2131     20.1616
  2062.6000      7.7828      2.6603      0.1241     -0.6215     50.5313     20.3403
  2062.7000      7.7828      2.6682      0.0923     -1.1045     53.2821     20.8413
  2062.8000      7.7529      2.6497      0.1053      0.0184     58.7330     21.2754
  2062.9000      7.7529      2.6179      0.0474      1.9465     64.8904     21.4279
  2063.0000      7.7354      2.5957      0.0886      3.2911     67.4696     22.1410
  2063.1000      7.7354      2.5858      0.0718      3.8913     63.6190     23.8157
  2063.2000      7.7354      2.5764      0.1149      4.4592     57.7519     25.2966
  2063.3000      7.7400      2.5632      0.0586      5.2592     56.4929     25.3170
  2063.4000      7.7400      2.5522      0.0399      5.9291     58.8836     23.6403
  2063.5000      7.7622      2.5449      0.0572      6.3705     59.6362     20.9710
  2063.6000      7.7622      2.5403      0.0160      6.6512     58.4297     18.8195
  2063.7000      7.7622      2.5436      0.0382      6.4505     58.0236     18.0522
  2063.8000      7.7837      2.5621      0.0184      5.3262     59.0020     17.9444
  2063.9000      7.7837      2.5946      0.0834      3.3579     60.6745     17.3590
  2064.0000      7.7792      2.6207      0.1192      1.7764     61.1454     16.9007
  2064.1000      7.7792      2.6237      0.1106      1.5962     59.6404     17.5789
  2064.2000      7.7792      2.6147      0.0657      2.1385     57.2831     18.7309
  2064.3000      7.7573      2.6103      0.1082      2.4062     54.3150     19.0135
  2064.4000      7.7573      2.6057      0.1068      2.6872     54.5522     18.7546
  2064.5000      7.7534      2.5924      0.0593      3.4896     59.3306     18.7847
  2064.6000      7.7534      2.5775      0.0374      4.3937     60.6375     18.6741
  2064.7000      7.7534      2.5668      0.0507      5.0421     57.4259     18.2936
  2064.8000      7.7777      2.5619      0.0141      5.3416     57.9842     18.2832
  2064.9000      7.7777      2.5658      0.0557      5.1055     63.9788     18.8979
  2065.0000      7.7871      2.5773      0.0336      4.4065     68.5851     20.0453
  2065.1000      7.7871      2.5938      0.1039      3.4047     67.3981     20.8575
  2065.2000      7.7871      2.6023      0.0848      2.8906     62.9820     20.8246
  2065.3000      7.7700      2.5838      0.1185      4.0092     60.4718     21.1341
  2065.4000      7.7700      2.5435      0.0240      6.4532     61.6863     22.0939
  2065.5000      7.7528      2.5109      0.0343      8.4279     63.7862     22.3120
