~Version Information
VERS.                      2.0: CWLS Log ASCII Standard - VERSION 2.0
WRAP.                       NO: One line per depth step
~Well Information Block
STRT.FT                -7.5000: 
STOP.FT              1877.2500: 
STEP.FT                 0.2500: 
NULL.                -999.2500: 
COMP.          Pioneer Natural Resources: COMPANY
WELL.            Nova 11-14 Tr: WELL
FLD.           Purgatorie River: FIELD
LOC.           706' FNL & 1109' FWL--: LOCATION
PROV.                       CO: PROVINCE
CNTY.               Las Animas: COUNTRY
SRVC.          Patterson Wireline: SERVICE COMPANY
DATE.          Tue Jul 26 15:08:01 2005: LOG DATE
UWI.           05 071 08434 00: UNIQUE WELL ID
~Curve Information Block
DEPT.FT            0 000 00 00: Depth
CCL.                          : Casing Collar Locator
TT3.usec                      : CBL 3' Travel Time
AMP3.mV                       : CBL 3' Amplitude
GR.GAPI                       : Gamma Ray
~Parameter Information Block
~A  Depth       CCL         TT3         AMP3         GR     
# ...
   729.5000      0.0000    523.8890     11.7972     89.4716
   729.7500      0.0000    579.5159     11.7711     91.0389
   730.0000      0.0000    658.1814     11.7445     91.8779
   730.2500      0.0000    742.1904     11.7216     91.3665
   730.5000      0.0000    805.8077     11.6978     90.2164
   730.7500      0.0000    831.8737     11.6668     89.5193
   731.0000      0.0000    822.1861     11.6264     89.7314
   731.2500      0.0000    794.3267     11.5805     90.6702
   731.5000      0.0000    771.1772     11.5385     92.1748
   731.7500      0.0000    769.5291     11.5119     94.5063
   732.0000      0.0000    791.0233     11.5085     97.9511
   732.2500      0.0000    822.2097     11.5228    102.0311
   732.5000      0.0000    846.6476     11.5362    105.3158
   732.7500      0.0000    857.9832     11.5294    106.2852
   733.0000      0.0000    861.0507     11.4993    104.4430
   733.2500      0.0000    863.1898     11.4624    100.3868
   733.5000      0.0000    867.1428     11.4402     94.9415
   733.7500      0.0000    870.7742     11.4412     88.7243
   734.0000      0.0000    870.6798     11.4579     82.7050
   734.2500      0.0000    865.0003     11.4788     78.5760
   734.5000      0.0000    853.5789     11.4982     77.7348
   734.7500      0.0000    837.3547     11.5143     79.7789
   735.0000      0.0000    818.7336     11.5229     82.5803
   735.2500      0.0000    801.5359     11.5190     84.1653
   735.5000      0.0000    788.9885     11.5020     84.2244
   735.7500      0.0000    781.8124     11.4779     83.6880
   736.0000      0.0000    778.6125     11.4534     83.5092
   736.2500      0.0000    777.6365     11.4329     84.3279
   736.5000      0.0000    778.0546     11.4196     86.6983
   736.7500      0.0000    780.5563     11.4165     90.7811
   737.0000      0.0000    787.7817     11.4220     95.7229
   737.2500      0.0000    803.9622     11.4227     99.7656
   737.5000      0.0000    832.0421     11.3910    101.2322
   737.7500      0.0000    869.1895     11.2917     99.4928
   738.0000      0.0000    906.1160     11.0956     95.3038
   738.2500      0.0000    933.3153     10.8094     90.3447
   738.5000      0.0000    947.7390     10.4928     86.0684
   738.7500      0.0000    952.6539     10.2157     82.9210
   739.0000      0.0000    953.9794      9.9725     80.7638
   739.2500      0.0000    957.7023      9.6802     79.4575
   739.5000      0.0000    965.6831      9.2990     78.4801
   739.7500      0.0000    972.0369      8.9117     76.6819
   740.0000      0.0000    968.6889      8.6436     73.4339
   740.2500      0.0000    955.7782      8.5410     69.6813
   740.5000     -2.0000    941.9264      8.5575     67.1494
   740.7500      2.0000    933.8607      8.6260     66.6905
   741.0000      0.0000    929.9650      8.7308     67.6320
   741.2500      0.0000    924.1183      8.9333     68.4389
   741.5000      0.0000    912.4431      9.3278     67.7630
   741.7500      0.0000    895.9322      9.9337     65.0025
   742.0000      0.0000    878.6500     10.6357     60.3207
   742.2500      0.0000    864.2905     11.2644     54.6185
   742.5000      0.0000    853.7283     11.7173     49.4568
   742.7500      0.0000    844.9962     11.9789     46.5189
   743.0000      0.0000    835.3400     12.0716     46.7286
   743.2500      0.0000    823.6328     12.0342     49.7024
   743.5000      0.0000    811.1874     11.9218     53.9794
   743.7500      0.0000    800.2069     11.7878     57.8596
   744.0000      0.0000    791.6953     11.6648     60.2771
   744.2500      0.0000    785.2585     11.5661     61.1758
   744.5000      0.0000    780.4026     11.4986     61.2047
   744.7500      0.0000    777.1263     11.4628     61.0059
   745.0000      0.0000    775.3765     11.4463     60.7428
   745.2500      0.0000    774.6501     11.4251     60.3185
   745.5000      0.0000    774.2935     11.3819     59.8378
   745.7500      0.0000    773.9368     11.3226     59.5002
   746.0000      0.0000    773.5566     11.2704     59.0639
   746.2500      0.0000    773.2465     11.2425     57.9797
   746.5000      0.0000    773.0199     11.2345     56.3518
   746.7500      0.0000    772.8198     11.2313     55.2654
   747.0000      0.0000    772.6287     11.2308     55.6570
   747.2500      0.0000    772.4916     11.2483     57.1714
   747.5000      0.0000    772.4401     11.2970     58.6749
   747.7500      0.0000    772.4399     11.3656     59.6944
   748.0000      0.0000    772.4348     11.4212     60.6874
   748.2500      0.0000    772.4257     11.4371     61.9165
   748.5000      0.0000    772.4849     11.4190     62.9492
   748.7500      0.0000    772.6921     11.3991     63.7084
   749.0000      0.0000    773.0582     11.4020     65.2393
   749.2500      0.0000    773.5084     11.4195     68.5677
   749.5000      0.0000    773.9288     11.4223     73.1494
   749.7500      0.0000    774.2244     11.3909     77.3107
   750.0000      0.0000    774.3432     11.3296     80.2668
   750.2500      0.0000    774.2778     11.2551     83.1230
   750.5000      0.0000    774.0686     11.1796     87.5955
   750.7500      0.0000    773.7943     11.1082     94.0303
   751.0000      0.0000    773.5341     11.0454    100.9047
   751.2500      0.0000    773.3292     10.9966    106.0852
   751.5000      0.0000    773.1787     10.9653    108.3372
   751.7500      0.0000    773.0679     10.9510    107.6395
   752.0000      0.0000    772.9891     10.9511    104.2932
   752.2500      0.0000    772.9296     10.9638     98.0799
   752.5000      0.0000    772.8469     10.9916     88.6002
   752.7500      0.0000    772.6802     11.0423     76.4786
   753.0000      0.0000    772.4056     11.1239     63.8067
   753.2500      0.0000    772.0751     11.2316     52.9632
   753.5000      0.0000    771.7966     11.3407     45.2732
   753.7500      0.0000    771.6651     11.4167     41.0265
   754.0000      0.0000    771.7037     11.4382     40.1953
   754.2500      0.0000    771.8657     11.4092     42.5803
   754.5000      0.0000    772.1552     11.3510     47.5130
   754.7500      0.0000    772.8433     11.2822     53.9320
   755.0000      0.0000    774.6548     11.2096     60.8573
   755.2500      0.0000    778.6786     11.1317     67.6460
   755.5000      0.0000    785.7469     11.0465     73.5789
   755.7500      0.0000    795.7436     10.9550     77.4455
   756.0000      0.0000    807.9635     10.8582     78.1907
   756.2500      0.0000    822.2353     10.7491     76.1087
   756.5000      0.0000    838.5899     10.6145     72.8973
   756.7500      0.0000    854.9934     10.4540     70.3043
   757.0000      0.0000    866.6412     10.2956     68.8581
   757.2500      0.0000    868.9318     10.1751     67.8150
   757.5000      0.0000    860.8768     10.0986     66.1650
   757.7500      0.0000    845.0021     10.0368     63.6779
   758.0000      0.0000    824.8093      9.9602     61.0394
   758.2500      0.0000    803.3449      9.8755     59.1544
   758.5000      0.0000    783.0049      9.8276     58.5863
   758.7500      0.0000    763.8643      9.8702     59.6684
   759.0000      0.0000    741.3633     10.0340     62.7390
   759.2500      0.0000    708.1937     10.3104     67.8998
   759.5000      0.0000    661.3476     10.6570     74.4339
   759.7500      0.0000    607.1727     11.0211     80.6690
   760.0000      0.0000    557.0948     11.3636     84.7251
   760.2500      0.0000    517.7064     11.6652     85.6766
   760.5000      0.0000    486.6427     11.9165     84.0883
   760.7500      0.0000    458.1769     12.1106     81.3472
   761.0000      0.0000    430.4748     12.2480     78.4674
   761.2500      0.0000    406.1523     12.3446     75.6368
   761.5000      0.0000    387.6394     12.4270     72.7953
   761.7500      0.0000    374.2461     12.5151     70.2745
   762.0000      0.0000    363.6436     12.6091     68.7843
   762.2500      0.0000    354.5414     12.6936     69.0267
   762.5000      0.0000    347.2365     12.7572     71.2744
   762.7500      0.0000    342.2956     12.8055     75.0065
