~Version Information
VERS.                      2.0: CWLS Log ASCII Standard - VERSION 2.0
WRAP.                       NO: One line per depth step
~Well Information Block
STRT.FT               510.5000: 
STOP.FT              2075.5000: 
STEP.FT                 0.1000: 
NULL.                -999.2500: 
COMP.          Petrogulf Corporation: COMPANY
WELL.          Robinson 15-11V: WELL
FLD.           Purgatorie River: FIELD
LOC.           226' FNL & 592' FWL: LOCATION
CNTY.               Las Animas: COUNTY
SRVC.                         : SERVICE COMPANY
DATE.          Wed Aug 04 06:17:53 2004: LOG DATE
UWI.           05 071 08027 00: UNIQUE WELL ID
STAT.                 Colorado: STATE
~Curve Information Block
DEPT.FT            0 000 00 00: Depth
DCAL.in                       : CDL Caliper
RHOB.g/cc                     : CDL Bulk Density
RHOC.g/cc                     : CDL Density Correction
DPOR.pu                       : CDL Density Porosity
GR.GAPI                       : Gamma Ray
NPOR.pu                       : Neutron Porosity
~Parameter Information Block
~A  Depth       DCAL        RHOB        RHOC        DPOR         GR         NPOR    
# ...
   827.3000      7.9094      2.5676      0.0194      4.9938    140.6254     26.6562
   827.4000      7.9094      2.5583     -0.0301      5.5578    138.4069     27.2907
   827.5000      7.9013      2.5511     -0.0037      5.9914    139.7603     27.4460
   827.6000      7.9013      2.5517     -0.0149      5.9571    140.5335     27.3670
   827.7000      7.9013      2.5586      0.0096      5.5414    136.7676     27.4157
   827.8000      7.9023      2.5629      0.1094      5.2775    131.1785     27.6008
   827.9000      7.9023      2.5541      0.1092      5.8092    130.9221     27.7418
   828.0000      7.9031      2.5434      0.0504      6.4600    138.4096     27.7082
   828.1000      7.9031      2.5465      0.0929      6.2702    147.0135     27.6219
   828.2000      7.9031      2.5500      0.0900      6.0588    152.6654     27.8336
   828.3000      7.9020      2.5380      0.0559      6.7885    154.0095     28.2762
   828.4000      7.9020      2.5214      0.0798      7.7935    145.7269     28.4601
   828.5000      7.8933      2.5196      0.0610      7.9027    130.5568     28.1775
   828.6000      7.8933      2.5346      0.1159      6.9941    121.0264     27.6929
   828.7000      7.8933      2.5512      0.1245      5.9855    121.8605     27.3137
   828.8000      7.8741      2.5610      0.1292      5.3946    127.0786     27.0568
   828.9000      7.8741      2.5646      0.1119      5.1767    129.6707     26.8351
   829.0000      7.8735      2.5637      0.0556      5.2286    127.2283     26.7711
   829.1000      7.8735      2.5669      0.0517      5.0381    125.2537     26.8480
   829.2000      7.8735      2.5791      0.0794      4.2966    130.0014     26.7829
   829.3000      7.8744      2.5884      0.1380      3.7327    139.0200     26.5578
   829.4000      7.8744      2.5787      0.1208      4.3194    145.2623     26.4817
   829.5000      7.8734      2.5509      0.0983      6.0061    147.4143     26.5651
   829.6000      7.8734      2.5261      0.0744      7.5095    148.6338     26.5510
   829.7000      7.8734      2.5250      0.0825      7.5750    150.2720     26.4049
   829.8000      7.8705      2.5436      0.0907      6.4493    151.5929     26.2830
   829.9000      7.8705      2.5604      0.1398      5.4296    153.2452     26.1846
   830.0000      7.8698      2.5673      0.1086      5.0126    157.8684     25.9263
   830.1000      7.8698      2.5766      0.1054      4.4506    161.7459     25.3998
   830.2000      7.8698      2.5913      0.1324      3.5589    158.1387     24.6896
   830.3000      7.8751      2.6026      0.0973      2.8711    149.9023     24.0554
   830.4000      7.8751      2.6159      0.1192      2.0665    140.2260     23.6485
   830.5000      7.8704      2.6350      0.1538      0.9085    130.1343     23.2830
   830.6000      7.8704      2.6501      0.1374     -0.0070    122.8435     22.7900
   830.7000      7.8704      2.6588      0.1336     -0.5359    117.9708     22.1893
   830.8000      7.8699      2.6622      0.1640     -0.7372    115.3914     21.5566
   830.9000      7.8699      2.6538      0.1442     -0.2299    115.6311     20.9358
   831.0000      7.9039      2.6365      0.0900      0.8179    113.6968     20.2798
   831.1000      7.9039      2.6196      0.0894      1.8438    107.8696     19.6821
   831.2000      7.9039      2.6084      0.0657      2.5226    102.0085     19.2782
   831.3000      7.9269      2.6021      0.0700      2.9029     93.0413     19.0701
   831.4000      7.9269      2.5961      0.0602      3.2645     78.2662     18.8472
   831.5000      7.9319      2.5894      0.0823      3.6719     64.6680     18.5087
   831.6000      7.9319      2.5753      0.0970      4.5289     56.7959     18.2926
   831.7000      7.9319      2.5486      0.0211      6.1463     50.6571     18.3370
   831.8000      7.9306      2.5198      0.0421      7.8887     45.0930     18.4019
   831.9000      7.9306      2.5069      0.0124      8.6752     43.2063     18.2511
   832.0000      7.9228      2.5200      0.0413      7.8797     43.9226     18.0974
   832.1000      7.9228      2.5444      0.0864      6.4022     45.3585     18.1882
   832.2000      7.9228      2.5593      0.0681      5.4976     47.0459     18.2780
   832.3000      7.8686      2.5747      0.0211      4.5646     46.3753     17.9413
   832.4000      7.8686      2.6089      0.0888      2.4925     41.7800     17.3298
   832.5000      7.8570      2.6424      0.1776      0.4592     36.1046     16.9869
   832.6000      7.8570      2.6435      0.1492      0.3969     32.2034     17.0606
   832.7000      7.8570      2.6111      0.1629      2.3557     30.4997     17.2091
   832.8000      7.8609      2.5573      0.1587      5.6180     30.2670     17.2068
   832.9000      7.8609      2.4946      0.0958      9.4208     30.5520     17.0964
   833.0000      7.8615      2.4445      0.0330     12.4527     31.4608     16.8663
   833.1000      7.8615      2.4285      0.0129     13.4229     32.5664     16.6167
   833.2000      7.8615      2.4424      0.0705     12.5832     32.5929     16.5240
   833.3000      7.8615      2.4605      0.1417     11.4851     30.9496     16.4340
   833.4000      7.8615      2.4746      0.1708     10.6294     27.9924     16.2970
   833.5000      7.8612      2.4955      0.2093      9.3616     25.3556     16.4146
   833.6000      7.8612      2.5212      0.2545      7.8034     24.6653     16.7280
   833.7000      7.8612      2.5378      0.2303      6.8011     25.4965     16.8558
   833.8000      7.8731      2.5471      0.1729      6.2388     27.6268     16.7316
   833.9000      7.8731      2.5666      0.1779      5.0554     31.6778     16.5548
   834.0000      7.9500      2.6000      0.2330      3.0316     35.4991     16.6939
   834.1000      7.9500      2.6388      0.2050      0.6799     36.6181     17.3241
   834.2000      7.9500      2.6815      0.2999     -1.9094     36.6124     17.9343
   834.3000      7.9196      2.7178      0.3450     -4.1074     37.5339     18.0924
   834.4000      7.9196      2.7321      0.2575     -4.9754     39.0923     18.1043
   834.5000      7.8955      2.7241      0.2346     -4.4936     39.7026     18.2124
   834.6000      7.8955      2.7070      0.1615     -3.4521     38.8873     18.1739
   834.7000      7.8955      2.6990      0.1205     -2.9713     39.1316     17.8154
   834.8000      7.8982      2.7007      0.1657     -3.0732     39.6703     17.3127
   834.9000      7.8982      2.6975      0.1401     -2.8760     37.4082     16.9838
   835.0000      7.9237      2.6876      0.1128     -2.2768     33.1030     16.8966
   835.1000      7.9237      2.6704      0.1399     -1.2345     28.3111     17.0383
   835.2000      7.9237      2.6438      0.0784      0.3774     25.3850     17.2888
   835.3000      7.9286      2.6199      0.0692      1.8213     26.7805     17.3956
   835.4000      7.9286      2.6068      0.0684      2.6166     30.2828     17.5778
   835.5000      7.9361      2.5948      0.0882      3.3429     31.6828     18.0154
   835.6000      7.9361      2.5775      0.0707      4.3925     30.8965     18.4056
   835.7000      7.9361      2.5615      0.0862      5.3653     29.2464     18.7138
   835.8000      7.9255      2.5477      0.1055      6.1979     26.8485     19.3280
   835.9000      7.9255      2.5329      0.0877      7.0940     25.6334     20.2901
   836.0000      7.8980      2.5238      0.0877      7.6510     27.4581     21.1817
   836.1000      7.8980      2.5282      0.0768      7.3798     29.8868     21.9280
   836.2000      7.8980      2.5455      0.1160      6.3308     29.5847     22.6471
   836.3000      7.9231      2.5741      0.0986      4.5972     26.6525     23.3016
   836.4000      7.9231      2.6177      0.1124      1.9560     23.5019     23.7626
   836.5000      7.9650      2.6690      0.1718     -1.1492     24.2484     23.8145
   836.6000      7.9650      2.7059      0.2516     -3.3867     30.0632     23.6240
   836.7000      7.9650      2.7144      0.1607     -3.9015     36.0590     23.5488
   836.8000      7.9742      2.7093      0.1368     -3.5937     38.1335     23.6046
