~Version Information
 VERS.                                  2.0 : CWLS LAS VERSION
 WRAP.                                   NO : WRAPING MODE
 SWARE .                 MController 2.5.0E : SOFTWARE VERSION
~Well Information
 WELL.                          Enzo 43-8TR : WELL
 COMP.        Pioneer Natural Resources Inc : COMPANY
 FLD.                      Purgatorie River : FIELD
 LOC.                 NE/SE Sec 8 T32S R66W : LOCATION
 DATE.                             10/29/04 : DATE(S) LOGGED
 SRVC.       Blanco Geological Services LLC : SERVICE COMPANY
 STAT.                                   CO : STATE
 CNTY.                           Las Animas : COUNTY
 CTRY.                                  USA : COUNTRY
 API.                       05-071-08213-00 : API NUMBER
 STRT.FT                             562.00 : START DEPTH
 STOP.FT                            2170.00 : STOP DEPTH
 STEP.FT                               1.00 : DEPTH INCREMENT
 NULL.                                -9999 : NULL VALUE
~Curve information
 DEPTH.FT                                   :
 ROP.MIN/FT                                 :
 GAS.UNITS                                  :
~ASCII Log data
# ...
     1962.00        0.300         18.9 
     1963.00        0.300         19.1 
     1964.00        0.267         19.3 
     1965.00        0.367         19.4 
     1966.00        0.333         20.2 
     1967.00        0.250         19.6 
     1968.00        0.267         20.2 
     1969.00        0.267         19.7 
     1970.00        0.433         18.1 
     1971.00        0.267         15.2 
     1972.00        0.300         15.4 
     1973.00        0.333         14.0 
     1974.00        0.433         13.1 
     1975.00        0.367         14.2 
     1976.00        3.650         82.0 
     1977.00        0.350         57.7 
     1978.00        0.267         48.4 
     1979.00        0.367         43.0 
     1980.00        0.367         35.9 
     1981.00        0.400         30.3 
     1982.00        0.333         26.9 
     1983.00        0.367         23.8 
     1984.00        0.367         22.5 
     1985.00        0.300         20.6 
     1986.00        0.300         20.4 
     1987.00        0.317         20.7 
     1988.00        0.300         20.8 
     1989.00        0.400         20.7 
     1990.00        0.300         20.0 
     1991.00        0.433         19.5 
     1992.00        0.267         17.1 
     1993.00        0.300         15.8 
     1994.00        0.433         13.7 
     1995.00        0.400         14.2 
     1996.00        0.383         14.5 
     1997.00        0.333         14.7 
     1998.00        0.367         15.4 
     1999.00        0.333         15.7 
     2000.00        0.300         16.0 
     2001.00        0.400         15.9 
     2002.00        0.367         15.6 
     2003.00        0.500         16.0 
     2004.00        0.567         17.8 
     2005.00        0.417         18.4 
     2006.00        5.950        237.5 
     2007.00        0.417        141.7 
     2008.00        0.267         87.4 
     2009.00        0.433         63.3 
     2010.00        0.400         42.1 
     2011.00        0.400         34.9 
     2012.00        0.267         30.5 
     2013.00        0.267         28.5 
     2014.00        0.400         25.0 
     2015.00        0.300         22.7 
     2016.00        0.367         21.2 
     2017.00        0.450         19.7 
     2018.00        0.200         18.5 
     2019.00        0.400         17.9 
     2020.00        0.233         17.8 
     2021.00        0.367         19.1 
     2022.00        0.333         21.2 
     2023.00        0.333         23.7 
     2024.00        0.267         24.3 
     2025.00        0.367         24.1 
     2026.00        0.367         22.3 
     2027.00        0.350         19.7 
     2028.00        0.400         17.1 
     2029.00        0.400         14.6 
     2030.00        0.367         13.4 
     2031.00        0.400         13.0 
     2032.00        0.333         13.4 
     2033.00        0.367         13.9 
     2034.00        0.300         14.0 
     2035.00        0.400         15.3 
     2036.00       12.500         32.4 
     2037.00        7.033         86.1 
     2038.00        0.333         31.1 
     2039.00        0.350         30.2 
     2040.00        0.233         29.6 
     2041.00        0.267         29.1 
     2042.00        0.233         28.3 
     2043.00        0.200         27.2 
     2044.00        0.167         26.4 
     2045.00        0.167         25.5 
     2046.00        0.233         24.6 
     2047.00        0.333         23.2 
     2048.00        0.267         23.2 
     2049.00        0.200         23.4 
     2050.00        0.200         25.0 
     2051.00        0.167         26.1 
     2052.00        0.167         26.8 
     2053.00        0.167         27.1 
     2054.00        0.200         28.4 
     2055.00        0.183         29.7 
     2056.00        0.300         33.4 
     2057.00        0.333         33.7 
     2058.00        0.300         31.9 
     2059.00        0.267         28.5 
     2060.00        0.300         25.4 
     2061.00        0.333         20.6 
     2062.00        0.233         16.7 
     2063.00        0.267         14.1 
     2064.00        0.200         12.2 
     2065.00        0.200         11.3 
     2066.00        4.267         44.7 
     2067.00        0.267         42.1 
     2068.00        0.267         41.2 
     2069.00        0.233         39.1 
     2070.00        0.333         36.9 
     2071.00        0.400         32.9 
     2072.00        0.533         30.6 
     2073.00        0.433         27.7 
     2074.00        0.450         24.5 
     2075.00        0.267         23.1 
     2076.00        0.333         22.5 
     2077.00        0.333         20.8 
     2078.00        0.300         20.2 
     2079.00        0.233         19.0 
     2080.00        0.233         18.6 
     2081.00        0.233         18.4 
     2082.00        0.233         17.8 
     2083.00        0.233         17.8 
     2084.00        0.267         18.0 
     2085.00        0.233         17.7 
     2086.00        0.233         19.5 
     2087.00        0.350         20.5 
     2088.00        0.333         20.6 
     2089.00        0.300         20.8 
     2090.00        0.300         19.8 
     2091.00        0.300         18.8 
     2092.00        0.300         16.7 
     2093.00        0.300         15.1 
     2094.00        0.233         12.9 
     2095.00        0.267         11.7 
     2096.00        4.167         44.3 
     2097.00        0.367         44.5 
     2098.00        0.300         43.1 
     2099.00        0.333         40.5 
     2100.00        0.367         20.8 
     2101.00        0.367         29.8 
     2102.00        0.267         29.0 
     2103.00        0.300         25.6 
     2104.00        0.300         17.5 
     2105.00        0.267         12.4 
     2106.00        0.233         14.6 
     2107.00        0.250         17.1 
     2108.00        0.267         18.0 
     2109.00        0.233         19.9 
     2110.00        0.233         19.9 
     2111.00        0.267         20.8 
     2112.00        0.267         21.0 
     2113.00        0.233         21.6 
     2114.00        0.300         21.5 
     2115.00        0.267         21.9 
     2116.00        0.233         22.5 
     2117.00        0.267         22.6 
     2118.00        0.300         22.5 
     2119.00        0.267         21.8 
     2120.00        0.283         20.1 
     2121.00        0.300         19.4 
     2122.00        0.300         17.4 
     2123.00        0.300         15.5 
     2124.00        0.300         13.3 
     2125.00        0.267         12.5 
     2126.00        5.083         49.9 
     2127.00        0.317         43.2 
     2128.00        0.300         40.3 
     2129.00        0.300         36.8 
     2130.00        0.367         34.9 
     2131.00        0.267         34.3 
     2132.00        0.267         33.3 
     2133.00        0.300         32.3 
     2134.00        0.267         30.5 
     2135.00        0.267         29.0 
     2136.00        0.233         27.5 
     2137.00        0.200         26.3 
     2138.00        0.200         25.0 
     2139.00        0.250         24.2 
     2140.00        0.233         24.5 
     2141.00        0.233         25.7 
     2142.00        0.233         26.8 
     2143.00        0.233         27.6 
     2144.00        0.200         27.5 
     2145.00        0.233         27.4 
     2146.00        0.167         25.6 
     2147.00        0.200         24.5 
     2148.00        0.200         23.5 
     2149.00        0.233         22.1 
     2150.00        0.200         20.1 
     2151.00        0.267         17.6 
     2152.00        0.233         14.9 
     2153.00        0.200         13.9 
     2154.00        0.217         13.4 
     2155.00        0.133         12.6 
     2156.00       12.883        454.7 
     2157.00        0.350         30.2 
     2158.00        0.333         29.5 
     2159.00        0.267         27.9 
     2160.00        0.233         27.0 
     2161.00        0.233         26.7 
