~Version Information
VERS.                      2.0: CWLS Log ASCII Standard - VERSION 2.0
WRAP.                       NO: One line per depth step
~Well Information Block
STRT.FT               -13.5000: 
STOP.FT              2474.2500: 
STEP.FT                 0.2500: 
NULL.                -999.2500: 
COMP.          Pioneer Natural Resources: COMPANY
WELL.              Tiaga 23-14: WELL
FLD.           Purgatorie River: FIELD
LOC.           2168' FSL & 2030' FWL--: LOCATION
PROV.                       CO: PROVINCE
CNTY.               Las Animas: COUNTRY
SRVC.                         : SERVICE COMPANY
DATE.          Thu May 12 17:01:37 2005: LOG DATE
UWI.                          : UNIQUE WELL ID
~Curve Information Block
DEPT.FT            0 000 00 00: Depth
TT3.usec                      : CBL 3' Travel Time
AMP3.mV                       : CBL 3' Amplitude
GR.GAPI                       : Gamma Ray
CCL.                          : Casing Collar Locator
~Parameter Information Block
~A  Depth       TT3         AMP3         GR         CCL     
# ...
  1125.5000    677.9824     12.4933     92.5914      0.0000
  1125.7500    710.3920     12.5778     93.5910      0.0000
  1126.0000    760.8221     12.6857     93.1187      0.0000
  1126.2500    798.9905     12.7366     92.8330      0.0000
  1126.5000    792.6394     12.7044     93.3061      0.0000
  1126.7500    746.7537     12.6024     94.3040      0.0000
  1127.0000    695.7583     12.4481     95.5474      0.0000
  1127.2500    663.7533     12.2423     96.6581      0.0000
  1127.5000    651.2399     11.9977     96.7742      0.0000
  1127.7500    647.5142     11.7734     94.7245      0.0000
  1128.0000    644.0222     11.6421     89.8343      0.0000
  1128.2500    639.7142     11.6291     82.8234      0.0000
  1128.5000    636.7157     11.6829     75.8688      0.0000
  1128.7500    635.4869     11.6935     71.3640      0.0000
  1129.0000    635.5262     11.5653     70.4510      0.0000
  1129.2500    637.0445     11.3067     72.5433      0.0000
  1129.5000    641.2903     11.0415     75.6451      0.0000
  1129.7500    650.5649     10.9021     77.1575      0.0000
  1130.0000    668.7375     10.9211     75.4691      0.0000
  1130.2500    700.1584     11.0391     71.4427      0.0000
  1130.5000    742.4925     11.1878     67.9066      0.0000
  1130.7500    783.4191     11.3311     67.1539      0.0000
  1131.0000    812.3544     11.4378     68.9577      0.0000
  1131.2500    828.1764     11.4608     71.0930      0.0000
  1131.5000    830.1348     11.3810     71.4398      0.0000
  1131.7500    813.5686     11.2696     69.4202      0.0000
  1132.0000    781.3777     11.2711     65.8954      0.0000
  1132.2500    750.0580     11.4988     62.2678      0.0000
  1132.5000    737.7116     11.9712     59.7170      0.0000
  1132.7500    748.2711     12.6239     58.8327      0.0000
  1133.0000    769.9553     13.3137     59.6066      0.0000
  1133.2500    789.9985     13.8755     61.7016      0.0000
  1133.5000    804.7590     14.2490     64.8095      0.0000
  1133.7500    814.5545     14.4728     68.8669      0.0000
  1134.0000    819.5018     14.5469     73.9526      0.0000
  1134.2500    820.8106     14.4316     79.8355      0.0000
  1134.5000    819.7503     14.1657     85.5494      0.0000
  1134.7500    816.1725     13.8526     89.5991      0.0000
  1135.0000    810.8575     13.5581     90.7823      0.0000
  1135.2500    807.9080     13.3092     88.8384      0.0000
  1135.5000    810.3468     13.1444     84.3952      0.0000
  1135.7500    815.4595     13.0774     78.6241      0.0000
  1136.0000    819.1340     13.0413     73.0186      0.0000
  1136.2500    820.6004     12.9608     69.1098      0.0000
  1136.5000    820.9559     12.8330     68.0507      0.0000
  1136.7500    821.0287     12.6776     70.3510      0.0000
  1137.0000    821.1686     12.5048     75.8125      0.0000
  1137.2500    821.5045     12.3656     83.5683      0.0000
  1137.5000    822.0609     12.3541     92.2219      0.0000
  1137.7500    822.7165     12.5411    100.1180      0.0000
  1138.0000    823.1517     12.9127    105.8936      0.0000
  1138.2500    822.7072     13.3638    109.2878      0.0000
  1138.5000    819.5132     13.7525    111.3534      0.0000
  1138.7500    809.1741     13.9797    113.3449      0.0000
  1139.0000    787.7996     14.0168    115.3005      0.0000
  1139.2500    762.5446     13.8616    116.0549      0.0000
  1139.5000    751.6370     13.5187    114.5879      0.0000
  1139.7500    759.3158     13.0536    111.1198      0.0000
  1140.0000    766.2084     12.5963    107.1035      0.0000
  1140.2500    762.4858     12.2624    104.4381      0.0000
  1140.5000    763.7433     12.1203    104.3356      0.0000
  1140.7500    779.8380     12.0524    106.3325      0.0000
  1141.0000    802.5524     11.6659    108.3797      0.0000
  1141.2500    827.4267     10.8640    108.4118      0.0000
  1141.5000    851.7696     10.2351    106.0667      0.0000
  1141.7500    866.0243     10.2577    102.8316      0.0000
  1142.0000    871.7888     10.6764    100.6521      0.0000
  1142.2500    882.8823     11.0073    100.4450      0.0000
  1142.5000    901.5850     11.0940    101.6580     -2.0000
  1142.7500    916.8725     11.0279    103.0553      2.0000
  1143.0000    922.1036     10.9265    103.8497      2.0000
  1143.2500    920.1539     10.9074    103.9460      0.0000
  1143.5000    915.3153     11.0075    103.2934      0.0000
  1143.7500    906.7893     11.0530    101.6858      0.0000
  1144.0000    889.8942     10.9919     99.4201      0.0000
  1144.2500    865.4978     11.2116     97.4701      0.0000
  1144.5000    843.1548     11.9559     96.5420      0.0000
  1144.7500    828.8032     12.8801     96.3923      0.0000
  1145.0000    815.8807     13.5479     96.2761      0.0000
  1145.2500    790.0656     13.8548     95.5348      0.0000
  1145.5000    744.8563     13.9012     93.7001      0.0000
  1145.7500    700.2697     13.8075     90.7818      0.0000
  1146.0000    689.1401     13.7085     87.7042      0.0000
  1146.2500    710.5425     13.7555     85.8610      0.0000
  1146.5000    729.7393     13.9958     86.0408      0.0000
  1146.7500    731.1167     14.2899     88.0219      0.0000
  1147.0000    730.1886     14.4361     90.8447      0.0000
  1147.2500    742.9540     14.4149     93.1835      0.0000
  1147.5000    769.8351     14.4215     94.0095      0.0000
  1147.7500    797.6012     14.5754     93.2170      0.0000
  1148.0000    814.4544     14.7574     91.2797      0.0000
  1148.2500    820.8333     14.8193     88.5857      0.0000
  1148.5000    822.4429     14.7589     85.7959      0.0000
  1148.7500    822.4617     14.6461     84.3566      0.0000
  1149.0000    821.1918     14.5517     85.6035      0.0000
  1149.2500    817.7282     14.5396     89.3929      0.0000
  1149.5000    811.9897     14.5992     94.2903      0.0000
  1149.7500    805.8761     14.6575     99.0524      0.0000
  1150.0000    801.0910     14.7267    103.4271      0.0000
  1150.2500    797.9153     14.8940    107.5760      0.0000
  1150.5000    796.5477     15.1259    111.3097      0.0000
  1150.7500    796.1483     15.2659    113.9587      0.0000
  1151.0000    795.9252     15.2340    114.6134      0.0000
  1151.2500    797.4265     15.0871    112.6552      0.0000
  1151.5000    801.5443     14.9331    108.5639      0.0000
  1151.7500    807.3218     14.8312    104.0645      0.0000
  1152.0000    813.8210     14.7523    100.9511      0.0000
  1152.2500    819.4291     14.6641     99.7658      0.0000
  1152.5000    822.4103     14.6101     99.9181      0.0000
  1152.7500    822.2837     14.6574    100.9259      0.0000
  1153.0000    818.4175     14.7901    103.1346      0.0000
  1153.2500    808.9319     14.9112    107.1663      0.0000
  1153.5000    792.5856     14.9435    112.7661      0.0000
  1153.7500    773.8233     14.8548    118.1950      0.0000
  1154.0000    764.9377     14.6328    120.9817      0.0000
  1154.2500    773.4994     14.3294    119.6202      0.0000
  1154.5000    790.4225     14.0765    114.7347      0.0000
  1154.7500    800.1038     14.0028    108.7069      0.0000
  1155.0000    793.6534     14.1419    104.2635      0.0000
  1155.2500    775.7870     14.3905    103.1888      0.0000
  1155.5000    766.1047     14.5656    105.7151      0.0000
  1155.7500    778.3295     14.5393    110.5723      0.0000
  1156.0000    802.8863     14.3121    115.6892      0.0000
  1156.2500    825.4628     13.9755    119.2992      0.0000
  1156.5000    843.3950     13.6202    120.6905      0.0000
  1156.7500    854.7022     13.2770    119.9219      0.0000
  1157.0000    852.2134     12.9387    116.9999      0.0000
  1157.2500    835.2371     12.6132    111.7558      0.0000
  1157.5000    816.4056     12.3331    104.6560      0.0000
  1157.7500    811.3616     12.1025     97.3149      0.0000
  1158.0000    820.4643     11.8670     91.7123      0.0000
  1158.2500    826.9347     11.5866     88.8221      0.0000
  1158.5000    819.6125     11.3185     88.1029      0.0000
  1158.7500    807.7715     11.1906     88.2969      0.0000
