~Version Information
VERS.                      2.0: CWLS Log ASCII Standard - VERSION 2.0
WRAP.                       NO: One line per depth step
~Well Information Block
STRT.FT               650.0000: 
STOP.FT              2087.0000: 
STEP.FT                 0.2500: 
NULL.                -999.2500: 
COMP.          Pioneer Natural Resources: COMPANY
WELL.           Galloway 32-13: WELL
FLD.           Purgatoire River: FIELD
LOC.           1809' FNL & 2004' FEL: LOCATION
PROV.                 Colorado: PROVINCE
CNTY.               Las Animas: COUNTRY
SRVC.                Patterson: SERVICE COMPANY
DATE.          Fri Jul 08 15:50:04 2005: LOG DATE
UWI.           05 071 08423 00: UNIQUE WELL ID
~Curve Information Block
DEPT.FT            0 000 00 00: Depth
SN.Ohm-m                      : IEL Short Normal
SP.mV                         : IEL Spontaneous Potential
DIR.Ohm-m                     : IEL Induction Resistivity
GR.GAPI                       : Gamma Ray
~Parameter Information Block
~A  Depth        SN          SP         DIR          GR     
   650.0000   2000.0000   2000.0000      5.6882     62.0055
   650.2500   2000.0000   2000.0000      5.6744     65.0431
   650.5000   2000.0000   2000.0000      5.6516     72.1569
   650.7500   2000.0000   2000.0000      5.6196     78.0142
   651.0000   2000.0000   2000.0000      5.5810     87.3038
   651.2500   2000.0000   2000.0000      5.5387     93.1926
   651.5000   2000.0000   2000.0000      5.4959    100.3068
   651.7500   2000.0000   2000.0000      5.4556    103.1111
   652.0000   2000.0000   2000.0000      5.4230    103.8124
   652.2500   2000.0000   2000.0000      5.4046    102.5277
   652.5000   2000.0000   2000.0000      5.4057    100.2965
   652.7500   2000.0000   2000.0000      5.4254     99.9186
   653.0000   2000.0000   2000.0000      5.4551    101.6386
   653.2500   2000.0000   2000.0000      5.4804    103.5341
   653.5000   2000.0000   2000.0000      5.4893    105.3671
   653.7500   2000.0000   2000.0000      5.4794    105.1581
   654.0000   2000.0000   2000.0000      5.4599    103.1742
   654.2500   2000.0000   2000.0000      5.4451    101.6811
   654.5000   2000.0000   2000.0000      5.4455    100.3495
   654.7500   2000.0000   2000.0000      5.4622     99.9924
   655.0000   2000.0000   2000.0000      5.4854     99.3943
   655.2500   2000.0000   2000.0000      5.4994     98.6942
   655.5000   2000.0000   2000.0000      5.4910     97.7071
   655.7500   2000.0000   2000.0000      5.4579     97.6877
   656.0000   2000.0000   2000.0000      5.4102     99.1523
   656.2500   2000.0000   2000.0000      5.3657    100.7917
   656.5000   2000.0000   2000.0000      5.3421    102.9214
   656.7500   2000.0000   2000.0000      5.3516    103.6045
   657.0000   2000.0000   2000.0000      5.3981    104.0190
   657.2500   2000.0000   2000.0000      5.4748    104.6389
   657.5000   2000.0000   2000.0000      5.5646    106.5529
   657.7500   2000.0000   2000.0000      5.6451    107.8934
   658.0000   2000.0000   2000.0000      5.6986    108.4189
   658.2500   2000.0000   2000.0000      5.7198    107.2379
   658.5000   2000.0000   2000.0000      5.7159    103.3729
   658.7500   2000.0000   2000.0000      5.7011     99.9553
   659.0000   2000.0000   2000.0000      5.6956     94.5435
   659.2500   2000.0000   2000.0000      5.7283     91.0357
   659.5000   2000.0000   2000.0000      5.8366     86.0286
   659.7500   2000.0000   2000.0000      6.0568     77.4907
   660.0000   2000.0000   2000.0000      6.4023     74.6092
   660.2500   2000.0000   2000.0000      6.8361     74.2508
   660.5000   2000.0000   2000.0000      7.2549     76.8825
   660.7500   2000.0000   2000.0000      7.5271     75.0734
   661.0000   2000.0000   2000.0000      7.5897     83.3040
   661.2500   2000.0000   2000.0000      7.5055     90.0936
   661.5000   2000.0000   2000.0000      7.4164    100.7639
   661.7500   2000.0000   2000.0000      7.4763     98.8570
   662.0000   2000.0000   2000.0000      7.8609    105.1447
   662.2500   2000.0000   2000.0000      8.8870    107.5122
   662.5000   2000.0000   2000.0000     11.4012    109.0517
   662.7500   2000.0000   2000.0000     18.8119    109.1705
   663.0000   2000.0000   2000.0000     74.0375    107.8573
   663.2500   2000.0000   2000.0000 100000.0000    105.6332
   663.5000   2000.0000   2000.0000 100000.0000    100.3667
   663.7500   2000.0000   2000.0000 100000.0000     96.3830
   664.0000   2000.0000   2000.0000 100000.0000     92.1801
   664.2500   2000.0000   2000.0000 100000.0000     92.2857
   664.5000   2000.0000   2000.0000 100000.0000     99.1064
   664.7500   2000.0000   2000.0000 100000.0000    108.1417
   665.0000   2000.0000   2000.0000 100000.0000    125.2608
   665.2500   2000.0000   2000.0000 100000.0000    135.9956
   665.5000   2000.0000   2000.0000 100000.0000    146.9680
   665.7500   2000.0000   2000.0000 100000.0000    150.3839
   666.0000   2000.0000   2000.0000 100000.0000    151.5189
   666.2500   2000.0000   2000.0000 100000.0000    150.9798
   666.5000   2000.0000   2000.0000 100000.0000    149.5184
   666.7500   2000.0000   2000.0000     10.2584    148.3477
   667.0000   2000.0000   2000.0000      4.5614    146.6186
   667.2500   2000.0000   2000.0000      3.2380    145.7770
   667.5000   2000.0000   2000.0000      2.8920    145.2541
   667.7500   2000.0000   2000.0000      2.9898    145.2026
   668.0000   2000.0000   2000.0000      3.4039    144.9836
   668.2500   2000.0000   2000.0000      4.1434    144.6832
   668.5000   2000.0000   2000.0000      5.3641    144.5315
   668.7500   2000.0000   2000.0000      7.5352    144.9508
   669.0000   2000.0000   2000.0000     11.8891    146.3477
   669.2500   2000.0000   2000.0000     21.3148    147.5227
   669.5000   2000.0000   2000.0000     37.0652    149.2292
   669.7500   2000.0000   2000.0000     38.7550    150.1928
   670.0000   2000.0000   2000.0000     25.3835    151.1365
   670.2500   2000.0000   2000.0000     16.6957    151.2343
   670.5000   2000.0000   2000.0000     12.6260    150.4267
   670.7500   2000.0000   2000.0000     10.8007    149.4861
   671.0000   2000.0000   2000.0000     10.0495    148.4917
   671.2500   2000.0000   2000.0000      9.8208    148.7498
   671.5000   2000.0000   2000.0000      9.8356    150.9529
   671.7500   2000.0000   2000.0000      9.9590    153.4003
   672.0000   2000.0000   2000.0000     10.1452    157.8835
   672.2500   2000.0000   2000.0000     10.4080    161.1272
   672.5000   2000.0000   2000.0000     10.8070    165.8152
   672.7500   2000.0000   2000.0000     11.4287    168.2978
   673.0000   2000.0000   2000.0000     12.3519    170.0579
   673.2500   2000.0000   2000.0000     13.5873    169.4931
   673.5000   2000.0000   2000.0000     15.0070    165.8190
   673.7500   2000.0000   2000.0000     16.3371    161.7870
   674.0000   2000.0000   2000.0000     17.2997    154.4373
   674.2500   2000.0000   2000.0000     17.8135    149.2508
   674.5000   2000.0000   2000.0000     18.0051    141.7165
   674.7500   2000.0000   2000.0000     18.0376    137.2492
   675.0000   2000.0000   2000.0000     17.9882    131.7430
   675.2500   2000.0000   2000.0000     17.8678    128.4767
   675.5000   2000.0000   2000.0000     17.7073    123.0210
   675.7500   2000.0000   2000.0000     17.6098    118.9573
   676.0000   2000.0000   2000.0000     17.7285    113.6695
   676.2500   2000.0000   2000.0000     18.2075    111.5999
   676.5000   2000.0000   2000.0000     19.1352    110.8458
   676.7500   2000.0000   2000.0000     20.5146    111.2351
   677.0000   2000.0000   2000.0000     22.2375    111.7729
   677.2500   2000.0000   2000.0000     24.0743    111.5112
   677.5000   2000.0000   2000.0000     25.7289    109.5667
   677.7500   2000.0000   2000.0000     26.9743    107.1642
   678.0000   2000.0000   2000.0000     27.7729    102.5150
   678.2500   2000.0000   2000.0000     28.2572     99.3127
   678.5000   2000.0000   2000.0000     28.5906     95.0046
   678.7500   2000.0000   2000.0000     28.8404     92.5452
   679.0000   2000.0000   2000.0000     28.9524     89.7239
   679.2500   2000.0000   2000.0000     28.8373     88.7605
   679.5000   2000.0000   2000.0000     28.4972     89.0618
   679.7500   2000.0000   2000.0000     28.0727     90.2996
   680.0000   2000.0000   2000.0000     27.7483     93.1621
   680.2500   2000.0000   2000.0000     27.6061     95.4103
   680.5000   2000.0000   2000.0000     27.5546     98.7477
   680.7500   2000.0000   2000.0000     27.3734    100.6440
   681.0000   2000.0000   2000.0000     26.8503    102.7083
   681.2500   2000.0000   2000.0000     25.9176    103.7238
   681.5000   2000.0000   2000.0000     24.6739    105.6335
   681.7500   2000.0000   2000.0000     23.2941    107.8511
   682.0000   2000.0000   2000.0000     21.9312    113.4051
   682.2500   2000.0000   2000.0000     20.6799    118.5862
   682.5000   2000.0000   2000.0000     19.5875    127.5431
   682.7500   2000.0000   2000.0000     18.6738    133.3117
   683.0000   2000.0000   2000.0000     17.9391    140.3878
   683.2500   2000.0000   2000.0000     17.3620    144.1055
