~Version Information
 VERS.                                  2.0 : CWLS LAS VERSION
 WRAP.                                   NO : WRAPING MODE
 SWARE .                 MController 2.5.0J : SOFTWARE VERSION
~Well Information
 WELL.                          Silva 6-22V : WELL
 COMP.                       Petrogulf Corp : COMPANY
 FLD.                      Purgatoire River : FIELD
 LOC.                 SE/NW Sec 6 T33S R67W : LOCATION
 DATE.                            11/7-9/04 : DATE(S) LOGGED
 SRVC.       Blanco Geological Services LLC : SERVICE COMPANY
 STAT.                                   CO : STATE
 CNTY.                           Las Animas : COUNTY
 CTRY.                                  USA : COUNTRY
 API.                       05-071-08143-00 : API NUMBER
 STRT.FT                              35.00 : START DEPTH
 STOP.FT                            2732.00 : STOP DEPTH
 STEP.FT                               1.00 : DEPTH INCREMENT
 NULL.                                -9999 : NULL VALUE
~Curve information
 DEPTH.FT                                   :
 ROP.MIN/FT                                 :
 GAS.UNITS                                  :
~ASCII Log data
# ...
      1835.0         0.23        484.0 
      1836.0         0.27        481.7 
      1837.0         0.23        479.8 
      1838.0         0.23        475.5 
      1839.0         0.30        467.0 
      1840.0         0.23        463.7 
      1841.0         0.27        462.1 
      1842.0         0.20        463.7 
      1843.0         0.27        469.6 
      1844.0         0.32        473.2 
      1845.0         0.27        477.1 
      1846.0         0.27        479.8 
      1847.0         0.27        478.8 
      1848.0         0.43        480.4 
      1849.0         0.47        481.7 
      1850.0         0.50        481.4 
      1851.0         0.50        480.7 
      1852.0         0.53        489.2 
      1853.0         0.75        489.6 
      1854.0         0.33        486.6 
      1855.0         0.43        845.8 
      1856.0         0.47        530.5 
      1857.0         0.70        493.5 
      1858.0         0.30        496.8 
      1859.0         0.45        496.1 
      1860.0         0.53        492.5 
      1861.0         0.40        485.6 
      1862.0         0.53        482.0 
      1863.0         0.63        476.2 
      1864.0         0.67        474.2 
      1865.0         0.88        474.2 
      1866.0         0.33        475.5 
      1867.0         0.23        474.8 
      1868.0         0.27        475.2 
      1869.0         0.30        475.2 
      1870.0         0.27        474.2 
      1871.0         0.23        472.6 
      1872.0         0.27        472.6 
      1873.0         0.27        470.6 
      1874.0         0.27        472.2 
      1875.0         0.27        469.9 
      1876.0         0.28        468.3 
      1877.0         0.30        468.3 
      1878.0         0.33        468.3 
      1879.0         0.27        468.3 
      1880.0         0.27        468.6 
      1881.0         0.23        667.2 
      1882.0         0.27        475.2 
      1883.0         0.20        475.2 
      1884.0         0.27        468.6 
      1885.0         0.27        464.4 
      1886.0         0.23        468.6 
      1887.0         0.23        471.9 
      1888.0         0.22        474.8 
      1889.0         0.27        474.8 
      1890.0         0.37        473.2 
      1891.0         0.27        469.9 
      1892.0         0.37        464.7 
      1893.0         0.40        459.8 
      1894.0         0.47        459.5 
      1895.0         0.57        453.6 
      1896.0         0.70        451.9 
      1897.0         0.78        453.9 
      1898.0         0.37        453.6 
      1899.0         0.27        453.6 
      1900.0         0.23        453.6 
      1901.0         0.27        451.9 
      1902.0         0.30        449.3 
      1903.0         0.27        451.9 
      1904.0         0.33        450.3 
      1905.0         0.27        448.0 
      1906.0         0.23        448.4 
      1907.0         0.28        448.0 
      1908.0         0.30        448.7 
      1909.0         0.43        447.4 
      1910.0         0.40        446.4 
      1911.0         0.37        445.4 
      1912.0         0.37        445.1 
      1913.0         0.37        445.1 
      1914.0         0.33        905.4 
      1915.0         0.37        472.2 
      1916.0         0.38        468.6 
      1917.0         0.33        448.0 
      1918.0         0.37        446.7 
      1919.0         0.40        453.6 
      1920.0         0.50        453.9 
      1921.0         0.27        451.3 
      1922.0         0.33        449.3 
      1923.0         0.35        448.7 
      1924.0         0.40        446.4 
      1925.0         0.50        443.8 
      1926.0         0.50        445.1 
      1927.0         0.50        445.7 
      1928.0         0.53        447.7 
      1929.0         0.53        447.0 
      1930.0         0.55        446.4 
      1931.0         0.57        447.0 
      1932.0         0.50        445.4 
      1933.0         0.50        444.8 
      1934.0         0.50        444.8 
      1935.0         0.50        444.8 
      1936.0         0.50        444.4 
      1937.0         0.55        442.8 
      1938.0         0.57        443.8 
      1939.0         0.63        442.8 
      1940.0         0.67        445.1 
      1941.0         0.60        444.1 
      1942.0         0.82        444.1 
      1943.0         0.43        833.4 
      1944.0         0.33        440.0 
      1945.0         0.30        440.5 
      1946.0         0.30        443.1 
      1947.0         0.33        453.3 
      1948.0         0.30        451.9 
      1949.0         0.23        451.9 
      1950.0         0.47        452.6 
      1951.0         0.32        451.9 
      1952.0         0.17        451.9 
      1953.0         0.23        448.7 
      1954.0         0.23        444.8 
      1955.0         0.20        443.8 
      1956.0         0.23        442.5 
      1957.0         0.27        440.0 
      1958.0         0.27        440.0 
      1959.0         0.27        440.0 
      1960.0         0.28        440.2 
      1961.0         0.27        441.2 
      1962.0         0.27        440.0 
      1963.0         0.27        440.0 
      1964.0         0.27        440.2 
      1965.0         0.27        441.2 
      1966.0         0.23        441.2 
      1967.0         0.23        440.0 
      1968.0         0.27        440.8 
      1969.0         0.27        440.8 
      1970.0         0.30        440.0 
      1971.0         0.30         20.0 
      1972.0         0.30        133.6 
      1973.0         0.28         49.1 
      1974.0         0.23         46.4 
      1975.0         0.27         40.2 
      1976.0         0.27         32.6 
      1977.0         0.30         31.0 
      1978.0         0.27         25.3 
      1979.0         0.40         23.9 
      1980.0         0.27         22.3 
      1981.0         0.30         21.3 
      1982.0         0.73         19.9 
      1983.0         0.47         18.3 
      1984.0         0.50         17.4 
      1985.0         0.47         17.3 
      1986.0         0.43         17.7 
      1987.0         0.60         18.5 
      1988.0         0.68         17.8 
      1989.0         0.53         18.0 
      1990.0         0.37         18.4 
      1991.0         0.30         18.1 
      1992.0         0.30         16.4 
      1993.0         0.33         13.7 
      1994.0         0.33         15.0 
      1995.0         0.33         15.7 
      1996.0         0.35         19.8 
      1997.0         0.40         87.7 
      1998.0         0.47         99.0 
      1999.0         0.47         61.1 
      2000.0         0.37         27.2 
      2001.0         0.47         21.7 
      2002.0         0.50         17.9 
      2003.0         0.53         16.4 
      2004.0         0.55         16.4 
      2005.0         0.70        119.5 
      2006.0         0.30         23.0 
      2007.0         0.37         22.1 
      2008.0         0.33         22.2 
      2009.0         0.43         24.1 
      2010.0         0.47         25.6 
      2011.0         0.35         24.0 
      2012.0         0.63         24.0 
      2013.0         0.57         22.8 
      2014.0         0.47         23.5 
      2015.0         0.57         21.0 
      2016.0         0.50         17.7 
      2017.0         0.48         17.6 
      2018.0         0.50         18.4 
      2019.0         0.50         19.4 
      2020.0         0.47         19.2 
      2021.0         0.50         20.1 
      2022.0         0.50         20.2 
      2023.0         0.57         22.3 
      2024.0         0.32         22.9 
      2025.0         0.30         23.0 
      2026.0         0.30         23.4 
      2027.0         0.33         22.5 
      2028.0         0.33         21.7 
      2029.0         0.33         22.2 
      2030.0         0.37         20.9 
      2031.0         0.37         21.7 
      2032.0         0.33        199.6 
      2033.0         0.33         50.9 
      2034.0         0.30         48.2 
