~Version Information
VERS.                      2.0: CWLS Log ASCII Standard - VERSION 2.0
WRAP.                       NO: One line per depth step
~Well Information Block
STRT.FT                15.0000: 
STOP.FT              2265.2500: 
STEP.FT                 0.2500: 
NULL.                -999.2500: 
COMP.          Pioneer Natural Resources: COMPANY
WELL.             Vector 33-23: WELL
FLD.           Purgatoire River: FIELD
LOC.           1988' FSL & 1560' FEL: LOCATION
PROV.                 Colorado: PROVINCE
CNTY.               Las Animas: COUNTRY
SRVC.                Patterson: SERVICE COMPANY
DATE.          Fri Apr 01 13:14:24 2005: LOG DATE
UWI.           05 071 08336 00: UNIQUE WELL ID
~Curve Information Block
DEPT.FT            0 000 00 00: Depth
GR.GAPI                       : Gamma Ray
CCL.                          : Casing Collar Locator
TT3.usec                      : CBL 3' Travel Time
AMP3.mV                       : CBL 3' Amplitude
AMP5.mV                       : CBL 5' Amplitude
~Parameter Information Block
~A  Depth        GR         CCL         TT3         AMP3        AMP5    
# ...
  1639.0000     81.1234      0.0000    725.3228     11.3712      1.3742
  1639.2500     83.8689      0.0000    759.1556     11.4308      1.3864
  1639.5000     87.2322      0.0000    776.3351     11.4791      1.3924
  1639.7500     90.7631      0.0000    774.3514     11.5157      1.3932
  1640.0000     93.9355      0.0000    750.6510     11.5289      1.3921
  1640.2500     96.3687      0.0000    702.0959     11.5006      1.3933
  1640.5000     98.3583      0.0000    633.1798     11.4255      1.3974
  1640.7500    101.0439      0.0000    562.8669     11.3243      1.4011
  1641.0000    105.7150      0.0000    518.9760     11.2329      1.4000
  1641.2500    112.9155      0.0000    521.5915     11.1735      1.3938
  1641.5000    122.1693      0.0000    569.3853     11.1440      1.3854
  1641.7500    132.0089      0.0000    640.7424     11.1340      1.3770
  1642.0000    140.2063      0.0000    708.4747     11.1407      1.3683
  1642.2500    145.0041      0.0000    755.6158     11.1591      1.3601
  1642.5000    146.7001      0.0000    780.2435     11.1687      1.3553
  1642.7500    147.3512      0.0000    789.1382     11.1451      1.3550
  1643.0000    148.5831      0.0000    789.5266     11.0852      1.3571
  1643.2500    150.3074      0.0000    785.7576     11.0128      1.3579
  1643.5000    151.6586      0.0000    780.3541     10.9550      1.3548
  1643.7500    152.3421      0.0000    775.5621     10.9218      1.3464
  1644.0000    152.6823      0.0000    773.3090     10.9075      1.3329
  1644.2500    153.0101      0.0000    774.3228     10.9056      1.3175
  1644.5000    153.4103      0.0000    777.9340     10.9130      1.3048
  1644.7500    153.7327      0.0000    782.7489     10.9271      1.2968
  1645.0000    153.6313      0.0000    787.4177     10.9437      1.2907
  1645.2500    152.7494      0.0000    791.2399     10.9603      1.2830
  1645.5000    150.9269      0.0000    794.3627     10.9766      1.2742
  1645.7500    148.1789      0.0000    797.1989     10.9882      1.2684
  1646.0000    144.5577      0.0000    799.5349     10.9828      1.2678
  1646.2500    140.0698      0.0000    800.5013     10.9505      1.2700
  1646.5000    134.6964      0.0000    799.6057     10.9028      1.2707
  1646.7500    128.5487      0.0000    797.4786     10.8703      1.2694
  1647.0000    122.2076      0.0000    795.3400     10.8704      1.2690
  1647.2500    117.0489      0.0000    793.9779     10.8850      1.2716
  1647.5000    115.0325      0.0000    793.4290     10.8808      1.2761
  1647.7500    117.4446      0.0000    793.3668     10.8525      1.2796
  1648.0000    123.2769      0.0000    793.4913     10.8311      1.2813
  1648.2500    129.3405      0.0000    793.6307     10.8484      1.2835
  1648.5000    132.7679      0.0000    793.7071     10.9011      1.2891
  1648.7500    133.3105      0.0000    793.7076     10.9532      1.2976
  1649.0000    132.7199      0.0000    793.6635     10.9750      1.3053
  1649.2500    132.2569      0.0000    793.6394     10.9754      1.3098
  1649.5000    131.7030      0.0000    793.7039     10.9885      1.3108
  1649.7500    130.6854      0.0000    793.8767     11.0251      1.3086
  1650.0000    129.8422      0.0000    794.0730     11.0472      1.3040
  1650.2500    129.9959      0.0000    794.1065     11.0047      1.2987
  1650.5000    130.5840      0.0000    793.6342     10.8906      1.2942
  1650.7500    129.5710      0.0000    791.9602     10.7499      1.2892
  1651.0000    125.1371      0.0000    787.7722     10.6339      1.2798
  1651.2500    117.3723      0.0000    779.5944     10.5609      1.2642
  1651.5000    108.4069      0.0000    767.7332     10.5230      1.2448
  1651.7500    101.0405      0.0000    756.2620     10.5135      1.2274
  1652.0000     97.1217      0.0000    751.4581     10.5305      1.2170
  1652.2500     96.7621      0.0000    756.4826     10.5626      1.2154
  1652.5000     98.6425      0.0000    768.2499     10.5853      1.2203
  1652.7500    101.1589      0.0000    780.6808     10.5784      1.2269
  1653.0000    103.6319      0.0000    790.1248     10.5409      1.2303
  1653.2500    106.6116      0.0000    796.8894     10.4868      1.2295
  1653.5000    111.1525      0.0000    802.8270     10.4285      1.2265
  1653.7500    117.6928      0.0000    808.6763     10.3734      1.2235
  1654.0000    125.4199      0.0000    813.4162     10.3345      1.2209
  1654.2500    132.7216      0.0000    815.4594     10.3341      1.2179
  1654.5000    138.3004      0.0000    814.1297     10.3889      1.2144
  1654.7500    141.6630      0.0000    810.1004     10.4925      1.2122
  1655.0000    142.6396      0.0000    804.8286     10.6189      1.2142
  1655.2500    140.9819      0.0000    799.8379     10.7455      1.2217
  1655.5000    136.7677      0.0000    796.1437     10.8693      1.2320
  1655.7500    130.9749      0.0000    793.9769     10.9956      1.2412
  1656.0000    125.2491      0.0000    792.9846     11.1134      1.2484
  1656.2500    120.9407      0.0000    792.6841     11.1926      1.2556
  1656.5000    118.4309      0.0000    792.7443     11.2097      1.2648
  1656.7500    117.1641      0.0000    792.9938     11.1684      1.2760
  1657.0000    115.8793      0.0000    793.3303     11.0909      1.2883
  1657.2500    113.1048      0.0000    793.6660     10.9964      1.2991
  1657.5000    108.2065      0.0000    793.9265     10.8968      1.3036
  1657.7500    101.9999      0.0000    794.0762     10.8050      1.2987
  1658.0000     96.0231      0.0000    794.1218     10.7343      1.2857
  1658.2500     91.2912      0.0000    794.0933     10.6860      1.2683
  1658.5000     87.9543      0.0000    794.0173     10.6453      1.2480
  1658.7500     85.8692      0.0000    793.9041     10.5928      1.2243
  1659.0000     85.0131      0.0000    793.7578     10.5231      1.1990
  1659.2500     85.2126      0.0000    793.5959     10.4484      1.1761
  1659.5000     85.8379      0.0000    793.4567     10.3842      1.1595
  1659.7500     86.1281      0.0000    793.3883     10.3324      1.1500
  1660.0000     85.7328      0.0000    793.4625     10.2830      1.1467
  1660.2500     84.7467      0.0000    793.8177     10.2307      1.1471
  1660.5000     83.4041      0.0000    794.6889     10.1835      1.1488
  1660.7500     82.0037      0.0000    796.3030     10.1530      1.1507
  1661.0000     81.0419      0.0000    798.5459     10.1439      1.1533
  1661.2500     81.0803      0.0000    800.6885     10.1530      1.1570
  1661.5000     82.1987      0.0000    801.8009     10.1704      1.1615
  1661.7500     83.6463      0.0000    801.8508     10.1779      1.1660
  1662.0000     84.2983      0.0000    802.2245     10.1572      1.1689
  1662.2500     83.5761      0.0000    804.6401     10.1018      1.1680
  1662.5000     82.0305      0.0000    809.3204     10.0208      1.1613
  1662.7500     81.1912      0.0000    814.3951      9.9340      1.1492
  1663.0000     82.8076      0.0000    817.4232      9.8634      1.1352
  1663.2500     87.7459      0.0000    817.7386      9.8213      1.1245
  1663.5000     95.2119      0.0000    817.1696      9.8008      1.1198
  1663.7500    103.1441      0.0000    818.1957      9.7853      1.1193
  1664.0000    109.6160      0.0000    821.5187      9.7682      1.1193
  1664.2500    113.8517      0.0000    825.6588      9.7560      1.1181
  1664.5000    115.9013      0.0000    828.5401      9.7542      1.1166
  1664.7500    115.6515      0.0000    828.9457      9.7585      1.1153
  1665.0000    112.5016      0.0000    826.7447      9.7617      1.1144
  1665.2500    106.1259      0.0000    822.4894      9.7625      1.1144
  1665.5000     97.4249      0.0000    816.9944      9.7636      1.1159
  1665.7500     88.3337      0.0000    811.0188      9.7676      1.1192
  1666.0000     80.4042      0.0000    805.2310      9.7755      1.1224
  1666.2500     73.8625      0.0000    800.2852      9.7888      1.1182
  1666.5000     68.3616      0.0000    796.5696      9.8109      1.0922
  1666.7500     64.2806      0.0000    793.6652      9.8369      1.0318
