~Version Information
VERS.                      2.0: CWLS Log ASCII Standard - VERSION 2.0
WRAP.                       NO: One line per depth step
~Well Information Block
STRT.FT                 0.0000: 
STOP.FT              2006.5000: 
STEP.FT                 0.2500: 
NULL.                -999.2500: 
COMP.          Petrogulf Corporation: COMPANY
WELL.           Lavedure 7-44R: WELL
FLD.           Purgatorie River: FIELD
LOC.           946' FSL & 521' FEL: LOCATION
STAT.                 Colorado: State
CNTY.               Las Animas: COUNTY
CTRY. USA : Country
SECT. 7 : Section
TOWN. 33S : Township
RANG. 67W : Range
SRVC.                Patterson: SERVICE COMPANY
DATE.          Thu Nov 10 15:49:38 2005: LOG DATE
API. 05-071-08090       : UNIQUE WELL ID
~Curve Information Block
DEPT.FT            0 000 00 00: Depth
CCL.                          : Casing Collar Locator
TT3.usec                      : CBL 3' Travel Time
AMP3.mV                       : CBL 3' Amplitude
GR.GAPI                       : Gamma Ray
~Parameter Information Block
~A  Depth       CCL         TT3         AMP3         GR     
# ...
   134.0000      0.0000    341.7847     11.6870    105.5322
   134.2500      0.0000    343.6764     12.0346    107.9912
   134.5000      0.0000    342.1277     12.9836    109.2695
   134.7500      0.0000    337.2882     14.0763    110.0187
   135.0000      0.0000    333.4355     14.6252    111.1011
   135.2500      0.0000    332.5418     14.7187    113.1806
   135.5000      0.0000    332.8774     14.7487    116.1877
   135.7500      0.0000    333.0170     14.7113    118.8754
   136.0000      0.0000    332.9044     14.5165    119.2973
   136.2500      0.0000    332.7404     14.2576    116.3623
   136.5000      0.0000    332.5885     14.0582    111.0284
   136.7500      0.0000    332.4812     13.9503    105.5846
   137.0000      0.0000    332.4626     13.9083    101.5921
   137.2500      0.0000    332.5588     13.8854     98.7386
   137.5000      0.0000    332.7701     13.8219     95.7488
   137.7500      0.0000    333.0667     13.6902     92.0729
   138.0000      0.0000    333.4053     13.5149     88.3580
   138.2500      0.0000    333.8001     13.3402     85.3760
   138.5000      0.0000    334.4909     13.2056     82.8451
   138.7500      0.0000    336.3469     13.1290     79.6435
   139.0000      0.0000    341.1247     13.0869     75.2460
   139.2500      0.0000    350.0010     13.0326     70.5653
   139.5000      0.0000    360.9009     12.9483     67.0789
   139.7500      0.0000    369.3067     12.8562     65.4092
   140.0000      0.0000    372.2522     12.7761     65.0497
   140.2500      0.0000    369.1281     12.7112     65.2403
   140.5000      0.0000    360.5439     12.6802     65.7810
   140.7500      0.0000    349.4402     12.7082     67.1129
   141.0000      0.0000    340.3329     12.7730     69.8060
   141.2500      0.0000    335.3595     12.8180     73.9057
   141.5000      0.0000    333.4089     12.8237     78.6945
   141.7500      0.0000    332.7435     12.8188     83.2395
   142.0000      0.0000    332.4942     12.8333     87.2598
   142.2500      0.0000    332.3960     12.8811     91.2356
   142.5000      0.0000    332.3523     12.9683     95.5367
   142.7500      0.0000    332.3050     13.0862     99.7242
   143.0000      0.0000    332.2248     13.2102    102.7722
   143.2500      0.0000    332.1075     13.3181    103.6580
   143.5000      0.0000    331.9803     13.3927    101.9672
   143.7500      0.0000    331.8799     13.4222     98.4467
   144.0000      0.0000    331.8010     13.4145     94.8192
   144.2500      0.0000    331.7005     13.3858     92.5805
   144.5000      0.0000    331.5540     13.3417     91.9854
   144.7500      0.0000    331.3763     13.2864     92.2148
   145.0000      0.0000    331.1985     13.2274     92.2886
   145.2500      0.0000    331.0649     13.1678     91.8577
   145.5000      0.0000    331.0292     13.1136     91.3221
   145.7500      0.0000    331.1154     13.0798     91.2089
   146.0000      0.0000    331.2871     13.0697     91.5002
   146.2500      0.0000    331.4743     13.0582     91.7626
   146.5000      0.0000    331.6230     13.0286     91.8539
   146.7500      0.0000    331.7099     13.0053     92.2985
   147.0000      0.0000    331.7303     13.0206     94.0113
   147.2500      0.0000    331.7004     13.0712     97.6268
   147.5000      0.0000    331.6551     13.1168    102.8995
   147.7500      0.0000    331.6215     13.1094    108.7244
   148.0000      0.0000    331.6035     13.0297    113.7937
   148.2500      0.0000    331.5981     12.9122    117.0704
   148.5000      0.0000    331.6079     12.8288    117.8980
   148.7500      0.0000    331.6280     12.8283    116.4459
   149.0000      0.0000    331.6445     12.8875    114.0464
   149.2500      0.0000    331.6505     12.9315    112.1891
   149.5000      0.0000    331.6521     12.9038    110.9499
   149.7500      0.0000    331.6610     12.8073    108.9840
   150.0000      0.0000    331.6768     12.6878    105.2450
   150.2500      0.0000    331.6766     12.6040    100.2997
   150.5000      0.0000    331.6396     12.5799     95.7418
   150.7500      0.0000    331.5814     12.5704     92.6713
   151.0000      0.0000    331.5340     12.5235     91.1487
   151.2500      0.0000    331.5060     12.4537     90.9231
   151.5000      0.0000    331.4845     12.4115     92.1583
   151.7500      0.0000    331.4571     12.4176     95.2189
   152.0000      0.0000    331.4145     12.4459     99.9606
   152.2500      0.0000    331.3492     12.4591    105.4161
   152.5000      0.0000    331.2668     12.4591    110.1280
   152.7500      0.0000    331.1856     12.4727    112.8124
   153.0000      0.0000    331.1135     12.5009    112.8874
   153.2500      0.0000    331.0437     12.5241    110.6274
   153.5000      0.0000    330.9739     12.5282    106.9306
   153.7500      0.0000    330.9053     12.5041    102.7510
   154.0000      0.0000    330.8391     12.4567     98.6566
   154.2500      0.0000    330.7920     12.4130     94.9534
   154.5000      0.0000    330.7913     12.3863     92.0210
   154.7500      0.0000    330.8438     12.3492     90.3028
   155.0000      0.0000    330.9320     12.2676     90.0254
   155.2500      0.0000    331.0407     12.1273     91.0099
   155.5000      0.0000    331.1691     11.9236     92.7402
   155.7500      0.0000    331.3265     11.6801     94.7123
   156.0000      0.0000    331.5293     11.4624     96.9642
   156.2500      0.0000    331.8151     11.3212    100.1843
   156.5000      0.0000    332.3946     11.2307    104.9032
   156.7500      0.0000    334.0986     11.1168    110.4719
   157.0000      0.0000    338.6425     10.9431    115.1440
   157.2500      0.0000    347.1512     10.7353    117.4192
   157.5000      0.0000    357.6053     10.5308    117.2506
   157.7500      0.0000    365.8704     10.3619    115.8991
   158.0000      0.0000    370.0208     10.2641    114.8076
   158.2500      0.0000    371.3359     10.2372    114.5869
   158.5000      0.0000    371.7043     10.2266    114.8472
   158.7500      0.0000    372.0596     10.1894    114.9522
   159.0000      0.0000    372.5974     10.1435    114.8159
   159.2500      0.0000    373.3753     10.0978    114.5434
   159.5000      0.0000    374.6657     10.0013    113.4248
   159.7500      0.0000    377.2942      9.8354    110.2600
   160.0000      0.0000    382.7868      9.6740    105.0283
   160.2500      0.0000    391.3102      9.5905     99.3890
   160.5000      0.0000    398.4738      9.5833     95.1268
   160.7500      0.0000    398.1896      9.6186     92.8244
   161.0000      0.0000    390.5778      9.6633     92.3500
   161.2500      0.0000    381.9562      9.6644     93.6885
   161.5000      0.0000    376.8281      9.5742     96.5540
   161.7500      0.0000    374.8709      9.4114     99.6434
   162.0000      0.0000    374.1414      9.2376    101.0821
   162.2500      0.0000    373.3784      9.0799     99.7929
   162.5000      0.0000    372.1548      8.9273     96.0994
   162.7500      0.0000    370.6444      8.7821     90.9254
   163.0000      0.0000    369.0958      8.6650     84.9426
   163.2500      0.0000    366.9049      8.5873     78.7357
   163.5000      0.0000    362.3114      8.5309     73.1728
   163.7500      0.0000    354.2490      8.4597     68.9993
   164.0000      0.0000    345.4373      8.3576     66.2676
   164.2500      0.0000    341.7171      8.2379     64.5958
   164.5000      0.0000    346.6990      8.1166     63.8816
   164.7500      0.0000    358.9779      8.0060     64.3789
   165.0000      0.0000    375.4730      7.9196     65.9951
   165.2500      0.0000    393.8286      7.8536     67.7929
   165.5000      0.0000    411.1017      7.7898     68.5122
   165.7500      0.0000    426.1730      7.7263     67.6160
   166.0000      0.0000    440.3492      7.6667     65.7457
   166.2500      0.0000    451.7983      7.6114     64.1569
   166.5000      0.0000    456.7184      7.5796     63.8257
   166.7500      0.0000    453.8227      7.5876     65.0337
   167.0000      0.0000    443.5365      7.6286     67.4781
   167.2500      0.0000    427.5163      7.6984     70.5636
