~Version Information
VERS.                      2.0: CWLS Log ASCII Standard - VERSION 2.0
WRAP.                       NO: One line per depth step
~Well Information Block
STRT.FT               898.0000: 
STOP.FT              2360.0000: 
STEP.FT                 0.2500: 
NULL.                -999.2500: 
COMP.          Pioneer Natural Resources: COMPANY
WELL.             Trimax 44-23: WELL
FLD.           Purgatoire River: FIELD
LOC.           527' FSL & 1064' FEL: LOCATION
PROV.                 Colorado: PROVINCE
CNTY.               Las Animas: COUNTRY
SRVC.                Patterson: SERVICE COMPANY
DATE.          Sun Mar 13 04:57:04 2005: LOG DATE
UWI.           05 071 08326 00: UNIQUE WELL ID
~Curve Information Block
DEPT.FT            0 000 00 00: Depth
SN.Ohm-m                      : IEL Short Normal
SP.mV                         : IEL Spontaneous Potential
DIR.Ohm-m                     : IEL Induction Resistivity
GR.GAPI                       : Gamma Ray
~Parameter Information Block
~A  Depth        SN          SP         DIR          GR     
# ...
  1769.0000     34.3556    -72.7571     24.7886     74.7780
  1769.2500     34.3463    -72.8922     25.4429     75.3787
  1769.5000     34.1955    -73.0620     25.7969     77.1079
  1769.7500     33.9872    -73.2340     25.9037     78.3560
  1770.0000     33.7319    -73.3743     25.8565     79.5456
  1770.2500     33.4192    -73.4679     25.7611     79.4030
  1770.5000     33.0889    -73.5309     25.6977     77.5435
  1770.7500     32.8214    -73.6070     25.6938     75.6169
  1771.0000     32.6744    -73.7491     25.7340     72.9281
  1771.2500     32.6306    -73.9962     25.7958     71.8409
  1771.5000     32.6113    -74.3542     25.8740     71.4683
  1771.7500     32.5569    -74.7896     25.9680     71.7610
  1772.0000     32.4693    -75.2421     26.0532     72.2501
  1772.2500     32.3717    -75.6536     26.0747     72.2766
  1772.5000     32.2693    -75.9942     25.9760     71.7409
  1772.7500     32.1588    -76.2680     25.7326     71.2021
  1773.0000     32.0511    -76.5013     25.3566     70.8350
  1773.2500     31.9637    -76.7271     24.8786     71.3578
  1773.5000     31.8649    -76.9721     24.3251     73.6838
  1773.7500     31.6270    -77.2448     23.7035     75.9946
  1774.0000     31.1031    -77.5304     23.0002     79.5634
  1774.2500     30.2855    -77.7978     22.2005     81.6460
  1774.5000     29.3140    -78.0158     21.3203     84.8608
  1774.7500     28.3275    -78.1683     20.4143     87.6913
  1775.0000     27.3826    -78.2554     19.5474     93.0455
  1775.2500     26.4854    -78.2887     18.7560     96.4941
  1775.5000     25.6245    -78.2886     18.0396     99.6705
  1775.7500     24.7625    -78.2829     17.3829    100.1505
  1776.0000     23.8359    -78.3023     16.7782     99.5933
  1776.2500     22.7963    -78.3742     16.2261     99.4064
  1776.5000     21.6422    -78.5159     15.7208    100.3836
  1776.7500     20.4049    -78.7247     15.2446    101.7407
  1777.0000     19.1272    -78.9642     14.7778    103.8269
  1777.2500     17.8557    -79.1568     14.3142    104.6308
  1777.5000     16.6161    -79.2003     13.8645    104.5755
  1777.7500     15.4024    -79.0076     13.4450    104.1097
  1778.0000     14.2551    -78.5468     13.0648    104.4317
  1778.2500     13.3688    -77.8548     12.7258    106.4432
  1778.5000     13.0163    -77.0190     12.4358    113.0247
  1778.7500     13.2754    -76.1427     12.2167    119.1051
  1779.0000     13.8922    -75.3128     12.0945    127.9173
  1779.2500     14.4981    -74.5777     12.0749    131.9036
  1779.5000     14.8816    -73.9377     12.1290    133.6044
  1779.7500     14.9915    -73.3518     12.2015    131.9227
  1780.0000     14.8169    -72.7596     12.2403    126.0961
  1780.2500     14.3854    -72.1088     12.2234    120.8124
  1780.5000     13.8241    -71.3764     12.1630    112.3652
  1780.7500     13.3655    -70.5775     12.0900    107.2681
  1781.0000     13.2691    -69.7628     12.0356    101.7298
  1781.2500     13.6395    -69.0015     12.0231    100.0518
  1781.5000     14.2966    -68.3552     12.0668    100.9685
  1781.7500     14.9210    -67.8538     12.1723    103.4171
  1782.0000     15.3252    -67.4867     12.3342    107.8646
  1782.2500     15.5315    -67.2138     12.5338    110.0152
  1782.5000     15.6519    -66.9877     12.7400    110.7556
  1782.7500     15.7659    -66.7745     12.9170    109.6739
  1783.0000     15.8718    -66.5612     13.0382    106.5396
  1783.2500     15.9097    -66.3529     13.0999    103.9419
  1783.5000     15.8327    -66.1628     13.1225    100.0567
  1783.7500     15.6603    -66.0029     13.1395     97.9347
  1784.0000     15.4710    -65.8772     13.1798     95.9311
  1784.2500     15.3681    -65.7814     13.2576     95.2371
  1784.5000     15.4386    -65.7101     13.3715     94.2968
  1784.7500     15.6952    -65.6628     13.5120     93.1473
  1785.0000     16.0501    -65.6446     13.6701     89.7854
  1785.2500     16.3911    -65.6576     13.8437     86.1332
  1785.5000     16.6950    -65.6912     14.0373     78.6919
  1785.7500     17.0280    -65.7205     14.2569     73.0486
  1786.0000     17.4497    -65.7160     14.5036     65.0713
  1786.2500     17.9526    -65.6587     14.7761     60.7569
  1786.5000     18.4545    -65.5508     15.0758     56.2226
  1786.7500     18.8408    -65.4170     15.4103     54.4503
  1787.0000     19.0528    -65.2943     15.7874     53.4803
  1787.2500     19.1224    -65.2114     16.2030     53.8211
  1787.5000     19.1132    -65.1715     16.6303     55.2975
  1787.7500     19.0665    -65.1504     17.0168     56.4047
  1788.0000     18.9969    -65.1113     17.2959     57.3604
  1788.2500     18.9210    -65.0228     17.4178     57.2956
  1788.5000     18.8793    -64.8713     17.3828     56.2545
  1788.7500     18.9025    -64.6656     17.2482     55.0252
  1789.0000     18.9735    -64.4317     17.0967     52.3225
  1789.2500     19.0646    -64.2006     16.9931     49.9787
  1789.5000     19.1662    -63.9982     16.9627     46.2236
  1789.7500     19.2650    -63.8411     16.9943     44.0738
  1790.0000     19.3315    -63.7345     17.0544     41.8590
  1790.2500     19.3462    -63.6671     17.1027     40.9760
  1790.5000     19.3280    -63.6163     17.1082     40.2755
  1790.7500     19.3215    -63.5658     17.0634     40.2168
  1791.0000     19.3529    -63.5189     16.9899     40.7621
  1791.2500     19.4088    -63.4928     16.9292     41.3917
  1791.5000     19.4580    -63.5024     16.9269     42.2685
  1791.7500     19.4719    -63.5523     17.0218     42.6342
  1792.0000     19.4287    -63.6424     17.2362     43.0221
  1792.2500     19.3285    -63.7778     17.5651     43.4787
  1792.5000     19.2083    -63.9731     17.9638     44.7060
  1792.7500     19.1213    -64.2467     18.3474     45.5545
  1793.0000     19.0854    -64.6073     18.6176     45.7803
  1793.2500     19.0626    -65.0416     18.7126     44.8548
  1793.5000     19.0329    -65.5127     18.6416     42.2859
  1793.7500     19.0628    -65.9742     18.4739     40.4276
  1794.0000     19.2366    -66.3892     18.2974     38.2803
  1794.2500     19.5695    -66.7460     18.1867     37.3966
  1794.5000     20.0143    -67.0600     18.1939     36.6893
  1794.7500     20.4930    -67.3624     18.3464     36.5180
  1795.0000     20.9272    -67.6858     18.6404     36.6476
  1795.2500     21.2749    -68.0505     19.0304     36.8938
  1795.5000     21.5240    -68.4585     19.4317     37.1873
  1795.7500     21.6760    -68.8931     19.7500     37.2761
  1796.0000     21.7793    -69.3262     19.9281     37.5635
  1796.2500     21.9265    -69.7295     19.9744     38.0498
  1796.5000     22.1484    -70.0848     19.9470     39.1309
  1796.7500     22.3574    -70.3887     19.9092     39.8608
  1797.0000     22.4464    -70.6514     19.8940     40.7009
  1797.2500     22.3960    -70.8916     19.8960     41.0741
  1797.5000     22.2706    -71.1272     19.8870     41.4072
  1797.7500     22.1580    -71.3633     19.8457     41.5019
  1798.0000     22.1173    -71.5841     19.7804     41.5578
  1798.2500     22.1558    -71.7600     19.7268     41.6504
  1798.5000     22.2346    -71.8676     19.7224     41.9704
  1798.7500     22.3022    -71.9040     19.7810     42.2541
  1799.0000     22.3282    -71.8821     19.8866     42.6711
  1799.2500     22.3106    -71.8170     20.0093     42.9193
  1799.5000     22.2679    -71.7192     20.1244     43.1783
  1799.7500     22.2292    -71.5984     20.2223     43.2111
  1800.0000     22.2198    -71.4693     20.3066     43.0598
  1800.2500     22.2455    -71.3506     20.3884     42.9130
  1800.5000     22.2825    -71.2604     20.4808     42.7302
  1800.7500     22.2997    -71.2082     20.5922     42.5811
  1801.0000     22.2991    -71.1894     20.7234     42.0518
  1801.2500     22.3168    -71.1825     20.8673     41.3366
  1801.5000     22.3816    -71.1547     21.0116     39.6726
  1801.7500     22.4952    -71.0764     21.1427     38.3449
  1802.0000     22.6435    -70.9365     21.2447     36.6008
  1802.2500     22.8162    -70.7502     21.2953     35.9525
