~Version Information
VERS.                      2.0: CWLS Log ASCII Standard - VERSION 2.0
WRAP.                       NO: One line per depth step
~Well Information Block
STRT.FT               -10.8000: 
STOP.FT              2238.7000: 
STEP.FT                 0.1000: 
NULL.                -999.2500: 
COMP.          Petrogulf Corporation: COMPANY
WELL.             McLeod 9-42V: WELL
FLD.           Purgatorie River: FIELD
LOC.           1658' FNL & 415' FEL----: LOCATION
CNTY.               Las Animas: COUNTY
SRVC.                         : SERVICE COMPANY
DATE.          Wed Nov 17 12:01:16 2004: LOG DATE
UWI.                          : UNIQUE WELL ID
STAT.                       CO: STATE
~Curve Information Block
DEPT.FT            0 000 00 00: Depth
GR.GAPI                       : Gamma Ray
CCL.                          : Casing Collar Locator
TT3.usec                      : CBL 3' Travel Time
AMP3.mV                       : CBL 3' Amplitude
~Parameter Information Block
~A  Depth        GR         CCL         TT3         AMP3    
# ...
  1476.6000    159.8862      0.0000    692.0206     12.3854
  1476.7000    159.8862      0.0000    692.0206     12.3854
  1476.8000    152.3456      0.0000    722.4529     10.6749
  1476.9000    152.3456      0.0000    722.4529     10.6749
  1477.0000    145.5131      0.0000    737.5168      9.2178
  1477.1000    145.5131      0.0000    737.5168      9.2178
  1477.2000    145.5131      0.0000    737.5168      9.2178
  1477.3000    139.0278      0.0000    740.2371      8.0145
  1477.4000    139.0278      0.0000    740.2371      8.0145
  1477.5000    132.5097      0.0000    735.6093      7.0664
  1477.6000    132.5097      0.0000    735.6093      7.0664
  1477.7000    132.5097      0.0000    735.6093      7.0664
  1477.8000    126.0722      0.0000    726.2534      6.3893
  1477.9000    126.0722      0.0000    726.2534      6.3893
  1478.0000    120.5299      0.0000    711.8494      5.9898
  1478.1000    120.5299      0.0000    711.8494      5.9898
  1478.2000    120.5299      0.0000    711.8494      5.9898
  1478.3000    117.3121      0.0000    692.8629      5.8383
  1478.4000    117.3121      0.0000    692.8629      5.8383
  1478.5000    117.5709      0.0000    675.0666      5.8772
  1478.6000    117.5709      0.0000    675.0666      5.8772
  1478.7000    117.5709      0.0000    675.0666      5.8772
  1478.8000    121.1358      0.0000    667.6473      6.0527
  1478.9000    121.1358      0.0000    667.6473      6.0527
  1479.0000    126.6327      0.0000    674.3403      6.3279
  1479.1000    126.6327      0.0000    674.3403      6.3279
  1479.2000    126.6327      0.0000    674.3403      6.3279
  1479.3000    132.4761      0.0000    687.6647      6.6638
  1479.4000    132.4761      0.0000    687.6647      6.6638
  1479.5000    137.4796      0.0000    694.1721      7.0004
  1479.6000    137.4796      0.0000    694.1721      7.0004
  1479.7000    137.4796      0.0000    694.1721      7.0004
  1479.8000    141.0097      0.0000    685.9125      7.2731
  1479.9000    141.0097      0.0000    685.9125      7.2731
  1480.0000    143.1609      0.0000    667.0530      7.4473
  1480.1000    143.1609      0.0000    667.0530      7.4473
  1480.2000    143.1609      0.0000    667.0530      7.4473
  1480.3000    144.5872      0.0000    650.2067      7.5273
  1480.4000    144.5872      0.0000    650.2067      7.5273
  1480.5000    145.6640      0.0000    646.6346      7.5361
  1480.6000    145.6640      0.0000    646.6346      7.5361
  1480.7000    145.6640      0.0000    646.6346      7.5361
  1480.8000    145.8648      0.0000    658.9238      7.4924
  1480.9000    145.8648      0.0000    658.9238      7.4924
  1481.0000    144.3621      0.0000    681.5103      7.4048
  1481.1000    144.3621      0.0000    681.5103      7.4048
  1481.2000    144.3621      0.0000    681.5103      7.4048
  1481.3000    141.1413      0.0000    706.6600      7.2791
  1481.4000    141.1413      0.0000    706.6600      7.2791
  1481.5000    137.1647      0.0000    728.9888      7.1272
  1481.6000    137.1647      0.0000    728.9888      7.1272
  1481.7000    137.1647      0.0000    728.9888      7.1272
  1481.8000    133.7542      0.0000    745.6035      6.9673
  1481.9000    133.7542      0.0000    745.6035      6.9673
  1482.0000    132.1876      0.0000    755.0677      6.8154
  1482.1000    132.1876      0.0000    755.0677      6.8154
  1482.2000    132.1876      0.0000    755.0677      6.8154
  1482.3000    133.3538      0.0000    757.6190      6.6790
  1482.4000    133.3538      0.0000    757.6190      6.6790
  1482.5000    137.1588      0.0000    754.9783      6.5601
  1482.6000    137.1588      0.0000    754.9783      6.5601
  1482.7000    137.1588      0.0000    754.9783      6.5601
  1482.8000    142.4770      0.0000    748.3845      6.4625
  1482.9000    142.4770      0.0000    748.3845      6.4625
  1483.0000    148.0039      0.0000    736.8766      6.3959
  1483.1000    148.0039      0.0000    736.8766      6.3959
  1483.2000    148.0039      0.0000    736.8766      6.3959
  1483.3000    152.8887      0.0000    718.2199      6.3700
  1483.4000    152.8887      0.0000    718.2199      6.3700
  1483.5000    156.5269      0.0000    691.9682      6.3846
  1483.6000    156.5269      0.0000    691.9682      6.3846
  1483.7000    156.5269      0.0000    691.9682      6.3846
  1483.8000    158.3940      0.0000    662.0533      6.4205
  1483.9000    158.3940      0.0000    662.0533      6.4205
  1484.0000    158.3837      0.0000    636.9993      6.4442
  1484.1000    158.3837      0.0000    636.9993      6.4442
  1484.2000    158.3837      0.0000    636.9993      6.4442
  1484.3000    156.9335      0.0000    626.7086      6.4226
  1484.4000    156.9335      0.0000    626.7086      6.4226
  1484.5000    154.6094      0.0000    635.8168      6.3396
  1484.6000    154.6094      0.0000    635.8168      6.3396
  1484.7000    154.6094      0.0000    635.8168      6.3396
  1484.8000    151.8085      0.0000    658.2764      6.2038
  1484.9000    151.8085      0.0000    658.2764      6.2038
  1485.0000    148.9117      0.0000    680.8708      6.0430
  1485.1000    148.9117      0.0000    680.8708      6.0430
  1485.2000    148.9117      0.0000    680.8708      6.0430
  1485.3000    146.3989      0.0000    694.1168      5.8891
  1485.4000    146.3989      0.0000    694.1168      5.8891
  1485.5000    144.6870      0.0000    698.0245      5.7659
  1485.6000    144.6870      0.0000    698.0245      5.7659
  1485.7000    144.6870      0.0000    698.0245      5.7659
  1485.8000    143.9986      0.0000    696.3469      5.6890
  1485.9000    143.9986      0.0000    696.3469      5.6890
  1486.0000    144.3237      0.0000    688.8641      5.6704
  1486.1000    144.3237      0.0000    688.8641      5.6704
  1486.2000    144.3237      0.0000    688.8641      5.6704
  1486.3000    145.5200      0.0000    672.8148      5.7116
  1486.4000    145.5200      0.0000    672.8148      5.7116
  1486.5000    147.6416      0.0000    650.4346      5.7874
  1486.6000    147.6416      0.0000    650.4346      5.7874
  1486.7000    147.6416      0.0000    650.4346      5.7874
  1486.8000    150.9279      0.0000    631.2412      5.8518
  1486.9000    150.9279      0.0000    631.2412      5.8518
  1487.0000    155.0279      0.0000    625.9896      5.8687
  1487.1000    155.0279      0.0000    625.9896      5.8687
  1487.2000    155.0279      0.0000    625.9896      5.8687
  1487.3000    158.5035      0.0000    638.9581      5.8382
  1487.4000    158.5035      0.0000    638.9581      5.8382
  1487.5000    159.6472      0.0000    665.3016      5.7878
  1487.6000    159.6472      0.0000    665.3016      5.7878
  1487.7000    159.6472      0.0000    665.3016      5.7878
  1487.8000    157.9363      0.0000    694.9138      5.7423
  1487.9000    157.9363      0.0000    694.9138      5.7423
  1488.0000    154.7157      0.0000    719.1249      5.7045
  1488.1000    154.7157      0.0000    719.1249      5.7045
  1488.2000    154.7157      0.0000    719.1249      5.7045
  1488.3000    152.4532      0.0000    734.6624      5.6627
  1488.4000    152.4532      0.0000    734.6624      5.6627
  1488.5000    152.9440      0.0000    742.8033      5.6136
  1488.6000    152.9440      0.0000    742.8033      5.6136
  1488.7000    152.9440      0.0000    742.8033      5.6136
  1488.8000    155.8225      0.0000    746.4000      5.5733
  1488.9000    155.8225      0.0000    746.4000      5.5733
  1489.0000    158.9139      0.0000    747.8152      5.5617
  1489.1000    158.9139      0.0000    747.8152      5.5617
  1489.2000    158.9139      0.0000    747.8152      5.5617
  1489.3000    160.1900      0.0000    748.3821      5.5764
  1489.4000    160.1900      0.0000    748.3821      5.5764
  1489.5000    159.2071      0.0000    748.6603      5.5901
  1489.6000    159.2071      0.0000    748.6603      5.5901
  1489.7000    159.2071      0.0000    748.6603      5.5901
  1489.8000    156.7764      0.0000    748.8386      5.5768
  1489.9000    156.7764      0.0000    748.8386      5.5768
