~Version Information
 VERS.                                  2.0 : CWLS LAS VERSION
 WRAP.                                   NO : WRAPING MODE
 SWARE .                 MController 2.5.0E : SOFTWARE VERSION
~Well Information
 WELL.                    Dude canyon 22-32 : WELL
 COMP.    Pioneer Natural Resources USA Inc : COMPANY
 FLD.                      Purgatoire River : FIELD
 LOC.                SE/NW Sec 32 T32S R67W : LOCATION
 DATE.                         3/06-07/2005 : DATE(S) LOGGED
 SRVC.       Blanco Geological Services LLC : SERVICE COMPANY
 STAT.                                   CO : STATE
 CNTY.                           Las Animas : COUNTY
 CTRY.                                  USA : COUNTRY
 API.                       05-071-08257-00 : API NUMBER
 STRT.FT                             494.00 : START DEPTH
 STOP.FT                            2760.00 : STOP DEPTH
 STEP.FT                               1.00 : DEPTH INCREMENT
 NULL.                                -9999 : NULL VALUE
~Curve information
 DEPTH.FT                                   :
 ROP.MIN/FT                                 :
 GAS.UNITS                                  :
~ASCII Log data
# ...
      894.00        0.333          1.3 
      895.00        0.367          1.4 
      896.00        0.367          1.8 
      897.00        0.367          2.1 
      898.00        0.383          2.1 
      899.00        0.300          2.2 
      900.00        5.650         13.7 
      901.00        0.433          7.6 
      902.00        0.383          4.2 
      903.00        0.200          2.2 
      904.00        0.267          1.5 
      905.00        0.267          1.7 
      906.00        0.233          1.3 
      907.00        0.167          1.3 
      908.00        0.133          1.4 
      909.00        0.167          1.4 
      910.00        0.500          1.4 
      911.00        0.367          1.5 
      912.00        0.600          1.3 
      913.00        0.383          1.5 
      914.00        0.500          1.4 
      915.00        0.400          1.1 
      916.00        0.233          1.2 
      917.00        0.333          1.1 
      918.00        0.300          0.9 
      919.00        0.267          1.4 
      920.00        0.200          1.0 
      921.00        0.367          1.2 
      922.00        0.400          1.0 
      923.00        0.283          1.1 
      924.00        0.267          1.2 
      925.00        0.300          1.6 
      926.00        0.367          1.8 
      927.00        0.333          1.8 
      928.00        0.300          1.9 
      929.00        0.333          2.0 
      930.00        6.600          9.7 
      931.00        0.433          1.0 
      932.00        0.400          1.2 
      933.00        0.367          1.2 
      934.00        0.383          1.4 
      935.00        0.367          1.3 
      936.00        0.367          3.1 
      937.00        0.333          7.1 
      938.00        0.333          8.4 
      939.00        0.267          6.9 
      940.00        0.300          4.8 
      941.00        0.267          3.4 
      942.00        0.400          2.2 
      943.00        0.533          1.4 
      944.00        0.217          3.4 
      945.00        0.167          6.4 
      946.00        0.200          9.3 
      947.00        0.200         10.0 
      948.00        0.233          9.8 
      949.00        0.233          7.2 
      950.00        0.267          4.1 
      951.00        0.200          2.3 
      952.00        0.233          1.4 
      953.00        0.300          1.3 
      954.00        0.267          1.7 
      955.00        0.200          1.6 
      956.00        0.133          1.5 
      957.00        0.200          2.1 
      958.00        0.167          2.2 
      959.00        0.283          2.4 
      960.00        6.317         16.7 
      961.00        0.417          1.0 
      962.00        0.267          1.2 
      963.00        0.267          1.1 
      964.00        0.333          1.3 
      965.00        0.333          1.3 
      966.00        0.300          1.3 
      967.00        0.433          2.4 
      968.00        0.333          5.3 
      969.00        0.300         10.3 
      970.00        0.300         11.8 
      971.00        0.383         11.0 
      972.00        0.267          6.9 
      973.00        0.200          3.9 
      974.00        0.267          2.9 
      975.00        0.200          1.7 
      976.00        0.200          1.5 
      977.00        0.200          1.6 
      978.00        0.167          1.4 
      979.00        0.200          1.3 
      980.00        0.267          1.8 
      981.00        0.433          1.4 
      982.00        0.400          1.4 
      983.00        0.367          1.4 
      984.00        0.317          1.8 
      985.00        0.333          2.0 
      986.00        0.333          2.4 
      987.00        0.333          2.6 
      988.00        0.333          3.2 
      989.00        0.300          2.8 
      990.00        7.067         24.0 
      991.00        0.467          4.4 
      992.00        0.267          4.6 
      993.00        0.267          3.8 
      994.00        0.350          2.8 
      995.00        0.400          2.0 
      996.00        0.333          2.7 
      997.00        0.300          3.8 
      998.00        0.200          4.0 
      999.00        0.300          4.5 
     1000.00        0.400          3.5 
     1001.00        0.367          2.6 
     1002.00        0.367          2.5 
     1003.00        0.300          3.2 
     1004.00        0.167          3.3 
     1005.00        0.183          3.6 
     1006.00        0.300          3.6 
     1007.00        0.333          3.5 
     1008.00        0.333          3.1 
     1009.00        0.433          2.4 
     1010.00        0.400          2.2 
     1011.00        0.367          2.4 
     1012.00        0.333          2.6 
     1013.00        0.400          2.2 
     1014.00        0.550          2.2 
     1015.00        0.400          1.9 
     1016.00        0.400          1.7 
     1017.00        0.367          2.0 
     1018.00        0.533          2.1 
     1019.00        0.467          2.7 
     1020.00        7.333         34.5 
     1021.00        0.383          1.8 
     1022.00        0.567          1.6 
     1023.00        0.433          1.6 
     1024.00        0.533          2.1 
     1025.00        0.933          3.1 
     1026.00        1.017          3.2 
     1027.00        0.567          1.9 
     1028.00        0.333          1.7 
     1029.00        0.367          1.9 
     1030.00        0.367          1.7 
     1031.00        0.400          2.0 
     1032.00        0.400          4.2 
     1033.00        0.433          9.9 
     1034.00        0.417         19.3 
     1035.00        0.367         24.5 
     1036.00        0.367         24.1 
     1037.00        0.600         16.9 
     1038.00        0.200          4.0 
     1039.00        0.200          2.2 
     1040.00        0.167          1.5 
     1041.00        0.167          1.2 
     1042.00        0.167          0.9 
     1043.00        0.133          1.3 
     1044.00        0.167          1.3 
     1045.00        0.267          1.3 
     1046.00        0.333          1.3 
     1047.00        0.350          1.4 
     1048.00        0.667          2.2 
     1049.00        0.633          3.3 
     1050.00        7.467         62.1 
     1051.00        0.400          1.2 
     1052.00        0.500          1.7 
     1053.00        0.617          1.4 
     1054.00        0.633          1.6 
     1055.00        0.633          2.1 
     1056.00        0.600          2.6 
     1057.00        0.700          2.0 
     1058.00        0.383          1.4 
     1059.00        0.200          1.4 
     1060.00        0.233          1.6 
     1061.00        0.167          1.7 
     1062.00        0.367          1.4 
     1063.00        0.333          1.2 
     1064.00        0.333          1.2 
     1065.00        0.367          0.9 
     1066.00        0.200          1.0 
     1067.00        0.200          1.1 
     1068.00        0.233          1.1 
     1069.00        0.300          1.3 
     1070.00        0.350          1.1 
     1071.00        0.433          1.3 
     1072.00        0.433          1.3 
     1073.00        0.333          1.9 
     1074.00        0.300          1.8 
     1075.00        0.400          1.5 
     1076.00        0.333          1.2 
     1077.00        0.333          0.9 
     1078.00        0.533          1.4 
     1079.00        0.417          2.1 
     1080.00        7.967         36.5 
     1081.00        0.467          1.5 
     1082.00        0.433         10.4 
     1083.00        0.433         27.5 
     1084.00        0.483         28.2 
     1085.00        0.333         21.5 
     1086.00        0.333         12.3 
     1087.00        0.267          5.4 
     1088.00        0.267          2.7 
     1089.00        0.200          1.7 
     1090.00        0.200          1.2 
     1091.00        0.233          1.2 
     1092.00        0.300          1.9 
     1093.00        0.433          1.6 
