~Version Information
VERS.                      2.0: CWLS Log ASCII Standard - VERSION 2.0
WRAP.                       NO: One line per depth step
~Well Information Block
STRT.FT               -14.0000: 
STOP.FT              2565.5000: 
STEP.FT                 0.5000: 
NULL.                -999.2500: 
COMP.          Pioneer Natural Resources: COMPANY
WELL.             Carbon 34-21: WELL
FLD.           Purgatorie River: FIELD
LOC.           56' FSL & 2304' FEL: LOCATION
PROV.                 Colorado: PROVINCE
CNTY.               Las Animas: COUNTRY
SRVC.          Patterson Wireline: SERVICE COMPANY
DATE.          Mon Nov 08 08:55:10 2004: LOG DATE
UWI.           05-071-08117-00: UNIQUE WELL ID
~Curve Information Block
DEPT.FT            0 000 00 00: Depth
TT3.usec                      : CBL 3' Travel Time
AMP3.mV                       : CBL 3' Amplitude
GR.GAPI                       : Gamma Ray
CCL.                          : Casing Collar Locator
~Parameter Information Block
~A  Depth       TT3         AMP3         GR         CCL     
# ...
   187.0000    282.6689     76.9027     70.5010      0.0000
   187.5000    282.6066     77.0194     79.3673      0.0000
   188.0000    282.5123     77.2721     80.9207      0.0000
   188.5000    282.5242     76.2209     76.6346      0.0000
   189.0000    282.4512     76.3270     75.9717      0.0000
   189.5000    282.3814     77.2638     78.3993      0.0000
   190.0000    282.4511     76.2701     80.3197      0.0000
   190.5000    282.4054     75.0046     79.6490      0.0000
   191.0000    282.2612     75.2819     77.7887      0.0000
   191.5000    282.2801     75.1543     80.2651      0.0000
   192.0000    282.3553     74.6412     85.7931      0.0000
   192.5000    282.3301     75.3265     92.1053      0.0000
   193.0000    282.2683     75.6726     99.0278      0.0000
   193.5000    282.2741     74.8253    108.1010      0.0000
   194.0000    282.3491     73.8515    113.1593      0.0000
   194.5000    282.3546     74.0046    106.7177      0.0000
   195.0000    282.3077     75.0673     94.3047      0.0000
   195.5000    282.3166     75.7786     89.6913      0.0000
   196.0000    282.3337     75.7886     99.5185      0.0000
   196.5000    282.2888     75.7875    114.0420      0.0000
   197.0000    282.2596     75.6753    123.0577      0.0000
   197.5000    282.2916     75.2850    125.5445      0.0000
   198.0000    282.3029     75.2600    128.6610      0.0000
   198.5000    282.1913     75.8033    131.6148      0.0000
   199.0000    282.0741     76.0745    126.4307      0.0000
   199.5000    282.0868     75.8067    117.2262      0.0000
   200.0000    282.1276     75.6085    113.9337      0.0000
   200.5000    282.1517     75.5789    109.8660      0.0000
   201.0000    282.2383     75.2789    103.8694      0.0000
   201.5000    282.3252     74.8778    101.9694      0.0000
   202.0000    282.3332     74.7058     99.7763      0.0000
   202.5000    282.2446     75.3247     95.0374      0.0000
   203.0000    282.1195     76.7435     94.3183      0.0000
   203.5000    282.0945     77.6448     95.0172      0.0000
   204.0000    282.1363     77.5368     88.6651      0.0000
   204.5000    282.1805     76.8067     76.6136      0.0000
   205.0000    282.2044     76.4300     64.1695      0.0000
   205.5000    282.2226     76.8799     55.6779      0.0000
   206.0000    282.3018     77.2827     51.5539      0.0000
   206.5000    282.3706     77.1467     51.2510      0.0000
   207.0000    282.4203     76.8776     55.1968      0.0000
   207.5000    282.4492     76.8546     66.3062      0.0000
   208.0000    282.4238     77.2117     86.3357      0.0000
   208.5000    282.3882     77.4278    103.3107      0.0000
   209.0000    282.3859     76.8814    110.8778      0.0000
   209.5000    282.3869     76.3427    111.6931      0.0000
   210.0000    282.3540     76.7479    109.3333      0.0000
   210.5000    282.3390     77.4321    104.6775      0.0000
   211.0000    282.3638     77.9205     96.7281      0.0000
   211.5000    282.4049     78.2410     92.1364      0.0000
   212.0000    282.4559     78.1035     94.2423      0.0000
   212.5000    282.4503     77.8651     95.3504      0.0000
   213.0000    282.4363     77.3924     95.8184      0.0000
   213.5000    282.4344     77.3762    101.9545      0.0000
   214.0000    282.4329     77.5107    112.0838      0.0000
   214.5000    282.5411     76.3419    116.6093      0.0000
   215.0000    283.3111     72.1604    114.3053      0.0000
   215.5000    285.9363     64.5198    102.9811      0.0000
   216.0000    289.2680     57.5397     86.0979      0.0000
   216.5000    290.5821     55.3596     75.0359      0.0000
   217.0000    290.6353     55.9818     74.6205      0.0000
   217.5000    290.4919     56.8308     83.4778      0.0000
   218.0000    289.7889     58.5484     95.1810      0.0000
   218.5000    287.8527     62.3091     99.6439      0.0000
   219.0000    285.1221     68.2265     96.3343      0.0000
   219.5000    283.1993     74.5787     94.2389      0.0000
   220.0000    282.5699     77.3764     93.4763      0.0000
   220.5000    282.4935     77.7309     89.0460      0.0000
   221.0000    282.5149     77.9047     83.3049      0.0000
   221.5000    282.5529     77.9592     79.7177      0.0000
   222.0000    282.6080     77.6006     78.6765      0.0000
   222.5000    282.6506     77.8952     79.1964      0.0000
   223.0000    282.6483     78.6745     81.0233      0.0000
   223.5000    282.6187     78.8506     88.2678      0.0000
   224.0000    282.5946     78.7794     98.4537      0.0000
   224.5000    282.6415     77.7016    103.9487      0.0000
   225.0000    282.6205     77.2585    100.0845      0.0000
   225.5000    282.5141     79.1744     90.4458      0.0000
   226.0000    282.5506     80.2310     84.3639      0.0000
   226.5000    282.6304     79.0498     79.4115      0.0000
   227.0000    282.5869     79.0361     70.3013      0.0000
   227.5000    282.5933     80.1026     61.5344      0.0000
   228.0000    282.6783     79.6489     57.3449      0.0000
   228.5000    282.6346     78.1759     55.7361      0.0000
   229.0000    282.5184     77.8226     62.4036      0.0000
   229.5000    282.4510     78.0754     80.4544      0.0000
   230.0000    282.4075     78.5853     99.5669      0.0000
   230.5000    282.4240     78.7620    107.7612      0.0000
   231.0000    282.4580     78.2642    102.1670      0.0000
   231.5000    282.4572     77.9512     90.5020      0.0000
   232.0000    282.4819     77.6119     79.4043      0.0000
   232.5000    282.5269     77.3378     67.4075      0.0000
   233.0000    282.5838     76.9078     57.8074      0.0000
   233.5000    282.6348     76.4244     54.4615      0.0000
   234.0000    282.6044     76.1947     54.0672      0.0000
   234.5000    282.4594     76.1666     54.1259      0.0000
   235.0000    282.3100     76.9635     55.4746      0.0000
   235.5000    282.2892     77.8016     57.3261      0.0000
   236.0000    282.3908     77.6822     57.4435      0.0000
   236.5000    282.5124     77.1764     53.9815      0.0000
   237.0000    282.5639     77.1508     49.0523      0.0000
   237.5000    282.5347     77.4505     44.5561      0.0000
   238.0000    282.5173     76.8993     42.9792      0.0000
   238.5000    282.5153     76.5863     46.2575      0.0000
   239.0000    282.5316     77.4040     50.7295      0.0000
   239.5000    282.5883     78.0273     51.8531      0.0000
   240.0000    282.5897     78.4144     50.8430      0.0000
   240.5000    282.4670     78.8122     49.0234      0.0000
   241.0000    282.3403     78.6834     52.8402      0.0000
   241.5000    282.3163     78.5112     59.6462      0.0000
   242.0000    282.3107     79.1161     59.5238      0.0000
   242.5000    282.3092     79.8246     55.0307      0.0000
   243.0000    282.3748     79.2141     53.1989      0.0000
   243.5000    282.4589     77.8739     55.3414      0.0000
   244.0000    282.4804     77.4660     58.2055      0.0000
   244.5000    282.5110     77.6326     61.5039      0.0000
   245.0000    282.5848     77.4092     63.6162      0.0000
   245.5000    282.6416     77.1465     61.9213      0.0000
   246.0000    282.6134     77.2954     60.1383      0.0000
   246.5000    282.4987     77.4866     59.7784      0.0000
   247.0000    282.3648     77.7620     58.5477      0.0000
   247.5000    282.3135     78.1248     58.0005      0.0000
   248.0000    282.3177     78.2697     56.0509      0.0000
   248.5000    282.2882     78.1641     54.0860      0.0000
   249.0000    282.2791     77.6666     56.0054      0.0000
   249.5000    282.2783     76.6918     59.7085      0.0000
   250.0000    282.2518     75.8318     62.5185      0.0000
   250.5000    282.2156     76.2104     60.7580      0.0000
   251.0000    282.2192     76.5965     57.0215      0.0000
   251.5000    282.2980     75.8116     53.9574      0.0000
   252.0000    282.3431     75.6857     57.4483      0.0000
   252.5000    282.2779     76.2391     67.8716      0.0000
   253.0000    282.2603     76.2065     72.7064      0.0000
   253.5000    282.3307     75.9689     66.4601      0.0000
