~Version Information
VERS.                      2.0: CWLS Log ASCII Standard - VERSION 2.0
WRAP.                       NO: One line per depth step
~Well Information Block
STRT.FT               780.0000: 
STOP.FT              1557.5000: 
STEP.FT                 0.1000: 
NULL.                -999.2500: 
COMP.          Pioneer Natural Resources: COMPANY
WELL.          Bunner's 13-26 Tr: WELL
FLD.           Purgatoire River: FIELD
LOC.           1843' FSL & 456' FWL----: LOCATION
PROV.                 Colorado: PROVINCE
CNTY.               Las Animas: COUNTRY
SRVC.                Patterson: SERVICE COMPANY
DATE.          Tue Mar 29 07:41:16 2005: LOG DATE
UWI.           05 071 08331 00: UNIQUE WELL ID
~Curve Information Block
DEPT.FT            0 000 00 00: Depth
DCAL.in                       : CDL Caliper
RHOB.g/cc                     : CDL Bulk Density
RHOC.g/cc                     : CDL Density Correction
DPOR.pu                       : CDL Density Porosity
NPOR.pu                       : Neutron Porosity
GR.GAPI                       : Gamma Ray
~Parameter Information Block
~A  Depth       DCAL        RHOB        RHOC        DPOR        NPOR         GR     
# ...
   876.0000      7.9093      2.3882     -0.0216     15.8642     21.3611    159.2327
   876.1000      7.9093      2.4049      0.0369     14.8560     21.2889    150.9052
   876.2000      7.9093      2.4269      0.0808     13.5224     21.4432    142.5119
   876.3000      7.9101      2.4371      0.0564     12.9014     21.3158    138.6069
   876.4000      7.9101      2.4438      0.0487     12.4986     20.6643    134.3806
   876.5000      7.9095      2.4581      0.0500     11.6319     19.7141    129.1301
   876.6000      7.9095      2.4654      0.1129     11.1883     18.9887    129.4279
   876.7000      7.9095      2.4515      0.0381     12.0306     18.8599    133.6597
   876.8000      7.9096      2.4338      0.0044     13.1058     19.1695    133.2048
   876.9000      7.9096      2.4291      0.0534     13.3873     19.4134    128.6151
   877.0000      7.9101      2.4290      0.0770     13.3938     19.2841    128.3732
   877.1000      7.9101      2.4183      0.0788     14.0401     19.0606    135.5395
   877.2000      7.9101      2.3898      0.0734     15.7717     19.0132    144.7491
   877.3000      7.9098      2.3550      0.0247     17.8807     18.9472    148.7437
   877.4000      7.9098      2.3421     -0.0211     18.6596     18.7149    145.5697
   877.5000      7.9076      2.3606      0.0398     17.5372     18.5058    140.4102
   877.6000      7.9076      2.3945      0.0604     15.4819     18.4447    136.6313
   877.7000      7.9076      2.4294      0.0941     13.3698     18.4211    134.3804
   877.8000      7.9048      2.4526      0.1100     11.9610     18.5452    137.2147
   877.9000      7.9048      2.4585      0.0939     11.6042     18.9300    146.7203
   878.0000      7.9043      2.4608      0.0709     11.4654     19.4221    151.7032
   878.1000      7.9043      2.4691      0.0992     10.9635     19.9127    143.3451
   878.2000      7.9043      2.4685      0.1319     10.9975     20.3469    132.7666
   878.3000      7.9053      2.4481      0.0913     12.2372     20.6156    130.6803
   878.4000      7.9053      2.4200      0.0450     13.9377     20.7403    132.7871
   878.5000      7.9052      2.4058      0.0104     14.7977     20.7043    135.9910
   878.6000      7.9052      2.4183      0.0230     14.0395     20.3110    140.8737
   878.7000      7.9052      2.4508      0.0683     12.0702     19.6632    144.9550
   878.8000      7.9034      2.4860      0.0723      9.9402     19.3390    146.4335
   878.9000      7.9034      2.5085      0.1196      8.5773     19.7307    144.6663
   879.0000      7.9027      2.5147      0.0924      8.1995     20.3729    140.3270
   879.1000      7.9027      2.5131      0.1012      8.2940     20.5560    136.3413
   879.2000      7.9027      2.5138      0.0974      8.2541     20.2790    134.9925
   879.3000      7.9032      2.5250      0.1131      7.5775     20.0284    134.8150
   879.4000      7.9032      2.5488      0.0757      6.1319     20.0778    133.8234
   879.5000      7.9037      2.5765      0.1125      4.4549     20.2967    133.9147
   879.6000      7.9037      2.5943      0.0787      3.3729     20.6498    135.6620
   879.7000      7.9037      2.5987      0.0851      3.1100     21.2450    137.5182
   879.8000      7.9050      2.5927      0.0946      3.4717     21.9407    139.6651
   879.9000      7.9050      2.5870      0.0406      3.8180     22.3198    139.6356
   880.0000      7.9053      2.6003      0.0296      3.0101     22.1532    135.4368
   880.1000      7.9053      2.6405      0.0516      0.5738     21.6796    130.5664
   880.2000      7.9053      2.6917      0.1126     -2.5295     21.3226    126.2826
   880.3000      7.9040      2.7246      0.1486     -4.5194     21.3097    121.8114
   880.4000      7.9040      2.7199      0.1337     -4.2390     21.5818    118.2644
   880.5000      7.9023      2.6849      0.0648     -2.1137     22.0306    115.1308
   880.6000      7.9023      2.6488      0.0514      0.0752     22.5908    111.5210
   880.7000      7.9023      2.6371      0.0119      0.7822     23.2064    109.9217
   880.8000      7.9017      2.6458      0.0458      0.2531     23.9064    109.9420
   880.9000      7.9017      2.6519      0.0229     -0.1175     24.4381    106.5719
   881.0000      7.9026      2.6526     -0.0120     -0.1562     24.5017     98.4674
   881.1000      7.9026      2.6578      0.0644     -0.4748     24.2856     91.0161
   881.2000      7.9026      2.6593      0.0566     -0.5638     23.8417     87.6187
   881.3000      7.9041      2.6470      0.0814      0.1810     23.2098     84.7369
   881.4000      7.9041      2.6327      0.0533      1.0459     22.8713     79.3207
   881.5000      7.9042      2.6383      0.0261      0.7100     23.0342     73.4961
   881.6000      7.9042      2.6605      0.0429     -0.6361     23.2570     69.1654
   881.7000      7.9042      2.6737      0.0474     -1.4351     23.2427     67.0372
   881.8000      7.9037      2.6652      0.0245     -0.9190     23.0709     66.2292
   881.9000      7.9037      2.6431      0.0242      0.4210     22.8038     64.5948
   882.0000      7.9053      2.6252     -0.0492      1.5014     22.4094     63.8066
   882.1000      7.9053      2.6223      0.0397      1.6801     21.8670     66.7430
   882.2000      7.9053      2.6223      0.0105      1.6801     21.4702     69.5301
   882.3000      7.9063      2.6147      0.0106      2.1402     21.3677     66.2394
   882.4000      7.9063      2.6086      0.0098      2.5092     21.1644     59.0122
   882.5000      7.9054      2.6087      0.0515      2.5053     20.6531     53.9406
   882.6000      7.9054      2.6032      0.0355      2.8343     20.1587     52.3559
   882.7000      7.9054      2.5927      0.0228      3.4729     19.8435     51.5325
   882.8000      7.9050      2.5895      0.0253      3.6670     19.2446     50.4692
   882.9000      7.9050      2.5900      0.0520      3.6345     18.2507     49.8203
   883.0000      7.9046      2.5880      0.0435      3.7556     17.4663     50.0197
   883.1000      7.9046      2.5922      0.0631      3.5002     16.9634     50.8021
   883.2000      7.9046      2.5968      0.1128      3.2214     16.4663     51.1878
   883.3000      7.9047      2.5869      0.0698      3.8262     16.1183     51.0728
   883.4000      7.9047      2.5751      0.0723      4.5399     15.9734     50.6051
   883.5000      7.9054      2.5742      0.0714      4.5960     15.7998     48.6370
   883.6000      7.9054      2.5734      0.0683      4.6399     15.4799     46.2409
   883.7000      7.9054      2.5706      0.0358      4.8091     15.0490     45.8420
   883.8000      7.9059      2.5711      0.0771      4.7827     14.8336     46.5076
   883.9000      7.9059      2.5723      0.0629      4.7119     15.0737     46.8873
   884.0000      7.9059      2.5741      0.0599      4.5972     15.3997     47.3456
   884.1000      7.9059      2.5694      0.0958      4.8873     15.4229     47.1374
   884.2000      7.9059      2.5439      0.0566      6.4274     15.2050     45.5487
   884.3000      7.9064      2.5065      0.0115      8.6942     14.9146     43.6064
   884.4000      7.9064      2.4811      0.0288     10.2341     14.7385     43.8274
   884.5000      7.9063      2.4751      0.0323     10.6007     15.0012     47.7441
   884.6000      7.9063      2.4846      0.0411     10.0263     15.5526     51.3914
   884.7000      7.9063      2.5072      0.0201      8.6566     15.7192     49.7078
   884.8000      7.9063      2.5332      0.0723      7.0802     15.5919     45.0641
   884.9000      7.9063      2.5471      0.0630      6.2354     15.8325     43.5716
   885.0000      7.9065      2.5486      0.0479      6.1483     16.2300     45.9576
   885.1000      7.9065      2.5490      0.0812      6.1208     16.2736     48.6232
   885.2000      7.9065      2.5563      0.0634      5.6762     15.9775     50.4115
   885.3000      7.9046      2.5733      0.0821      4.6494     15.5517     52.8951
   885.4000      7.9046      2.5898      0.1282      3.6455     15.3237     54.4662
   885.5000      7.9020      2.5933      0.0896      3.4356     15.4561     52.8398
