~Version Information
VERS.                      2.0: CWLS Log ASCII Standard - VERSION 2.0
WRAP.                       NO: One line per depth step
~Well Information Block
STRT.FT               475.0000: 
STOP.FT              2336.7000: 
STEP.FT                 0.1000: 
NULL.                -999.2500: 
COMP.          Pioneer Natural Resources: COMPANY
WELL.              Bobsy 34-11: WELL
FLD.           Purgatoire River: FIELD
LOC.           1937' FEL & 451' FSL----: LOCATION
PROV.                 Colorado: PROVINCE
CNTY.               Las Animas: COUNTRY
SRVC.                Patterson: SERVICE COMPANY
DATE.          Fri Apr 08 11:07:54 2005: LOG DATE
UWI.           05 071 08330 00: UNIQUE WELL ID
~Curve Information Block
DEPT.FT            0 000 00 00: Depth
DCAL.in                       : CDL Caliper
RHOB.g/cc                     : CDL Bulk Density
RHOC.g/cc                     : CDL Density Correction
DPOR.pu                       : CDL Density Porosity
NPOR.pu                       : Neutron Porosity
GR.GAPI                       : Gamma Ray
~Parameter Information Block
~A  Depth       DCAL        RHOB        RHOC        DPOR        NPOR         GR     
# ...
  2183.8000      8.0888      2.5391     -0.0085      6.7220     21.5618     98.5618
  2183.9000      8.0888      2.5320      0.0192      7.1537     21.9312    104.7692
  2184.0000      8.0963      2.5279      0.0010      7.3979     22.0776    102.8929
  2184.1000      8.0963      2.5246      0.0401      7.5999     22.3703     98.8458
  2184.2000      8.0963      2.5252     -0.0068      7.5613     23.0230     98.6783
  2184.3000      8.0977      2.5445      0.0068      6.3916     24.0726    100.2869
  2184.4000      8.0977      2.5742      0.0737      4.5966     25.4700     98.0790
  2184.5000      8.0968      2.5844      0.0456      3.9760     26.5259     93.0873
  2184.6000      8.0968      2.5648      0.0445      5.1645     26.7673     92.5552
  2184.7000      8.0968      2.5219      0.0195      7.7624     26.8487    100.3946
  2184.8000      8.0953      2.4696      0.0109     10.9349     27.2576    109.5103
  2184.9000      8.0953      2.4307     -0.0503     13.2904     27.8989    112.0669
  2185.0000      8.0948      2.4147      0.0160     14.2611     28.5241    109.5412
  2185.1000      8.0948      2.4072     -0.0010     14.7124     28.6512    105.6795
  2185.2000      8.0948      2.3975     -0.0056     15.3015     28.3181    102.1766
  2185.3000      8.0963      2.3860     -0.0104     16.0006     28.0691    103.6976
  2185.4000      8.0963      2.3760      0.0031     16.6059     28.0108    109.9541
  2185.5000      8.0983      2.3726      0.0089     16.8131     27.8162    112.9712
  2185.6000      8.0983      2.3751      0.0593     16.6615     27.4659    108.8490
  2185.7000      8.0983      2.3763      0.0663     16.5893     27.0906    101.2097
  2185.8000      8.0987      2.3794      0.0443     16.3985     26.7698     95.3888
  2185.9000      8.0987      2.3941      0.0473     15.5102     26.7766     94.0703
  2186.0000      8.0991      2.4141      0.0672     14.3000     27.0164     98.4992
  2186.1000      8.0991      2.4245      0.0579     13.6667     27.0080    108.5224
  2186.2000      8.0991      2.4236      0.0421     13.7229     26.6978    118.8160
  2186.3000      8.1013      2.4231      0.0219     13.7524     26.5457    120.8998
  2186.4000      8.1013      2.4349      0.0127     13.0347     27.0439    115.5427
  2186.5000      8.1028      2.4593      0.0586     11.5597     27.7942    110.8106
  2186.6000      8.1028      2.4794      0.0486     10.3424     27.9311    107.9224
  2186.7000      8.1028      2.4805      0.0692     10.2744     27.4123    104.3083
  2186.8000      8.1034      2.4734      0.0192     10.7044     26.6749     99.1211
  2186.9000      8.1034      2.4741      0.0562     10.6594     26.1583     95.3795
  2187.0000      8.1043      2.4778      0.0519     10.4336     26.2661     98.1579
  2187.1000      8.1043      2.4836      0.0167     10.0853     26.8424    103.5650
  2187.2000      8.1043      2.4975      0.0475      9.2418     27.4251    107.2404
  2187.3000      8.1041      2.5125      0.0343      8.3328     27.7134    113.6865
  2187.4000      8.1041      2.5230      0.0219      7.6976     27.5598    120.3276
  2187.5000      8.1035      2.5225      0.0906      7.7275     27.2826    116.8643
  2187.6000      8.1035      2.5058      0.0402      8.7380     27.3173    104.8945
  2187.7000      8.1035      2.4873      0.0083      9.8600     27.4590     95.7229
  2187.8000      8.1040      2.4781      0.0095     10.4179     27.4069     95.9855
  2187.9000      8.1040      2.4729      0.0291     10.7329     27.0613    101.8927
  2188.0000      8.1052      2.4626      0.0593     11.3571     26.6812    108.3623
  2188.1000      8.1052      2.4490      0.0377     12.1794     26.9954    115.7962
  2188.2000      8.1052      2.4452      0.0473     12.4130     28.1204    124.4423
  2188.3000      8.1066      2.4518      0.0561     12.0134     29.1105    130.6539
  2188.4000      8.1066      2.4566      0.0255     11.7229     29.4787    129.0762
  2188.5000      8.1070      2.4501      0.0370     12.1173     29.7970    122.4056
  2188.6000      8.1070      2.4282      0.0202     13.4427     30.3587    116.4567
  2188.7000      8.1070      2.3811      0.0375     16.2965     30.8674    110.9368
  2188.8000      8.1061      2.2878      0.0157     21.9502     31.4838    105.1123
  2188.9000      8.1061      2.1525     -0.0703     30.1489     32.6022     98.3687
  2189.0000      8.1069      2.0175     -0.1069     38.3323     34.0238     90.2383
  2189.1000      8.1069      1.9069     -0.1172     45.0348     35.1915     82.6899
  2189.2000      8.1069      1.8008     -0.1525     51.4685     35.7264     77.8509
  2189.3000      8.1123      1.6777     -0.2044     58.9274     35.7705     75.9478
  2189.4000      8.1123      1.5497     -0.2351     66.6854     35.7077     73.4292
  2189.5000      8.1234      1.4493     -0.2201     72.7694     35.5525     66.8873
  2189.6000      8.1234      1.3951     -0.1824     76.0549     35.1255     60.1629
  2189.7000      8.1234      1.3750     -0.0743     77.2716     34.7214     58.0487
  2189.8000      8.1620      1.3738     -0.0631     77.3440     34.5250     57.9289
  2189.9000      8.1620      1.3956      0.0364     76.0217     34.4870     55.4946
  2190.0000      8.2488      1.4389      0.0788     73.3971     34.6169     54.0847
  2190.1000      8.2488      1.4879      0.1314     70.4295     34.9703     58.5976
  2190.2000      8.2488      1.5339      0.1257     67.6453     35.1835     66.1431
  2190.3000      8.3307      1.5758      0.1536     65.1044     34.7099     69.0929
  2190.4000      8.3307      1.6041      0.1523     63.3873     33.8883     65.7902
  2190.5000      8.3066      1.6093      0.1073     63.0734     33.4865     64.6542
  2190.6000      8.3066      1.5943      0.0806     63.9821     33.7410     70.9674
  2190.7000      8.3066      1.5664      0.0720     65.6729     34.3880     78.0600
  2190.8000      8.2028      1.5305      0.0255     67.8504     34.9668     81.1823
  2190.9000      8.2028      1.4920     -0.0071     70.1795     35.2791     82.6755
  2191.0000      8.1491      1.4573     -0.0213     72.2828     35.5252     80.7982
  2191.1000      8.1491      1.4313     -0.0378     73.8616     35.9498     74.5680
  2191.2000      8.1491      1.4210     -0.0440     74.4830     36.4830     67.5778
  2191.3000      8.1658      1.4407     -0.0453     73.2919     36.7900     60.7175
  2191.4000      8.1658      1.4979      0.0068     69.8214     36.6172     55.6585
  2191.5000      8.2075      1.5752      0.0769     65.1414     35.9165     55.1387
  2191.6000      8.2075      1.6462      0.1359     60.8371     34.8107     57.9769
  2191.7000      8.2075      1.7023      0.1412     57.4367     33.8596     58.5526
  2191.8000      8.2393      1.7407      0.1752     55.1084     33.5808     54.3959
  2191.9000      8.2393      1.7515      0.1701     54.4563     33.8138     50.2292
  2192.0000      8.2109      1.7385      0.0690     55.2400     34.3467     49.2858
  2192.1000      8.2109      1.7236      0.0333     56.1477     35.1580     51.2464
  2192.2000      8.2109      1.7128      0.0255     56.8026     35.7462     56.2327
  2192.3000      8.1317      1.6884     -0.0009     58.2817     35.5967     61.3449
  2192.4000      8.1317      1.6372     -0.0877     61.3790     34.9207     62.1466
  2192.5000      8.0777      1.5692     -0.1390     65.5003     34.2856     59.3321
  2192.6000      8.0777      1.5014     -0.1105     69.6124     34.1890     55.2274
  2192.7000      8.0777      1.4430     -0.0731     73.1504     34.6670     51.6361
  2192.8000      8.0557      1.4002     -0.0263     75.7475     35.3180     49.7230
  2192.9000      8.0557      1.3732      0.0047     77.3791     35.5947     50.7266
  2193.0000      8.0308      1.3526      0.0148     78.6286     35.4018     53.2413
  2193.1000      8.0308      1.3306      0.0058     79.9607     35.3098     52.8142
  2193.2000      8.0308      1.3117      0.0064     81.1109     35.4840     49.4599
  2193.3000      8.0040      1.3081      0.0000     81.3274     35.3516     47.8713
