~Version Information
VERS.                      2.0: CWLS Log ASCII Standard - VERSION 2.0
WRAP.                       NO: One line per depth step
~Well Information Block
STRT.FT               651.5000: 
STOP.FT              2190.5000: 
STEP.FT                 0.2500: 
NULL.                -999.2500: 
COMP.          Pioneer Natural Resources: COMPANY
WELL.               King 22-13: WELL
FLD.           Purgatoire River: FIELD
LOC.           2419' FNL & 1806' FWL----: LOCATION
PROV.                 Colorado: PROVINCE
CNTY.               Las Animas: COUNTRY
SRVC.                Patterson: SERVICE COMPANY
DATE.          Thu Mar 31 14:33:28 2005: LOG DATE
UWI.           05 071 08318 00: UNIQUE WELL ID
~Curve Information Block
DEPT.FT            0 000 00 00: Depth
SN.Ohm-m                      : IEL Short Normal
SP.mV                         : IEL Spontaneous Potential
DIR.Ohm-m                     : IEL Induction Resistivity
GR.GAPI                       : Gamma Ray
~Parameter Information Block
~A  Depth        SN          SP         DIR          GR     
# ...
  1757.0000     30.2732     94.1805     23.4227    108.2672
  1757.2500     31.4390     94.8420     23.5227    101.4796
  1757.5000     32.0723     95.5011     23.6060     90.2628
  1757.7500     32.0174     96.1274     23.6772     82.9092
  1758.0000     31.3078     96.6959     23.7418     73.5323
  1758.2500     30.1617     97.2012     23.8081     69.1009
  1758.5000     28.9002     97.6507     23.8791     65.7810
  1758.7500     27.8115     98.0442     23.9463     65.4597
  1759.0000     27.0413     98.3661     23.9932     66.0486
  1759.2500     26.5778     98.5971     24.0075     65.9057
  1759.5000     26.3210     98.7291     23.9910     63.8879
  1759.7500     26.1549     98.7679     23.9585     61.9806
  1760.0000     25.9980     98.7273     23.9276     60.7414
  1760.2500     25.8716     98.6261     23.9110     61.9612
  1760.5000     25.9281     98.4831     23.9159     65.8285
  1760.7500     26.3544     98.3094     23.9500     68.0583
  1761.0000     27.2289     98.1048     24.0263     68.9116
  1761.2500     28.4642     97.8697     24.1640     67.9964
  1761.5000     29.8354     97.6251     24.3848     65.3727
  1761.7500     31.0751     97.4217     24.7048     62.7955
  1762.0000     32.0088     97.3258     25.1261     57.4331
  1762.2500     32.6127     97.3888     25.6300     53.4468
  1762.5000     32.9402     97.6197     26.1774     48.9363
  1762.7500     33.0322     97.9762     26.7139     47.9261
  1763.0000     32.9234     98.3823     27.1786     49.9051
  1763.2500     32.6956     98.7641     27.5142     53.1390
  1763.5000     32.4665     99.0855     27.6775     58.9263
  1763.7500     32.3332     99.3653     27.6508     61.6140
  1764.0000     32.3333     99.6639     27.4484     61.0233
  1764.2500     32.4126    100.0473     27.1128     57.1553
  1764.5000     32.4328    100.5490     26.6988     48.3270
  1764.7500     32.2480    101.1528     26.2563     42.4607
  1765.0000     31.8014    101.8001     25.8198     36.3235
  1765.2500     31.1547    102.4098     25.4134     34.6364
  1765.5000     30.4208    102.8975     25.0597     35.6523
  1765.7500     29.6929    103.1898     24.7843     38.1581
  1766.0000     29.0415    103.2363     24.6061     42.9891
  1766.2500     28.5293    103.0151     24.5243     45.8671
  1766.5000     28.2065    102.5358     24.5087     48.7168
  1766.7500     28.1008    101.8438     24.5047     49.8366
  1767.0000     28.2040    101.0228     24.4472     51.6852
  1767.2500     28.4746    100.1857     24.2769     53.9869
  1767.5000     28.8726     99.4523     23.9489     59.8935
  1767.7500     29.3954     98.9233     23.4328     64.9952
  1768.0000     30.0527     98.6681     22.7134     71.9970
  1768.2500     30.7952     98.7289     21.7961     74.6617
  1768.5000     31.4827     99.1353     20.7150     74.4260
  1768.7500     31.8920     99.9183     19.5319     71.9263
  1769.0000     31.7003    101.1133     18.3218     66.4415
  1769.2500     30.5202    102.7415     17.1522     62.4495
  1769.5000     28.1506    104.7769     16.0682     56.7056
  1769.7500     24.8946    107.1235     15.0895     53.5324
  1770.0000     21.4956    109.6165     14.2160     51.2707
  1770.2500     18.6324    112.0495     13.4358     52.4248
  1770.5000     16.5111    114.2219     12.7328     58.7376
  1770.7500     14.9473    115.9977     12.0911     65.1561
  1771.0000     13.6946    117.3486     11.4983     75.1809
  1771.2500     12.6304    118.3514     10.9484     80.5942
  1771.5000     11.7446    119.1343     10.4419     86.2158
  1771.7500     11.0577    119.8092      9.9848     89.2878
  1772.0000     10.5567    120.4311      9.5854     95.6113
  1772.2500     10.1952    121.0009      9.2501    102.0237
  1772.5000      9.9375    121.4962      8.9817    114.2880
  1772.7500      9.7805    121.9031      8.7788    122.5390
  1773.0000      9.7266    122.2313      8.6381    131.7149
  1773.2500      9.7541    122.5105      8.5563    134.4991
  1773.5000      9.8284    122.7713      8.5318    133.3972
  1773.7500      9.9242    123.0270      8.5639    129.8274
  1774.0000     10.0207    123.2689      8.6516    122.6393
  1774.2500     10.0939    123.4816      8.7920    118.5331
  1774.5000     10.1356    123.6611      8.9801    115.8506
  1774.7500     10.1672    123.8228      9.2079    116.2266
  1775.0000     10.2254    123.9978      9.4649    117.3856
  1775.2500     10.3248    124.2218      9.7386    117.0835
  1775.5000     10.4147    124.5180     10.0172    114.5311
  1775.7500     10.3928    124.8812     10.2939    112.0378
  1776.0000     10.2167    125.2769     10.5688    108.2115
  1776.2500     10.0138    125.6581     10.8488    105.8634
  1776.5000     10.0750    125.9902     11.1444    102.4497
  1776.7500     10.7417    126.2658     11.4664    116.7513
  1777.0000     12.1946    126.5051     11.8240    112.5888
  1777.2500     14.2151    126.7374     12.2236    110.1480
  1777.5000     16.1996    126.9751     12.6678    107.3752
  1777.7500     17.5556    127.2068     13.1530    121.2936
  1778.0000     18.1112    127.4174     13.6655    119.8489
  1778.2500     18.1258    127.6132     14.1811    118.8423
  1778.5000     17.9765    127.8209     14.6687    116.3337
  1778.7500     17.8821    128.0668     15.1005    114.0459
  1779.0000     17.8494    128.3582     15.4602    110.9568
  1779.2500     17.7798    128.6820     15.7472    109.8306
  1779.5000     17.6130    129.0115     15.9724    109.6962
  1779.7500     17.4053    129.3166     16.1531    110.4272
  1780.0000     17.2929    129.5753     16.3085    112.5961
  1780.2500     17.3899    129.7838     16.4586    114.5267
  1780.5000     17.6983    129.9572     16.6231    116.9166
  1780.7500     18.0900    130.1148     16.8164    117.4466
  1781.0000     18.3987    130.2600     17.0436    116.9001
  1781.2500     18.5476    130.3730     17.2978    116.7157
  1781.5000     18.5852    130.4270     17.5641    118.7831
  1781.7500     18.6158    130.4140     17.8271    122.2157
  1782.0000     18.7045    130.3530     18.0768    129.2329
  1782.2500     18.8276    130.2708     18.3073    133.6956
  1782.5000     18.9155    130.1750     18.5113    138.2884
  1782.7500     18.9367    130.0397     18.6750    139.8865
  1783.0000     18.9332    129.8079     18.7787    140.7709
  1783.2500     18.9852    129.4030     18.8043    140.7337
  1783.5000     19.1371    128.7464     18.7426    140.5851
  1783.7500     19.3582    127.7853     18.5941    140.9195
  1784.0000     19.5675    126.5146     18.3628    141.7819
  1784.2500     19.6805    124.9757     18.0492    141.7497
  1784.5000     19.6353    123.2327     17.6500    139.7980
  1784.7500     19.3949    121.3515     17.1652    137.3070
  1785.0000     18.9549    119.3961     16.6064    131.9778
  1785.2500     18.3517    117.4314     15.9982    127.2615
  1785.5000     17.6534    115.5205     15.3723    119.0675
  1785.7500     16.9290    113.7091     14.7577    114.1589
  1786.0000     16.1977    112.0061     14.1757    110.6046
  1786.2500     15.4318    110.3764     13.6394    111.9065
  1786.5000     14.6418    108.7610     13.1558    118.8654
  1786.7500     13.9077    107.1176     12.7272    125.2512
  1787.0000     13.3042    105.4528     12.3514    134.5486
  1787.2500     12.8449    103.8202     12.0230    139.9272
  1787.5000     12.5022    102.2891     11.7357    147.3944
  1787.7500     12.2402    100.9119     11.4866    152.0690
  1788.0000     12.0216     99.7091     11.2769    156.8186
  1788.2500     11.8130     98.6781     11.1114    157.1603
  1788.5000     11.6034     97.8153     10.9968    153.3972
  1788.7500     11.4161     97.1328     10.9397    149.2261
  1789.0000     11.3005     96.6498     10.9456    142.0983
  1789.2500     11.3045     96.3680     11.0190    136.9916
  1789.5000     11.4418     96.2551     11.1635    129.4667
  1789.7500     11.6946     96.2553     11.3823    125.7729
  1790.0000     12.0497     96.3156     11.6778    125.0492
  1790.2500     12.5095     96.4030     12.0503    128.5489
