~Version Information
VERS.                      2.0: CWLS Log ASCII Standard - VERSION 2.0
WRAP.                       NO: One line per depth step
~Well Information Block
STRT.FT               665.0000: 
STOP.FT              1972.0000: 
STEP.FT                 0.2500: 
NULL.                -999.2500: 
COMP.          Petrogulf Corporation: COMPANY
WELL.          Great Plains 22-21V: WELL
FLD.           Purgatorie River: FIELD
LOC.           63' FNL & 1895' FWL: LOCATION
PROV.                 Colorado: PROVINCE
CNTY.               Las Animas: COUNTRY
SRVC.                Patterson: SERVICE COMPANY
DATE.          Thu Sep 01 07:36:33 2005: LOG DATE
UWI.                          : UNIQUE WELL ID
~Curve Information Block
DEPT.FT            0 000 00 00: Depth
SP.mV                         : DIL Spontaneous Potential
RILD.Ohm-m                    : DIL Deep Resistivity
RILM.Ohm-m                    : DIL Medium Resistivity
RLL3.Ohm-m                    : DIL Shallow Resistivity
GR.GAPI                       : Gamma Ray
~Parameter Information Block
~A  Depth        SP         RILD        RILM        RLL3         GR     
# ...
   833.0000   2000.0000     16.2665     14.3503   2000.0000    136.1739
   833.2500   2000.0000     17.3830     14.4060   2000.0000    132.8191
   833.5000   2000.0000     17.8884     15.0632   2000.0000    137.3332
   833.7500   2000.0000     18.2648     15.7071   2000.0000    134.0275
   834.0000   2000.0000     18.6654     16.3384   2000.0000    134.6039
   834.2500   2000.0000     19.6981     17.2591   2000.0000    125.7404
   834.5000   2000.0000     20.1948     18.0566   2000.0000    108.3569
   834.7500   2000.0000     19.3573     18.7405   2000.0000    102.5675
   835.0000   2000.0000     21.3389     20.3336   2000.0000     91.2990
   835.2500   2000.0000     22.1927     21.1928   2000.0000    107.7765
   835.5000   2000.0000     22.2468     21.3486   2000.0000    108.4907
   835.7500   2000.0000     23.2968     22.5822   2000.0000     98.2718
   836.0000   2000.0000     24.2491     24.1731   2000.0000    100.6582
   836.2500   2000.0000     26.0086     26.0085   2000.0000    104.2390
   836.5000   2000.0000     28.0925     28.0993   2000.0000     86.5893
   836.7500   2000.0000     27.5075     28.1214   2000.0000     81.8066
   837.0000   2000.0000     27.1666     28.5667   2000.0000     90.5089
   837.2500   2000.0000     30.5976     29.9294   2000.0000     93.3846
   837.5000   2000.0000     33.9563     31.2856   2000.0000     71.0788
   837.7500   2000.0000     33.6716     34.0703   2000.0000     71.7080
   838.0000   2000.0000     35.6082     35.5953   2000.0000     58.6216
   838.2500   2000.0000     37.0859     38.2185   2000.0000     61.5256
   838.5000   2000.0000     34.5220     44.7105   2000.0000     66.3740
   838.7500   2000.0000     34.4144     43.9797   2000.0000     47.3798
   839.0000   2000.0000     33.9525     44.4987   2000.0000     43.5951
   839.2500   2000.0000     32.8876     44.4607   2000.0000     46.0191
   839.5000   2000.0000     31.7755     44.5805   2000.0000     55.2230
   839.7500   2000.0000     28.2127     40.2395   2000.0000     50.1207
   840.0000   2000.0000     27.5090     36.1290   2000.0000     54.9296
   840.2500   2000.0000     25.9820     31.9051   2000.0000     56.7334
   840.5000   2000.0000     25.2634     29.2552   2000.0000     67.9595
   840.7500   2000.0000     24.1735     26.3025   2000.0000     76.1360
   841.0000   2000.0000     22.9490     22.0186   2000.0000    100.3669
   841.2500   2000.0000     22.7221     18.5734   2000.0000    119.8965
   841.5000   2000.0000     20.3661     17.5684   2000.0000    151.6951
   841.7500   2000.0000     21.0135     16.7968   2000.0000    139.3398
   842.0000   2000.0000     21.5242     16.1122   2000.0000    130.7966
   842.2500   2000.0000     20.9922     16.3859   2000.0000    124.7065
   842.5000   2000.0000     20.9261     16.8296   2000.0000    114.3444
   842.7500   2000.0000     19.8373     16.8570   2000.0000    116.8873
   843.0000   2000.0000     20.8555     16.8529   2000.0000    109.9044
   843.2500   2000.0000     20.2464     17.3624   2000.0000    106.1198
   843.5000   2000.0000     21.2803     18.5883   2000.0000    109.5711
   843.7500   2000.0000     21.0016     19.3862   2000.0000    104.2789
   844.0000   2000.0000     21.9091     20.5112   2000.0000     90.6306
   844.2500   2000.0000     23.8876     21.9261   2000.0000     82.4270
   844.5000   2000.0000     24.1659     23.4647   2000.0000     87.9814
   844.7500   2000.0000     25.7944     25.4405   2000.0000     91.8611
   845.0000   2000.0000     28.0280     26.5762   2000.0000     75.2610
   845.2500   2000.0000     28.7248     30.1897   2000.0000     65.5551
   845.5000   2000.0000     31.7004     29.6964   2000.0000     52.7630
   845.7500   2000.0000     33.5705     29.7629   2000.0000     56.1496
   846.0000   2000.0000     35.1502     31.7868   2000.0000     63.9825
   846.2500   2000.0000     34.3055     32.8662   2000.0000     56.5445
   846.5000   2000.0000     35.0564     35.6050   2000.0000     68.6191
   846.7500   2000.0000     35.6978     32.4583   2000.0000     64.1141
   847.0000   2000.0000     36.1152     34.0419   2000.0000     46.5517
   847.2500   2000.0000     36.8905     33.3429   2000.0000     48.2389
   847.5000   2000.0000     35.1335     32.3069   2000.0000     55.3226
   847.7500   2000.0000     35.8176     33.6313   2000.0000     53.6558
   848.0000   2000.0000     38.3766     32.9007   2000.0000     62.8798
   848.2500   2000.0000     37.5024     33.4326   2000.0000     64.0566
   848.5000   2000.0000     39.4887     33.7366   2000.0000     60.3032
   848.7500   2000.0000     40.3016     33.4536   2000.0000     54.9030
   849.0000   2000.0000     38.3154     35.3483   2000.0000     43.8903
   849.2500   2000.0000     37.3841     35.5798   2000.0000     37.7081
   849.5000   2000.0000     38.0689     36.2648   2000.0000     51.3078
   849.7500   2000.0000     38.9753     36.0523   2000.0000     54.2193
   850.0000   2000.0000     42.0095     39.0268   2000.0000     51.4811
   850.2500   2000.0000     42.1337     40.8177   2000.0000     51.0942
   850.5000   2000.0000     42.2665     39.3419   2000.0000     57.2618
   850.7500   2000.0000     41.3268     39.8587   2000.0000     57.1272
   851.0000   2000.0000     43.0640     41.1762   2000.0000     50.0489
   851.2500   2000.0000     44.9678     40.8389   2000.0000     40.5021
   851.5000   2000.0000     44.4460     39.4942   2000.0000     44.2842
   851.7500   2000.0000     43.3000     39.7894   2000.0000     47.9905
   852.0000   2000.0000     44.2396     39.5015   2000.0000     61.1618
   852.2500   2000.0000     48.1457     36.7761   2000.0000     69.4009
   852.5000   2000.0000     47.0157     37.8657   2000.0000     56.6231
   852.7500   2000.0000     46.5696     38.4247   2000.0000     55.4967
   853.0000   2000.0000     49.6229     40.9360   2000.0000     57.1021
   853.2500   2000.0000     50.7220     40.5409   2000.0000     60.0603
   853.5000   2000.0000     45.8914     38.8165   2000.0000     60.9929
   853.7500   2000.0000     43.5755     37.8017   2000.0000     61.0795
   854.0000   2000.0000     44.6989     39.2625   2000.0000     61.1456
   854.2500   2000.0000     43.3151     38.9276   2000.0000     59.5481
   854.5000   2000.0000     43.5324     38.6799   2000.0000     71.4708
   854.7500   2000.0000     42.5324     36.9299   2000.0000     86.4991
   855.0000   2000.0000     42.9104     34.1600   2000.0000     89.5677
   855.2500   2000.0000     45.3384     34.7129   2000.0000     88.7913
   855.5000   2000.0000     46.7007     36.9116   2000.0000     77.9401
   855.7500   2000.0000     45.1995     38.8050   2000.0000     74.0664
   856.0000   2000.0000     46.8596     37.7394   2000.0000     49.9992
   856.2500   2000.0000     46.0727     41.3643   2000.0000     40.9664
   856.5000   2000.0000     42.5937     40.9941   2000.0000     44.7745
   856.7500   2000.0000     41.7899     40.9175   2000.0000     47.3240
   857.0000   2000.0000     37.4620     41.1655   2000.0000     47.4317
   857.2500   2000.0000     34.5496     41.2262   2000.0000     49.0420
   857.5000   2000.0000     33.8023     41.7633   2000.0000     58.1191
   857.7500   2000.0000     33.7095     39.1023   2000.0000     62.4799
   858.0000   2000.0000     32.2779     37.8640   2000.0000     59.1682
   858.2500   2000.0000     30.0912     34.8210   2000.0000     65.5121
   858.5000   2000.0000     28.8358     32.0831   2000.0000     76.3969
   858.7500   2000.0000     26.9445     27.9788   2000.0000     78.5903
   859.0000   2000.0000     27.4512     24.8194   2000.0000     88.5429
   859.2500   2000.0000     28.6382     22.1235   2000.0000     92.1995
   859.5000   2000.0000     29.8837     20.0205   2000.0000    102.9900
   859.7500   2000.0000     30.7558     19.3942   2000.0000    105.3673
   860.0000   2000.0000     31.1970     19.7135   2000.0000     99.7266
   860.2500   2000.0000     32.3977     21.4513   2000.0000     99.4333
   860.5000   2000.0000     33.2241     23.8756   2000.0000     95.9812
   860.7500   2000.0000     34.9808     27.1141   2000.0000     69.6111
