~Version Information
VERS.                      2.0: CWLS Log ASCII Standard - VERSION 2.0
WRAP.                       NO: One line per depth step
~Well Information Block
STRT.FT               546.2500: 
STOP.FT              2488.5000: 
STEP.FT                 0.2500: 
NULL.                -999.2500: 
COMP.          Petrogulf Corporation: COMPANY
WELL.               Egan 9-11V: WELL
FLD.           Purgatorie River: FIELD
LOC.           724' FNL & 1379' FWL: LOCATION
PROV.                 Colorado: PROVINCE
CNTY.               Las Animas: COUNTRY
SRVC.          Patterson Wireline: SERVICE COMPANY
DATE.          Fri Jul 11 23:16:48 2003: LOG DATE
UWI.           05 071 07875 00: UNIQUE WELL ID
~Curve Information Block
DEPT.FT            0 000 00 00: Depth
DCAL.in                       : CDL Caliper
RHOB.g/cc                     : CDL Bulk Density
RHOC.g/cc                     : CDL Density Correction
DPOR.pu                       : CDL Density Porosity
GR.GAPI                       : Gamma Ray
NPOR.pu                       : Neutron Porosity
~Parameter Information Block
~A  Depth       DCAL        RHOB        RHOC        DPOR         GR         NPOR    
# ...
  2202.2500      7.9920      2.4789      0.0831     10.3724     50.4188     20.7734
  2202.5000      7.9881      2.4788      0.0795     10.3769     48.3920     22.2898
  2202.7500      7.9886      2.4759      0.0746     10.5524     47.5643     23.3485
  2203.0000      7.9926      2.4674      0.0667     11.0663     49.5653     24.8359
  2203.2500      7.9937      2.4600      0.0626     11.5149     54.0590     25.7167
  2203.5000      7.9954      2.4496      0.0617     12.1474     65.4701     26.8736
  2203.7500      8.0115      2.4454      0.0663     12.3999     75.1153     27.5414
  2204.0000      8.0531      2.4467      0.0805     12.3240     89.8792     28.3750
  2204.2500      8.0954      2.4533      0.0921     11.9192     98.2251     28.8047
  2204.5000      8.1090      2.4713      0.1081     10.8293    106.0473     29.2572
  2204.7500      8.1016      2.4871      0.1170      9.8732    107.4059     29.4473
  2205.0000      8.0959      2.5130      0.1268      8.3033    104.4191     29.5801
  2205.2500      8.0919      2.5299      0.1289      7.2818    100.5068     29.5343
  2205.5000      8.0770      2.5522      0.1228      5.9269     94.1305     29.1800
  2205.7500      8.0507      2.5645      0.1134      5.1807     89.9887     28.7570
  2206.0000      8.0242      2.5788      0.0962      4.3181     83.4170     27.9612
  2206.2500      8.0142      2.5852      0.0851      3.9248     78.6585     27.3933
  2206.5000      8.0142      2.5897      0.0702      3.6519     71.8463     26.5598
  2206.7500      8.0157      2.5887      0.0606      3.7142     68.3527     26.0954
  2207.0000      8.0211      2.5808      0.0465      4.1967     65.8720     25.7824
  2207.2500      8.0275      2.5716      0.0382      4.7510     66.5849     25.9550
  2207.5000      8.0313      2.5539      0.0303      5.8226     71.8112     26.7830
  2207.7500      8.0307      2.5407      0.0294      6.6225     78.0157     27.5757
  2208.0000      8.0293      2.5204      0.0335      7.8544     90.2968     28.7825
  2208.2500      8.0312      2.5069      0.0381      8.6710     99.3414     29.4234
  2208.5000      8.0388      2.4871      0.0444      9.8741    111.8763     29.9980
  2208.7500      8.0534      2.4743      0.0481     10.6456    118.1359     30.1504
  2209.0000      8.0616      2.4572      0.0553     11.6829    122.4644     30.1750
  2209.2500      8.0521      2.4483      0.0633     12.2254    121.7015     30.1175
  2209.5000      8.0464      2.4406      0.0806     12.6932    116.4498     29.9362
  2209.7500      8.0582      2.4399      0.0928     12.7306    111.5736     29.7403
  2210.0000      8.0630      2.4456      0.1043     12.3900    104.2557     29.3399
  2210.2500      8.0341      2.4525      0.1041     11.9687    100.2017     29.0244
  2210.5000      8.0035      2.4642      0.0923     11.2634     96.2762     28.5417
  2210.7500      7.9930      2.4699      0.0798     10.9153     95.2854     28.2690
  2211.0000      7.9894      2.4702      0.0588     10.8989     95.7458     28.0543
  2211.2500      7.9880      2.4621      0.0444     11.3880     96.6906     28.1060
  2211.5000      7.9908      2.4356      0.0230     12.9969     97.9828     28.5328
  2211.7500      7.9955      2.4094      0.0109     14.5798     98.5040     29.0345
  2212.0000      8.0011      2.3644      0.0040     17.3093     98.9992     29.9874
  2212.2500      8.0113      2.3364      0.0128     19.0060     99.3204     30.6343
  2212.5000      8.0231      2.3079      0.0503     20.7333     99.6059     31.3930
  2212.7500      8.0209      2.3022      0.0871     21.0765     99.3290     31.6590
  2213.0000      8.0005      2.3159      0.1435     20.2499     97.9739     31.6479
  2213.2500      7.9844      2.3378      0.1720     18.9217     96.8192     31.4133
  2213.5000      7.9896      2.3829      0.1907     16.1870     95.8641     30.8745
  2213.7500      8.0054      2.4164      0.1859     14.1603     96.0805     30.4683
  2214.0000      8.0120      2.4644      0.1595     11.2510     96.8838     29.8343
  2214.2500      8.0032      2.4921      0.1359      9.5718     96.7617     29.3921
  2214.5000      7.9842      2.5248      0.1016      7.5852     94.4878     28.7262
  2214.7500      7.9591      2.5407      0.0825      6.6227     91.7729     28.3274
  2215.0000      7.9425      2.5568      0.0599      5.6482     87.2907     27.8832
  2215.2500      7.9389      2.5635      0.0490      5.2417     84.8868     27.7112
  2215.5000      7.9424      2.5696      0.0397      4.8707     82.9513     27.6027
  2215.7500      7.9472      2.5721      0.0384      4.7235     82.7252     27.5885
  2216.0000      7.9496      2.5741      0.0420      4.5989     83.3379     27.6167
  2216.2500      7.9479      2.5745      0.0463      4.5743     84.0828     27.6720
  2216.5000      7.9445      2.5736      0.0519      4.6333     85.6321     27.7877
  2216.7500      7.9434      2.5720      0.0531      4.7286     86.9249     27.8430
  2217.0000      7.9444      2.5692      0.0508      4.8981     89.0426     27.8488
  2217.2500      7.9452      2.5679      0.0487      4.9776     90.6769     27.8347
  2217.5000      7.9519      2.5678      0.0500      4.9792     94.1225     27.8807
  2217.7500      7.9596      2.5691      0.0560      4.9019     97.1316     27.9563
  2218.0000      7.9478      2.5717      0.0703      4.7462    101.3923     28.0156
  2218.2500      7.9186      2.5727      0.0788      4.6835    102.9916     27.9413
  2218.5000      7.9097      2.5719      0.0825      4.7329    102.8793     27.6368
  2218.7500      7.9241      2.5698      0.0783      4.8614    101.6826     27.3628
  2219.0000      7.9349      2.5656      0.0689      5.1164     99.7221     26.9953
  2219.2500      7.9391      2.5632      0.0658      5.2593     98.8866     26.8532
  2219.5000      7.9351      2.5620      0.0696      5.3304     98.4807     26.8438
  2219.7500      7.9171      2.5636      0.0753      5.2386     98.5153     26.9446
  2220.0000      7.8974      2.5706      0.0821      4.8091     98.4087     27.1345
  2220.2500      7.8911      2.5799      0.0835      4.2505     97.8835     27.2070
  2220.5000      7.9019      2.6035      0.0824      2.8186     95.8364     27.1502
  2220.7500      7.9205      2.6273      0.0819      1.3752     93.2798     26.9978
  2221.0000      7.9247      2.6747      0.0826     -1.4990     87.1423     26.6595
  2221.2500      7.9120      2.7108      0.0818     -3.6848     81.4833     26.4101
  2221.5000      7.8999      2.7602      0.0721     -6.6785     71.6627     26.0527
  2221.7500      7.8965      2.7819      0.0573     -7.9914     65.5837     25.8498
  2222.0000      7.9063      2.7870      0.0283     -8.3047     60.0326     25.6884
  2222.2500      7.9234      2.7711      0.0158     -7.3421     59.8646     25.7384
  2222.5000      7.9304      2.7258      0.0259     -4.5914     64.8006     26.0482
  2222.7500      7.9135      2.6886      0.0480     -2.3379     70.2808     26.3309
  2223.0000      7.8709      2.6343      0.0802      0.9508     78.9043     26.7281
  2223.2500      7.8411      2.6034      0.0909      2.8219     83.7790     26.9661
  2223.5000      7.8493      2.5677      0.0896      4.9888     89.3600     27.3592
  2223.7500      7.8708      2.5508      0.0826      6.0112     92.1434     27.6653
  2224.0000      7.8858      2.5353      0.0743      6.9487     95.2063     28.1221
  2224.2500      7.8911      2.5314      0.0747      7.1858     96.6614     28.3703
  2224.5000      7.8915      2.5348      0.0863      6.9813     98.4776     28.6233
  2224.7500      7.8902      2.5424      0.0987      6.5223     99.7034     28.7256
  2225.0000      7.8891      2.5586      0.1159      5.5405    101.3946     28.8260
  2225.2500      7.8892      2.5700      0.1215      4.8484    102.0787     28.8899
  2225.5000      7.8941      2.5836      0.1183      4.0242    102.3555     29.0126
  2225.7500      7.9200      2.5885      0.1103      3.7270    102.4996     29.0889
  2226.0000      7.9655      2.5886      0.0954      3.7196    103.3350     29.0721
