~Version Information
VERS.                      2.0: CWLS Log ASCII Standard - VERSION 2.0
WRAP.                       NO: One line per depth step
~Well Information Block
STRT.FT               954.4000: 
STOP.FT              2380.0000: 
STEP.FT                 0.1000: 
NULL.                -999.2500: 
COMP.          Petrogulf Corporation: COMPANY
WELL.             State 16-24V: WELL
FLD.           Purgatorie River: FIELD
LOC.           481' FSL & 2419' FWL: LOCATION
CNTY.               Las Animas: COUNTY
SRVC.                         : SERVICE COMPANY
DATE.          Tue May 04 07:31:25 2004: LOG DATE
UWI.           05 071 08014 00: UNIQUE WELL ID
STAT.                 Colorado: STATE
~Curve Information Block
DEPT.FT            0 000 00 00: Depth
DCAL.in                       : CDL Caliper
RHOB.g/cc                     : CDL Bulk Density
RHOC.g/cc                     : CDL Density Correction
DPOR.pu                       : CDL Density Porosity
GR.GAPI                       : Gamma Ray
~Parameter Information Block
~A  Depth       DCAL        RHOB        RHOC        DPOR         GR     
# ...
  1615.2000      7.8352      2.4185      0.1089     14.0282    187.7745
  1615.3000      7.8801      2.3598      0.1246     17.5875    186.5313
  1615.4000      7.8801      2.3192      0.0293     20.0465    198.1154
  1615.5000      7.9282      2.2974      0.1052     21.3720    210.5226
  1615.6000      7.9282      2.2428      0.1787     24.6798    203.5842
  1615.7000      7.9282      2.1282      0.0911     31.6226    187.2948
  1615.8000      7.9909      2.0027      0.0656     39.2327    177.7190
  1615.9000      7.9909      1.9078      0.1528     44.9831    165.7574
  1616.0000      8.0232      1.8201      0.1775     50.2974    145.5182
  1616.1000      8.0232      1.6962      0.1308     57.8088    135.8885
  1616.2000      8.0232      1.5289      0.0347     67.9434    143.7221
  1616.3000      7.9770      1.3591     -0.0499     78.2361    146.3372
  1616.4000      7.9770      1.2329      0.0084     85.8832    134.3090
  1616.5000      8.0203      1.1772      0.0137     89.2578    122.3532
  1616.6000      8.0203      1.2338     -0.0064     85.8319    117.0111
  1616.7000      8.0203      1.4337      0.2020     73.7134    111.0032
  1616.8000      8.1605      1.7127      0.4748     56.8051    107.3580
  1616.9000      8.1605      1.9527      0.5662     42.2583    113.8297
  1617.0000      8.2951      2.1035      0.5767     33.1242    122.8334
  1617.1000      8.2951      2.1823      0.5713     28.3458    125.0186
  1617.2000      8.2951      2.1944      0.5777     27.6101    127.4909
  1617.3000      8.7526      2.1322      0.4303     31.3844    140.5788
  1617.4000      8.7526      2.0469      0.1790     36.5513    159.8049
  1617.5000      9.0578      2.0447      0.0034     36.6866    174.2674
  1617.6000      9.0578      2.1656      0.0108     29.3547    181.3179
  1617.7000      9.0578      2.3228      0.1327     19.8326    181.4547
  1617.8000      8.9285      2.4127      0.2055     14.3800    176.3840
  1617.9000      8.9285      2.4312      0.1014     13.2615    175.6294
  1618.0000      8.1795      2.4336      0.1037     13.1129    181.4860
  1618.1000      8.1795      2.4474      0.1802     12.2817    184.3242
  1618.2000      8.1795      2.4647      0.1975     11.2304    181.9214
  1618.3000      7.9286      2.4794      0.1531     10.3368    186.5087
  1618.4000      7.9286      2.5033      0.0132      8.8908    195.1822
  1618.5000      7.9164      2.5388      0.1275      6.7423    191.2940
  1618.6000      7.9164      2.5628      0.0692      5.2878    179.3898
  1618.7000      7.9164      2.5640      0.1508      5.2128    166.1062
  1618.8000      7.9091      2.5547      0.0808      5.7787    150.1905
  1618.9000      7.9091      2.5520      0.1157      5.9367    139.4243
  1619.0000      7.8850      2.5573      0.0639      5.6203    143.0514
  1619.1000      7.8850      2.5661      0.0539      5.0845    154.4532
  1619.2000      7.8850      2.5865      0.0616      3.8459    153.3010
  1619.3000      7.8558      2.6144      0.1876      2.1593    134.9645
  1619.4000      7.8558      2.6273      0.1677      1.3746    114.6531
  1619.5000      7.8527      2.6284      0.0731      1.3120    104.8962
  1619.6000      7.8527      2.6314      0.1622      1.1276    104.4653
  1619.7000      7.8527      2.6194      0.0657      1.8538    104.9555
  1619.8000      7.8496      2.5854      0.0255      3.9145    104.2347
  1619.9000      7.8496      2.5632     -0.0360      5.2587    106.6397
  1620.0000      7.8536      2.5768      0.0746      4.4367    109.5568
  1620.1000      7.8536      2.6010      0.1285      2.9670    106.8193
  1620.2000      7.8536      2.6092      0.0866      2.4757    103.9998
  1620.3000      7.8423      2.6101      0.0913      2.4160    110.2467
  1620.4000      7.8423      2.6189      0.0153      1.8873    121.4719
  1620.5000      7.8269      2.6231      0.1388      1.6293    129.7792
  1620.6000      7.8269      2.5949      0.1353      3.3393    131.9682
  1620.7000      7.8269      2.5471      0.0873      6.2334    131.7175
  1620.8000      7.7911      2.5281     -0.0138      7.3876    136.9229
  1620.9000      7.7911      2.5504      0.1038      6.0353    143.7815
  1621.0000      7.8126      2.5771      0.0943      4.4159    146.5195
  1621.1000      7.8126      2.5796      0.1346      4.2671    147.5976
  1621.2000      7.8126      2.5669      0.1541      5.0367    153.0718
  1621.3000      7.8514      2.5477      0.2346      6.2025    167.3711
  1621.4000      7.8514      2.4886      0.2773      9.7789    187.4256
  1621.5000      7.8595      2.3749      0.1882     16.6724    197.9880
  1621.6000      7.8595      2.2640      0.0687     23.3929    189.8477
  1621.7000      7.8595      2.2253      0.1124     25.7390    180.8364
  1621.8000      7.8625      2.2763      0.1713     22.6510    184.3408
  1621.9000      7.8625      2.3997      0.2174     15.1703    189.3051
  1622.0000      7.8762      2.5657      0.3008      5.1061    183.2295
  1622.1000      7.8762      2.7071      0.5430     -3.4591    173.4364
  1622.2000      7.8762      2.7582      0.4688     -6.5579    167.5486
  1622.3000      7.9459      2.7365      0.3891     -5.2432    164.9213
  1622.4000      7.9459      2.6923      0.4102     -2.5635    165.1019
  1622.5000      8.0093      2.6534      0.2790     -0.2039    163.6699
  1622.6000      8.0093      2.6357      0.2573      0.8655    153.0833
  1622.7000      8.0093      2.6371      0.1945      0.7821    137.1721
  1622.8000      8.0284      2.6468      0.1283      0.1967    127.6295
  1622.9000      8.0284      2.6570      0.0854     -0.4225    127.3608
  1623.0000      7.9147      2.6577      0.1315     -0.4674    135.4402
  1623.1000      7.9147      2.6339      0.2022      0.9745    148.4767
  1623.2000      7.9147      2.5822      0.1331      4.1101    154.6893
  1623.3000      7.8803      2.5307      0.0670      7.2285    152.7525
  1623.4000      7.8803      2.5050      0.0589      8.7884    152.1164
  1623.5000      7.9041      2.4899      0.0983      9.7047    154.3394
  1623.6000      7.9041      2.4673     -0.0146     11.0744    158.7604
  1623.7000      7.9041      2.4462      0.1278     12.3512    163.0334
  1623.8000      7.9044      2.4313      0.0079     13.2534    160.7929
  1623.9000      7.9044      2.4198      0.0443     13.9519    152.2987
  1624.0000      7.9151      2.4081      0.0238     14.6586    149.2603
  1624.1000      7.9151      2.3937      0.0593     15.5345    158.0608
  1624.2000      7.9151      2.3736      0.0825     16.7487    169.0551
  1624.3000      7.9221      2.3422      0.0569     18.6528    170.1672
  1624.4000      7.9221      2.2992      0.0531     21.2600    158.1784
  1624.5000      7.9424      2.2497     -0.0679     24.2597    147.2040
  1624.6000      7.9424      2.1861      0.0346     28.1132    154.9272
  1624.7000      7.9424      2.1017      0.0238     33.2301    174.2566
  1624.8000      8.0042      2.0141      0.1138     38.5381    182.7223
  1624.9000      8.0042      1.9403      0.0219     43.0133    174.1231
  1625.0000      8.0282      1.8966      0.0102     45.6595    157.8437
  1625.1000      8.0282      1.8982      0.0301     45.5645    139.1184
  1625.2000      8.0282      1.9501      0.0357     42.4155    127.4603
  1625.3000      8.0473      2.0408      0.2268     36.9222    130.4073
  1625.4000      8.0473      2.1270      0.3989     31.6978    142.0948
  1625.5000      8.0985      2.1923      0.2927     27.7369    152.6513
  1625.6000      8.0985      2.2755      0.3706     22.6961    159.1215
  1625.7000      8.0985      2.3875      0.4492     15.9101    167.3307
  1625.8000      8.0833      2.4850      0.3422      9.9973    177.3582
  1625.9000      8.0833      2.5412      0.1814      6.5936    182.2523
  1626.0000      8.0937      2.5709      0.2307      4.7918    180.3632
  1626.1000      8.0937      2.5690      0.3399      4.9081    177.6582
  1626.2000      8.0937      2.5182      0.1907      7.9870    178.1049
  1626.3000      8.0139      2.4605      0.1115     11.4848    178.5068
