~Version Information
VERS.                      2.0: CWLS Log ASCII Standard - VERSION 2.0
WRAP.                       NO: One line per depth step
~Well Information Block
STRT.FT                -8.0000: 
STOP.FT               973.2500: 
STEP.FT                 0.2500: 
NULL.                -999.2500: 
COMP.          Pioneer Natural Resources: COMPANY
WELL.              Oscar 41-31: WELL
FLD.           Purgatorie River: FIELD
LOC.           412' FNL & 1216' FEL--: LOCATION
PROV.                       CO: PROVINCE
CNTY.               Las Animas: COUNTRY
SRVC.          Patterson Wireline: SERVICE COMPANY
DATE.          Wed Mar 02 12:29:08 2005: LOG DATE
UWI.           05 071 08290 00: UNIQUE WELL ID
~Curve Information Block
DEPT.FT            0 000 00 00: Depth
CCL.                          : Casing Collar Locator
TT5.usec                      : CBL 5' Travel Time
AMP3.mV                       : CBL 3' Amplitude
GR.GAPI                       : Gamma Ray
~Parameter Information Block
~A  Depth       CCL         TT5         AMP3         GR     
# ...
   863.0000      0.0000   1200.0000      2.9259     82.7017
   863.2500      0.0000   1200.0000      2.9970     81.2482
   863.5000      0.0000   1200.0000      3.0434     77.5342
   863.7500      0.0000   1200.0000      3.0908     73.6251
   864.0000      0.0000   1200.0000      3.1474     71.0459
   864.2500      0.0000   1200.0000      3.1975     70.3521
   864.5000      0.0000   1200.0000      3.2225     71.2327
   864.7500      0.0000   1200.0000      3.2242     72.8579
   865.0000      0.0000   1200.0000      3.2297     74.3365
   865.2500      0.0000   1200.0000      3.2676     75.2579
   865.5000      0.0000   1200.0000      3.3385     75.8655
   865.7500      0.0000   1200.0000      3.4193     76.4753
   866.0000      0.0000   1200.0000      3.4937     76.8256
   866.2500      0.0000   1145.9016      3.5582     76.2445
   866.5000      0.0000   1200.0000      3.6069     74.3915
   866.7500      0.0000   1178.0585      3.6304     71.7114
   867.0000      0.0000   1174.4229      3.6191     69.2605
   867.2500      0.0000   1172.5500      3.5576     68.1308
   867.5000      0.0000   1200.0000      3.4346     68.7548
   867.7500      0.0000   1200.0000      3.2676     70.4247
   868.0000      0.0000   1178.6400      3.1087     71.5528
   868.2500      0.0000   1200.0000      3.0204     70.7658
   868.5000      0.0000   1200.0000      3.0377     68.0738
   868.7500      0.0000   1200.0000      3.1426     65.1690
   869.0000      0.0000   1200.0000      3.2760     64.5092
   869.2500      0.0000   1200.0000      3.3774     67.6915
   869.5000      0.0000   1200.0000      3.4145     74.2263
   869.7500      0.0000   1200.0000      3.3874     81.6944
   870.0000      0.0000   1200.0000      3.3183     87.3884
   870.2500      0.0000   1200.0000      3.2359     90.2619
   870.5000      0.0000   1200.0000      3.1648     91.5654
   870.7500      0.0000   1200.0000      3.1145     93.5475
   871.0000      0.0000   1200.0000      3.0741     97.4127
   871.2500      0.0000   1200.0000      3.0256    102.3262
   871.5000      0.0000   1200.0000      2.9677    106.0723
   871.7500      0.0000   1200.0000      2.9189    106.5826
   872.0000      0.0000   1200.0000      2.8979    103.2572
   872.2500      0.0000   1200.0000      2.9076     97.2593
   872.5000      0.0000   1200.0000      2.9395     90.6521
   872.7500      0.0000   1200.0000      2.9816     85.3184
   873.0000      0.0000   1200.0000      3.0192     82.5234
   873.2500      0.0000   1200.0000      3.0376     82.6237
   873.5000      0.0000   1200.0000      3.0329     84.4267
   873.7500      0.0000   1200.0000      3.0099     85.3336
   874.0000      0.0000   1200.0000      2.9687     83.1492
   874.2500      0.0000   1200.0000      2.9010     77.9107
   874.5000      0.0000   1200.0000      2.8010     71.7119
   874.7500      0.0000   1200.0000      2.6805     66.9519
   875.0000      0.0000   1200.0000      2.5698     64.8661
   875.2500      0.0000   1200.0000      2.4998     65.2326
   875.5000      0.0000   1200.0000      2.4837     67.0848
   875.7500      0.0000   1200.0000      2.5226     69.6680
   876.0000      0.0000   1139.6979      2.6132     72.7596
   876.2500      0.0000   1099.2000      2.7352     76.2943
   876.5000      0.0000   1090.0536      2.8464     80.0639
   876.7500      0.0000   1084.5565      2.9035     83.7598
   877.0000      0.0000   1043.6154      2.8860     86.9645
   877.2500      0.0000   1078.9762      2.8014     89.1389
   877.5000      0.0000   1169.2603      2.6761     89.8798
   877.7500      0.0000   1200.0000      2.5417     89.1069
   878.0000      0.0000   1200.0000      2.4244     86.9338
   878.2500      0.0000   1200.0000      2.3395     83.5459
   878.5000      0.0000   1200.0000      2.2884     79.2075
   878.7500      0.0000   1200.0000      2.2603     74.2790
   879.0000      0.0000   1200.0000      2.2407     69.2880
   879.2500      0.0000   1200.0000      2.2245     65.0544
   879.5000      0.0000   1200.0000      2.2228     62.5187
   879.7500      0.0000   1200.0000      2.2491     62.1905
   880.0000      0.0000   1200.0000      2.3008     63.7345
   880.2500      0.0000   1200.0000      2.3644     66.1782
   880.5000      0.0000   1200.0000      2.4405     68.4136
   880.7500      0.0000   1200.0000      2.5429     69.4911
   881.0000      0.0000   1200.0000      2.6717     68.8270
   881.2500      0.0000   1200.0000      2.8043     66.5767
   881.5000      0.0000   1169.8182      2.9180     63.7814
   881.7500      0.0000   1170.0256      3.0130     61.7910
   882.0000      0.0000   1172.0143      3.1060     61.4067
   882.2500      0.0000   1200.0000      3.2040     62.6492
   882.5000      0.0000   1190.3411      3.2842     65.2460
   882.7500      0.0000   1200.0000      3.3110     69.1081
   883.0000      0.0000   1191.4828      3.2777     74.2373
   883.2500      0.0000   1200.0000      3.2152     80.2025
   883.5000      0.0000   1200.0000      3.1585     85.9238
   883.7500      0.0000   1200.0000      3.1182     90.4089
   884.0000      0.0000   1200.0000      3.0835     93.8799
   884.2500      0.0000   1200.0000      3.0370     97.7609
   884.5000      0.0000   1200.0000      2.9675    103.0507
   884.7500      0.0000   1200.0000      2.8791    108.8192
   885.0000      0.0000   1200.0000      2.7895    112.8441
   885.2500      0.0000   1200.0000      2.7170    113.9478
   885.5000      0.0000   1200.0000      2.6712    113.3415
   885.7500      0.0000   1172.6914      2.6499    113.2938
   886.0000      0.0000   1200.0000      2.6380    114.5859
   886.2500      0.0000   1200.0000      2.6178    115.6619
   886.5000      0.0000   1200.0000      2.5884    114.3028
   886.7500      0.0000   1200.0000      2.5646    109.8345
   887.0000      0.0000   1200.0000      2.5521    103.5715
   887.2500      0.0000   1200.0000      2.5361     97.3661
   887.5000      0.0000   1200.0000      2.5026     92.1029
   887.7500      0.0000   1200.0000      2.4630     87.6064
   888.0000      0.0000   1200.0000      2.4475     83.6030
   888.2500      0.0000   1200.0000      2.4798     80.5064
   888.5000      0.0000   1200.0000      2.5579     79.5023
   888.7500      0.0000   1200.0000      2.6520     81.9614
   889.0000      0.0000   1200.0000      2.7171     88.3122
   889.2500      0.0000   1200.0000      2.7222     97.1567
   889.5000      0.0000   1200.0000      2.6781    105.6830
   889.7500      0.0000   1200.0000      2.6366    111.1848
   890.0000      0.0000   1167.0526      2.6545    112.3968
   890.2500      0.0000   1167.8958      2.7517    109.7909
   890.5000      0.0000   1200.0000      2.9067    104.9810
   890.7500      0.0000   1200.0000      3.0799     99.9409
   891.0000      0.0000   1200.0000      3.2291     96.3587
   891.2500      0.0000   1200.0000      3.3087     94.9464
   891.5000      0.0000   1200.0000      3.2866     94.9667
   891.7500      0.0000   1200.0000      3.1760     94.6954
   892.0000      0.0000   1200.0000      3.0354     92.6435
   892.2500      0.0000   1200.0000      2.9209     88.4456
   892.5000      0.0000   1200.0000      2.8431     82.8480
   892.7500      0.0000   1200.0000      2.7764     77.3294
   893.0000      0.0000   1200.0000      2.7078     73.7646
   893.2500      0.0000   1191.2000      2.6650     73.6771
   893.5000      0.0000   1200.0000      2.6909     76.9680
   893.7500      0.0000   1186.9518      2.7943     81.4686
   894.0000      0.0000   1200.0000      2.9295     84.2956
   894.2500      0.0000   1133.8108      3.0248     83.8546
   894.5000      0.0000   1187.8750      3.0368     80.6408
   894.7500      0.0000   1200.0000      2.9822     76.4119
   895.0000      0.0000   1082.8392      2.9137     72.6390
   895.2500      0.0000   1200.0000      2.8688     69.4972
   895.5000      0.0000   1080.5197      2.8404     66.2032
   895.7500      0.0000   1123.1666      2.7907     62.2050
   896.0000      0.0000   1200.0000      2.6902     57.8043
   896.2500      0.0000   1200.0000      2.5563     53.7913
