~Version Information
VERS.                      2.0: CWLS Log ASCII Standard - VERSION 2.0
WRAP.                       NO: One line per depth step
~Well Information Block
STRT.FT               -11.5000: 
STOP.FT              2395.2500: 
STEP.FT                 0.2500: 
NULL.                -999.2500: 
COMP.          Petrogulf Corporation: COMPANY
WELL.            Montoya 7-21V: WELL
FLD.           Purgatorie River: FIELD
LOC.           738' FSL & 2070' FWL--: LOCATION
CNTY.               Las Animas: COUNTY
SRVC.                         : SERVICE COMPANY
DATE.          Mon Aug 30 15:10:00 2004: LOG DATE
UWI.                          : UNIQUE WELL ID
STAT.                       CO: STATE
~Curve Information Block
DEPT.FT            0 000 00 00: Depth
CCL.                          : Casing Collar Locator
TT3.usec                      : CBL 3' Travel Time
AMP3.mV                       : CBL 3' Amplitude
GR.GAPI                       : Gamma Ray
~Parameter Information Block
~A  Depth       CCL         TT3         AMP3         GR     
# ...
  2065.5000      0.0000    706.1991      3.0525     77.9783
  2065.7500      0.0000    703.7039      3.0919     80.7165
  2066.0000      0.0000    697.5627      2.9713     85.3438
  2066.2500      0.0000    691.4650      2.7704     92.1719
  2066.5000      0.0000    688.2358      2.6143    100.5845
  2066.7500      0.0000    688.0698      2.5646    108.1916
  2067.0000      0.0000    689.6467      2.5821    112.3229
  2067.2500      0.0000    691.9402      2.5918    112.1879
  2067.5000      0.0000    694.5156      2.5635    108.9133
  2067.7500      0.0000    696.8491      2.5274    103.9249
  2068.0000      0.0000    698.2593      2.5283     98.3463
  2068.2500      0.0000    698.4745      2.5782     93.5549
  2068.5000      0.0000    697.8499      2.6413     90.7074
  2068.7500      0.0000    697.0154      2.6480     89.3311
  2069.0000      0.0000    696.4360      2.5355     87.6369
  2069.2500      0.0000    696.2353      2.3057     84.8486
  2069.5000      0.0000    696.1625      2.0484     82.4293
  2069.7500      0.0000    695.4544      1.8914     82.6558
  2070.0000      0.0000    692.6603      1.9079     86.6437
  2070.2500      0.0000    686.1945      2.0670     93.8123
  2070.5000      0.0000    676.0861      2.2675    102.2841
  2070.7500      0.0000    665.4787      2.4170    109.4206
  2071.0000      0.0000    659.4248      2.4847    112.7684
  2071.2500      0.0000    661.1187      2.4920    111.2845
  2071.5000      0.0000    669.2119      2.4630    105.8064
  2071.7500      0.0000    678.8657      2.3941     98.4730
  2072.0000      0.0000    685.0219      2.2728     91.8236
  2072.2500      0.0000    684.7137      2.1156     87.9135
  2072.5000      0.0000    677.4012      1.9745     87.4690
  2072.7500      0.0000    664.7678      1.9047     89.5697
  2073.0000      0.0000    651.0391      1.9213     92.3636
  2073.2500      0.0000    642.3835      1.9852     94.3602
  2073.5000      0.0000    643.5867      2.0293     95.2728
  2073.7500      0.0000    654.1681      2.0069     95.7860
  2074.0000      0.0000    668.3300      1.9303     96.6400
  2074.2500      0.0000    678.8635      1.8672     97.9678
  2074.5000      0.0000    680.8981      1.8915     99.1441
  2074.7500      0.0000    673.5484      2.0298     98.9322
  2075.0000      0.0000    660.1854      2.2442     96.2368
  2075.2500      0.0000    646.9931      2.4568     91.2394
  2075.5000      0.0000    639.0891      2.5917     85.5131
  2075.7500      0.0000    637.0611      2.6133     80.7522
  2076.0000      0.0000    638.2532      2.5477     77.5437
  2076.2500      0.0000    641.5089      2.4773     75.2778
  2076.5000      0.0000    648.6155      2.4977     72.9098
  2076.7500      0.0000    660.2872      2.6578     69.8481
  2077.0000      0.0000    673.1870      2.9236     66.4191
  2077.2500      0.0000    682.9125      3.2008     63.5246
  2077.5000      0.0000    688.4968      3.3971     61.8513
  2077.7500      0.0000    692.2880      3.4703     61.5843
  2078.0000      0.0000    696.3784      3.4324     62.9824
  2078.2500      0.0000    700.6324      3.3271     66.8308
  2078.5000      0.0000    703.7673      3.2132     73.6530
  2078.7500      0.0000    705.1181      3.1539     82.3989
  2079.0000      0.0000    705.0535      3.1864     90.5704
  2079.2500      0.0000    704.0787      3.2977     96.1130
  2079.5000      0.0000    701.8796      3.4581     98.9858
  2079.7500      0.0000    697.4886      3.6801    100.7096
  2080.0000      0.0000    690.5581      4.0049    102.6914
  2080.2500      0.0000    682.4557      4.4180    105.1804
  2080.5000      0.0000    676.0256      4.8139    107.3771
  2080.7500      0.0000    673.2371      5.0661    108.0759
  2081.0000      0.0000    672.1736      5.1179    106.3632
  2081.2500      0.0000    667.9927      5.0052    102.0885
  2081.5000      0.0000    658.5167      4.8121     95.8721
  2081.7500      0.0000    647.1595      4.6156     88.8951
  2082.0000      0.0000    639.2207      4.4543     82.6183
  2082.2500      0.0000    638.0226      4.3295     78.2164
  2082.5000      0.0000    644.7819      4.2326     75.9805
  2082.7500      0.0000    657.4207      4.1606     75.4623
  2083.0000      0.0000    668.8201      4.1050     76.1877
  2083.2500      0.0000    670.6352      4.0383     77.8414
  2083.5000      0.0000    660.0656      3.9187     79.7794
  2083.7500      0.0000    641.1410      3.7135     81.0315
  2084.0000      0.0000    620.7609      3.4271     81.0867
  2084.2500      0.0000    605.9083      3.1091     80.2536
  2084.5000      0.0000    602.7621      2.8278     79.0631
  2084.7500      0.0000    613.6217      2.6297     77.7678
  2085.0000      0.0000    633.7033      2.5201     76.6158
  2085.2500      0.0000    653.9931      2.4666     76.1853
  2085.5000      0.0000    668.6086      2.4162     77.0738
  2085.7500      0.0000    678.3519      2.3222     79.3513
  2086.0000      0.0000    687.2148      2.1640     82.4940
  2086.2500      0.0000    697.0585      1.9604     85.7152
  2086.5000      0.0000    706.0125      1.7757     88.0097
  2086.7500      0.0000    710.9188      1.6948     88.0202
  2087.0000      0.0000    710.6443      1.7553     84.6161
  2087.2500      0.0000    706.9709      1.8955     78.1327
  2087.5000      0.0000    702.6681      1.9966     70.8246
  2087.7500      0.0000    699.2471      1.9941     65.7212
  2088.0000      0.0000    696.6365      1.9336     64.7564
  2088.2500      0.0000    694.3054      1.8983     67.5588
  2088.5000      0.0000    692.1426      1.9020     71.6710
  2088.7500      0.0000    690.4221      1.8756     74.2566
  2089.0000      0.0000    689.3027      1.7559     74.2125
  2089.2500      0.0000    688.4671      1.5614     72.6840
  2089.5000      0.0000    687.2178      1.3782     71.4634
  2089.7500      0.0000    685.1899      1.2821     71.2945
  2090.0000      0.0000    683.1317      1.2838     71.9393
  2090.2500      0.0000    682.4603      1.3378     73.2537
  2090.5000      0.0000    683.3615      1.3892     75.4277
  2090.7500      0.0000    683.8261      1.4144     78.1189
  2091.0000      0.0000    681.7445      1.4341     80.1499
  2091.2500      0.0000    677.8300      1.4979     80.7565
  2091.5000      0.0000    675.3083      1.6418     80.8038
  2091.7500      0.0000    676.6404      1.8464     82.0816
  2092.0000      0.0000    681.4531      2.0464     85.6028
  2092.2500      0.0000    687.7997      2.1888     91.0556
  2092.5000      0.0000    694.5961      2.2696     97.3766
  2092.7500      0.0000    702.3330      2.3167    103.1093
  2093.0000      0.0000    711.6512      2.3599    106.5141
  2093.2500      0.0000    721.6121      2.4179    106.2750
  2093.5000      0.0000    729.5315      2.4883    102.3915
  2093.7500      0.0000    732.7310      2.5353     96.1813
  2094.0000      0.0000    730.6671      2.5079     89.4605
  2094.2500      0.0000    725.2622      2.3966     83.6968
  2094.5000      0.0000    719.0770      2.2672     79.5070
  2094.7500      0.0000    713.5310      2.2141     76.5428
  2095.0000      0.0000    709.0790      2.2711     74.0484
  2095.2500      0.0000    706.2343      2.3870     71.8901
  2095.5000      0.0000    705.4599      2.5005     70.9025
  2095.7500      0.0000    706.4147      2.6192     71.8590
  2096.0000      0.0000    708.1927      2.7998     74.2794
  2096.2500      0.0000    710.3697      3.0620     76.6949
  2096.5000      0.0000    713.5215      3.3509     78.1635
  2096.7500      0.0000    718.7640      3.5825     79.2152
  2097.0000      0.0000    726.5128      3.6994     80.9134
  2097.2500      0.0000    735.0994      3.7015     83.0772
  2097.5000      0.0000    740.8241      3.6541     84.3154
  2097.7500      0.0000    740.5164      3.6465     84.2506
  2098.0000      0.0000    734.4629      3.7050     84.6052
  2098.2500      0.0000    726.2122      3.7574     87.1637
  2098.5000      0.0000    719.4208      3.7059     91.4689
  2098.7500      0.0000    715.3568      3.5237     95.3106
