~Version Information
VERS.                      2.0: CWLS Log ASCII Standard - VERSION 2.0
WRAP.                       NO: One line per depth step
~Well Information Block
STRT.FT                -9.2500: 
STOP.FT              2685.7500: 
STEP.FT                 0.2500: 
NULL.                -999.2500: 
COMP.          Pioneer Natural Resources: COMPANY
WELL.          Beacon 11-18 Tr: WELL
FLD.           Purgatorie River: FIELD
LOC.           409' FNL & 203' FWL--: LOCATION
PROV.                       CO: PROVINCE
CNTY.               Las Animas: COUNTRY
SRVC.                         : SERVICE COMPANY
DATE.          Fri Jan 21 09:45:44 2005: LOG DATE
UWI.        005 071 08251  : UNIQUE WELL ID
~Curve Information Block
DEPT.FT            0 000 00 00: Depth
CCL.                          : Casing Collar Locator
TT3.usec                      : CBL 3' Travel Time
AMP3.mV                       : CBL 3' Amplitude
GR.GAPI                       : Gamma Ray
~Parameter Information Block
~A  Depth       CCL         TT3         AMP3         GR     
# ...
   861.7500      0.0000    744.5466      8.2572     74.6242
   862.0000      0.0000    744.3532      8.3432     75.7952
   862.2500      0.0000    744.2967      8.3962     80.5766
   862.5000      0.0000    744.2710      8.4120     86.9384
   862.7500      0.0000    744.1431      8.3892     92.4404
   863.0000      0.0000    743.8759      8.3363     95.2367
   863.2500      0.0000    743.5239      8.2688     94.5257
   863.5000      0.0000    743.0461      8.2004     90.8393
   863.7500      0.0000    742.0592      8.1379     86.0005
   864.0000      0.0000    739.7814      8.0858     82.2131
   864.2500      0.0000    735.4529      8.0518     80.8012
   864.5000      0.0000    729.1706      8.0490     81.7360
   864.7500      0.0000    722.4155      8.0903     84.0243
   865.0000      0.0000    717.4575      8.1768     86.3637
   865.2500      0.0000    715.9407      8.2872     87.8077
   865.5000      0.0000    717.9546      8.3841     88.1867
   865.7500      0.0000    722.3510      8.4375     87.8858
   866.0000      0.0000    727.6772      8.4454     87.0394
   866.2500      0.0000    732.6526      8.4285     85.0495
   866.5000      0.0000    736.0729      8.4065     81.3787
   866.7500      0.0000    736.8530      8.3809     76.8969
   867.0000      0.0000    734.5593      8.3383     73.7628
   867.2500      0.0000    729.9332      8.2663     73.4921
   867.5000      0.0000    724.6275      8.1678     75.4264
   867.7500      0.0000    720.0726      8.0631     77.4435
   868.0000      0.0000    716.6268      7.9769     78.0699
   868.2500      0.0000    714.1019      7.9174     77.6532
   868.5000      0.0000    712.8143      7.8637     77.3770
   868.7500      0.0000    713.5430      7.7707     77.5373
   869.0000      0.0000    716.4689      7.5992     77.4386
   869.2500      0.0000    720.5425      7.3622     76.8503
   869.5000      0.0000    723.9181      7.1386     76.5872
   869.7500      0.0000    724.9705      7.0141     77.1940
   870.0000      0.0000    723.2996      7.0076     77.8555
   870.2500      0.0000    719.9521      7.0783     77.4137
   870.5000      0.0000    716.2292      7.1826     76.0709
   870.7500      0.0000    712.2826      7.2902     75.2565
   871.0000      0.0000    707.3401      7.3691     75.9477
   871.2500     -2.0000    700.5911      7.3983     77.8773
   871.5000      2.0000    689.9062      7.3922     80.2886
   871.7500      0.0000    669.7429      7.4099     82.7294
   872.0000      0.0000    633.6228      7.5416     85.0087
   872.2500      0.0000    582.6921      7.8568     87.0426
   872.5000      0.0000    531.4166      8.3231     89.1958
   872.7500      0.0000    500.3935      8.7896     92.3680
   873.0000      0.0000    501.3666      9.0898     96.9364
   873.2500      0.0000    530.9938      9.1505    101.4835
   873.5000      0.0000    577.6664      8.9945    103.2614
   873.7500      0.0000    629.1492      8.6956    100.4172
   874.0000      0.0000    674.6030      8.3596     93.6314
   874.2500      0.0000    706.4514      8.1024     85.6406
   874.5000      0.0000    723.4549      7.9976     79.5917
   874.7500      0.0000    729.5515      8.0416     77.5419
   875.0000      0.0000    728.4136      8.1743     79.5650
   875.2500      0.0000    719.6957      8.3306     83.9484
   875.5000      0.0000    700.9958      8.4728     88.5306
   875.7500      0.0000    674.0936      8.5883     92.0025
   876.0000      0.0000    649.0755      8.6665     94.1212
   876.2500      0.0000    639.4984      8.6871     95.1794
   876.5000      0.0000    650.5695      8.6318     95.5598
   876.7500      0.0000    673.6987      8.5054     95.7004
   877.0000      0.0000    694.9479      8.3379     96.2011
   877.2500      0.0000    707.1389      8.1637     97.6114
   877.5000      0.0000    712.3358      7.9992     99.8970
   877.7500      0.0000    715.6924      7.8420    102.1788
   878.0000      0.0000    720.0612      7.6879    103.1825
   878.2500      0.0000    725.4324      7.5462    102.2388
   878.5000      0.0000    730.6718      7.4388     99.9489
   878.7500      0.0000    734.8017      7.3834     97.8617
   879.0000      0.0000    737.4284      7.3770     97.6193
   879.2500      0.0000    738.5842      7.3976    100.2285
   879.5000      0.0000    738.1873      7.4235    105.4123
   879.7500      0.0000    735.7583      7.4483    111.3914
   880.0000      0.0000    731.3596      7.4754    115.8742
   880.2500      0.0000    727.0339      7.5032    117.5073
   880.5000      0.0000    726.0135      7.5195    116.1775
   880.7500      0.0000    728.8476      7.5108    112.4640
   881.0000      0.0000    730.8455      7.4755    107.3970
   881.2500      0.0000    724.7668      7.4290    102.2542
   881.5000      0.0000    705.9102      7.4002     98.0517
   881.7500      0.0000    674.4247      7.4198     95.5427
   882.0000      0.0000    635.1221      7.5030     95.5464
   882.2500      0.0000    597.5535      7.6419     98.3462
   882.5000      0.0000    574.5847      7.8133    102.6513
   882.7500      0.0000    576.2278      7.9954    105.9835
   883.0000      0.0000    602.3670      8.1780    106.3934
   883.2500      0.0000    642.1319      8.3605    103.5758
   883.5000      0.0000    681.0348      8.5410     98.5974
   883.7500      0.0000    709.1649      8.7059     93.0944
   884.0000      0.0000    724.3688      8.8301     88.5835
   884.2500      0.0000    730.2886      8.8900     85.7465
   884.5000      0.0000    732.1559      8.8785     84.1552
   884.7500      0.0000    733.2443      8.8076     83.2613
   885.0000      0.0000    734.1556      8.6988     83.8114
   885.2500      0.0000    734.6772      8.5733     87.6493
   885.5000      0.0000    735.4219      8.4497     95.6643
   885.7500      0.0000    737.2177      8.3435    106.2417
   886.0000      0.0000    739.4752      8.2644    116.1258
   886.2500      0.0000    740.1431      8.2138    122.7570
   886.5000      0.0000    737.8312      8.1830    125.5735
   886.7500      0.0000    733.6193      8.1590    125.3272
   887.0000      0.0000    730.2183      8.1373    122.9787
   887.2500      0.0000    729.5640      8.1310    119.6912
   887.5000      0.0000    731.6597      8.1592    117.3238
   887.7500      0.0000    735.2488      8.2234    117.9023
   888.0000      0.0000    738.9048      8.2973    121.8207
   888.2500      0.0000    741.6775      8.3403    126.5746
   888.5000      0.0000    743.2641      8.3197    128.3115
   888.7500      0.0000    743.8380      8.2259    125.4915
   889.0000      0.0000    743.7462      8.0734    120.5443
   889.2500      0.0000    743.3218      7.8908    117.2420
   889.5000      0.0000    742.7808      7.7051    116.8007
   889.7500      0.0000    742.0206      7.5335    117.0016
   890.0000      0.0000    740.2697      7.3858    114.8204
   890.2500      0.0000    735.6923      7.2725    109.6067
   890.5000      0.0000    725.5205      7.2051    103.7898
   890.7500      0.0000    707.6377      7.1878    100.7351
   891.0000      0.0000    683.4869      7.2093    102.2495
   891.2500      0.0000    659.4882      7.2457    108.0198
   891.5000      0.0000    644.1011      7.2730    116.5137
   891.7500      0.0000    642.4645      7.2788    125.8293
   892.0000      0.0000    653.8947      7.2708    134.3463
   892.2500      0.0000    673.6996      7.2755    141.4339
   892.5000      0.0000    695.9916      7.3245    147.3921
   892.7500      0.0000    715.4598      7.4374    152.4067
   893.0000      0.0000    728.7603      7.6121    155.9892
   893.2500      0.0000    735.2095      7.8282    157.7971
   893.5000      0.0000    735.8783      8.0545    158.5580
   893.7500      0.0000    732.1554      8.2576    159.6975
   894.0000      0.0000    725.4225      8.4121    161.8658
   894.2500      0.0000    717.4856      8.5115    163.7993
   894.5000      0.0000    710.3993      8.5711    163.0693
   894.7500      0.0000    705.5695      8.6159    158.8011
   895.0000      0.0000    703.3204      8.6607    153.4494
