~Version Information
VERS.                      2.0: CWLS Log ASCII Standard - VERSION 2.0
WRAP.                       NO: One line per depth step
~Well Information Block
STRT.FT               811.0000: 
STOP.FT              2507.0000: 
STEP.FT                 0.1000: 
NULL.                -999.2500: 
COMP.          Petrogulf Corporation: COMPANY
WELL.               YWAM 7-32V: WELL
FLD.           Purgatoire River: FIELD
LOC.           2423' FNL & 2412' FEL: LOCATION
PROV.                 Colorado: PROVINCE
CNTY.               Las Animas: COUNTRY
SRVC.                Patterson: SERVICE COMPANY
DATE.          Mon Dec 15 07:18:47 2003: LOG DATE
UWI.                          : UNIQUE WELL ID
~Curve Information Block
DEPT.FT            0 000 00 00: Depth
DCAL.in                       : CDL Caliper
RHOB.g/cc                     : CDL Bulk Density
RHOC.g/cc                     : CDL Density Correction
DPOR.pu                       : CDL Density Porosity
NPOR.pu                       : Neutron Porosity
GR.GAPI                       : Gamma Ray
~Parameter Information Block
~A  Depth       DCAL        RHOB        RHOC        DPOR        NPOR         GR     
# ...
  1713.4000      8.2857      2.5462      0.0409      6.2918     20.1087    142.6260
  1713.5000      8.2702      2.5288      0.0269      7.3454     21.6352    140.6233
  1713.6000      8.2702      2.5226     -0.0043      7.7223     22.9916    137.6728
  1713.7000      8.2702      2.5152      0.0596      8.1676     23.1489    137.8923
  1713.8000      8.2637      2.5074     -0.0163      8.6418     21.9264    139.2355
  1713.9000      8.2637      2.5164      0.0240      8.0993     20.4711    140.7326
  1714.0000      8.2680      2.5402      0.0462      6.6560     20.2546    144.9360
  1714.1000      8.2680      2.5552      0.0576      5.7429     20.9775    147.3628
  1714.2000      8.2680      2.5451      0.0714      6.3593     21.0583    143.6266
  1714.3000      8.2691      2.5179      0.0305      8.0083     20.1600    136.9321
  1714.4000      8.2691      2.4956      0.0522      9.3604     19.2528    133.5120
  1714.5000      8.2677      2.4879      0.0364      9.8230     19.0205    137.8524
  1714.6000      8.2677      2.4969     -0.0077      9.2813     19.4740    145.6018
  1714.7000      8.2677      2.5146      0.0685      8.2058     19.9541    149.6160
  1714.8000      8.2713      2.5219      0.0484      7.7652     19.7706    147.2553
  1714.9000      8.2713      2.5175      0.0343      8.0287     19.4404    141.9443
  1715.0000      8.2697      2.5148      0.0434      8.1934     19.5410    140.7469
  1715.1000      8.2697      2.5150      0.0554      8.1822     19.7113    145.5561
  1715.2000      8.2697      2.5139      0.0395      8.2493     19.8219    150.2247
  1715.3000      8.2688      2.5163      0.0377      8.1006     20.3128    151.1580
  1715.4000      8.2688      2.5307      0.0468      7.2307     20.9253    151.1338
  1715.5000      8.2701      2.5541      0.0739      5.8094     20.9310    150.1380
  1715.6000      8.2701      2.5712      0.0624      4.7727     20.5864    148.2603
  1715.7000      8.2701      2.5714      0.0751      4.7613     20.9030    148.1796
  1715.8000      8.2757      2.5610      0.0322      5.3927     22.0559    149.2022
  1715.9000      8.2757      2.5521      0.0433      5.9332     23.0533    148.2926
  1716.0000      8.2818      2.5445      0.0572      6.3925     23.1092    145.3610
  1716.1000      8.2818      2.5360      0.0061      6.9072     22.7027    143.2040
  1716.2000      8.2818      2.5348      0.0277      6.9815     22.6503    143.4085
  1716.3000      8.2908      2.5477      0.0335      6.1992     22.8556    142.9893
  1716.4000      8.2908      2.5719      0.0474      4.7320     23.2385    140.4090
  1716.5000      8.2868      2.5909      0.0861      3.5834     23.9910    142.0468
  1716.6000      8.2868      2.5927      0.0364      3.4705     24.2767    150.8782
  1716.7000      8.2868      2.5844      0.0716      3.9781     23.6175    156.1796
  1716.8000      8.2885      2.5655      0.0739      5.1241     23.2395    149.9164
  1716.9000      8.2885      2.5317      0.0304      7.1711     23.5636    141.1128
  1717.0000      8.2854      2.4932      0.0029      9.5040     23.2524    135.4242
  1717.1000      8.2854      2.4613      0.0147     11.4336     22.0373    129.3950
  1717.2000      8.2854      2.4401     -0.0240     12.7221     21.4466    127.1726
  1717.3000      8.2817      2.4355     -0.0158     13.0000     21.9561    132.7071
  1717.4000      8.2817      2.4519     -0.0124     12.0053     22.3383    140.3447
  1717.5000      8.2887      2.4831      0.0210     10.1155     21.8900    144.0062
  1717.6000      8.2887      2.5140      0.0319      8.2431     21.0943    144.7961
  1717.7000      8.2887      2.5338      0.0778      7.0438     20.4746    146.0249
  1717.8000      8.2977      2.5439      0.0532      6.4291     20.3838    147.5882
  1717.9000      8.2977      2.5503      0.0605      6.0448     20.9929    146.0933
  1718.0000      8.2911      2.5513      0.1061      5.9831     22.2578    140.7530
  1718.1000      8.2911      2.5469      0.0610      6.2457     23.7233    135.4825
  1718.2000      8.2911      2.5421      0.0713      6.5387     24.5609    135.5769
  1718.3000      8.2891      2.5313      0.0623      7.1951     24.3726    139.3042
  1718.4000      8.2891      2.5153      0.0329      8.1627     23.5964    140.2242
  1718.5000      8.2872      2.5104      0.0382      8.4593     23.1390    139.0396
  1718.6000      8.2872      2.5169      0.0804      8.0683     23.3651    138.2097
  1718.7000      8.2872      2.5229      0.0436      7.7053     23.8512    135.6852
  1718.8000      8.2849      2.5280      0.0499      7.3935     24.0593    132.0064
  1718.9000      8.2849      2.5309      0.0680      7.2187     24.1267    133.5976
  1719.0000      8.2895      2.5273      0.0682      7.4338     24.4446    139.8486
  1719.1000      8.2895      2.5215      0.0524      7.7853     24.5886    141.2806
  1719.2000      8.2895      2.5176      0.0606      8.0223     24.3021    138.2487
  1719.3000      8.2908      2.5162      0.0345      8.1095     24.3537    139.4706
  1719.4000      8.2908      2.5158      0.0653      8.1314     24.8272    143.3860
  1719.5000      8.2950      2.5112      0.0648      8.4124     25.0206    141.6543
  1719.6000      8.2950      2.5079      0.0256      8.6150     24.9649    137.2192
  1719.7000      8.2950      2.5189      0.0490      7.9441     24.7283    138.1632
  1719.8000      8.3279      2.5329      0.1010      7.0981     23.9990    143.0099
  1719.9000      8.3279      2.5288      0.0699      7.3481     23.1168    145.5414
  1720.0000      8.3151      2.5172      0.0426      8.0456     22.5829    143.9266
  1720.1000      8.3151      2.5192      0.0648      7.9300     22.2129    139.6153
  1720.2000      8.3151      2.5294      0.0669      7.3078     21.8269    133.6931
  1720.3000      8.3078      2.5299      0.0743      7.2794     21.6882    130.0415
  1720.4000      8.3078      2.5177      0.0534      8.0160     21.7634    135.0222
  1720.5000      8.3071      2.5101      0.0416      8.4789     21.5130    144.7466
  1720.6000      8.3071      2.5174      0.0583      8.0393     20.9212    148.2635
  1720.7000      8.3071      2.5263      0.0795      7.4975     20.4966    145.4870
  1720.8000      8.3044      2.5245      0.0651      7.6085     20.3750    142.2007
  1720.9000      8.3044      2.5183      0.0372      7.9847     20.5538    139.4857
  1721.0000      8.2900      2.5166      0.0506      8.0869     20.7486    139.0041
  1721.1000      8.2900      2.5139      0.0779      8.2513     20.8320    141.3388
  1721.2000      8.2900      2.5065      0.0351      8.6966     21.4147    144.1339
  1721.3000      8.2915      2.5069      0.0376      8.6712     22.3394    146.1504
  1721.4000      8.2915      2.5175      0.0968      8.0274     22.4280    145.9647
  1721.5000      8.2868      2.5198      0.0903      7.8916     21.7027    143.6642
  1721.6000      8.2868      2.5053      0.0385      8.7700     21.4784    142.4769
  1721.7000      8.2868      2.4902     -0.0009      9.6858     22.0419    143.5909
  1721.8000      8.2887      2.4930      0.0007      9.5135     22.3300    145.4522
  1721.9000      8.2887      2.5140      0.0469      8.2449     21.7856    145.4872
  1722.0000      8.2880      2.5351      0.0783      6.9660     21.1132    141.3295
  1722.1000      8.2880      2.5417      0.0770      6.5628     21.1111    137.1207
  1722.2000      8.2880      2.5385      0.0256      6.7581     21.5545    137.5480
  1722.3000      8.2908      2.5329      0.0822      7.0944     21.4080    138.3592
  1722.4000      8.2908      2.5175      0.0939      8.0284     20.2407    136.1832
  1722.5000      8.2922      2.4928      0.0272      9.5271     18.9949    135.4245
  1722.6000      8.2922      2.4759      0.0245     10.5520     18.9540    139.3658
  1722.7000      8.2922      2.4742      0.0130     10.6519     20.0669    142.2368
  1722.8000      8.2896      2.4868     -0.0006      9.8915     21.0333    137.1721
  1722.9000      8.2896      2.5098      0.0249      8.4953     20.9292    128.9503
