~Version Information
 VERS.                                  2.0 : CWLS LAS VERSION
 WRAP.                                   NO : WRAPING MODE
 SWARE .                 MController 2.5.0J : SOFTWARE VERSION
~Well Information
 WELL.                         McLeod 9-42V: WELL
 COMP.                       Petrogulf Corp : COMPANY
 FLD.                       Purgatoire River: FIELD
 LOC.                  SE/NE Sec 9 T33S R67W: LOCATION
 DATE.                             11/11/04 : DATE(S) LOGGED
 SRVC.        Blanco Geological Services LLC: SERVICE COMPANY
 STAT.                                    CO: STATE
 CNTY.                            Las Animas: COUNTY
 CTRY.                                   USA: COUNTRY
 API.                           05-071-08071: API NUMBER
 STRT.FT                             424.00 : START DEPTH
 STOP.FT                            2270.00 : STOP DEPTH
 STEP.FT                               1.00 : DEPTH INCREMENT
 NULL.                                -9999 : NULL VALUE
~Curve information
 DEPTH.FT                                   :
 ROP.MIN/FT                                 :
 GAS.UNITS                                  :
~ASCII Log data
# ...
      1224.0         0.33        100.1 
      1225.0         0.63         71.7 
      1226.0     -9999.00         28.0 
      1227.0         0.20         26.6 
      1228.0         0.17         25.7 
      1229.0         0.20         26.0 
      1230.0         0.23         25.5 
      1231.0         0.28         25.9 
      1232.0         0.17         26.8 
      1233.0         0.27         26.4 
      1234.0         0.40         23.6 
      1235.0         0.33         23.5 
      1236.0         0.10         21.6 
      1237.0         0.23         23.5 
      1238.0         0.17         24.0 
      1239.0         0.17         27.5 
      1240.0         0.17         28.3 
      1241.0         0.23         31.1 
      1242.0         0.23         32.8 
      1243.0         0.27         34.0 
      1244.0         0.27         34.4 
      1245.0         0.27         34.2 
      1246.0         0.33         32.2 
      1247.0         0.33         29.4 
      1248.0         0.23         27.3 
      1249.0         0.25         24.1 
      1250.0         0.13         48.7 
      1251.0         0.35         87.4 
      1252.0         0.30        129.5 
      1253.0         0.27        147.8 
      1254.0         0.23        139.0 
      1255.0         0.37        105.0 
      1256.0         0.30         81.3 
      1257.0         0.30         62.5 
      1258.0         0.27         49.5 
      1259.0         0.30         36.3 
      1260.0         0.30         28.1 
      1261.0         0.37         22.1 
      1262.0         0.35         20.2 
      1263.0         0.40         17.8 
      1264.0         0.40         17.3 
      1265.0         0.27         17.6 
      1266.0         0.30         17.9 
      1267.0         0.40         17.5 
      1268.0         0.37         15.1 
      1269.0         0.43         12.1 
      1270.0         0.37         11.4 
      1271.0         0.35         11.2 
      1272.0         0.27         11.3 
      1273.0         0.30         11.6 
      1274.0         0.37         12.6 
      1275.0         0.30         14.8 
      1276.0         0.30         28.6 
      1277.0         0.37         49.1 
      1278.0         0.37         82.6 
      1279.0         0.30        127.2 
      1280.0         0.30        142.1 
      1281.0         0.28        130.6 
      1282.0         0.20        115.7 
      1283.0         0.20         99.4 
      1284.0         0.23         82.8 
      1285.0         0.20         70.3 
      1286.0         0.20         60.3 
      1287.0         0.30         49.6 
      1288.0         0.30         42.2 
      1289.0         0.30         35.8 
      1290.0         0.30         31.9 
      1291.0         0.17         31.5 
      1292.0         0.20         28.9 
      1293.0         0.17         28.2 
      1294.0         0.17         27.2 
      1295.0         0.13         25.8 
      1296.0         0.15         24.9 
      1297.0         0.13         24.2 
      1298.0         0.23         24.5 
      1299.0         0.47         25.1 
      1300.0         0.40         23.2 
      1301.0         0.20         23.5 
      1302.0         0.17         23.2 
      1303.0         0.17         22.4 
      1304.0         0.20         22.4 
      1305.0         0.20         22.4 
      1306.0         0.40        102.9 
      1307.0         0.80        174.5 
      1308.0         0.90         72.4 
      1309.0         1.03         38.0 
      1310.0         0.42         37.4 
      1311.0         0.57         34.0 
      1312.0         0.67         27.7 
      1313.0         0.67         27.0 
      1314.0         0.63         26.8 
      1315.0         0.57         23.6 
      1316.0         0.48         22.5 
      1317.0         0.43         20.9 
      1318.0         0.47         19.2 
      1319.0         0.40         19.4 
      1320.0         0.47         18.2 
      1321.0         0.57         16.6 
      1322.0         0.53         16.6 
      1323.0         0.55         18.3 
      1324.0         0.43         18.5 
      1325.0         0.33         19.3 
      1326.0         0.37         20.1 
      1327.0         0.30         19.5 
      1328.0         0.37         20.0 
      1329.0         0.63         21.2 
      1330.0         0.45         20.8 
      1331.0         0.40         20.7 
      1332.0         0.40         22.3 
      1333.0         0.33         21.2 
      1334.0         0.30         19.0 
      1335.0         0.20         18.1 
      1336.0         0.27         21.6 
      1337.0         0.40         43.2 
      1338.0         0.27         69.1 
      1339.0         0.53        125.5 
      1340.0         0.07        132.3 
      1341.0         0.10        141.6 
      1342.0         0.23        170.1 
      1343.0         0.27        254.9 
      1344.0         0.23        309.2 
      1345.0         0.17        310.3 
      1346.0         0.20        274.0 
      1347.0         0.18        228.8 
      1348.0         0.13        191.7 
      1349.0         0.13        160.3 
      1350.0         0.17        128.9 
      1351.0         0.17        106.8 
      1352.0         0.10         97.3 
      1353.0         0.13         86.8 
      1354.0         0.17         77.3 
      1355.0         0.13         70.9 
      1356.0         0.17         64.5 
      1357.0         0.17         57.9 
      1358.0         0.20         51.5 
      1359.0         0.13         48.3 
      1360.0         0.17         42.7 
      1361.0         0.20         39.6 
      1362.0         0.17         37.4 
      1363.0         0.20         37.8 
      1364.0         0.23         38.4 
      1365.0         0.27         40.1 
      1366.0         0.42         18.7 
      1367.0         0.20         16.9 
      1368.0         0.35         15.9 
      1369.0         0.07         15.5 
      1370.0         0.10         15.5 
      1371.0         0.10         16.8 
      1372.0         0.27         21.3 
      1373.0         0.27         30.7 
      1374.0         0.23         43.5 
      1375.0         0.20         53.0 
      1376.0         0.30         61.4 
      1377.0         0.50         58.3 
      1378.0         0.33         57.6 
      1379.0         0.27         56.1 
      1380.0         0.37         49.5 
      1381.0         0.52         40.4 
      1382.0         0.27         39.1 
      1383.0         0.33         38.4 
      1384.0         0.37         38.7 
      1385.0         0.30         37.7 
      1386.0         0.27         36.0 
      1387.0         0.23         34.5 
      1388.0         0.27         31.8 
      1389.0         0.37         30.0 
      1390.0         0.37         24.9 
      1391.0         0.35         22.1 
      1392.0         0.37         19.2 
      1393.0         0.37         16.9 
      1394.0         0.20         16.7 
      1395.0         0.20         16.4 
      1396.0         0.27         23.7 
      1397.0         0.20         35.2 
      1398.0         0.27         53.3 
      1399.0         0.23         71.9 
      1400.0         0.23         85.7 
      1401.0         0.28         89.4 
      1402.0         0.27         80.5 
      1403.0         0.30         70.1 
      1404.0         0.27         64.9 
      1405.0         0.20         62.1 
      1406.0         0.20         58.9 
      1407.0         0.20         54.2 
      1408.0         0.20         50.0 
      1409.0         0.23         44.3 
      1410.0         0.30         39.6 
      1411.0         0.33         38.9 
      1412.0         0.30         38.7 
      1413.0         0.30         39.2 
      1414.0         0.28         37.2 
      1415.0         0.23         35.5 
      1416.0         0.70         32.4 
      1417.0         0.30         29.3 
      1418.0         0.13         27.7 
      1419.0         2.22         18.7 
      1420.0         0.33         15.4 
      1421.0         0.30         15.4 
      1422.0         0.33         14.9 
      1423.0         0.27         15.6 
