~Version Information
 VERS.                2.0:  CWLS LOG ASCII STANDARD -VERSION 2.0
 WRAP.                 NO:  ONE LINE PER DEPTH STEP
~WELL INFORMATION BLOCK
#MNEM.UNIT       DATA		            DESCRIPTION OF MNEMONIC
#---------    -------------            ------------------------
 STRT.FT  0.500                          :START DEPTH
 STOP.FT  1812.700                       :STOP DEPTH
 STEP.FT  0.100                          :STEP    UP_HOLE  
 NULL.    -999.25                        :NULL VALUE
 COMP.              EL PASO PRODUCTIONS  :COMPANY
 WELL.                     COREHOLE #38  :WELL
 FLD .                 PURGATOIRE RIVER  :FIELD
 LOC .      15   35S   65W               :LOCATION
 CNTY.                           COLFAX  :COUNTY
 STAT.                     NM            :STATE
 CTRY.                                   :
 SRVC.     O'DRISCOLL                    :SERVICE COMPANY
 DATE.   04/28/05                        :LOG DATE
 API .                                   :API NUMBER
 LIC .                                   :LICENSE NUMBER
~Curve Information Block
#MNEM.UNIT      API CODE     Curve Description
#---------    -------------  ------------------------
 DEPT     .FT        00 001 00 00          :  1  DEPTH   
 GAMMA    .API-GR    00 310 00 00          :  2                GAMMA
 TEMP     .DEG F     00 660 00 00          :  3                 TEMP
 RES(16N) .OHM-M     00 040 00 00          :  4             RES(16N)
 RES(64N) .OHM-M     00 060 00 00          :  5             RES(64N)
 RES      .OHM       00 000 00 00          :  6                  RES
 LATERAL  .OHM-M     00 070 00 00          :  7              LATERAL
 NEUTRON  .API-N     00 000 00 00          :  8              NEUTRON
 POR(NEU) .PERCENT   00 330 00 00          :  9             POR(NEU)
 SANGB    .DEG       00 631 00 00          : 10                SANGB
 DEL_TEMP .DEG F     00 000 00 00          : 11             DEL_TEMP
 SANG     .DEG       00 620 00 00          : 12                 SANG
 SP       .MV        00 010 00 00          : 13                   SP
 TIME     .MINUTES   00 000 00 00          : 14                 TIME
~Parameter Information Block
#MNEM.UNIT   Information     Description
#---------- ---------------  ------------------------
 FILE.      ORIGINAL           :File Type
 FIID.      9057A              :File Type Identifier
 VERS.      3.58G              :System Version
 SER .      1                  :System Serial Number
 TRUK.      .498775            :Truck Calibration Number
 TOOL.        1061             :Tool Serial Number
 TIME.      1335               :Time    HrHrMinMin
 LAT .       36 59'            :Latitude
 LON .       104 39'           :Longitude
 LMF .            GL           :Log Measured From
 DMF .            GL           :Driller Measured From
 PD  .            GL           :Permanent Data
 PDEV.                         :Elevation Permanent Data
 EKB .M                        :Elevation Kelly Bushing
 ELEV.DF                       :Elevation DF
 EGL .M        7777            :Elevation Ground Level
 DRDP.          1825           :Driller's Depth
 CASD.       10.               :Casing Diameter
 CASB.           300           :Casing Bottom
 CASX.         STEEL           :Casing Type
 CAST.                         :Casing Thickness
 TNOC.                         :Time Circulation Stopped
 LOGU.        108              :Logging Unit
 RECB.           R.SIPES       :Recorded By
 OSR1.          9139           :Other Services
 OSR2.                         :Other Services
 OSR3.                         :Other Services
 BS  .MM         3.5           :Bit Size
 MST .                         :Mean Surface Temperature
 TGRD.                         :Temperature Gradiant
 MAGN.            12           :Magnetic Declination
 MDEN.       2.7               :Density Matrix
 MATR.      SANDSTONE          :Neutron Matrix
 DTMT.            54           :Delta T Matrix
 DTFL.                         :Delta T Fluid
 MUDS.                         :Mud Sample Source
 MRS .                         :Mud Resistivity
 MTP .                         :Mud Temperature
 MFRS.                         :Resistivity Mud Filtrate
 MFTP.                         :Temperature Mud Filtrate
 MCRS.                         :Resistivity Mud Cake
 MCTP.                         :Temperature Mud Cake
 FTYP.                         :Fluid Type
 FD  .K/M3                     :Fluid Density
 DFV .S                        :Fluid Viscosity
 FPH .                         :Fuild PH
 ELCO.       50000             :Electron Cutoff
~Other Information
#MNEM.UNIT  Information      Description
#---------- ---------------  ------------------------
# -------------------------- 
~A DEPTH  GAMMA    TEMP  RES(16N) RES(64N) RES      LATERAL  NEUTRON  POR(NEU) SANGB  DEL_TEMP SANG   SP    TIME    
# ...
1202.300    127.0  80.6      0.4     14.8      8.2     -7.0    968.0  33.0   7.29  0.05  1.50  -1317.4 0.20000 
1202.400    128.1  80.6      1.2     14.1      7.4     -4.3   1016.4  32.3   7.29  -0.01  1.50  -1317.4 0.20000 
1202.500    129.7  80.6     -3.1     13.6      7.8     -9.1   1014.9  30.8   3.35  -0.02  1.50  -1317.6 0.20000 
1202.600    124.9  80.6     -1.4     13.0      7.2     -5.2   1058.7  30.5   0.97  0.04  1.48  -1317.6 0.20000 
1202.700    122.3  80.6      0.0     12.3      7.9     -2.4   1108.7  30.1  358.89 -0.01  1.50  -1317.6 0.20000 
1202.800    114.3  80.6     -2.3     11.9      7.6     -5.2   1094.6  29.8  358.89 -0.04  1.50  -1317.6 0.20000 
1202.900    111.7  80.6     -7.4     12.7      6.9    -11.0   1058.7  29.3  358.90 0.06  1.50  -1317.3 0.20000 
1203.000    115.9  80.6     -1.8     13.3      7.1     -5.5   1144.7  29.2   6.58  -0.04  1.50  -1317.3 0.20000 
1203.100    117.5  80.6      1.5     13.1      6.8     -1.9   1191.6  29.1   4.76  0.03  1.52  -1317.3 0.10000 
1203.200    110.1  80.6      3.2     12.1      7.4      1.3   1172.8  29.4   4.49  0.03  1.55  -1317.3 0.20000 
1203.300    108.5  80.6      0.3     10.9      7.5     -2.1   1196.3  29.7   4.48  -0.09  1.55  -1317.5 0.20000 
1203.400    107.5  80.6      1.5     10.6      6.7     -3.1   1211.9  29.3   5.80  0.00  1.55  -1317.5 0.20000 
1203.500    108.5  80.6      1.3     10.3      5.9     -2.2   1182.2  29.4   5.59  0.03  1.56  -1317.5 0.20000 
1203.600    113.3  80.6      3.2      9.7      6.6     -3.9   1099.3  29.7   5.48  0.00  1.58  -1317.5 0.20000 
1203.700    114.3  80.6     -0.4      9.4      7.5     -9.7   1075.9  29.5   5.48  0.00  1.58  -1317.5 0.20000 
1203.800    114.3  80.6      0.7      8.8      7.3     -5.5   1032.1  29.6   3.00  -0.04  1.58  -1317.5 0.20000 
1203.900    109.6  80.6      3.9      8.4      7.5      4.2   1018.0  29.7   0.68  0.03  1.59  -1317.5 0.20000 
1204.000    105.3  80.6      2.8      8.1      7.3      4.5    999.2  30.0   0.60  -0.03  1.60  -1317.5 0.20000 
1204.100    108.0  80.7     -0.7      7.8      7.2     -2.4   1022.7  30.1   0.59  0.01  1.60  -1317.5 0.20000 
1204.200    106.4  80.7      0.3      6.7      7.3     -1.0   1025.8  30.2  346.77 -0.02  1.60  -1317.5 0.20000 
1204.300    101.6  80.7      3.8      6.2      7.2      5.9   1071.2  30.3  342.66 0.01  1.61  -1317.5 0.20000 
1204.400    100.1  80.7      2.7      5.2      7.6      4.5   1064.9  30.1  342.60 0.04  1.62  -1317.5 0.20000 
1204.500     93.7  80.6      0.7      3.8      7.4      0.8   1100.9  29.7  342.63 -0.03  1.62  -1317.6 0.20000 
1204.600     89.5  80.6     -0.9      2.9      7.6     -3.2   1113.4  29.8  336.09 0.00  1.62  -1317.6 0.20000 
1204.700     89.5  80.6      0.2      3.2      7.3     -1.5   1122.8  29.5  340.71 0.02  1.63  -1317.6 0.20000 
1204.800     89.5  80.6      0.1      4.0      7.8     -0.6   1105.6  29.6  340.67 -0.04  1.65  -1317.6 0.20000 
1204.900     90.0  80.7     -1.5      4.4      8.2     -1.8   1118.1  29.7  340.67 0.02  1.65  -1317.6 0.20000 
1205.000     85.2  80.7     -0.4      4.3      7.3     -2.2   1125.9  29.7  341.07 -0.04  1.65  -1317.5 0.20000 
1205.100     84.7  80.7      2.5      4.6      7.2      0.5   1125.9  30.4  338.48 0.01  1.65  -1317.5 0.20000 
1205.200     86.3  80.7      1.5      5.0      6.9     -0.6   1108.7  30.7  338.28 -0.01  1.63  -1317.5 0.20000 
1205.300     84.2  80.7     -0.3      5.4      6.5     -2.1   1111.8  30.5  338.28 0.01  1.63  -1317.4 0.10000 
1205.400     89.5  80.7      1.0      5.1      7.1     -1.3   1089.9  31.1  329.48 0.07  1.63  -1317.4 0.20000 
1205.500     92.1  80.6      3.0      4.9      7.1      0.9   1039.9  31.4  322.84 -0.04  1.63  -1317.4 0.20000 
1205.600     91.6  80.6      6.1      5.1      6.8      4.9   1024.3  31.7  322.56 0.04  1.67  -1317.4 0.20000 
1205.700     93.2  80.7      4.4      5.6      7.1      4.6    980.5  32.0  322.56 -0.09  1.67  -1317.4 0.20000 
1205.800     88.4  80.7      1.4      5.8      6.9      1.4    957.0  32.4  324.73 -0.05  1.67  -1317.5 0.20000 
1205.900     93.2  80.7      0.0      5.9      6.8     -1.4    986.7  33.0  323.52 0.10  1.67  -1317.5 0.20000 
1206.000     97.9  80.7     -0.9      6.1      7.1     -3.0    960.1  33.2  321.47 -0.02  1.71  -1317.5 0.20000 
1206.100     94.2  80.7     -0.4      6.3      7.0     -1.4    944.5  33.0  321.47 0.04  1.71  -1317.5 0.20000 
1206.200     94.2  80.6     -2.3      6.2      7.7     -3.9    975.8  33.2  339.90 -0.04  1.71  -1317.4 0.20000 
1206.300     85.8  80.6     -2.2      6.0      8.1     -4.6    966.4  33.3  10.35  0.01  1.71  -1317.4 0.20000 
1206.400     86.3  80.7     -0.7      6.2      7.7     -3.2    922.6  33.5   9.87  0.03  1.73  -1317.4 0.20000 
1206.500     81.5  80.7     -0.9      6.9      7.0     -4.0    930.4  33.4   9.87  -0.11  1.73  -1317.4 0.20000 
1206.600     82.1  80.7     -1.7      7.7      6.5     -5.3    938.3  33.0  15.20  0.10  1.73  -1317.7 0.20000 
1206.700     84.7  80.7     -0.1      8.4      6.8     -4.0    974.2  33.2  22.41  -0.07  1.73  -1317.7 0.20000 
1206.800     86.8  80.7      0.1      9.1      6.7     -2.6    980.5  33.4  23.02  0.04  1.71  -1317.7 0.20000 
1206.900     82.1  80.7     -0.2      9.6      6.6     -2.2    993.0  32.9  23.02  -0.01  1.71  -1317.7 0.20000 
1207.000     87.9  80.7     -1.3      9.9      6.4     -4.0    985.2  32.5  18.63  -0.06  1.71  -1317.5 0.20000 
1207.100     92.1  80.7      0.7     10.2      6.3     -3.4   1011.8  32.2  14.11  0.01  1.71  -1317.5 0.20000 
1207.200    100.6  80.7      1.6     10.1      6.8     -2.3    975.8  31.7  16.25  0.02  1.69  -1317.5 0.20000 
1207.300    104.3  80.7      1.1     10.0      7.0     -3.1    953.9  31.6  16.32  -0.04  1.67  -1317.5 0.20000 
1207.400    110.1  80.7     -0.5     10.0      6.8     -5.4    966.4  31.3  16.32  0.07  1.67  -1317.4 0.20000 
1207.500    114.3  80.7      1.2     10.1      6.5     -4.0   1013.3  31.2  29.18  -0.01  1.67  -1317.4 0.10000 
1207.600    116.5  80.7      2.9     10.2      7.0      0.6   1027.4  31.3  32.36  -0.04  1.65  -1317.4 0.20000 
1207.700    119.1  80.7      0.7     10.8      7.3     -1.4   1058.7  30.9  32.49  0.07  1.63  -1317.4 0.20000 
1207.800    122.8  80.7     -1.5     11.2      7.3     -4.9   1135.3  31.0  32.50  -0.09  1.63  -1317.6 0.20000 
1207.900    117.0  80.7      1.5     10.9      7.1      0.3   1118.1  30.5  34.80  0.00  1.63  -1317.6 0.20000 
1208.000    116.5  80.7      3.5     10.3      6.9      2.4   1105.6  30.6  36.44  0.05  1.62  -1317.6 0.20000 
1208.100    110.6  80.7      2.1      9.9      7.3     -0.6   1077.4  30.3  36.54  -0.09  1.61  -1317.6 0.20000 
1208.200    104.3  80.7      0.5      9.6      7.3     -3.5   1064.9  29.8  36.59  0.02  1.61  -1317.6 0.20000 
1208.300    100.1  80.7      0.8      9.3      7.1     -2.2   1055.5  29.4  26.41  0.03  1.61  -1317.6 0.20000 
1208.400     94.2  80.7      3.8      9.6      7.4      0.3   1058.7  29.5  26.63  -0.01  1.60  -1317.6 0.20000 
1208.500     96.9  80.7      2.9      9.7      7.4     -0.4   1071.2  29.4  26.71  0.02  1.59  -1317.6 0.20000 
1208.600     87.3  80.7      0.8      9.7      6.8     -1.9   1071.2  29.4  26.73  -0.01  1.59  -1317.4 0.20000 
1208.700     84.2  80.7      1.4     10.2      7.4      0.4   1088.4  29.5  19.66  -0.04  1.59  -1317.3 0.20000 
1208.800     86.3  80.7      3.5     11.0      7.0      2.2   1071.2  29.0  21.45  0.01  1.57  -1317.3 0.20000 
1208.900     86.3  80.7      2.0     11.3      7.0     -0.8   1132.2  28.8  21.62  0.04  1.55  -1317.3 0.20000 
1209.000     90.0  80.7     -0.2     11.2      7.2     -4.0   1113.4  28.6  21.62  -0.04  1.55  -1317.4 0.20000 
1209.100     92.6  80.7      0.9     10.8      7.0     -3.7   1157.2  28.4  22.75  0.02  1.55  -1317.5 0.20000 
1209.200     93.7  80.7      4.0      9.8      7.1      2.5   1155.6  28.5  26.29  0.00  1.56  -1317.5 0.20000 
1209.300     89.5  80.7      3.3      9.5      7.0      1.5   1161.9  28.2  29.95  -0.04  1.48  -1317.5 0.20000 
1209.400     83.6  80.7      1.5      9.3      7.4     -2.0   1163.4  28.0  29.95  0.05  1.48  -1317.6 0.10000 
