~Version Information
VERS.                      2.0: CWLS Log ASCII Standard - VERSION 2.0
WRAP.                       NO: One line per depth step
~Well Information Block
STRT.FT                -7.5000: 
STOP.FT              1545.0000: 
STEP.FT                 0.2500: 
NULL.                -999.2500: 
COMP.          Pioneer Natural Resources: COMPANY
WELL.          Kristin 22-23 Tr: WELL
FLD.           Purgatorie River: FIELD
LOC.           2273' FNL & 2029' FWL--: LOCATION
PROV.                       CO: PROVINCE
CNTY.               Las Animas: COUNTRY
SRVC.                         : SERVICE COMPANY
DATE.          Tue Jan 25 11:16:36 2005: LOG DATE
UWI.           071-08259      : UNIQUE WELL ID
~Curve Information Block
DEPT.FT            0 000 00 00: Depth
CCL.                          : Casing Collar Locator
TT3.usec                      : CBL 3' Travel Time
AMP3.mV                       : CBL 3' Amplitude
GR.GAPI                       : Gamma Ray
~Parameter Information Block
~A  Depth       CCL         TT3         AMP3         GR     
# ...
  1299.0000      0.0000    656.2896      4.7455    110.4179
  1299.2500      0.0000    651.3578      4.7252    117.9918
  1299.5000      0.0000    651.6427      4.7030    127.7427
  1299.7500      0.0000    656.9923      4.6820    139.3190
  1300.0000      0.0000    665.7436      4.6782    151.7369
  1300.2500      0.0000    675.5385      4.7165    162.8065
  1300.5000      0.0000    683.5916      4.8077    169.8020
  1300.7500      0.0000    687.9748      4.9276    171.5759
  1301.0000      0.0000    689.0812      5.0243    169.6155
  1301.2500      0.0000    689.2170      5.0608    166.3031
  1301.5000      0.0000    690.7782      5.0485    162.3333
  1301.7500      0.0000    694.7598      5.0292    156.4641
  1302.0000      0.0000    700.1577      5.0294    147.6682
  1302.2500      0.0000    704.3997      5.0449    136.8121
  1302.5000      0.0000    705.0612      5.0613    125.9184
  1302.7500      0.0000    701.6735      5.0683    116.2054
  1303.0000      0.0000    695.5550      5.0541    107.3498
  1303.2500      0.0000    687.6605      5.0059     98.6530
  1303.5000      0.0000    676.9252      4.9244     90.3657
  1303.7500      0.0000    661.1567      4.8301     83.4060
  1304.0000      0.0000    639.8941      4.7501     78.1016
  1304.2500      0.0000    616.3491      4.7027     73.9246
  1304.5000      0.0000    596.1270      4.6960     70.6088
  1304.7500      0.0000    583.9116      4.7301     68.9869
  1305.0000      0.0000    581.4679      4.7986     70.2139
  1305.2500      0.0000    588.1577      4.8957     74.3349
  1305.5000      0.0000    602.1967      5.0183     79.9988
  1305.7500      0.0000    621.0717      5.1530     85.5484
  1306.0000      0.0000    641.4101      5.2690     90.2217
  1306.2500      0.0000    659.4153      5.3381     94.3488
  1306.5000      0.0000    672.1918      5.3566     98.5580
  1306.7500      0.0000    679.0547      5.3437    103.2035
  1307.0000      0.0000    681.7966      5.3195    108.7173
  1307.2500      0.0000    683.6791      5.2887    115.9224
  1307.5000      0.0000    687.4337      5.2409    125.3416
  1307.7500      0.0000    693.1829      5.1649    136.4890
  1308.0000      0.0000    698.2547      5.0649    148.1242
  1308.2500      0.0000    699.7349      4.9676    158.6696
  1308.5000      0.0000    697.3104      4.9075    166.1897
  1308.7500      0.0000    693.3052      4.9003    169.0057
  1309.0000      0.0000    690.3315      4.9298    166.9700
  1309.2500      0.0000    689.4930      4.9660    161.7574
  1309.5000      0.0000    690.4557      4.9919    155.8914
  1309.7500      0.0000    692.1526      5.0137    151.8105
  1310.0000      0.0000    692.9852      5.0524    150.9432
  1310.2500      0.0000    690.8956      5.1216    152.5253
  1310.5000      0.0000    684.0854      5.2053    153.8348
  1310.7500      0.0000    672.0906      5.2622    152.7519
  1311.0000      0.0000    656.4168      5.2585    149.8951
  1311.2500      0.0000    640.6252      5.1924    147.4883
  1311.5000      0.0000    629.8221      5.0867    146.2532
  1311.7500      0.0000    628.5212      4.9708    144.1580
  1312.0000      0.0000    636.5308      4.8791    138.3479
  1312.2500      0.0000    646.6019      4.8498    127.9500
  1312.5000      0.0000    648.7179      4.9031    115.0040
  1312.7500      0.0000    638.4841      5.0177    103.1761
  1313.0000      0.0000    620.6807      5.1401     95.6508
  1313.2500      0.0000    604.8018      5.2243     93.5645
  1313.5000      0.0000    598.5518      5.2576     95.5948
  1313.7500      0.0000    604.8928      5.2545     98.8213
  1314.0000      0.0000    622.2058      5.2389    100.5478
  1314.2500      0.0000    645.6594      5.2328    100.1565
  1314.5000      0.0000    669.5217      5.2444     99.5350
  1314.7500      0.0000    689.2202      5.2532    101.4869
  1315.0000      0.0000    701.4592      5.2162    107.4407
  1315.2500      0.0000    703.6896      5.0991    116.6221
  1315.5000      0.0000    695.2457      4.9053    127.2090
  1315.7500      0.0000    678.9985      4.6803    137.8453
  1316.0000      0.0000    660.9172      4.4851    147.8981
  1316.2500      0.0000    648.0106      4.3609    156.9002
  1316.5000      0.0000    646.2062      4.3113    164.4314
  1316.7500      0.0000    657.9042      4.3186    170.3973
  1317.0000      0.0000    679.6946      4.3672    175.1892
  1317.2500      0.0000    703.3941      4.4461    179.8337
  1317.5000      0.0000    721.3276      4.5406    185.6390
  1317.7500      0.0000    731.1802      4.6316    192.6310
  1318.0000      0.0000    735.6403      4.7005    198.3601
  1318.2500      0.0000    738.2559      4.7308    199.4772
  1318.5000      0.0000    740.3328      4.7126    195.0312
  1318.7500      0.0000    741.1455      4.6525    187.7240
  1319.0000      0.0000    739.9546      4.5779    181.8553
  1319.2500      0.0000    737.2636      4.5211    180.4360
  1319.5000      0.0000    734.4140      4.4992    183.8613
  1319.7500      0.0000    732.6622      4.5100    189.8958
  1320.0000      0.0000    732.5617      4.5432    194.2746
  1320.2500      0.0000    733.1686      4.5909    192.6304
  1320.5000      0.0000    731.4107      4.6523    183.4520
  1320.7500      0.0000    723.2159      4.7323    169.4729
  1321.0000      0.0000    706.0162      4.8275    156.0325
  1321.2500      0.0000    680.0342      4.9141    147.6951
  1321.5000      0.0000    647.7049      4.9551    145.5043
  1321.7500      0.0000    612.8956      4.9288    146.9349
  1322.0000      0.0000    580.2320      4.8518    148.5422
  1322.2500      0.0000    553.7103      4.7668    148.6036
  1322.5000      0.0000    535.2089      4.7115    147.5340
  1322.7500      0.0000    524.1827      4.7016    146.6624
  1323.0000      0.0000    518.6003      4.7368    146.8630
  1323.2500      0.0000    516.1882      4.8049    147.7718
  1323.5000      0.0000    515.2746      4.8811    148.1195
  1323.7500      0.0000    515.0456      4.9380    146.9186
  1324.0000      0.0000    515.5267      4.9666    144.2480
  1324.2500      0.0000    517.7020      4.9820    141.0757
  1324.5000      0.0000    523.9944      5.0055    138.6586
  1324.7500      0.0000    538.1986      5.0462    137.7718
  1325.0000      0.0000    563.2159      5.1023    137.9562
  1325.2500      0.0000    596.9929      5.1690    137.4916
  1325.5000      0.0000    631.1113      5.2327    134.4592
  1325.7500      0.0000    655.4258      5.2684    128.2032
  1326.0000      0.0000    664.6398      5.2515    120.0597
  1326.2500      0.0000    659.9609      5.1761    112.6515
  1326.5000      0.0000    646.3483      5.0595    108.1798
  1326.7500      0.0000    630.6323      4.9262    107.1115
  1327.0000      0.0000    620.6790      4.7871    108.3774
  1327.2500      0.0000    622.1176      4.6390    110.6042
  1327.5000      0.0000    634.3615      4.4801    112.9470
  1327.7500      0.0000    651.1166      4.3187    114.7999
  1328.0000      0.0000    665.0562      4.1736    115.1548
  1328.2500      0.0000    671.1885      4.0878    112.7788
  1328.5000      0.0000    666.9465      4.1273    107.0175
  1328.7500      0.0000    651.9773      4.3282     98.0982
  1329.0000      0.0000    629.8779      4.6409     86.9561
  1329.2500      2.0000    609.3712      4.9444     75.3750
  1329.5000      2.0000    600.8909      5.1187     66.0004
  1329.7500      0.0000    609.6243      5.1157     61.4364
  1330.0000      0.0000    631.6017      4.9886     63.0646
  1330.2500      0.0000    656.8866      4.8504     70.5431
  1330.5000      0.0000    676.1574      4.7779     81.8268
  1330.7500      0.0000    684.7192      4.7548     93.4699
  1331.0000      0.0000    682.7490      4.7278    101.8173
  1331.2500      0.0000    673.7285      4.6939    104.9922
  1331.5000      0.0000    662.1025      4.6966    104.1087
  1331.7500      0.0000    650.6319      4.7516    102.3178
  1332.0000      0.0000    638.9488      4.8225    102.2093
  1332.2500      0.0000    624.7084      4.8724    103.7111
