~Version Information
VERS.                      2.0: CWLS Log ASCII Standard - VERSION 2.0
WRAP.                       NO: One line per depth step
~Well Information Block
STRT.FT                -4.0000: 
STOP.FT              2638.2500: 
STEP.FT                 0.2500: 
NULL.                -999.2500: 
COMP.          Petrogulf Corporation: COMPANY
WELL.            Montoya 6-14V: WELL
FLD.           Purgatorie River: FIELD
LOC.           318' FSL & 882' FWL--: LOCATION
PROV.                       CO: PROVINCE
CNTY.               Las Animas: COUNTRY
SRVC.                         : SERVICE COMPANY
DATE.          Mon May 02 08:32:04 2005: LOG DATE
UWI.      005 071 08020: UNIQUE WELL ID
~Curve Information Block
DEPT.FT            0 000 00 00: Depth
AMP3.mV                       : CBL 3' Amplitude
CCL.                          : Casing Collar Locator
GR.GAPI                       : Gamma Ray
TT3.usec                      : CBL 3' Travel Time
~Parameter Information Block
~A  Depth       AMP3        CCL          GR         TT3     
# ...
  1570.5000      9.7504      0.0000    121.1672    489.4680
  1570.7500      9.7546      0.0000    132.1640    460.5698
  1571.0000      9.8459      0.0000    142.4353    425.8056
  1571.2500     10.0282      0.0000    151.9637    398.4090
  1571.5000     10.3183      0.0000    160.7271    379.0300
  1571.7500     10.7621      0.0000    168.1089    361.8477
  1572.0000     11.4222      0.0000    173.0844    343.7213
  1572.2500     12.3281      0.0000    174.6326    326.4004
  1572.5000     13.4233      0.0000    172.2451    312.9145
  1572.7500     14.5816      0.0000    166.6960    304.3861
  1573.0000     15.6959      0.0000    160.0197    299.8918
  1573.2500     16.7450      0.0000    154.1322    297.8255
  1573.5000     17.7667      0.0000    149.7477    296.9383
  1573.7500     18.7810      0.0000    146.9589    296.5624
  1574.0000     19.7492      0.0000    146.0892    296.4154
  1574.2500     20.5937      0.0000    147.1136    296.3690
  1574.5000     21.2376      0.0000    148.6265    296.3661
  1574.7500     21.6265      0.0000    148.4399    296.3976
  1575.0000     21.7182      0.0000    145.4474    296.4874
  1575.2500     21.4763      0.0000    140.5575    296.6577
  1575.5000     20.9063      0.0000    135.7087    296.9062
  1575.7500     20.1078      0.0000    132.1573    297.2023
  1576.0000     19.2665      0.0000    129.6972    297.4972
  1576.2500     18.5709      0.0000    127.3044    297.7434
  1576.5000     18.1192      0.0000    124.1238    297.9209
  1576.7500     17.8850      0.0000    119.9177    298.0534
  1577.0000     17.7622      0.0000    115.3250    298.1904
  1577.2500     17.6535      0.0000    111.8523    298.3565
  1577.5000     17.5336      0.0000    110.8643    298.5169
  1577.7500     17.4363      0.0000    112.4030    298.6027
  1578.0000     17.3856      0.0000    115.5487    298.5774
  1578.2500     17.3532      0.0000    119.8124    298.4693
  1578.5000     17.2843      0.0000    125.3497    298.3368
  1578.7500     17.1556      0.0000    131.7619    298.2070
  1579.0000     17.0047      0.0000    137.5432    298.0552
  1579.2500     16.9050      0.0000    141.1599    297.8393
  1579.5000     16.9108      0.0000    142.3342    297.5509
  1579.7500     17.0193      0.0000    142.0117    297.2338
  1580.0000     17.1796      0.0000    141.3274    296.9547
  1580.2500     17.3342      0.0000    140.9326    296.7590
  1580.5000     17.4475      0.0000    141.0543    296.6548
  1580.7500     17.4931      0.0000    141.6642    296.6283
  1581.0000     17.4304      0.0000    142.4658    296.6636
  1581.2500     17.2202      0.0000    143.0961    296.7427
  1581.5000     16.8795      0.0000    143.5299    296.8347
  1581.7500     16.5024      0.0000    144.1236    296.8978
  1582.0000     16.1963      0.0000    145.2046    296.9053
  1582.2500     15.9970      0.0000    146.8347    296.8713
  1582.5000     15.8621      0.0000    148.8945    296.8419
  1582.7500     15.7409      0.0000    150.9634    296.8560
  1583.0000     15.6237      0.0000    151.8790    296.9188
  1583.2500     15.5252      0.0000    149.8776    297.0169
  1583.5000     15.4439      0.0000    144.0004    297.1437
  1583.7500     15.3541      0.0000    135.5342    297.2944
  1584.0000     15.2396      0.0000    127.5926    297.4391
  1584.2500     15.1348      0.0000    123.0350    297.5147
  1584.5000     15.1297      0.0000    122.6823    297.4568
  1584.7500     15.3293      0.0000    125.0372    297.2382
  1585.0000     15.8126      0.0000    127.3269    296.8678
  1585.2500     16.6253      0.0000    127.3656    296.3249
  1585.5000     17.7712      0.0000    125.2077    295.4562
  1585.7500     19.1918      0.0000    122.8650    293.8618
  1586.0000     20.8046      0.0000    121.8982    290.8701
  1586.2500     22.6269      0.0000    121.6798    285.8327
  1586.5000     24.8603      0.0000    120.4443    278.7767
  1586.7500     27.7924      0.0000    117.3367    270.8283
  1587.0000     31.5604      0.0000    112.7685    263.7170
  1587.2500     35.9940      0.0000    107.4070    258.6734
  1587.5000     40.6952      0.0000    101.6345    255.8264
  1587.7500     45.2448      0.0000     95.7108    254.5436
  1588.0000     49.2965      0.0000     89.9216    254.1102
  1588.2500     52.4872      0.0000     84.5418    254.1109
  1588.5000     54.4583      0.0000     79.9040    254.4490
  1588.7500     55.1858      0.0000     76.5248    255.1850
  1589.0000     55.2305      0.0000     74.9921    256.3292
  1589.2500     55.3376      0.0000     75.6612    257.7042
  1589.5000     55.6913      0.0000     78.5458    258.9988
  1589.7500     55.7944      0.0000     83.3083    259.9574
  1590.0000     55.1041      0.0000     88.8692    260.5197
  1590.2500     53.5436      0.0000     93.1644    260.7949
  1590.5000     51.4124      0.0000     94.3390    260.9388
  1590.7500     49.0787     -2.0000     92.8713    261.0605
  1591.0000     46.8383      2.0000     91.9856    261.2007
  1591.2500     44.9502      0.0000     95.3328    261.3399
  1591.5000     43.6897      0.0000    104.1421    261.3889
  1591.7500     43.2629      0.0000    116.3250    261.1820
  1592.0000     43.5867      0.0000    127.8829    260.5442
  1592.2500     44.1993      0.0000    135.2870    259.4360
  1592.5000     44.5501      0.0000    137.4402    258.0383
  1592.7500     44.3577      0.0000    136.3140    256.6652
  1593.0000     43.6040      0.0000    135.6408    255.5878
  1593.2500     42.3226      0.0000    138.1079    254.9305
  1593.5000     40.5560      0.0000    143.3293    254.6835
  1593.7500     38.4137      0.0000    148.4402    254.8033
  1594.0000     36.0182      0.0000    150.2792    255.3698
  1594.2500     33.4025      0.0000    147.0367    256.7599
  1594.5000     30.5227      0.0000    138.9085    259.6688
  1594.7500     27.3912      0.0000    128.1635    264.7390
  1595.0000     24.1788      0.0000    118.4208    271.8636
  1595.2500     21.1734      0.0000    113.0916    279.8232
  1595.5000     18.6241      0.0000    113.6687    286.8840
  1595.7500     16.6284      0.0000    118.9442    291.9389
  1596.0000     15.1534      0.0000    125.9578    295.0585
  1596.2500     14.1213      0.0000    131.9755    297.3117
  1596.5000     13.4534      0.0000    135.5912    300.5833
  1596.7500     13.0611      0.0000    136.4398    307.7602
  1597.0000     12.8465      0.0000    134.8428    321.8448
  1597.2500     12.7415      0.0000    131.7713    342.4849
  1597.5000     12.7500      0.0000    128.3196    362.5021
  1597.7500     12.9428      0.0000    125.2493    370.7679
  1598.0000     13.4071      0.0000    123.4735    361.7150
  1598.2500     14.2012      0.0000    124.2211    340.9694
  1598.5000     15.3370      0.0000    127.7792    319.7168
  1598.7500     16.7660      0.0000    132.7682    305.1992
  1599.0000     18.3479      0.0000    137.7280    297.8664
  1599.2500     19.8445      0.0000    142.8698    294.9147
  1599.5000     20.9830      0.0000    149.1807    293.8835
  1599.7500     21.5681      0.0000    156.1634    293.5840
  1600.0000     21.5677      0.0000    161.5686    293.5903
  1600.2500     21.1206      0.0000    163.3835    293.7301
  1600.5000     20.4560      0.0000    161.3038    293.8657
  1600.7500     19.7649      0.0000    156.2772    293.9289
  1601.0000     19.1160      0.0000    149.4823    293.9449
  1601.2500     18.4866      0.0000    141.9190    293.9984
  1601.5000     17.8572      0.0000    134.0283    294.1441
  1601.7500     17.2571      0.0000    125.3705    294.3592
  1602.0000     16.7373      0.0000    115.4555    294.5720
  1602.2500     16.3374      0.0000    105.0280    294.7150
  1602.5000     16.0835      0.0000     95.8375    294.7503
  1602.7500     15.9962      0.0000     89.3026    294.6720
  1603.0000     16.0937      0.0000     86.0119    294.4965
  1603.2500     16.3989      0.0000     86.1305    294.2376
  1603.5000     16.9415      0.0000     89.5490    293.8680
  1603.7500     17.7501      0.0000     95.6885    293.2488
