~Version Information
VERS.                      2.0: CWLS Log ASCII Standard - VERSION 2.0
WRAP.                       NO: One line per depth step
~Well Information Block
STRT.FT                -1.5000: 
STOP.FT              1317.0000: 
STEP.FT                 0.2500: 
NULL.                -999.2500: 
COMP.          Pioneer Natural Resources: COMPANY
WELL.              Border 21-3: WELL
FLD.           Purgatoire River: FIELD
LOC.           865' FNL & 1415' FWL: LOCATION
PROV.                 Colorado: PROVINCE
CNTY.               Las Animas: COUNTRY
SRVC.                Patterson: SERVICE COMPANY
DATE.          Tue Dec 14 14:08:05 2004: LOG DATE
UWI.           05 071 08169 00: UNIQUE WELL ID
~Curve Information Block
DEPT.FT            0 000 00 00: Depth
GR.GAPI                       : Gamma Ray
CCL.                          : Casing Collar Locator
TT3.usec                      : CBL 3' Travel Time
AMP3.mV                       : CBL 3' Amplitude
~Parameter Information Block
~A  Depth        GR         CCL         TT3         AMP3    
# ...
   936.5000     92.4978      0.0000    729.3839      6.9500
   936.7500     97.7819      0.0000    734.3747      6.9648
   937.0000    103.9531      0.0000    739.7013      6.9712
   937.2500    109.6506      0.0000    743.3283      6.9687
   937.5000    114.1958      0.0000    744.5575      6.9714
   937.7500    117.7322      0.0000    743.4953      6.9921
   938.0000    121.0339      0.0000    740.5240      7.0290
   938.2500    124.6502      0.0000    736.3713      7.0646
   938.5000    128.0814      0.0000    732.1723      7.0779
   938.7500    130.1942      0.0000    728.9796      7.0596
   939.0000    130.6982      0.0000    727.2372      7.0170
   939.2500    130.7924      0.0000    726.8640      6.9652
   939.5000    131.7499      0.0000    727.8025      6.9168
   939.7500    133.1148      0.0000    730.3615      6.8790
   940.0000    132.9801      0.0000    734.8710      6.8576
   940.2500    129.9964      0.0000    740.9080      6.8581
   940.5000    124.4899      0.0000    747.1152      6.8819
   940.7500    117.6447      0.0000    752.1146      6.9216
   941.0000    110.3061      0.0000    755.4489      6.9619
   941.2500    102.9102      0.0000    757.3671      6.9852
   941.5000     95.9877      0.0000    758.1803      6.9784
   941.7500     90.0785      0.0000    758.3655      6.9371
   942.0000     85.2998      0.0000    758.7740      6.8698
   942.2500     81.6013      0.0000    759.9159      6.7987
   942.5000     79.5333      0.0000    761.0878      6.7495
   942.7500     80.2319      0.0000    760.6160      6.7373
   943.0000     84.3012      0.0000    757.0267      6.7622
   943.2500     90.9954      0.0000    750.1061      6.8215
   943.5000     98.6489      0.0000    741.2012      6.9180
   943.7500    105.6284      0.0000    732.6999      7.0523
   944.0000    110.8067      0.0000    726.9589      7.2084
   944.2500    113.5998      0.0000    725.1746      7.3532
   944.5000    113.9944      0.0000    726.7502      7.4543
   944.7500    112.5147      0.0000    729.7537      7.5009
   945.0000    110.0529      0.0000    732.2175      7.5114
   945.2500    107.7407      0.0000    733.0621      7.5176
   945.5000    106.6851      0.0000    732.1515      7.5386
   945.7500    107.3135      0.0000    730.0104      7.5677
   946.0000    108.8473      0.0000    727.5123      7.5838
   946.2500    109.6549      0.0000    725.5232      7.5712
   946.5000    108.3073      0.0000    724.6819      7.5287
   946.7500    104.4752      0.0000    725.2543      7.4707
   947.0000     99.0285      0.0000    726.9172      7.4202
   947.2500     93.4055      0.0000    728.7232      7.3964
   947.5000     88.9842      0.0000    729.4595      7.4002
   947.7500     87.0772      0.0000    728.3550      7.4162
   948.0000     89.1182      0.0000    725.8318      7.4286
   948.2500     96.0764      0.0000    723.7046      7.4321
   948.5000    107.2042      0.0000    724.2728      7.4231
   948.7500    119.6042      0.0000    728.6773      7.3856
   949.0000    129.6198      0.0000    735.8452      7.2985
   949.2500    135.0097      0.0000    743.2058      7.1586
   949.5000    136.0408      0.0000    748.6087      6.9952
   949.7500    135.0230      0.0000    751.4249      6.8587
   950.0000    134.9704      0.0000    751.8915      6.7905
   950.2500    137.9118      0.0000    750.1605      6.7999
   950.5000    143.5611      0.0000    746.5468      6.8646
   950.7500    149.5228      0.0000    742.2758      6.9527
   951.0000    153.2549      0.0000    739.4005      7.0412
   951.2500    153.9958      0.0000    739.8233      7.1153
   951.5000    152.7863      0.0000    744.1426      7.1588
   951.7500    151.1501      0.0000    751.0580      7.1597
   952.0000    150.2288      0.0000    757.9082      7.1244
   952.2500    150.6937      0.0000    762.2795      7.0787
   952.5000    152.7257      0.0000    763.5206      7.0508
   952.7500    155.8532      0.0000    762.9285      7.0531
   953.0000    158.8894      0.0000    762.5345      7.0768
   953.2500    160.2247      0.0000    763.4792      7.1037
   953.5000    158.7920      0.0000    765.2426      7.1232
   953.7500    155.2397      0.0000    766.1541      7.1376
   954.0000    151.7925      0.0000    764.3135      7.1533
   954.2500    150.4567      0.0000    758.3106      7.1731
   954.5000    151.2569      0.0000    748.1021      7.2001
   954.7500    152.1160      0.0000    735.9121      7.2431
   955.0000    150.5153      0.0000    725.7267      7.3120
   955.2500    145.6728      0.0000    720.7742      7.4063
   955.5000    139.2896      0.0000    721.0438      7.5116
   955.7500    134.0499      0.0000    723.5417      7.6071
   956.0000    131.4425      0.0000    725.1390      7.6771
   956.2500    131.0574      0.0000    724.9916      7.7193
   956.5000    131.5210      0.0000    724.2305      7.7434
   956.7500    131.5774      0.0000    723.9481      7.7582
   957.0000    130.4780      0.0000    724.0299      7.7603
   957.2500    127.9801      0.0000    723.5055      7.7378
   957.5000    124.4096      0.0000    721.2889      7.6841
   957.7500    120.8542      0.0000    716.6891      7.6047
   958.0000    118.9644      0.0000    709.9047      7.5165
   958.2500    119.9890      0.0000    702.2519      7.4434
   958.5000    123.7942      0.0000    695.5449      7.4061
   958.7500    128.8795      0.0000    690.9523      7.4091
   959.0000    133.3642      0.0000    688.3988      7.4342
   959.2500    136.1945      0.0000    686.8593      7.4493
   959.5000    137.6820      0.0000    684.9633      7.4283
   959.7500    138.6911      0.0000    681.6274      7.3673
   960.0000    139.2017      0.0000    676.9954      7.2823
   960.2500    138.0066      0.0000    673.2993      7.1856
   960.5000    133.9539      0.0000    674.2832      7.0672
   960.7500    127.2227      0.0000    682.8941      6.9167
   961.0000    119.4501      0.0000    699.3182      6.7605
   961.2500    112.8510      0.0000    720.9024      6.6522
   961.5000    108.9228     -2.0000    743.2183      6.6188
   961.7500    107.4770      2.0000    761.6162      6.6326
   962.0000    106.8894      0.0000    773.6178      6.6427
   962.2500    105.7067     -2.0000    780.1467      6.6297
   962.5000    104.0839      0.0000    783.1580      6.6395
   962.7500    103.4161      0.0000    782.4017      6.7675
   963.0000    104.7202      0.0000    776.1657      7.0824
   963.2500    107.7169      0.0000    764.6750      7.5346
   963.5000    111.1847      0.0000    750.9852      7.9566
   963.7500    113.6166      0.0000    738.7719      8.1860
   964.0000    113.8046      0.0000    730.2154      8.1871
   964.2500    111.6130      0.0000    725.5359      8.0415
   964.5000    108.3430      0.0000    723.6354      7.8536
   964.7500    105.7934      0.0000    723.1167      7.6874
   965.0000    104.7540      0.0000    723.0308      7.5636
   965.2500    104.6542      0.0000    722.9726      7.4770
   965.5000    104.5149      0.0000    722.8434      7.4109
   965.7500    103.6983      0.0000    722.6391      7.3486
   966.0000    101.8192      0.0000    722.3607      7.2816
   966.2500     98.7641      0.0000    721.9030      7.2115
   966.5000     95.0787      0.0000    720.9543      7.1487
   966.7500     91.7846      0.0000    719.0068      7.1075
   967.0000     89.4490      0.0000    715.7280      7.0996
   967.2500     87.6599      0.0000    711.5601      7.1267
   967.5000     85.4841      0.0000    707.8632      7.1777
   967.7500     82.2522      0.0000    706.1120      7.2326
   968.0000     78.0478      0.0000    706.7943      7.2692
   968.2500     73.8126      0.0000    709.0598      7.2700
   968.5000     70.8413      0.0000    711.2507      7.2287
   968.7500     69.7725      0.0000    711.9209      7.1519
   969.0000     70.0458      0.0000    710.9561      7.0581
   969.2500     70.5060      0.0000    709.8659      6.9721
   969.5000     70.4296      0.0000    710.4857      6.9149
   969.7500     69.8156      0.0000    713.2181      6.8962
