~Version Information
VERS.                      2.0: CWLS Log ASCII Standard - VERSION 2.0
WRAP.                       NO: One line per depth step
~Well Information Block
STRT.FT               550.0000: 
STOP.FT              2042.5000: 
STEP.FT                 0.2500: 
NULL.                -999.2500: 
COMP.          Petrogulf Corporation: COMPANY
WELL.          Robinson 15-12V: WELL
FLD.           Purgatorie River: FIELD
LOC.           1788' FNL & 466' FWL: LOCATION
PROV.                 Colorado: PROVINCE
CNTY.               Las Animas: COUNTRY
SRVC.                Patterson: SERVICE COMPANY
DATE.          Mon Sep 12 10:04:59 2005: LOG DATE
UWI.                          : UNIQUE WELL ID
~Curve Information Block
DEPT.FT            0 000 00 00: Depth
SP.mV                         : DIL Spontaneous Potential
RILD.Ohm-m                    : DIL Deep Resistivity
RILM.Ohm-m                    : DIL Medium Resistivity
RLL3.Ohm-m                    : DIL Shallow Resistivity
GR.GAPI                       : Gamma Ray
~Parameter Information Block
~A  Depth        SP         RILD        RILM        RLL3         GR     
# ...
  1726.0000    225.8909     13.6014     14.5409     34.8374     81.8522
  1726.2500    225.5099     13.7981     14.7989     33.3851     84.0026
  1726.5000    225.1080     13.7854     14.9513     30.7637     92.1251
  1726.7500    224.9211     14.0504     15.5543     31.3827     92.0000
  1727.0000    224.0575     14.0472     15.5967     34.4572     88.7313
  1727.2500    223.5923     14.4232     15.8341     35.6838     88.8588
  1727.5000    223.3974     14.6013     16.1050     35.4825     94.5388
  1727.7500    223.1532     14.6102     15.9111     34.3489     92.0722
  1728.0000    222.8819     14.7556     16.0492     32.1423     89.7726
  1728.2500    222.8116     14.5325     15.5588     29.8114     87.4884
  1728.5000    222.5076     14.3124     15.9939     31.4539     84.8043
  1728.7500    222.2454     13.7920     16.1212     37.3558     92.9251
  1729.0000    222.1938     14.2648     16.1738     36.8618     88.9066
  1729.2500    222.1218     14.3872     15.7499     34.2405     82.6614
  1729.5000    221.9348     14.3361     15.1244     33.8813     85.4046
  1729.7500    221.6275     13.8885     14.6207     32.7586     93.9818
  1730.0000    221.4799     13.8168     14.4639     29.5955    103.4570
  1730.2500    221.8749     13.9719     14.3114     26.0423    102.3380
  1730.5000    222.3049     14.1952     13.9796     26.0679    103.1892
  1730.7500    221.2820     14.2178     14.1529     28.1366    100.1415
  1731.0000    220.8709     14.0174     13.9518     29.0343    105.1111
  1731.2500    221.2382     13.9582     14.2326     27.6278     96.7557
  1731.5000    221.7541     13.8378     14.2822     26.8932     94.3604
  1731.7500    221.9550     13.9217     14.3913     26.4680     96.8442
  1732.0000    220.8487     13.6669     14.6732     33.1023     92.4655
  1732.2500    222.1179     13.4222     14.8609     38.0231     96.1248
  1732.5000    222.5585     13.4026     15.6307     34.1136     84.8987
  1732.7500    221.6332     13.4469     15.2947     35.1134     86.0711
  1733.0000    222.3905     13.1568     14.7617     51.4778     87.6085
  1733.2500    224.2934     13.2586     14.7505     60.8273     91.5687
  1733.5000    223.3425     13.5765     14.4616     38.6548     99.7209
  1733.7500    223.0774     13.5365     14.1279     24.6689    106.3307
  1734.0000    223.1732     13.6163     13.8408     21.4666    104.1179
  1734.2500    222.9381     13.6633     14.0630     24.3238     98.9660
  1734.5000    222.8157     13.1592     14.5379     31.7783    100.9522
  1734.7500    223.4793     13.4151     15.0548     47.2638     93.8710
  1735.0000    223.6724     13.3599     14.7371     58.6537     87.9416
  1735.2500    222.6472     13.2402     14.3338     58.6311     99.5139
  1735.5000    222.6679     13.4345     13.6171     43.7657    106.4948
  1735.7500    225.0898     13.4389     13.1527     27.6198    110.2227
  1736.0000    225.6868     13.2449     12.9449     20.6762    112.7096
  1736.2500    225.8864     13.3648     13.0066     20.6219    107.9004
  1736.5000    225.2489     13.9086     13.2919     23.8499    106.1581
  1736.7500    224.4264     14.3488     14.0500     28.5036     93.6521
  1737.0000    223.8936     14.7066     14.8443     29.6652    103.2332
  1737.2500    223.0231     14.9928     15.5550     29.6766     98.2319
  1737.5000    222.1498     14.7843     16.5767     37.0897     92.7799
  1737.7500    221.1940     15.3167     17.1934     58.5146     89.7110
  1738.0000    220.6871     15.9066     17.4069     67.4685     79.7438
  1738.2500    220.1618     16.1892     18.2645     46.4091     82.0062
  1738.5000    220.0515     16.4137     18.9223     36.2487     90.5983
  1738.7500    219.9344     16.5092     20.0737     40.2222     90.9775
  1739.0000    219.5991     16.8218     21.4042     53.5726     81.6145
  1739.2500    219.2889     16.9320     21.9957     73.5754     74.1303
  1739.5000    218.8280     17.3637     22.3138     83.8697     69.3544
  1739.7500    218.1283     18.1339     22.5845     65.2037     70.0337
  1740.0000    217.8236     18.4812     23.4211     59.5917     79.0030
  1740.2500    217.6128     18.2454     22.1249     52.1041     80.2111
  1740.5000    217.6217     18.1180     21.7098     49.0653     76.9286
  1740.7500    217.7398     18.0010     20.2504     35.1912     78.7254
  1741.0000    217.9616     18.1472     19.7621     29.8745     72.7909
  1741.2500    218.3614     17.6594     19.8742     40.1071     71.5912
  1741.5000    218.4517     16.9681     19.7068     31.6484     73.7682
  1741.7500    218.5409     16.3366     19.6238     26.3448     71.9074
  1742.0000    218.6213     15.2867     18.8862     51.5065     79.3667
  1742.2500    218.8822     14.7032     18.2530     92.2612     76.8815
  1742.5000    219.4507     14.4370     17.3110     60.7688     81.8505
  1742.7500    220.2678     14.3396     14.9346     40.5166    106.0367
  1743.0000    220.8140     14.0196     13.8698     26.5841    107.0682
  1743.2500    221.4530     14.0890     12.9987     19.7566    113.3923
  1743.5000    221.7683     14.6038     12.3406     18.8949    120.5102
  1743.7500    222.1009     14.7997     12.4147     18.7093    113.3930
  1744.0000    222.0124     14.7570     12.8255     17.2451    111.2100
  1744.2500    222.4841     14.8053     14.2120     16.4078     92.0697
  1744.5000    223.4582     14.5987     15.3550     37.4163     75.8078
  1744.7500    225.0887     14.0096     16.2185    129.9855     72.8419
  1745.0000    227.1004     13.5086     16.7761    133.0462     74.6941
  1745.2500    229.5049     12.6112     16.6743     85.4529     78.9490
  1745.5000    231.5834     12.5375     16.4574     83.2199     75.7895
  1745.7500    234.6327     12.2209     15.6967    142.1761     82.3244
  1746.0000    237.3018     11.9175     14.1434    118.7413    101.1543
  1746.2500    241.6812     12.0245     13.6116     51.6043    107.8451
  1746.5000    244.7998     12.3242     12.1202     31.2447    120.0337
  1746.7500    246.4373     12.5621     11.9264     26.8490    119.0175
  1747.0000    248.2631     12.5070     11.5181     26.4118    126.6364
  1747.2500    249.1382     12.4290     11.3407     25.7250    124.3964
  1747.5000    249.7915     12.2692     11.1912     26.3618    121.1157
  1747.7500    249.9435     12.1012     11.2836     25.9217    122.6774
  1748.0000    249.4557     11.7890     11.5400     26.8212    118.2061
  1748.2500    249.3552     11.1829     11.5121     29.4916    105.4674
  1748.5000    249.7131     11.0999     11.7369     39.0643    103.8381
  1748.7500    250.0290     10.5633     11.7443     42.4994    102.1007
  1749.0000    250.4450     10.5188     11.9303     44.7391    105.8482
  1749.2500    250.8262     10.5378     11.4095     44.7657    104.7133
  1749.5000    251.1846     10.4794     11.4190     43.3363     98.1158
  1749.7500    251.4830     10.5501     11.4576     40.7579     96.7931
  1750.0000    251.7837     10.6905     11.3364     37.1505    106.3840
  1750.2500    251.8524     10.8894     11.2274     37.3936    108.8504
  1750.5000    251.8628     11.4273     11.1416     37.9826    101.1492
  1750.7500    251.7030     11.3702     11.2036     37.7085    106.3433
  1751.0000    251.6842     11.6119     11.3947     37.3180    106.0711
  1751.2500    251.5785     11.5909     11.7339     36.2568    104.1298
  1751.5000    251.2826     11.2666     11.9527     35.6462    112.0425
  1751.7500    250.5851     11.3573     12.0153     41.1435    102.5322
  1752.0000    249.5976     11.4536     12.2885     43.0042     88.8436
  1752.2500    248.4563     11.4948     12.1769     42.5995     94.4524
  1752.5000    247.0251     11.5629     12.4779     43.4837    104.5787
  1752.7500    245.4998     11.4107     12.4775     43.6812    100.3086
  1753.0000    244.1978     11.5890     12.4730     39.8945    100.8860
  1753.2500    243.0960     11.9277     12.6528     41.4483    104.4310
  1753.5000    241.8433     12.1010     12.9706     43.9162     90.3744
  1753.7500    240.5083     12.1460     13.2465     44.2260     89.3156
