~Version Information
VERS.                      2.0: CWLS Log ASCII Standard - VERSION 2.0
WRAP.                       NO: One line per depth step
~Well Information Block
STRT.FT                 0.0000: 
STOP.FT              1439.5000: 
STEP.FT                 0.2500: 
NULL.                -999.2500: 
COMP.          Petrogulf Corporation: COMPANY
WELL.          Robinson 15-12R: WELL
FLD.           Purgatorie River: FIELD
LOC.           1752' FNL & 561' FWL: LOCATION
PROV.                 Colorado: PROVINCE
CNTY.               Las Animas: COUNTRY
SRVC.                Patterson: SERVICE COMPANY
DATE.          Tue Oct 04 09:17:52 2005: LOG DATE
UWI.                          : UNIQUE WELL ID
~Curve Information Block
DEPT.FT            0 000 00 00: Depth
GR.GAPI                       : Gamma Ray
CCL.                          : Casing Collar Locator
TT3.usec                      : CBL 3' Travel Time
AMP3.mV                       : CBL 3' Amplitude
~Parameter Information Block
~A  Depth        GR         CCL         TT3         AMP3    
# ...
   469.0000     94.7445      0.0000    832.9474      5.8945
   469.2500     98.3811      0.0000    821.1654      5.8021
   469.5000    100.6536      0.0000    811.0106      5.7206
   469.7500     99.9377      0.0000    805.8342      5.6341
   470.0000     96.3472      0.0000    804.2785      5.5440
   470.2500     91.4369      0.0000    803.9636      5.4782
   470.5000     87.2623      0.0000    803.6292      5.4526
   470.7500     85.3901      0.0000    802.9292      5.4508
   471.0000     86.1220      0.0000    801.9648      5.4426
   471.2500     88.4997      0.0000    800.9994      5.4102
   471.5000     91.2646      0.0000    800.2521      5.3664
   471.7500     93.7530      0.0000    799.8158      5.3512
   472.0000     95.9074      0.0000    799.6639      5.3925
   472.2500     97.8024      0.0000    799.7719      5.4720
   472.5000     99.3335      0.0000    800.1897      5.5511
   472.7500    100.1809      0.0000    801.0531      5.6243
   473.0000     99.9237      0.0000    803.1471      5.7158
   473.2500     98.3606      0.0000    808.7205      5.8303
   473.5000     95.8934      0.0000    819.5770      5.9421
   473.7500     93.4257      0.0000    832.5407      6.0289
   474.0000     91.7770      0.0000    840.3916      6.0812
   474.2500     91.3181      0.0000    840.3578      6.0836
   474.5000     92.0330      0.0000    837.1798      6.0322
   474.7500     93.6133      0.0000    834.3839      5.9526
   475.0000     95.5607      0.0000    829.0178      5.8704
   475.2500     97.2539      0.0000    819.1003      5.7869
   475.5000     97.8447      0.0000    807.3617      5.6953
   475.7500     96.5706      0.0000    794.0886      5.5920
   476.0000     93.7445      0.0000    774.8060      5.4756
   476.2500     91.1039      0.0000    748.8754      5.3592
   476.5000     90.5960      0.0000    725.1412      5.2674
   476.7500     92.7218      0.0000    712.2132      5.2082
   477.0000     96.0980      0.0000    706.4720      5.1639
   477.2500     98.6133      0.0000    699.3405      5.1125
   477.5000     99.1362      0.0000    690.3977      5.0449
   477.7500     98.1838      0.0000    683.9504      4.9691
   478.0000     96.9413      0.0000    681.0395      4.9057
   478.2500     95.8302      0.0000    680.1088      4.8581
   478.5000     94.3045      0.0000    679.8665      4.7989
   478.7500     92.0562      0.0000    680.1162      4.7169
   479.0000     90.1494      0.0000    682.4793      4.6424
   479.2500     90.4505      0.0000    690.4669      4.6106
   479.5000     93.6749      0.0000    705.5706      4.6256
   479.7500     98.3570      0.0000    721.9396      4.6665
   480.0000    102.0945      0.0000    730.8329      4.7190
   480.2500    103.5812      0.0000    732.5392      4.7880
   480.5000    103.2761      0.0000    735.5762      4.8783
   480.7500    102.4458      0.0000    743.6558      4.9731
   481.0000    101.9259      0.0000    752.2828      5.0458
   481.2500    101.7241      0.0000    755.5803      5.0949
   481.5000    101.4430      0.0000    748.0085      5.1560
   481.7500    100.9700      0.0000    726.6758      5.2739
   482.0000    100.9304      0.0000    701.6054      5.4562
   482.2500    102.4085      0.0000    689.9977      5.6515
   482.5000    105.9038      0.0000    695.6032      5.7938
   482.7500    110.5652      0.0000    711.7943      5.8691
   483.0000    114.7586      0.0000    731.4069      5.9271
   483.2500    117.2228      0.0000    743.1682      6.0244
   483.5000    117.2540      0.0000    740.7181      6.1544
   483.7500    114.2319      0.0000    728.3428      6.2535
   484.0000    108.0922      0.0000    714.2414      6.2870
   484.2500    100.4633      0.0000    710.7229      6.2948
   484.5000     94.3922      0.0000    726.4108      6.3166
   484.7500     92.3626      0.0000    751.5490      6.3165
   485.0000     94.7512      0.0000    763.7054      6.2315
   485.2500     99.9862      0.0000    750.6777      6.0816
   485.5000    105.6568      0.0000    722.0711      5.9830
   485.7500    109.8428      0.0000    696.6580      6.0155
   486.0000    112.1935      0.0000    683.3737      6.1040
   486.2500    113.7712      0.0000    679.5146      6.0953
   486.5000    115.5630      0.0000    680.9778      5.9223
   486.7500    117.2831      0.0000    686.3624      5.6523
   487.0000    117.8182      0.0000    694.5502      5.4108
   487.2500    116.5514      0.0000    703.8511      5.2682
   487.5000    113.9545      0.0000    713.3411      5.2027
   487.7500    111.0395      0.0000    723.4605      5.1630
   488.0000    108.5738      0.0000    731.9966      5.1316
   488.2500    106.9032      0.0000    732.8192      5.1341
   488.5000    106.1265      0.0000    727.7137      5.2136
   488.7500    105.9511      0.0000    725.8439      5.3763
   489.0000    105.5520      0.0000    725.0076      5.5728
   489.2500    104.1677      0.0000    719.4534      5.7872
   489.5000    101.9731      0.0000    722.6292      6.0908
   489.7500    100.0492      0.0000    752.4830      6.5464
   490.0000     99.5515      0.0000    799.6987      7.1240
   490.2500    101.2183      0.0000    833.1830      7.7631
   490.5000    105.3180      0.0000    838.4637      8.4589
   490.7500    111.2925      0.0000    829.5043      9.2410
   491.0000    117.4154      0.0000    820.2002     10.1277
   491.2500    121.4700      0.0000    809.0500     11.1240
   491.5000    122.3401      0.0000    787.4944     12.1829
   491.7500    121.0054      0.0000    743.6313     13.2184
   492.0000    119.6989      0.0000    671.3506     14.2427
   492.2500    119.8797      0.0000    587.9072     15.3540
   492.5000    121.0171      0.0000    523.9523     16.5218
   492.7500    121.4494      0.0000    491.9194     17.5677
   493.0000    120.3895      0.0000    481.4614     18.4195
   493.2500    118.8649      0.0000    479.2510     19.2158
   493.5000    118.6073      0.0000    479.0346     20.1036
   493.7500    120.2569      0.0000    479.1506     21.0710
   494.0000    122.8105      0.0000    479.2455     21.9681
   494.2500    124.7533      0.0000    479.4120     22.5832
   494.5000    125.6976      0.0000    481.4469     22.6828
   494.7500    126.9072      0.0000    492.6419     22.0278
   495.0000    129.9003      0.0000    527.6906     20.5060
   495.2500    134.2797      0.0000    595.6728     18.3258
   495.5000    137.4146      0.0000    677.5324     15.9697
   495.7500    136.7994      0.0000    734.2294     13.8713
   496.0000    132.3551      0.0000    748.3232     12.1359
   496.2500    125.9495      0.0000    740.9698     10.6381
   496.5000    119.1493      0.0000    743.0738      9.3013
   496.7500    112.1114      0.0000    761.7842      8.1558
   497.0000    104.3949      0.0000    782.5164      7.2107
   497.2500     96.0666      0.0000    793.6727      6.3696
   497.5000     87.7508      0.0000    795.0048      5.5284
   497.7500     79.9997      0.0000    789.2654      4.7340
   498.0000     73.0286      0.0000    779.7814      4.1405
   498.2500     67.1449      0.0000    772.3700      3.8389
   498.5000     63.1509      0.0000    768.3692      3.7975
   498.7500     62.0129      0.0000    761.7112      3.9172
   499.0000     64.1231      0.0000    752.1910      4.0952
   499.2500     69.0715      0.0000    748.4291      4.2689
   499.5000     76.0278      0.0000    754.0917      4.4439
   499.7500     83.8200      0.0000    766.6577      4.6928
   500.0000     90.4395      0.0000    783.5370      5.0826
   500.2500     93.2441      0.0000    799.8420      5.5361
   500.5000     90.6769      0.0000    817.4244      5.8020
   500.7500     83.8535      0.0000    856.3707      5.6964
   501.0000     75.8948      0.0000    926.0452      5.3971
   501.2500     69.5951      0.0000    993.6704      5.3238
   501.5000     65.8885      0.0000   1016.9013      5.6793
   501.7500     64.0999      0.0000    981.8982      6.3062
   502.0000     63.0706      0.0000    902.5392      6.9823
   502.2500     62.1725      2.0000    818.4143      7.6257
