~Version Information
 VERS.                      2.0: CWLS Log ASCII Standard - VERSION 2.0
 WRAP.                       NO: One line per depth step
 ~Well Information Block
 STRT.FT               762.3000: 
 STOP.FT              2573.7000: 
 STEP.FT                 0.1000: 
 NULL.                -999.2500: 
 COMP.          Petrogulf Corporation: COMPANY
 WELL.               J&P 12-33V: WELL
 FLD.           Purgatorie River: FIELD
 LOC.           2005' FSL & 1928' FEL: LOCATION
 CNTY.               Las Animas: COUNTY
 SRVC.                         : SERVICE COMPANY
 DATE.          Sat Aug 28 11:34:36 2004: LOG DATE
 UWI.           05 071 08092 00: UNIQUE WELL ID
 STAT.                 Colorado: STATE
 PROV.                         :Province
 ~Curve Information Block
 DEPT.FT            0 000 00 00: Depth
 GR.GAPI                       : Gamma Ray
 DCAL.in                       : CDL Caliper
 DPOR.pu                       : CDL Density Porosity
 NPOR.pu                       : Neutron Porosity
 RHOB.g/cc                     : CDL Bulk Density
 RHOC.g/cc                     : CDL Density Correction
 ~Parameter Information Block
 ~A  Depth        GR         DCAL        DPOR        NPOR        RHOB        RHOC    
# ...
  1021.5000    141.5468      8.4343     10.2013     23.9773      2.4817      0.2764
  1021.6000    132.9567      8.4343     11.6129     24.4176      2.4584      0.1685
  1021.7000    128.6891      8.4343     13.1027     24.8433      2.4338      0.1352
  1021.8000    129.6842      8.4337     14.3849     25.3543      2.4126      0.0776
  1021.9000    132.6676      8.4337     15.5402     26.0690      2.3936      0.0674
  1022.0000    132.6124      8.4338     16.1474     26.7045      2.3836      0.0097
  1022.1000    126.9048      8.4338     15.8780     27.0388      2.3880      0.0533
  1022.2000    120.0819      8.4338     15.1630     27.2717      2.3998      0.0675
  1022.3000    119.9861      8.4321     14.3368     27.5259      2.4134      0.0958
  1022.4000    128.1915      8.4321     13.5710     27.7599      2.4261      0.0809
  1022.5000    137.9700      8.4332     13.3683     27.9921      2.4294      0.0852
  1022.6000    144.3034      8.4332     13.7413     28.1294      2.4233      0.0515
  1022.7000    146.8546      8.4332     13.8029     28.0297      2.4223      0.0436
  1022.8000    148.0500      8.4378     13.1910     27.7301      2.4323      0.0851
  1022.9000    151.6939      8.4378     12.5531     27.4906      2.4429      0.0881
  1023.0000    152.8304      8.4329     12.1618     27.4953      2.4493      0.0025
  1023.1000    146.2968      8.4329     11.4804     27.5035      2.4606     -0.0141
  1023.2000    143.6292      8.4329     10.4584     27.3082      2.4774      0.0101
  1023.3000    150.7702      8.4322      9.6981     26.8754      2.4900      0.0069
  1023.4000    156.8423      8.4322      9.0110     26.2069      2.5013     -0.0470
  1023.5000    154.1478      8.4320      7.9723     25.5536      2.5185      0.0307
  1023.6000    145.4079      8.4320      7.0175     25.1065      2.5342      0.0558
  1023.7000    139.1904      8.4320      6.4685     24.9188      2.5433      0.0509
  1023.8000    141.6411      8.4311      6.3642     24.9949      2.5450      0.0526
  1023.9000    147.9590      8.4311      6.7608     25.1003      2.5384      0.0162
  1024.0000    148.4613      8.4317      7.9284     24.9902      2.5192      0.0660
  1024.1000    140.6069      8.4317      9.6025     24.6937      2.4916      0.0212
  1024.2000    133.4806      8.4317     10.7924     24.3912      2.4719      0.0380
  1024.3000    133.5999      8.4297     11.4125     24.2068      2.4617      0.0169
  1024.4000    136.4600      8.4297     12.1612     24.2935      2.4493      0.0494
  1024.5000    139.3380      8.4327     13.1025     24.7345      2.4338     -0.0067
  1024.6000    142.5737      8.4327     13.2971     25.2701      2.4306      0.0355
  1024.7000    143.0407      8.4327     12.1610     25.6064      2.4493      0.0294
  1024.8000    138.4384      8.4332     10.2433     25.7421      2.4810      0.0681
  1024.9000    133.0569      8.4332      8.5782     25.8358      2.5085      0.1272
  1025.0000    131.8954      8.4334      7.8003     25.9920      2.5213      0.1706
  1025.1000    134.0019      8.4334      7.5525     26.1000      2.5254      0.0994
  1025.2000    138.8544      8.4334      7.5130     26.0409      2.5260      0.1542
  1025.3000    145.4897      8.4326      8.1718     26.0778      2.5152      0.0965
  1025.4000    148.2627      8.4326      9.2140     26.4489      2.4980      0.0727
  1025.5000    143.2298      8.4343      9.6582     26.8216      2.4906      0.0575
  1025.6000    136.3903      8.4343      9.1995     26.8944      2.4982      0.0380
  1025.7000    132.7901      8.4343      7.9355     26.6598      2.5191      0.0247
  1025.8000    130.3615      8.4318      6.4083     26.2990      2.5443      0.0674
  1025.9000    128.3828      8.4318      5.9338     26.0520      2.5521      0.0691
  1026.0000    129.0506      8.4325      7.2601     25.8332      2.5302      0.0701
  1026.1000    133.9508      8.4325      9.5582     25.5777      2.4923      0.0294
  1026.2000    138.4319      8.4325     11.2796     25.4025      2.4639     -0.0116
  1026.3000    139.3345      8.4326     11.4661     25.2078      2.4608      0.0185
  1026.4000    142.7272      8.4326     10.4586     24.9494      2.4774      0.0230
  1026.5000    148.5531      8.4327      9.3629     24.9035      2.4955      0.0701
  1026.6000    149.0908      8.4327      8.6999     25.0580      2.5065      0.0221
  1026.7000    144.0246      8.4327      8.0936     24.9171      2.5165      0.0875
  1026.8000    139.7339      8.4332      7.9511     24.3407      2.5188      0.1163
  1026.9000    140.0972      8.4332      9.1115     23.9796      2.4997      0.0997
  1027.0000    144.1503      8.4341     11.0116     24.1784      2.4683      0.0661
  1027.1000    147.7414      8.4341     12.8992     24.5157      2.4372      0.0647
  1027.2000    149.3546      8.4341     14.8995     24.6418      2.4042      0.0602
  1027.3000    148.5427      8.4349     15.9423     24.5723      2.3870     -0.0017
  1027.4000    143.0505      8.4349     14.5359     24.4127      2.4102      0.0384
  1027.5000    138.5367      8.4358     11.5669     24.2869      2.4591      0.0721
  1027.6000    142.6717      8.4358      8.8608     24.3317      2.5038      0.1165
  1027.7000    150.2250      8.4358      7.2818     24.6257      2.5298      0.1786
  1027.8000    153.8584      8.4379      6.8147     25.0037      2.5376      0.2003
  1027.9000    153.9474      8.4379      6.3865     25.3110      2.5446      0.1582
  1028.0000    153.9648      8.4350      5.1727     25.6266      2.5647      0.1799
  1028.1000    155.3497      8.4350      4.4942     26.1342      2.5758      0.2955
  1028.2000    151.6631      8.4350      5.5970     26.9270      2.5576      0.1624
  1028.3000    137.9555      8.4398      7.0718     27.7387      2.5333      0.0562
  1028.4000    123.9115      8.4398      7.4007     28.2132      2.5279      0.0542
  1028.5000    117.6664      8.4594      7.0002     28.3669      2.5345      0.0594
  1028.6000    116.1815      8.4594      6.6546     28.5098      2.5402      0.0389
  1028.7000    115.9419      8.4594      6.4602     28.8346      2.5434      0.0310
  1028.8000    117.1193      8.3405      6.0916     29.3642      2.5495      0.0541
  1028.9000    116.6272      8.3405      5.3216     29.9279      2.5622      0.0031
  1029.0000    109.7014      8.3149      4.5898     30.1679      2.5743      0.0677
  1029.1000    101.0970      8.3149      4.3692     29.9586      2.5779      0.0233
  1029.2000     97.7828      8.3149      4.5023     29.3601      2.5757      0.0437
  1029.3000     96.2473      8.3151      4.6273     28.4301      2.5736      0.0053
  1029.4000     90.8189      8.3151      4.1506     27.4489      2.5815      0.0351
  1029.5000     84.5632      8.3149      3.1908     26.7873      2.5974      0.0360
  1029.6000     83.5147      8.3149      2.8987     26.4251      2.6022      0.0785
  1029.7000     84.6801      8.3149      3.6438     25.9931      2.5899      0.0209
  1029.8000     83.2594      8.3146      4.1209     25.4272      2.5820      0.0026
  1029.9000     85.1323      8.3146      3.3407     25.0036      2.5949      0.0480
  1030.0000     95.4966      8.3164      2.1274     24.6634      2.6149      0.0393
  1030.1000    106.4222      8.3164      1.6820     24.2303      2.6222      0.0224
  1030.2000    107.9099      8.3164      2.2768     23.8724      2.6124      0.0371
  1030.3000    105.8246      8.3217      3.4372     23.6263      2.5933     -0.0175
  1030.4000    108.3516      8.3217      4.6832     23.3722      2.5727      0.0028
  1030.5000    110.4719      8.3170      5.9758     23.0311      2.5514      0.0083
  1030.6000    107.8006      8.3170      6.6535     22.3874      2.5402     -0.0275
  1030.7000    101.9212      8.3170      5.8915     21.5804      2.5528      0.0101
  1030.8000     91.8124      8.3159      4.6307     21.1155      2.5736      0.0678
  1030.9000     80.6181      8.3159      4.5847     21.0722      2.5744      0.0533
  1031.0000     77.2702      8.3165      5.7867     21.0505      2.5545      0.0124
