~Version Information
VERS.                      2.0: CWLS Log ASCII Standard - VERSION 2.0
WRAP.                       NO: One line per depth step
~Well Information Block
STRT.FT                15.0000: 
STOP.FT              2565.5000: 
STEP.FT                 0.2500: 
NULL.                -999.2500: 
COMP.          Pioneer Natural Resources: COMPANY
WELL.           Costello 44-24: WELL
FLD.           Purgatoire River: FIELD
LOC.           327' FSL & 378' FEL: LOCATION
PROV.                 Colorado: PROVINCE
CNTY.               Las Animas: COUNTRY
SRVC.                Patterson: SERVICE COMPANY
DATE.          Mon Jul 25 10:15:19 2005: LOG DATE
UWI.           05 071 08413 00: UNIQUE WELL ID
~Curve Information Block
DEPT.FT            0 000 00 00: Depth
GR.GAPI                       : Gamma Ray
CCL.                          : Casing Collar Locator
TT3.usec                      : CBL 3' Travel Time
AMP3.mV                       : CBL 3' Amplitude
~Parameter Information Block
~A  Depth        GR         CCL         TT3         AMP3    
# ...
   685.0000     87.4032      0.0000    661.5995      7.2872
   685.2500     81.4794      0.0000    651.9652      7.4335
   685.5000     77.0158      0.0000    646.6219      7.4378
   685.7500     73.6486      0.0000    648.7480      7.2727
   686.0000     70.9270      0.0000    660.7019      6.9735
   686.2500     68.7822      0.0000    681.9924      6.6211
   686.5000     67.7932      0.0000    708.0133      6.3049
   686.7500     68.9612      0.0000    732.0204      6.0837
   687.0000     73.2455      0.0000    749.3947      5.9572
   687.2500     81.2857      0.0000    759.6693      5.8802
   687.5000     93.2120     -2.3163    764.6541      5.8114
   687.7500    108.1577     -2.6949    765.7756      5.7391
   688.0000    123.8551      0.0000    763.3011      5.6742
   688.2500    137.1929      0.0000    757.1230      5.6546
   688.5000    145.6610      0.0000    747.8176      5.7623
   688.7500    148.4785      0.0000    736.6771      6.0803
   689.0000    146.6073      0.0000    724.8165      6.5873
   689.2500    142.1309      0.0000    712.7914      7.1158
   689.5000    137.5760      0.0000    700.9963      7.4594
   689.7500    135.0575      0.0000    689.8093      7.5250
   690.0000    135.4316      0.0000    679.3315      7.3745
   690.2500    138.1467      0.0000    669.4585      7.1395
   690.5000    141.7493      0.0000    660.4518      6.9227
   690.7500    144.4005      0.0000    653.3784      6.7642
   691.0000    144.4873      0.0000    649.4852      6.6624
   691.2500    141.6455      0.0000    648.7446      6.6058
   691.5000    137.2438      0.0000    649.5477      6.5878
   691.7500    133.3117      0.0000    650.1716      6.6060
   692.0000    130.8503      0.0000    650.1100      6.6549
   692.2500    129.2660      0.0000    649.8583      6.7214
   692.5000    127.3026      0.0000    650.1104      6.7875
   692.7500    124.5505      0.0000    651.4944      6.8395
   693.0000    122.1486      0.0000    654.5405      6.8719
   693.2500    121.8853      0.0000    659.2212      6.8870
   693.5000    124.6678      0.0000    664.2458      6.8923
   693.7500    130.0595      0.0000    667.3497      6.8937
   694.0000    136.9654      0.0000    667.0489      6.8894
   694.2500    144.2708      0.0000    664.1729      6.8719
   694.5000    150.9174      0.0000    660.7914      6.8359
   694.7500    155.8377      0.0000    657.3325      6.7848
   695.0000    158.1680      0.0000    652.0264      6.7282
   695.2500    157.6501      0.0000    644.1450      6.6769
   695.5000    154.8667      0.0000    636.0980      6.6379
   695.7500    151.1102      0.0000    630.0793      6.6100
   696.0000    147.9202      0.0000    623.9039      6.5840
   696.2500    146.3891      0.0000    613.7942      6.5504
   696.5000    146.5645      0.0000    601.6164      6.5094
   696.7500    147.4440      0.0000    595.8785      6.4709
   697.0000    147.5186      0.0000    603.6529      6.4440
   697.2500    145.4007      0.0000    623.2466      6.4253
   697.5000    140.4310      0.0000    646.1617      6.4012
   697.7500    133.0684      0.0000    665.0245      6.3626
   698.0000    124.5940      0.0000    678.1583      6.3136
   698.2500    116.4306      0.0000    687.5216      6.2642
   698.5000    109.8185      0.0000    694.4340      6.2137
   698.7500    105.6903      0.0000    698.3097      6.1480
   699.0000    104.2890      0.0000    698.7139      6.0559
   699.2500    105.0746      0.0000    696.9469      5.9479
   699.5000    107.5267      0.0000    694.9274      5.8561
   699.7500    111.9620      0.0000    693.6178      5.8121
   700.0000    119.0011      0.0000    693.5461      5.8261
   700.2500    127.9952      0.0000    695.9457      5.8865
   700.5000    136.4782      0.0000    701.6711      5.9750
   700.7500    141.6455      0.0000    708.8203      6.0756
   701.0000    142.2338      0.0000    712.9532      6.1737
   701.2500    138.8161      0.0000    710.9855      6.2568
   701.5000    132.6966      0.0000    704.4176      6.3205
   701.7500    124.9243      0.0000    697.7682      6.3670
   702.0000    116.2249      0.0000    694.3163      6.3979
   702.2500    107.3292      0.0000    694.3633      6.4120
   702.5000     99.0098      0.0000    696.9050      6.4076
   702.7500     91.8674      0.0000    701.2565      6.3837
   703.0000     86.2100      0.0000    706.7350      6.3383
   703.2500     82.0725      0.0000    712.0690      6.2705
   703.5000     79.3183      0.0000    715.9973      6.1812
   703.7500     77.8050      0.0000    718.1184      6.0734
   704.0000     77.4956      0.0000    718.8614      5.9547
   704.2500     78.3034      0.0000    718.8647      5.8403
   704.5000     79.8608      0.0000    718.5353      5.7500
   704.7500     81.6587      0.0000    717.9685      5.6942
   705.0000     83.5037      0.0000    717.0055      5.6650
   705.2500     85.5958      0.0000    715.3913      5.6407
   705.5000     87.9623      0.0000    713.1458      5.6002
   705.7500     89.9592      0.0000    710.9305      5.5344
   706.0000     90.6311      0.0000    709.8015      5.4495
   706.2500     89.6409      0.0000    710.2665      5.3604
   706.5000     87.6699      0.0000    711.6799      5.2780
   706.7500     85.8034      0.0000    712.7347      5.2014
   707.0000     84.5793      0.0000    712.4686      5.1258
   707.2500     83.6407      0.0000    710.8831      5.0560
   707.5000     82.1862      0.0000    708.9652      5.0043
   707.7500     79.7081      0.0000    708.0773      4.9747
   708.0000     76.4512      0.0000    708.9077      4.9558
   708.2500     73.3676      0.0000    710.9301      4.9328
   708.5000     71.5474      0.0000    713.0250      4.9028
   708.7500     71.3596      0.0000    714.4855      4.8743
   709.0000     72.0859      0.0000    715.2992      4.8560
   709.2500     72.6001      0.0000    715.7482      4.8474
   709.5000     72.3572      0.0000    716.0191      4.8398
   709.7500     71.5194      0.0000    716.1352      4.8223
   710.0000     70.3738      0.0000    716.0633      4.7888
   710.2500     69.0635      0.0000    715.8078      4.7414
   710.5000     67.8498      0.0000    715.4481      4.6885
   710.7500     67.3268      0.0000    715.1089      4.6397
   711.0000     68.2596      0.0000    714.9194      4.6000
   711.2500     71.0786      0.0000    714.9959      4.5660
   711.5000     75.3525      0.0000    715.4519      4.5304
   711.7500     79.8143      0.0000    716.2236      4.4910
   712.0000     82.9655      0.0000    716.6467      4.4551
   712.2500     83.6896      0.0000    715.4371      4.4347
   712.5000     81.6732      0.0000    711.9540      4.4395
   712.7500     77.6533      0.0000    707.8408      4.4692
   713.0000     73.1262      0.0000    706.4236      4.5121
   713.2500     69.4525      0.0000    709.7021      4.5557
   713.5000     67.1819      0.0000    716.7191      4.6022
   713.7500     66.2168      0.0000    725.3812      4.6714
   714.0000     66.2807      0.0000    734.2852      4.7821
   714.2500     67.0463      0.0000    741.7143      4.9276
   714.5000     68.2802      0.0000    744.7899      5.0734
   714.7500     70.3759      0.0000    741.6302      5.1837
   715.0000     74.5465      0.0000    733.4155      5.2513
   715.2500     81.9971      0.0000    723.0965      5.2995
   715.5000     92.7846      0.0000    713.0410      5.3585
   715.7500    105.5598      0.0000    704.4908      5.4440
   716.0000    118.2654      0.0000    697.8229      5.5573
   716.2500    128.9983      0.0000    692.4845      5.6953
   716.5000    136.6553      0.0000    687.6082      5.8527
   716.7500    141.3957      0.0000    683.1116      6.0179
   717.0000    144.4463      0.0000    679.6935      6.1701
   717.2500    146.9187      0.0000    677.8727      6.2861
   717.5000    148.6319      0.0000    677.5045      6.3530
   717.7500    148.4595      0.0000    678.1642      6.3790
   718.0000    146.0373      0.0000    679.6715      6.3871
   718.2500    142.7910      0.0000    682.3047      6.3968
