~Version Information
 VERS.                                  2.0 : CWLS LAS VERSION
 WRAP.                                   NO : WRAPING MODE
 SWARE .                 MController 2.5.0J : SOFTWARE VERSION
~Well Information
 WELL.                  Dude Canyon 22-32Tr : WELL
 COMP.   Pioneer Natural Resources USA Inc. : COMPANY
 FLD.                      Purgatoire River : FIELD
 LOC.                SE/NW Sec 32 T32S R67W : LOCATION
 DATE.                             07/08/04 : DATE(S) LOGGED
 SRVC.       BLANCO Geological Services LLC : SERVICE COMPANY
 STAT.                                   CO : STATE
 CNTY.                           Las Animas : COUNTY
 CTRY.                                  USA : COUNTRY
 API.                       05-071-08421-00 : API NUMBER
 STRT.FT                             476.00 : START DEPTH
 STOP.FT                             1630.00 : STOP DEPTH
 STEP.FT                               1.00 : DEPTH INCREMENT
 NULL.                                -9999 : NULL VALUE
~Curve information
 DEPTH.FT                                   :
 ROP.MIN/FT                                 :
 GAS.UNITS                                  :
~ASCII Log data
# ...
      1074.0         0.17          1.2 
      1075.0         0.23          0.5 
      1076.0         2.38          7.1 
      1077.0         0.30          1.3 
      1078.0         0.23          0.2 
      1079.0         0.23          0.0 
      1080.0         0.23          0.2 
      1081.0         0.23          0.0 
      1082.0         0.23          0.1 
      1083.0         0.20          0.4 
      1084.0         0.25          0.1 
      1085.0         0.20          0.3 
      1086.0         0.23          0.1 
      1087.0         0.17          0.2 
      1088.0         0.17          1.3 
      1089.0         0.10          1.8 
      1090.0         0.07          3.3 
      1091.0         0.17          3.4 
      1092.0         0.20          3.3 
      1093.0         0.23          2.0 
      1094.0         0.20          1.8 
      1095.0         0.20          1.8 
      1096.0         0.20          0.9 
      1097.0         0.22          0.5 
      1098.0         0.20          0.8 
      1099.0         0.20          0.4 
      1100.0         0.20          0.5 
      1101.0         0.20          0.6 
      1102.0         0.13          0.4 
      1103.0         0.17          0.2 
      1104.0         0.20          0.1 
      1105.0         0.20          0.3 
      1106.0         2.18         10.8 
      1107.0         0.50         10.2 
      1108.0         0.30          5.9 
      1109.0         0.23          2.8 
      1110.0         0.23          2.8 
      1111.0         0.20          1.5 
      1112.0         0.23          1.1 
      1113.0         0.17          1.2 
      1114.0         0.17          1.6 
      1115.0         0.23          1.1 
      1116.0         0.20          1.1 
      1117.0         0.23          1.0 
      1118.0         0.23          1.1 
      1119.0         0.25          1.2 
      1120.0         0.20          1.3 
      1121.0         0.17          1.7 
      1122.0         0.20          1.2 
      1123.0         0.23          1.0 
      1124.0         0.20          1.0 
      1125.0         0.20          1.4 
      1126.0         0.17          1.4 
      1127.0         0.20          1.9 
      1128.0         0.23          1.8 
      1129.0         0.20          1.8 
      1130.0         0.20          2.3 
      1131.0         0.17          2.1 
      1132.0         0.20          2.1 
      1133.0         0.20          2.4 
      1134.0         0.23          2.5 
      1135.0         0.28          1.7 
      1136.0         3.03         13.9 
      1137.0         0.48          3.8 
      1138.0         0.23          3.1 
      1139.0         0.23          2.5 
      1140.0         0.23          2.4 
      1141.0         0.27          2.4 
      1142.0         0.20          2.0 
      1143.0         0.30          2.1 
      1144.0         0.30         57.1 
      1145.0         0.20        101.7 
      1146.0         0.23        111.4 
      1147.0         0.23         69.1 
      1148.0         0.20         52.3 
      1149.0         0.20         29.9 
      1150.0         0.17         16.7 
      1151.0         0.18         10.5 
      1152.0         0.17          7.9 
      1153.0         0.13          5.5 
      1154.0         0.13          5.4 
      1155.0         0.20          4.0 
      1156.0         0.13          4.1 
      1157.0         0.10          4.1 
      1158.0         0.20          4.4 
      1159.0         0.20          3.6 
      1160.0         0.17          3.6 
      1161.0         0.13          3.5 
      1162.0         0.10          3.5 
      1163.0         0.13          4.3 
      1164.0         0.13          4.3 
      1165.0         0.20          4.7 
      1166.0         1.85         12.6 
      1167.0         0.23         16.4 
      1168.0         0.17         16.6 
      1169.0         0.37         19.6 
      1170.0         0.43         14.5 
      1171.0         0.40         11.6 
      1172.0         0.33          6.6 
      1173.0         0.23          5.1 
      1174.0         0.25          3.9 
      1175.0         0.23          3.6 
      1176.0         0.17          2.9 
      1177.0         0.13          3.6 
      1178.0         0.10          3.6 
      1179.0         0.10          4.7 
      1180.0         0.07          6.5 
      1181.0         0.10          6.5 
      1182.0         0.10          7.8 
      1183.0         0.27          8.9 
      1184.0         0.23          7.1 
      1185.0         0.27          6.3 
      1186.0         0.20          5.8 
      1187.0         0.17          4.2 
      1188.0         0.27          3.8 
      1189.0         0.23          3.9 
      1190.0         0.23          3.9 
      1191.0         0.23          2.9 
      1192.0         0.22          2.9 
      1193.0         0.23          2.9 
      1194.0         0.23          2.6 
      1195.0         0.23          2.2 
      1196.0         1.77         15.9 
      1197.0         0.47         19.1 
      1198.0         0.38         14.1 
      1199.0         0.30         10.6 
      1200.0         0.40          6.9 
      1201.0         0.40          3.6 
      1202.0         0.37          2.9 
      1203.0         0.17          3.0 
      1204.0         0.27          2.9 
      1205.0         0.23          3.1 
      1206.0         0.23          2.9 
      1207.0         0.20          2.4 
      1208.0         0.10          2.4 
      1209.0         0.13          3.3 
      1210.0         0.10          3.3 
      1211.0         0.10          4.9 
      1212.0         0.23          5.6 
      1213.0         0.25          5.1 
      1214.0         0.23          5.4 
      1215.0         0.27          4.3 
      1216.0         0.30          3.0 
      1217.0         0.20          2.7 
      1218.0         0.23          2.9 
      1219.0         0.37          2.5 
      1220.0         0.40          2.4 
      1221.0         0.30          2.3 
      1222.0         0.23          1.8 
      1223.0         0.27          2.0 
      1224.0         0.23          2.1 
      1225.0         0.25          2.1 
      1226.0         9.57         26.5 
      1227.0         0.20          6.9 
      1228.0         0.18          6.4 
      1229.0         0.27          4.6 
      1230.0         0.33          5.1 
      1231.0         0.30          4.3 
      1232.0         0.27          3.2 
      1233.0         0.23          2.5 
      1234.0         0.23          2.8 
      1235.0         0.27          1.9 
      1236.0         0.33          2.4 
      1237.0         0.20          1.7 
      1238.0         0.27          1.6 
      1239.0         0.23          1.5 
      1240.0         0.23          1.6 
      1241.0         0.45          1.9 
      1242.0         0.23          1.2 
      1243.0         0.23          1.7 
      1244.0         0.23          1.2 
      1245.0         0.30          1.2 
      1246.0         0.33          1.9 
      1247.0         0.27          1.7 
      1248.0         0.30          1.6 
      1249.0         0.20          1.3 
      1250.0         0.20          1.1 
      1251.0         0.20          1.1 
      1252.0         0.30          2.1 
      1253.0         0.28          2.5 
      1254.0         0.43          1.9 
      1255.0         0.97          1.1 
      1256.0         5.27         20.2 
      1257.0         0.50          5.8 
      1258.0         0.40          4.1 
      1259.0         0.40          2.6 
      1260.0         0.70          2.2 
      1261.0         0.53          1.4 
      1262.0         0.53          0.9 
      1263.0         0.45          0.9 
      1264.0         0.53          0.9 
      1265.0         0.47          1.4 
      1266.0         0.47          1.0 
      1267.0         0.43          1.5 
      1268.0         0.33          2.3 
      1269.0         0.23          1.7 
      1270.0         0.27          2.2 
      1271.0         0.33          2.1 
      1272.0         0.28          1.6 
      1273.0         0.20          1.6 
