~Version Information
 VERS.                                  2.0 : CWLS LAS VERSION
 WRAP.                                   NO : WRAPING MODE
 SWARE .                 MController 2.5.0N : SOFTWARE VERSION
~Well Information
 WELL.                      EASTON 12-30 TR : WELL
 COMP.    PIONEER NATURAL RESOURCES USA INC : COMPANY
 FLD.                      PURGATOIRE RIVER : FIELD
 LOC.                SW/NW SEC 30 T32S R66W : LOCATION
 DATE.                             06/01/05 : DATE(S) LOGGED
 SRVC.       BLANCO GEOLOGICAL SERVICES LLC : SERVICE COMPANY
 STAT.                             COLORADO : STATE
 CNTY.                           LAS ANIMAS : COUNTY
 CTRY.                                  USA : COUNTRY
 API.                       05-071-08379-00 : API NUMBER
 STRT.FT                             307.00 : START DEPTH
 STOP.FT                            2000.00 : STOP DEPTH
 STEP.FT                               1.00 : DEPTH INCREMENT
 NULL.                                -9999 : NULL VALUE
~Curve information
 DEPTH.FT                                   :
 ROP.MIN/FT                                 :
 GAS.UNITS                                  :
~ASCII Log data
# ...
      1107.0         0.43         26.1 
      1108.0         0.40         23.8 
      1109.0         0.23         20.3 
      1110.0         0.30         18.1 
      1111.0         0.30         17.1 
      1112.0         0.23         15.5 
      1113.0         0.23         14.4 
      1114.0         0.20         15.3 
      1115.0         0.20         14.9 
      1116.0         0.20         15.6 
      1117.0         0.22         16.0 
      1118.0         0.20         14.9 
      1119.0         0.20         13.6 
      1120.0         0.20         13.5 
      1121.0         0.27         14.7 
      1122.0         0.30         16.7 
      1123.0         0.30         24.4 
      1124.0         0.23         30.9 
      1125.0         0.20         32.4 
      1126.0         0.20         33.0 
      1127.0         0.20         33.1 
      1128.0         0.20         32.1 
      1129.0         0.13         29.7 
      1130.0         0.10         27.3 
      1131.0         0.17         25.6 
      1132.0         0.25         23.8 
      1133.0         0.23         20.9 
      1134.0         0.30         22.0 
      1135.0         0.37         33.3 
      1136.0         3.58        175.7 
      1137.0         0.33        114.9 
      1138.0         0.20        121.3 
      1139.0         0.13        122.6 
      1140.0         0.27        123.3 
      1141.0         0.27        120.8 
      1142.0         0.23        115.1 
      1143.0         0.23        109.4 
      1144.0         0.23        100.9 
      1145.0         0.20         94.4 
      1146.0         0.22         87.6 
      1147.0         0.20         83.4 
      1148.0         0.23         79.2 
      1149.0         0.20         76.8 
      1150.0         0.20         75.5 
      1151.0         0.20         73.5 
      1152.0         0.20         71.7 
      1153.0         0.20         70.9 
      1154.0         0.20         99.1 
      1155.0         0.20        117.3 
      1156.0         0.20        117.6 
      1157.0         0.23        102.5 
      1158.0         0.23         79.0 
      1159.0         0.23         67.1 
      1160.0         0.23         60.3 
      1161.0         0.25         52.1 
      1162.0         0.23         41.5 
      1163.0         0.23         33.6 
      1164.0         0.27         35.9 
      1165.0         0.27         68.7 
      1166.0         2.88        290.7 
      1167.0         0.37        114.7 
      1168.0         0.30         97.4 
      1169.0         0.27         89.6 
      1170.0         0.27         89.6 
      1171.0         0.27         79.7 
      1172.0         0.20         77.3 
      1173.0         0.17         71.6 
      1174.0         0.20         67.7 
      1175.0         0.17         67.7 
      1176.0         0.17         84.0 
      1177.0         0.20         85.2 
      1178.0         0.17         73.5 
      1179.0         0.18         65.7 
      1180.0         0.13         65.6 
      1181.0         0.23         68.8 
      1182.0         0.17         71.2 
      1183.0         0.10         72.0 
      1184.0         0.10         72.9 
      1185.0         0.13         72.9 
      1186.0         0.10         71.7 
      1187.0         0.10         70.1 
      1188.0         0.10         66.9 
      1189.0         0.10         63.2 
      1190.0         0.13         59.4 
      1191.0         0.13         54.8 
      1192.0         0.10         56.0 
      1193.0         0.13         66.9 
      1194.0         0.17         88.6 
      1195.0         0.17        117.9 
      1196.0         1.92        205.5 
      1197.0         0.37        128.9 
      1198.0         0.33        106.2 
      1199.0         0.30         90.7 
      1200.0         0.30         81.4 
      1201.0         0.23         74.5 
      1202.0         0.27         73.0 
      1203.0         0.20         71.3 
      1204.0         0.20         69.1 
      1205.0         0.27         66.6 
      1206.0         0.28         66.1 
      1207.0         0.30         64.6 
      1208.0         0.30         62.2 
      1209.0         0.30         60.2 
      1210.0         0.33         57.9 
      1211.0         0.30         57.5 
      1212.0         0.33         55.5 
      1213.0         0.27         54.2 
      1214.0         0.33         57.0 
      1215.0         0.23         66.6 
      1216.0         0.27         65.7 
      1217.0         0.28         56.2 
      1218.0         0.27         52.7 
      1219.0         0.23         51.0 
      1220.0         0.27         49.7 
      1221.0         0.20         48.3 
      1222.0         0.27         45.6 
      1223.0         0.23         41.2 
      1224.0         0.23         41.5 
      1225.0         0.23         51.1 
      1226.0         5.03       1224.0 
      1227.0         0.13        115.8 
      1228.0         0.13        112.7 
      1229.0         0.13        109.1 
      1230.0         0.13        107.3 
      1231.0         0.17        103.9 
      1232.0         0.17        100.4 
      1233.0         0.13         99.5 
      1234.0         0.13         98.8 
      1235.0         0.17         98.0 
      1236.0         0.13         94.5 
      1237.0         0.10         92.8 
      1238.0         0.13         92.4 
      1239.0         0.13         92.4 
      1240.0         0.10         90.4 
      1241.0         0.17         89.0 
      1242.0         0.17         78.1 
      1243.0         0.30         52.3 
      1244.0         0.17         81.4 
      1245.0         0.13         84.3 
      1246.0         0.18         84.0 
      1247.0         0.17         80.8 
      1248.0         0.17         78.9 
      1249.0         0.33         77.3 
      1250.0         0.27         72.9 
      1251.0         0.20         68.3 
      1252.0         0.30         62.6 
      1253.0         0.27         52.1 
      1254.0         0.23         47.8 
      1255.0         0.27         49.4 
      1256.0        10.98        344.6 
      1257.0         0.15        190.7 
      1258.0         0.13        189.8 
      1259.0         0.27        187.4 
      1260.0         0.33        173.0 
      1261.0         0.33        151.4 
      1262.0         0.23        133.0 
      1263.0         0.30        124.4 
      1264.0         0.27        114.7 
      1265.0         0.27        108.2 
      1266.0         0.27        102.2 
      1267.0         0.23         99.1 
      1268.0         0.27         96.0 
      1269.0         0.23         92.4 
      1270.0         0.25         90.0 
      1271.0         0.20         88.5 
      1272.0         0.23         87.0 
      1273.0         0.23        100.3 
      1274.0         0.23        105.7 
      1275.0         0.20        103.9 
      1276.0         0.23         97.7 
      1277.0         0.23         88.5 
      1278.0         0.23         85.0 
      1279.0         0.20         83.9 
      1280.0         0.20         80.5 
      1281.0         0.27         73.0 
      1282.0         0.23         61.1 
      1283.0         0.23         61.1 
      1284.0         0.17         72.9 
      1285.0         0.25        107.3 
      1286.0         4.48       1089.2 
      1287.0         0.30        146.0 
      1288.0         0.27        130.3 
      1289.0         0.30        120.1 
      1290.0         0.33        110.8 
      1291.0         0.27        103.2 
      1292.0         0.27         99.6 
      1293.0         0.27        100.2 
      1294.0         0.25         97.6 
      1295.0         0.23         92.1 
      1296.0         0.20         89.9 
      1297.0         0.23         89.7 
      1298.0         0.23         90.4 
      1299.0         0.20         92.9 
      1300.0         0.20         95.1 
      1301.0         0.20         95.3 
      1302.0         0.20         92.8 
      1303.0         0.20         74.2 
      1304.0         0.20         51.8 
      1305.0         0.20         34.9 
      1306.0         0.20         27.5 
