~Version Information
 VERS.                2.0:  CWLS LOG ASCII STANDARD -VERSION 2.0
 WRAP.                 NO:  ONE LINE PER DEPTH STEP
~WELL INFORMATION BLOCK
#MNEM.UNIT       DATA		            DESCRIPTION OF MNEMONIC
#---------    -------------            ------------------------
 STRT.FT  0.500                          :START DEPTH
 STOP.FT  1808.700                       :STOP DEPTH
 STEP.FT  0.100                          :STEP    UP_HOLE  
 NULL.    -999.25                        :NULL VALUE
 COMP.              EL PASO PRODUCTIONS  :COMPANY
 WELL.                     COREHOLE #38  :WELL
 FLD .                 PURGATOIRE RIVER  :FIELD
 LOC .      15   35S   65W               :LOCATION
 CNTY.                           COLFAX  :COUNTY
 STAT.                     NM            :STATE
 CTRY.                                   :
 SRVC.     O'DRISCOLL                    :SERVICE COMPANY
 DATE.   04/28/05                        :LOG DATE
 API .                                   :API NUMBER
 LIC .                                   :LICENSE NUMBER
~Curve Information Block
#MNEM.UNIT      API CODE     Curve Description
#---------    -------------  ------------------------
 DEPT     .FT        00 001 00 00          :  1  DEPTH   
 GAMMA    .API-GR    00 310 00 00          :  2                GAMMA
 VOLTAGE  .MV        00 000 00 00          :  3              VOLTAGE
 CALIPER  .INCH      00 280 00 00          :  4              CALIPER
 DEN(LS)  .G/CC      00 350 00 00          :  5              DEN(LS)
 DEN(SS)  .G/CC      00 350 00 00          :  6              DEN(SS)
 CURRENT  .UA        00 000 00 00          :  7              CURRENT
 RES(SG)  .OHM-M     00 220 00 00          :  8              RES(SG)
 POR(DEN) .PERCENT   00 890 00 00          :  9             POR(DEN)
 DEN(LS)  .CPS       00 350 00 00          : 10              DEN(LS)
 DEN(SS)  .CPS       00 350 00 00          : 11              DEN(SS)
 COMP     .G/CC      00 356 00 00          : 12                 COMP
 DEN(CDL) .G/CC      00 350 00 00          : 13             DEN(CDL)
 TEMP     .DEG F     00 660 00 00          : 14                 TEMP
 DEL_TEMP .DEG F     00 000 00 00          : 15             DEL_TEMP
 TIME     .MINUTES   00 000 00 00          : 16                 TIME
~Parameter Information Block
#MNEM.UNIT   Information     Description
#---------- ---------------  ------------------------
 FILE.      ORIGINAL           :File Type
 FIID.      9139A              :File Type Identifier
 VERS.      3.58G              :System Version
 SER .      1                  :System Serial Number
 TRUK.      .498775            :Truck Calibration Number
 TOOL.        1245             :Tool Serial Number
 TIME.      1507               :Time    HrHrMinMin
 LAT .       36 59'            :Latitude
 LON .       104 39'           :Longitude
 LMF .            GL           :Log Measured From
 DMF .            GL           :Driller Measured From
 PD  .            GL           :Permanent Data
 PDEV.                         :Elevation Permanent Data
 EKB .M                        :Elevation Kelly Bushing
 ELEV.DF                       :Elevation DF
 EGL .M        7777            :Elevation Ground Level
 DRDP.          1825           :Driller's Depth
 CASD.       10.               :Casing Diameter
 CASB.           300           :Casing Bottom
 CASX.         STEEL           :Casing Type
 CAST.                         :Casing Thickness
 TNOC.                         :Time Circulation Stopped
 LOGU.        108              :Logging Unit
 RECB.           R.SIPES       :Recorded By
 OSR1.          9057           :Other Services
 OSR2.                         :Other Services
 OSR3.                         :Other Services
 BS  .MM         3.5           :Bit Size
 MST .                         :Mean Surface Temperature
 TGRD.                         :Temperature Gradiant
 MAGN.            12           :Magnetic Declination
 MDEN.       2.7               :Density Matrix
 MATR.      SANDSTONE          :Neutron Matrix
 DTMT.            54           :Delta T Matrix
 DTFL.                         :Delta T Fluid
 MUDS.                         :Mud Sample Source
 MRS .                         :Mud Resistivity
 MTP .                         :Mud Temperature
 MFRS.                         :Resistivity Mud Filtrate
 MFTP.                         :Temperature Mud Filtrate
 MCRS.                         :Resistivity Mud Cake
 MCTP.                         :Temperature Mud Cake
 FTYP.                         :Fluid Type
 FD  .K/M3                     :Fluid Density
 DFV .S                        :Fluid Viscosity
 FPH .                         :Fuild PH
 ELCO.       50000             :Electron Cutoff
~Other Information
#MNEM.UNIT  Information      Description
#---------- ---------------  ------------------------
# -------------------------- 
~A DEPTH  GAMMA    VOLTAGE  CALIPER DEN(LS) DEN(SS) CURRENT  RES(SG)  POR(DEN) DEN(LS) DEN(SS) COMP  DEN(CDL) TEMP  DEL_TEMP TIME    
# ...
 124.000     98.3      4.4   3.0  2.25 2.79   112.0      2.8  108.7 1153.98 4228.07 -1.401 1.05 33.3  0.00 0.20000 
 124.100     98.3      4.4   3.0  2.48 2.84   111.5      2.8  60.7  731.65 4043.65 -0.812 1.08 33.3  0.00 0.20100 
 124.200    104.9      3.9   3.0  2.44 2.97   111.7      2.5  98.1  801.93 3593.37 -1.404 1.14 33.3  0.00 0.20000 
 124.300     99.2      3.9   3.0  2.48 2.99   110.5      2.5  89.2  731.60 3547.41 -1.296 1.16 33.3  0.00 0.09900 
 124.400    100.2      4.2   3.0  2.52 3.09   125.1      2.4  101.5 676.37 3225.94 -1.545 1.04 33.3  0.00 0.20100 
 124.500     88.8      4.0   3.0  2.57 3.16   150.8      1.9  103.2 616.14 3037.43 -1.621 1.14 33.3  0.00 0.20000 
 124.600     87.9      3.8   3.0  2.59 3.17   150.7      1.8  96.8  581.02 3027.25 -1.538 1.16 33.3  0.00 0.19900 
 124.700     86.0      3.8   3.0  2.68 3.14   141.7      1.9  67.0  490.73 3108.76 -1.119 1.23 33.3  0.00 0.20000 
 124.800     93.6      3.9   3.0  2.65 3.19   137.0      2.0  84.6  515.81 2961.09 -1.393 1.36 33.3  0.00 0.20000 
 124.900    101.1      4.3   3.0  2.66 3.17   136.8      2.3  79.8  510.85 3006.93 -1.316 1.46 33.3  0.00 0.20000 
 125.000    100.2      4.2   2.9  2.68 3.12   141.3      2.1  64.5  490.72 3144.39 -1.076 1.38 33.3  0.00 0.10000 
 125.100    100.2      3.5   2.9  2.71 3.19   149.7      1.7  69.4  460.64 2966.32 -1.190 1.40 33.3  0.00 0.20000 
 125.200    100.2      3.0   2.9  2.59 3.13   145.0      1.5  88.7  581.01 3129.10 -1.401 1.43 33.3  0.00 0.20000 
 125.300     94.5      3.4   2.9  2.67 3.19   130.4      1.9  80.3  495.74 2945.82 -1.340 1.41 33.3  0.00 0.20000 
 125.400     88.8      3.2   2.9  2.65 3.11   103.3      2.2  69.7  520.81 3180.13 -1.134 1.39 33.3  0.00 0.20000 
 125.500     87.9      2.8   3.0  2.63 3.10   194.1      1.0  72.4  540.90 3215.93 -1.160 1.47 33.3  0.00 0.20000 
 125.600     78.4      2.8   3.0  2.67 3.16   197.9      1.0  74.0  500.75 3047.67 -1.228 1.45 33.3  0.00 0.10000 
 125.700     82.2      2.3   2.9  2.67 3.12   198.2      0.8  66.7  500.76 3149.48 -1.103 1.48 33.3  0.00 0.20000 
 125.800     90.7      1.9   3.0  2.56 3.06   312.9      0.4  84.3  631.19 3322.80 -1.289 1.50 33.3  0.00 0.20000 
 125.900     86.0      2.0   3.0  2.67 3.10   188.0      0.8  62.8  500.75 3205.60 -1.037 1.54 33.3  0.00 0.20000 
 126.000    101.1      2.7   3.0  2.57 2.98   137.3      1.4  64.0  611.12 3578.16 -0.959 1.51 33.3  0.00 0.20000 
 126.100    107.7      2.8   3.0  2.61 3.02   137.4      1.4  62.3  560.94 3450.37 -0.968 1.55 33.3  0.00 0.20000 
 126.200    100.2      2.5   3.0  2.56 3.03   137.0      1.3  76.1  621.16 3414.64 -1.157 1.51 33.3  0.00 0.10000 
 126.300     94.5      2.7   3.0  2.56 3.01   136.3      1.4  74.2  631.22 3470.77 -1.118 1.53 33.3  0.00 0.20000 
 126.400    113.4      2.6   3.0  2.54 2.99   136.3      1.4  74.6  651.27 3526.93 -1.109 1.44 33.3  0.00 0.20000 
 126.500     90.7      2.3   3.0  2.60 2.97   125.6      1.3  56.0  570.98 3598.66 -0.851 1.47 33.3  0.00 0.20000 
 126.600     96.4      2.6   3.0  2.53 3.06   128.0      1.4  90.1  661.31 3333.00 -1.364 1.52 33.3  0.00 0.20000 
 126.700     96.4      2.8   3.0  2.66 3.11   133.4      1.5  66.2  505.77 3174.96 -1.090 1.57 33.3  0.00 0.20000 
 126.800     96.4      2.5   3.0  2.59 2.97   137.0      1.3  58.8  586.03 3593.33 -0.888 1.58 33.3  0.00 0.20000 
 126.900     81.3      2.6   3.0  2.64 3.05   136.6      1.4  60.3  530.84 3363.61 -0.964 1.59 33.3  0.00 0.10000 
 127.000     92.6      3.2   3.0  2.69 3.08   136.8      1.7  54.3  480.69 3261.61 -0.913 1.57 33.3  0.00 0.20000 
 127.100     85.1      3.1   3.0  2.60 3.13   126.5      1.7  87.8  575.99 3129.10 -1.388 1.55 33.3  0.00 0.20000 
 127.200     82.2      2.2   3.0  2.60 3.04   133.2      1.2  70.2  575.99 3378.91 -1.089 1.53 33.3  0.00 0.20000 
 127.300     76.6      2.3   3.0  2.60 3.03   138.3      1.2  66.4  571.05 3424.95 -1.028 1.48 33.3  0.00 0.20000 
 127.400     84.1      2.3   3.0  2.64 3.08   141.1      1.2  65.8  525.83 3256.52 -1.063 1.53 33.3  0.00 0.20000 
 127.500     88.8      2.3   3.0  2.61 3.06   138.1      1.2  69.8  560.94 3333.03 -1.095 1.50 33.3  0.00 0.10000 
 127.600     96.4      2.6   3.0  2.59 3.04   137.4      1.4  71.7  586.03 3384.01 -1.107 1.53 33.3  0.00 0.20000 
 127.700    109.6      3.1   3.0  2.60 3.09   137.5      1.6  78.7  576.00 3251.41 -1.234 1.53 33.3  0.00 0.20000 
 127.800    118.1      2.5   3.0  2.65 3.05   138.2      1.3  57.2  515.80 3353.45 -0.927 1.65 33.3  0.00 0.20000 
 127.900    113.4      2.4   3.0  2.67 3.12   137.1      1.3  65.6  500.77 3164.77 -1.085 1.66 33.3  0.00 0.20000 
 128.000    121.9      2.9   3.0  2.77 3.09   137.4      1.5  36.0  400.49 3236.18 -0.686 1.61 33.3  0.00 0.20000 
 128.100    111.5      2.9   3.0  2.68 3.14   137.1      1.5  67.4  490.73 3103.63 -1.125 1.56 33.3  0.00 0.20000 
 128.200    102.1      3.2   3.0  2.65 3.22   136.8      1.7  93.7  520.81 2869.50 -1.542 1.70 33.3  0.00 0.10000 
 128.300     87.9      3.5   3.0  2.72 3.22   136.1      1.8  71.7  445.59 2884.94 -1.243 1.61 33.3  0.00 0.20000 
 128.400     92.6      2.5   3.0  2.77 3.03   137.0      1.3  26.1  400.50 3424.83 -0.518 1.79 33.3  0.00 0.20000 
 128.500     68.1      2.9   3.0  2.73 3.18   137.1      1.5  62.8  440.58 2986.56 -1.097 1.92 33.3  0.00 0.20000 
 128.600     67.1      3.0   3.0  2.91 3.12   137.1      1.6  12.4  305.28 3149.52 -0.419 1.99 33.3  0.00 0.20000 
 128.700     71.8      2.5   3.0  2.75 3.17   137.4      1.3  56.0  420.53 3012.04 -1.001 1.92 33.3  0.00 0.20000 
 128.800     76.6      2.6   3.0  2.74 3.14   136.9      1.4  53.0  430.56 3093.50 -0.940 2.00 33.3  0.00 0.20000 
 128.900     69.0      2.6   3.0  2.77 3.15   136.7      1.3  45.6  400.48 3078.17 -0.849 1.85 33.3  0.00 0.10000 
 129.000     74.7      2.7   3.0  2.87 3.25   140.2      1.4  39.6  325.32 2808.66 -0.848 1.91 33.3  0.00 0.20000 
 129.100     70.9      3.1   3.0  2.84 3.29   137.0      1.6  54.7  345.36 2711.89 -1.074 1.96 33.3  0.00 0.20000 
 129.200     82.2      2.8   3.0  2.87 3.23   138.5      1.4  38.8  330.36 2849.17 -0.826 1.93 33.3  0.00 0.20000 
 129.300     78.4      2.8   3.0  2.82 3.17   138.6      1.5  38.5  365.40 3027.28 -0.773 1.91 33.3  0.00 0.20000 
 129.400     85.1      3.0   3.0  2.82 3.26   137.0      1.6  55.3  365.40 2783.10 -1.058 2.10 33.3  0.00 0.20000 
 129.500     86.0      2.8   3.0  2.84 3.23   136.7      1.5  44.2  345.36 2849.16 -0.895 2.00 33.3  0.00 0.20000 
 129.600     92.6      2.6   3.0  3.02 3.20   138.2      1.3  -0.2  240.17 2940.75 -0.322 1.99 33.3  0.00 0.10000 
 129.700     69.0      2.9   3.0  2.81 3.31   136.9      1.5  68.5  370.43 2645.91 -1.276 1.97 33.3  0.00 0.20000 
 129.800     76.6      2.2   3.0  2.88 3.27   137.3      1.1  41.8  320.31 2752.54 -0.893 1.96 33.3  0.00 0.20000 
 129.900     79.4      2.1   3.0  2.83 3.30   136.9      1.1  59.6  355.38 2691.56 -1.144 1.81 33.3  0.00 0.20000 
 130.000     87.9      0.9   3.0  2.91 3.33   137.5      0.5  46.7  305.30 2610.28 -1.001 1.81 33.3  0.00 0.20000 
 130.100     94.5      2.8   3.0  2.92 3.33   136.8      1.5  45.4  300.28 2600.13 -0.988 1.72 33.3  0.00 0.20000 
 130.200    101.1      2.3   3.0  2.84 3.35   138.1      1.2  69.7  350.37 2554.43 -1.322 1.76 33.3  0.00 0.20000 
 130.300    103.0      2.4   3.0  2.88 3.39   138.6      1.2  65.4  320.31 2463.07 -1.295 1.61 33.3  0.00 0.20000 
 130.400     86.0      1.9   3.0  2.92 3.35   144.9      0.9  48.6  300.27 2559.55 -1.042 1.51 33.3  0.00 0.10000 
 130.500     76.6      2.4   3.0  2.77 3.37   139.9      1.2  91.5  400.48 2508.77 -1.630 1.70 33.3  0.00 0.20000 
 130.600     65.2      2.0   3.0  2.87 3.42   141.2      1.0  73.9  325.32 2397.12 -1.431 1.79 33.3  0.00 0.20000 
 130.700     76.6      2.4   3.0  2.96 3.21   137.0      1.2  14.7  275.23 2910.19 -0.507 1.85 33.3  0.00 0.20000 
 130.800     69.9      1.8   3.0  2.92 3.31   143.0      0.9  39.0  295.27 2656.00 -0.888 1.89 33.3  0.00 0.20000 
 130.900     68.1      2.6   3.0  2.97 3.31   140.5      1.3  29.9  270.22 2645.84 -0.775 1.97 33.3  0.00 0.20000 
