~Version Information
VERS.                      2.0: CWLS Log ASCII Standard - VERSION 2.0
WRAP.                       NO: One line per depth step
~Well Information Block
STRT.FT               185.2500: 
STOP.FT              2109.7500: 
STEP.FT                 0.2500: 
NULL.                -999.2500: 
COMP.    Petrogulf Corporation: COMPANY
WELL.             State 16-44V: WELL
FLD.          Purgatorie River: FIELD
LOC.       320' FSL & 320' FEL: LOCATION
PROV.                 Colorado: PROVINCE
CNTY.               Las Animas: COUNTRY
SRVC.                Patterson: SERVICE COMPANY
DATE. Thu Aug 11 12:58:04 2005: LOG DATE
UWI.               071-08263  : UNIQUE WELL ID
~Curve Information Block
DEPT.FT            0 000 00 00: Depth
GR.GAPI                       : Gamma Ray
CCL.                          : Casing Collar Locator
TT3.usec                      : CBL 3' Travel Time
AMP3.mV                       : CBL 3' Amplitude
~Parameter Information Block
~A  Depth        GR         CCL         TT3         AMP3    
# ...
   922.2500     99.2298      0.0000    510.9323      8.4529
   922.5000     98.1534      0.0000    469.1899      8.4783
   922.7500     99.6815      0.0000    436.9734      8.5029
   923.0000    103.1659      0.0000    420.8020      8.5360
   923.2500    106.6051      0.0000    417.3965      8.5739
   923.5000    107.7427      0.0000    423.1862      8.6227
   923.7500    105.7724      0.0000    435.8667      8.6972
   924.0000    102.0711      0.0000    451.2426      8.8159
   924.2500     98.8899      0.0000    467.1156      8.9994
   924.5000     97.1885      0.0000    485.4479      9.2544
   924.7500     96.2173      0.0000    507.0953      9.5517
   925.0000     95.1648      0.0000    530.5371      9.8242
   925.2500     94.4274      0.0000    553.3765      9.9939
   925.5000     95.1425      0.0000    573.9706      9.9963
   925.7500     97.9734      0.0000    592.3173      9.8334
   926.0000    102.3552      0.0000    605.5435      9.6182
   926.2500    106.6449      0.0000    605.7717      9.5077
   926.5000    109.1335      0.0000    586.0322      9.5840
   926.7500    109.0443      0.0000    551.6219      9.8191
   927.0000    106.6274      0.0000    521.8840     10.1310
   927.2500    102.6745      0.0000    511.7617     10.4285
   927.5000     98.0652      0.0000    520.9345     10.6193
   927.7500     93.3294      0.0000    542.8856     10.6808
   928.0000     88.5698      0.0000    569.8265     10.7151
   928.2500     84.1437      0.0000    589.1536     10.8509
   928.5000     81.2242      0.0000    583.9268     11.1595
   928.7500     81.1861      0.0000    545.8555     11.6614
   929.0000     84.3562      0.0000    491.5609     12.2798
   929.2500     89.5310      0.0000    453.9997     12.8614
   929.5000     94.7372      0.0000    451.8437     13.3148
   929.7500     98.5139      0.0000    474.3888     13.6340
   930.0000    100.5773      0.0000    502.6577     13.8582
   930.2500    101.4071      0.0000    531.5718     14.1211
   930.5000    101.4992      0.0000    555.9344     14.6454
   930.7500    101.2644      0.0000    558.1208     15.5732
   931.0000    101.1941      0.0000    533.9032     16.7919
   931.2500    101.3459      0.0000    502.4061     18.0085
   931.5000    100.8353      0.0000    471.1448     19.0187
   931.7500     98.6555      0.0000    437.8452     19.7645
   932.0000     95.1108      0.0000    428.5966     20.1815
   932.2500     91.9667      0.0000    474.2997     20.2573
   932.5000     91.1348      0.0000    559.1696     20.1663
   932.7500     93.5271      0.0000    633.7856     20.1226
   933.0000     99.2376      0.0000    668.9382     20.1898
   933.2500    108.4677      0.0000    673.3914     20.3171
   933.5000    121.6865      0.0000    669.3610     20.4311
   933.7500    138.5165      0.0000    670.4775     20.4176
   934.0000    156.8182      0.0000    679.2346     20.1499
   934.2500    173.7127      0.0000    691.1006     19.6886
   934.5000    187.3535      0.0000    698.7339     19.3425
   934.7500    196.4946      0.0000    697.6823     19.3482
   935.0000    198.3058      0.0000    690.8483     19.6018
   935.2500    188.9969      0.0000    687.0880     19.8400
   935.5000    168.4387      0.0000    691.1285     19.9102
   935.7500    143.2664      0.0000    696.9108     19.7795
   936.0000    123.6258      0.0000    697.2011     19.4678
   936.2500    116.0886      0.0000    693.5316     19.0517
   936.5000    119.1914      0.0000    690.5795     18.6228
   936.7500    125.3232      0.0000    686.3111     18.1774
   937.0000    127.1809      0.0000    675.5709     17.6557
   937.2500    122.8527      0.0000    661.7876     17.1300
   937.5000    115.1625      0.0000    653.5793     16.7757
   937.7500    107.3908      0.0000    651.2386     16.6340
   938.0000    100.5621      0.0000    651.0406     16.5995
   938.2500     94.0544      0.0000    655.0918     16.6143
   938.5000     87.5139      0.0000    663.7888     16.7012
   938.7500     81.8410      0.0000    672.7789     16.8450
   939.0000     78.5450      0.0000    680.9061     16.9505
   939.2500     78.2573      0.0000    686.2390     16.9098
   939.5000     79.9563      0.0000    681.2034     16.6780
   939.7500     81.8937      0.0000    665.9796     16.2704
   940.0000     83.2427      0.0000    657.5635     15.7100
   940.2500     84.4595      0.0000    669.0792     15.0389
   940.5000     85.9734      0.0000    691.3884     14.3669
   940.7500     87.2193      0.0000    709.9774     13.8268
   941.0000     87.3816      0.0000    721.1590     13.4710
   941.2500     86.3568      0.0000    725.4254     13.2238
   941.5000     84.3264      0.0000    724.2797     12.9160
   941.7500     81.0332      0.0000    723.9143     12.3811
   942.0000     76.1800      0.0000    729.2740     11.5525
   942.2500     70.0801      0.0000    735.9332     10.5252
   942.5000     63.4590      0.0000    735.3393      9.5181
   942.7500     56.9543      0.0000    726.6597      8.6885
   943.0000     51.0773      0.0000    716.8825      8.0332
   943.2500     46.3965      0.0000    711.2808      7.4931
   943.5000     43.5402      0.0000    710.4358      7.0336
   943.7500     43.1360      0.0000    714.3535      6.6261
   944.0000     45.7924      0.0000    723.7343      6.2572
   944.2500     51.8589      0.0000    736.9651      5.9493
   944.5000     60.8827      0.0000    749.3615      5.7267
   944.7500     71.3467      0.0000    757.1376      5.5625
   945.0000     81.2388      0.0000    760.4161      5.3779
   945.2500     89.1375      0.0000    761.7385      5.1184
   945.5000     94.8179      0.0000    763.5451      4.8267
   945.7500     98.8801      0.0000    767.2237      4.6171
   946.0000    101.9034      0.0000    771.8152      4.5863
   946.2500    104.0192      0.0000    772.8746      4.7445
   946.5000    105.1642      0.0000    766.3842      5.0135
   946.7500    105.4931      0.0000    754.3714      5.2875
   947.0000    105.3502      0.0000    742.5067      5.4805
   947.2500    104.8430      0.0000    732.8381      5.5328
   947.5000    103.6485      0.0000    723.7739      5.4338
   947.7500    101.3859      0.0000    716.2024      5.2592
   948.0000     98.1447      0.0000    714.4785      5.1396
   948.2500     94.5640      0.0000    721.6251      5.1520
   948.5000     91.3062      0.0000    733.6991      5.2594
   948.7500     88.4492      0.0000    741.0854      5.3811
   949.0000     85.4605      0.0000    740.2764      5.4962
   949.2500     81.8312      0.0000    739.5587      5.6418
   949.5000     77.6817      0.0000    746.7840      5.8207
   949.7500     73.6915      0.0000    756.7953      5.9440
   950.0000     70.4909      0.0000    756.6843      5.9126
   950.2500     68.2351      0.0000    740.6552      5.7666
   950.5000     66.7014      0.0000    717.2200      5.6862
   950.7500     65.7157      0.0000    700.5460      5.8174
   951.0000     65.4736      0.0000    696.6697      6.1403
   951.2500     66.3855      0.0000    701.2531      6.5109
   951.5000     68.4993      0.0000    707.3796      6.7932
   951.7500     71.0688      0.0000    712.1458      6.9571
   952.0000     72.8177      0.0000    716.7145      7.0797
   952.2500     72.7393      0.0000    721.2882      7.2383
   952.5000     70.7555      0.0000    721.9706      7.4085
   952.7500     67.8041      0.0000    716.8225      7.5109
   953.0000     65.3751      0.0000    712.4026      7.5665
   953.2500     64.6684      0.0000    716.7006      7.7279
   953.5000     65.7894      0.0000    728.0330      8.0969
   953.7500     67.6349      0.0000    737.1607      8.5969
   954.0000     68.6666      0.0000    740.7718      9.0943
   954.2500     68.0037      0.0000    744.1154      9.5477
   954.5000     65.9847      0.0000    746.0173      9.9595
   954.7500     63.8288      0.0000    738.3503     10.2898
   955.0000     62.6960      0.0000    722.9297     10.5194
   955.2500     62.8257      0.0000    709.5043     10.7013
   955.5000     63.3858      0.0000    700.3060     10.8951
