~Version Information
 VERS.                                  2.0 : CWLS LAS VERSION
 WRAP.                                   NO : WRAPING MODE
 SWARE .                 MController 2.5.0N : SOFTWARE VERSION
~Well Information
 WELL.                        Paradise 13-8 : WELL
 COMP.        Pioneer Natural Resources Inc : COMPANY
 FLD.                      Purgatoire River : FIELD
 LOC.                 NW/SW Sec 8 T32S R66W : LOCATION
 DATE.                           1/21-22/05 : DATE(S) LOGGED
 SRVC.       Blanco Geological Services LLC : SERVICE COMPANY
 STAT.                                   CO : STATE
 CNTY.                           Las Animas : COUNTY
 CTRY.                                  USA : COUNTRY
 API.                       05-071-07946-00 : API NUMBER
 STRT.FT                             855.00 : START DEPTH
 STOP.FT                            3151.00 : STOP DEPTH
 STEP.FT                               1.00 : DEPTH INCREMENT
 NULL.                                -9999 : NULL VALUE
~Curve information
 DEPTH.FT                                   :
 ROP.MIN/FT                                 :
 GAS.UNITS                                  :
~ASCII Log data
# ...
      1455.0         0.33          7.8 
      1456.0         0.37          7.9 
      1457.0         0.43          7.6 
      1458.0         0.48          7.3 
      1459.0         0.50          7.3 
      1460.0         0.53          7.6 
      1461.0         0.33          8.9 
      1462.0         0.27          8.8 
      1463.0         0.37          8.7 
      1464.0         0.27          7.3 
      1465.0         0.33          7.2 
      1466.0         0.45          7.2 
      1467.0         0.50          7.3 
      1468.0         0.53          7.1 
      1469.0         0.37          7.3 
      1470.0         0.23          7.0 
      1471.0         0.30          7.1 
      1472.0         0.40          7.2 
      1473.0         0.73          7.0 
      1474.0         5.37          7.5 
      1475.0         0.43          7.4 
      1476.0         0.47          7.2 
      1477.0         0.40          8.0 
      1478.0         0.35         17.2 
      1479.0         0.27         25.4 
      1480.0         0.37         32.9 
      1481.0         0.37         39.6 
      1482.0         0.33         42.7 
      1483.0         0.40         42.8 
      1484.0         0.30         35.4 
      1485.0         0.30         30.7 
      1486.0         0.33         24.1 
      1487.0         0.27         24.1 
      1488.0         0.23         20.8 
      1489.0         0.25         16.3 
      1490.0         0.23         15.4 
      1491.0         0.27          8.7 
      1492.0         0.20          7.9 
      1493.0         0.17          7.2 
      1494.0         0.27          7.2 
      1495.0         0.27          7.3 
      1496.0         0.17          7.1 
      1497.0         0.33          7.4 
      1498.0         0.33          7.7 
      1499.0         0.33          7.5 
      1500.0         0.33          7.5 
      1501.0         0.32          7.6 
      1502.0         0.37          7.8 
      1503.0         0.37          7.8 
      1504.0         6.97          9.3 
      1505.0         0.33          8.7 
      1506.0         0.57          9.4 
      1507.0         0.43          9.2 
      1508.0         0.40          9.0 
      1509.0         0.37          8.8 
      1510.0         0.42          9.2 
      1511.0         0.37         13.2 
      1512.0         0.20         17.0 
      1513.0         0.23         18.6 
      1514.0         0.20         16.2 
      1515.0         0.17         16.2 
      1516.0         0.27         12.3 
      1517.0         0.30         11.3 
      1518.0         0.33          9.1 
      1519.0         0.27          8.9 
      1520.0         0.20          8.7 
      1521.0         0.23          8.0 
      1522.0         0.17          8.0 
      1523.0         0.18          8.0 
      1524.0         0.20          8.1 
      1525.0         0.23          8.2 
      1526.0         0.17          8.2 
      1527.0         0.20          8.1 
      1528.0         0.20          8.0 
      1529.0         0.13          8.0 
      1530.0         0.27          7.8 
      1531.0         0.20          8.0 
      1532.0         0.40          7.8 
      1533.0         0.47          8.1 
      1534.0         6.27         11.9 
      1535.0         0.20          8.6 
      1536.0         0.27          8.6 
      1537.0         0.17          8.6 
      1538.0         0.20          8.8 
      1539.0         0.17          8.8 
      1540.0         0.20          9.1 
      1541.0         0.15          9.2 
      1542.0         0.13         10.0 
      1543.0         0.27          9.7 
      1544.0         0.50          9.2 
      1545.0         0.23          8.6 
      1546.0         0.17          8.6 
      1547.0         0.23          9.1 
      1548.0         0.30          9.2 
      1549.0         0.37          8.9 
      1550.0         0.33          8.5 
      1551.0         0.33          8.4 
      1552.0         0.27          8.4 
      1553.0         0.18          8.1 
      1554.0         0.30          8.0 
      1555.0         0.40          8.1 
      1556.0         0.40          7.9 
      1557.0         0.20          7.9 
      1558.0         0.20          8.1 
      1559.0         0.20          8.3 
      1560.0         0.30          8.1 
      1561.0         0.37          8.3 
      1562.0         0.47          8.8 
      1563.0         0.30          8.5 
      1564.0         6.40         14.7 
      1565.0         0.40         11.7 
      1566.0         0.28         11.5 
      1567.0         0.37         10.3 
      1568.0         0.43          9.1 
      1569.0         0.30          8.6 
      1570.0         0.27          8.3 
      1571.0         0.33          8.3 
      1572.0         0.47          8.4 
      1573.0         0.33          8.1 
      1574.0         0.37          7.9 
      1575.0         0.28          8.2 
      1576.0         0.33          8.3 
      1577.0         0.33          8.7 
      1578.0         0.30          9.1 
      1579.0         0.27          9.2 
      1580.0         0.40         10.2 
      1581.0         0.37         10.6 
      1582.0         0.50         10.5 
      1583.0         0.57         10.4 
      1584.0         0.52          9.3 
      1585.0         0.40          8.9 
      1586.0         0.53          8.8 
      1587.0         0.30          8.8 
      1588.0         0.27          9.1 
      1589.0         0.27          9.5 
      1590.0         0.40          9.4 
      1591.0         0.47         10.1 
      1592.0         0.45         10.6 
      1593.0         0.30         10.6 
      1594.0         6.97         19.8 
      1595.0         0.43         13.2 
      1596.0         0.47         12.7 
      1597.0         0.40         10.3 
      1598.0         0.37         10.7 
      1599.0         0.50         10.4 
      1600.0         0.33          9.6 
      1601.0         0.25          9.0 
      1602.0         0.20          8.7 
      1603.0         0.37          8.7 
      1604.0         0.33          9.1 
      1605.0         0.23          9.1 
      1606.0         0.23          9.1 
      1607.0         0.13          9.1 
      1608.0         0.13          9.2 
      1609.0         0.27          9.4 
      1610.0         0.37         10.1 
      1611.0         0.33          9.2 
      1612.0         0.33          9.0 
      1613.0         0.30          9.0 
      1614.0         0.38          9.1 
      1615.0         0.30          9.4 
      1616.0         0.37         10.1 
      1617.0         0.33         10.8 
      1618.0         0.37         11.3 
      1619.0         0.43         11.8 
      1620.0         0.17         12.9 
      1621.0         0.17         12.8 
      1622.0         0.30         13.5 
      1623.0         0.30         14.6 
      1624.0         6.33         30.9 
      1625.0         0.43         27.3 
      1626.0         0.35         23.8 
      1627.0         0.37         18.6 
      1628.0         0.30         17.7 
      1629.0         0.33         17.7 
      1630.0         0.20         12.1 
      1631.0         0.17         12.1 
      1632.0         0.20         10.1 
      1633.0         0.23          9.9 
      1634.0         0.27          8.9 
      1635.0         0.47          8.1 
      1636.0         0.47          7.8 
      1637.0         0.45          7.9 
      1638.0         0.37          9.3 
      1639.0         0.40         13.3 
      1640.0         0.37         15.6 
      1641.0         0.37         15.4 
      1642.0         0.33         13.2 
      1643.0         0.43         11.8 
      1644.0         0.47         10.7 
      1645.0         0.48          8.4 
      1646.0         0.23          8.7 
      1647.0         0.20          9.4 
      1648.0         0.30          9.9 
      1649.0         0.27         11.0 
      1650.0         0.30         12.4 
      1651.0         0.33         13.7 
      1652.0         0.27         15.6 
      1653.0         0.33         17.4 
      1654.0         6.63         39.3 
