~Version Information
VERS.                      2.0: CWLS Log ASCII Standard - VERSION 2.0
WRAP.                       NO: One line per depth step
~Well Information Block
STRT.FT                -5.7500: 
STOP.FT              1965.7500: 
STEP.FT                 0.2500: 
NULL.                -999.2500: 
COMP.          Pioneer Natural Resources: COMPANY
WELL.          Easton 12-30 Tr: WELL
FLD.           Purgatorie River: FIELD
LOC.           549' FWL & 2416' FNL--: LOCATION
PROV.                       CO: PROVINCE
CNTY.               Las Animas: COUNTRY
SRVC.          Patterson Wireline: SERVICE COMPANY
DATE.          Mon Jun 06 16:13:03 2005: LOG DATE
UWI.           05 071 08379 00: UNIQUE WELL ID
~Curve Information Block
DEPT.FT            0 000 00 00: Depth
CCL.                          : Casing Collar Locator
TT3.usec                      : CBL 3' Travel Time
AMP3.mV                       : CBL 3' Amplitude
GR.GAPI                       : Gamma Ray
~Parameter Information Block
~A  Depth       CCL         TT3         AMP3         GR     
# ...
   898.7500      0.0000    730.4499      6.4832    127.8946
   899.0000      0.0000    735.0342      6.5366    124.1826
   899.2500      0.0000    737.1862      6.5842    121.9211
   899.5000      0.0000    737.6873      6.6017    122.1256
   899.7500      0.0000    737.4734      6.5823    124.3416
   900.0000      0.0000    737.1672      6.5408    126.7687
   900.2500      0.0000    737.0046      6.5012    127.3631
   900.5000      0.0000    736.9446      6.4795    125.2871
   900.7500      0.0000    736.8346      6.4786    121.7299
   901.0000      0.0000    736.5928      6.4922    119.0813
   901.2500      0.0000    736.3954      6.5104    118.9516
   901.5000      0.0000    736.8948      6.5259    121.0531
   901.7500      0.0000    739.4321      6.5384    123.8634
   902.0000      0.0000    745.9435      6.5576    125.9166
   902.2500      0.0000    757.9407      6.5980    126.4527
   902.5000      0.0000    774.6886      6.6696    125.4224
   902.7500      0.0000    792.5047      6.7691    123.4448
   903.0000      0.0000    806.8729      6.8776    121.7111
   903.2500      0.0000    815.3427      6.9638    121.3946
   903.5000      0.0000    817.6506      6.9945    122.8437
   903.7500      0.0000    813.8276      6.9525    125.4071
   904.0000      0.0000    804.1092      6.8571    127.9871
   904.2500      0.0000    790.6099      6.7641    129.4757
   904.5000      0.0000    777.3350      6.7330    128.8409
   904.7500      0.0000    767.9363      6.7831    125.4578
   905.0000      0.0000    763.9396      6.8771    119.7113
   905.2500      0.0000    765.0469      6.9480    112.9478
   905.5000      0.0000    770.4769      6.9404    106.6152
   905.7500      0.0000    779.8189      6.8345    101.6532
   906.0000      0.0000    792.9049      6.6433     98.7150
   906.2500      0.0000    808.9566      6.4029     98.4259
   906.5000      0.0000    825.7659      6.1644    100.9763
   906.7500      0.0000    839.7784      5.9827    105.6678
   907.0000      0.0000    847.5662      5.9019    111.4411
   907.2500      0.0000    847.7581      5.9424    118.0394
   907.5000      0.0000    841.1566      6.0967    126.1997
   907.7500      0.0000    827.6159      6.3419    136.3006
   908.0000      0.0000    802.9960      6.6661    147.1806
   908.2500      0.0000    763.3353      7.0787    156.7960
   908.5000      0.0000    716.2328      7.5670    163.6680
   908.7500      0.0000    684.5289      8.0427    167.1481
   909.0000      0.0000    689.6592      8.3833    166.7294
   909.2500      0.0000    728.6992      8.5695    161.9189
   909.5000      0.0000    773.8355      8.7417    152.9785
   909.7500      0.0000    797.7442      9.0731    141.5785
   910.0000      0.0000    796.5223      9.6063    130.5631
   910.2500      0.0000    785.7036     10.2380    122.6444
   910.5000     -2.0000    776.2067     10.8366    118.8201
   910.7500     -2.0000    758.5792     11.3751    118.1360
   911.0000      0.0000    714.0681     11.9906    119.2318
   911.2500      0.0000    639.0145     12.8915    121.6915
   911.5000      0.0000    554.5363     14.1014    125.5363
   911.7500      0.0000    493.4587     15.2773    130.0756
   912.0000      0.0000    479.3428     15.9024    134.0916
   912.2500      0.0000    512.9465     15.7242    136.8096
   912.5000      0.0000    573.1789     14.9360    138.0748
   912.7500      0.0000    632.0712     13.9383    137.9949
   913.0000      0.0000    672.3545     13.0243    136.9685
   913.2500      0.0000    693.1250     12.2861    135.7306
   913.5000      0.0000    702.5663     11.6912    134.7823
   913.7500      0.0000    708.5294     11.1756    133.9570
   914.0000      0.0000    714.5708     10.6913    133.0118
   914.2500      0.0000    720.7843     10.2201    132.2914
   914.5000      0.0000    726.2146      9.7671    132.0827
   914.7500      0.0000    730.3441      9.3457    131.5964
   915.0000      0.0000    733.1938      8.9626    129.5195
   915.2500      0.0000    735.3632      8.6150    125.5832
   915.5000      0.0000    738.5547      8.3042    120.9628
   915.7500      0.0000    744.7371      8.0472    117.1712
   916.0000      0.0000    753.8990      7.8678    114.9372
   916.2500      0.0000    763.4743      7.7732    114.1219
   916.5000      0.0000    770.5583      7.7442    114.4557
   916.7500      0.0000    774.0720      7.7486    116.0969
   917.0000      0.0000    774.6219      7.7653    119.3701
   917.2500      0.0000    773.1388      7.7933    124.2541
   917.5000      0.0000    770.1636      7.8423    130.3654
   917.7500      0.0000    766.0391      7.9150    136.9924
   918.0000      0.0000    761.1210      8.0018    142.6380
   918.2500      0.0000    755.6046      8.0903    145.1599
   918.5000      0.0000    749.3429      8.1773    143.4307
   918.7500      0.0000    741.9084      8.2634    138.8263
   919.0000      0.0000    732.7965      8.3382    134.4066
   919.2500      0.0000    721.9388      8.3783    132.6757
   919.5000      0.0000    710.4592      8.3687    134.2655
   919.7500      0.0000    700.7249      8.3225    138.1386
   920.0000      0.0000    695.1099      8.2722    142.5342
   920.2500      0.0000    694.5381      8.2422    145.9488
   920.5000      0.0000    698.3410      8.2289    147.6076
   920.7500      0.0000    705.3393      8.2099    147.5081
   921.0000      0.0000    714.5883      8.1669    146.3819
   921.2500      0.0000    725.1385      8.1003    145.3080
   921.5000      0.0000    735.6050      8.0264    144.7772
   921.7500      0.0000    744.2918      7.9615    144.2055
   922.0000      0.0000    749.9299      7.9053    142.7794
   922.2500      0.0000    752.5933      7.8391    140.5921
   922.5000      0.0000    753.6861      7.7442    138.3689
   922.7500      0.0000    754.5192      7.6205    136.2166
   923.0000      0.0000    755.1099      7.4843    133.3535
   923.2500      0.0000    754.8232      7.3519    129.2726
   923.5000      0.0000    753.7440      7.2306    124.7874
   923.7500      0.0000    752.9333      7.1252    121.7098
   924.0000      0.0000    753.5590      7.0442    121.4342
   924.2500      0.0000    756.0643      6.9981    123.7188
   924.5000      0.0000    759.9923      6.9918    126.7316
   924.7500      0.0000    764.1977      7.0160    128.3509
   925.0000      0.0000    767.0568      7.0467    127.6985
   925.2500      0.0000    766.7205      7.0578    125.7346
   925.5000      0.0000    761.6315      7.0392    124.3733
   925.7500      0.0000    751.4350      7.0030    124.8214
   926.0000      0.0000    737.8598      6.9724    126.5572
   926.2500      0.0000    724.5392      6.9664    127.9163
   926.5000      0.0000    715.3804      6.9915    127.7787
   926.7500      0.0000    712.5999      7.0419    126.6276
   927.0000      0.0000    715.9022      7.1048    125.8473
   927.2500      0.0000    723.0563      7.1664    126.1400
   927.5000      0.0000    731.0649      7.2147    126.8437
   927.7500      0.0000    737.1671      7.2439    126.8071
   928.0000      0.0000    739.4645      7.2565    125.8455
   928.2500      0.0000    737.3329      7.2636    125.2523
   928.5000      0.0000    731.5711      7.2803    126.8247
   928.7500      0.0000    724.1863      7.3164    131.2117
   929.0000      0.0000    717.8721      7.3694    137.0393
   929.2500      0.0000    715.0567      7.4245    141.6630
   929.5000      0.0000    716.6198      7.4680    142.9541
   929.7500      0.0000    721.3000      7.4993    140.6596
   930.0000      0.0000    726.6558      7.5282    136.2355
   930.2500      0.0000    730.7714      7.5607    131.3127
   930.5000      0.0000    733.0976      7.5916    126.3309
   930.7500      0.0000    734.0410      7.6098    120.7592
   931.0000      0.0000    734.2317      7.6056    114.3930
   931.2500      0.0000    734.1951      7.5733    107.9151
   931.5000      0.0000    734.3151      7.5133    102.2699
   931.7500      0.0000    734.7989      7.4381     97.9242
   932.0000      0.0000    735.6912      7.3751     94.7145
