~Version Information
VERS.                      2.0: CWLS Log ASCII Standard - VERSION 2.0
WRAP.                       NO: One line per depth step
~Well Information Block
STRT.FT               430.0000: 
STOP.FT              2417.0000: 
STEP.FT                 0.1000: 
NULL.                -999.2500: 
COMP.          Evergreen Operating Corporation: COMPANY
WELL.          McCullough 34-32: WELL
FLD.           Purgatorie River: FIELD
LOC.           261' FSL & 2098' FEL: LOCATION
PROV.                 Colorado: PROVINCE
CNTY.               Las Animas: COUNTRY
SRVC.                Patterson: SERVICE COMPANY
DATE.          Mon May 17 11:25:23 2004: LOG DATE
UWI.           05 071 07953 00: UNIQUE WELL ID
~Curve Information Block
DEPT.FT            0 000 00 00: Depth
DCAL.in                       : CDL Caliper
RHOB.g/cc                     : CDL Bulk Density
RHOC.g/cc                     : CDL Density Correction
DPOR.pu                       : CDL Density Porosity
NPOR.pu                       : Neutron Porosity
GR.GAPI                       : Gamma Ray
~Parameter Information Block
~A  Depth       DCAL        RHOB        RHOC        DPOR        NPOR         GR     
# ...
  1476.4000      8.4601      2.0566     -0.0610     35.9647     33.5102    147.9394
  1476.5000      8.4571      1.9888     -0.1214     40.0711     33.0204    129.3046
  1476.6000      8.4571      1.9381     -0.0720     43.1437     32.0283    110.9593
  1476.7000      8.4571      1.9149     -0.0612     44.5538     31.6429    104.8868
  1476.8000      8.4640      1.9187      0.0187     44.3190     31.8861    108.8067
  1476.9000      8.4640      1.9433      0.0530     42.8331     31.7881    113.2757
  1477.0000      8.4886      1.9812      0.1559     40.5355     31.4523    113.9565
  1477.1000      8.4886      2.0206      0.2074     38.1462     31.6402    112.3764
  1477.2000      8.4886      2.0551      0.2162     36.0564     32.0652    110.9255
  1477.3000      8.5049      2.0907      0.2144     33.8998     31.9443    109.4746
  1477.4000      8.5049      2.1282      0.1792     31.6223     31.3838    108.4150
  1477.5000      8.5102      2.1516      0.1708     30.2032     30.8914    109.6100
  1477.6000      8.5102      2.1564      0.0280     29.9136     30.7279    109.5803
  1477.7000      8.5102      2.1649     -0.0070     29.3971     30.8456    105.6923
  1477.8000      8.5142      2.1878      0.0384     28.0121     30.9393    103.8603
  1477.9000      8.5142      2.2125      0.0531     26.5148     30.9807    107.0624
  1478.0000      8.5384      2.2288      0.0953     25.5260     31.1632    112.4218
  1478.1000      8.5384      2.2366      0.1075     25.0555     31.5375    116.2265
  1478.2000      8.5384      2.2444      0.1246     24.5791     31.9620    116.3327
  1478.3000      8.5833      2.2566      0.2191     23.8449     32.3326    115.7308
  1478.4000      8.5833      2.2558      0.3175     23.8924     32.8083    117.4500
  1478.5000      8.7204      2.2235      0.3259     25.8510     33.3175    117.7761
  1478.6000      8.7204      2.1721      0.2425     28.9664     33.7736    113.7539
  1478.7000      8.7204      2.1235      0.2496     31.9084     34.0765    107.6160
  1478.8000      9.2159      2.0699      0.2314     35.1595     33.8022    102.2830
  1478.9000      9.2159      2.0072      0.1455     38.9565     33.1656     97.5762
  1479.0000      9.3935      1.9719      0.1555     41.0940     32.6891     93.8657
  1479.1000      9.3935      1.9969      0.2913     39.5837     32.0992     94.4667
  1479.2000      9.3935      2.0764      0.3453     34.7659     31.1044     98.3811
  1479.3000      8.9134      2.1867      0.3956     28.0759     30.0640    102.2261
  1479.4000      8.9134      2.3018      0.4533     21.1023     29.1250    105.9659
  1479.5000      8.9754      2.3990      0.4653     15.2133     28.0453    107.0310
  1479.6000      8.9754      2.4669      0.4773     11.0948     26.8680     99.7508
  1479.7000      8.9754      2.5099      0.4314      8.4928     25.7914     88.4172
  1479.8000      8.3657      2.5455      0.3747      6.3311     24.8409     85.3242
  1479.9000      8.3657      2.5834      0.3438      4.0337     24.0709     91.2825
  1480.0000      8.2818      2.6098      0.3115      2.4359     23.4643     97.4317
  1480.1000      8.2818      2.6066      0.2774      2.6298     22.9202    100.9189
  1480.2000      8.2818      2.5812      0.1743      4.1701     22.6779    101.8508
  1480.3000      8.2829      2.5642      0.1139      5.2007     22.8229     99.9976
  1480.4000      8.2829      2.5787      0.0581      4.3199     22.6574     96.3130
  1480.5000      8.2834      2.6144      0.1405      2.1604     22.0825     91.3140
  1480.6000      8.2834      2.6389      0.0760      0.6757     21.8952     87.5118
  1480.7000      8.2834      2.6405      0.0779      0.5787     22.1340     88.3776
  1480.8000      8.2818      2.6337      0.0695      0.9878     21.8822     92.2251
  1480.9000      8.2818      2.6290      0.0841      1.2702     21.0448     94.5624
  1481.0000      8.2915      2.6189      0.0802      1.8820     20.5359     94.3710
  1481.1000      8.2915      2.6024      0.0186      2.8869     20.6099     92.9860
  1481.2000      8.2915      2.5928      0.0408      3.4638     21.0413     89.8234
  1481.3000      8.2810      2.5920      0.0608      3.5141     21.7030     84.3910
  1481.4000      8.2810      2.5906      0.0475      3.5997     22.1679     82.1225
  1481.5000      8.2840      2.5886      0.0326      3.7217     21.9852     85.5615
  1481.6000      8.2840      2.5903      0.0670      3.6182     21.1988     89.2143
  1481.7000      8.2840      2.5944      0.0776      3.3722     20.7010     89.7413
  1481.8000      8.2815      2.5930      0.0892      3.4560     21.0795     89.2308
  1481.9000      8.2815      2.5837      0.0413      4.0168     21.2423     89.4757
  1482.0000      8.2824      2.5781      0.0230      4.3573     20.5918     88.3968
  1482.1000      8.2824      2.5861      0.0418      3.8734     20.3115     84.3927
  1482.2000      8.2824      2.6065      0.0218      2.6373     21.0149     80.2780
  1482.3000      8.2802      2.6254      0.0867      1.4913     22.0137     81.8204
  1482.4000      8.2802      2.6229      0.0919      1.6406     22.4456     92.2621
  1482.5000      8.2810      2.6047      0.0180      2.7470     22.2259    105.5297
  1482.6000      8.2810      2.5876      0.0605      3.7844     21.9225    112.5866
  1482.7000      8.2810      2.5705      0.0272      4.8185     21.7842    114.6115
  1482.8000      8.2777      2.5581      0.0150      5.5698     21.7194    115.9172
  1482.9000      8.2777      2.5584      0.0640      5.5496     22.0553    117.3676
  1483.0000      8.2821      2.5658      0.0458      5.1056     22.8279    119.6533
  1483.1000      8.2821      2.5728      0.0964      4.6766     23.4812    121.6900
  1483.2000      8.2821      2.5762      0.0876      4.4738     23.7051    121.4793
  1483.3000      8.2839      2.5763      0.1028      4.4668     23.7697    120.1035
  1483.4000      8.2839      2.5777      0.0552      4.3806     23.8315    120.3927
  1483.5000      8.2990      2.5833      0.0983      4.0454     23.7072    123.8397
  1483.6000      8.2990      2.5938      0.0718      3.4071     23.6304    127.5816
  1483.7000      8.2990      2.6148      0.0485      2.1359     23.8006    128.2875
  1483.8000      8.3044      2.6404      0.1068      0.5827     23.9935    127.4039
  1483.9000      8.3044      2.6480      0.1256      0.1242     24.1742    129.3714
  1484.0000      8.3000      2.6341      0.0546      0.9639     24.2318    133.1396
  1484.1000      8.3000      2.6196      0.0720      1.8448     24.0578    131.5810
  1484.2000      8.3000      2.6130      0.0560      2.2444     23.9294    123.7921
  1484.3000      8.3068      2.6108      0.0588      2.3742     23.7629    116.7621
  1484.4000      8.3068      2.6112      0.0857      2.3498     23.1582    113.2200
  1484.5000      8.3068      2.6145      0.0481      2.1536     22.2355    112.1483
  1484.6000      8.3068      2.6245      0.0459      1.5447     21.4093    115.8523
  1484.7000      8.3068      2.6341      0.1442      0.9637     20.6135    122.6823
  1484.8000      8.3051      2.6309      0.0706      1.1580     19.8058    126.8858
  1484.9000      8.3051      2.6177      0.1239      1.9565     19.3465    125.3086
  1485.0000      8.3058      2.5978      0.0798      3.1663     19.2073    118.9138
  1485.1000      8.3058      2.5767      0.0814      4.4417     19.0947    109.5633
  1485.2000      8.3058      2.5673      0.0434      5.0141     19.0019     99.8003
  1485.3000      8.3064      2.5753      0.0845      4.5284     19.0437     95.3259
  1485.4000      8.3064      2.5898      0.0679      3.6463     19.1999     98.4740
  1485.5000      8.3044      2.6011      0.0479      2.9615     19.4793    104.7456
  1485.6000      8.3044      2.6120      0.0664      2.3025     20.0512    109.0348
  1485.7000      8.3044      2.6248      0.0601      1.5293     20.5804    110.4076
  1485.8000      8.3084      2.6381      0.0840      0.7219     20.7309    108.9929
  1485.9000      8.3084      2.6483      0.0964      0.1034     20.7621    105.9637
