~Version Information
VERS.                      2.0: CWLS Log ASCII Standard - VERSION 2.0
WRAP.                       NO: One line per depth step
~Well Information Block
STRT.FT               240.0000: 
STOP.FT              1709.2000: 
STEP.FT                 0.1000: 
NULL.                -999.2500: 
COMP.          Pioneer Natural Resources: COMPANY
WELL.              Patten 22-2: WELL
FLD.           Purgatoire River: FIELD
LOC.           2157' FNL & 1528' FWL: LOCATION
PROV.                 Colorado: PROVINCE
CNTY.               Las Animas: COUNTRY
SRVC.                Patterson: SERVICE COMPANY
DATE.          Fri Dec 10 09:15:13 2004: LOG DATE
UWI.           05 071 08168 00: UNIQUE WELL ID
~Curve Information Block
DEPT.FT            0 000 00 00: Depth
DCAL.in                       : CDL Caliper
RHOB.g/cc                     : CDL Bulk Density
RHOC.g/cc                     : CDL Density Correction
DPOR.pu                       : CDL Density Porosity
NPOR.pu                       : Neutron Porosity
GR.GAPI                       : Gamma Ray
~Parameter Information Block
~A  Depth       DCAL        RHOB        RHOC        DPOR        NPOR         GR     
# ...
  1104.0000      8.0177      2.6042      0.1607      2.7746     22.7776    148.4531
  1104.1000      8.0177      2.6098      0.1425      2.4390     23.1663    145.6630
  1104.2000      8.0177      2.6003      0.1292      3.0141     23.5198    141.0832
  1104.3000      7.9989      2.5877      0.0736      3.7761     24.0001    139.4505
  1104.4000      7.9989      2.5840      0.0967      4.0018     24.2978    138.8004
  1104.5000      7.9796      2.5870      0.1198      3.8212     24.2941    136.4335
  1104.6000      7.9796      2.5957      0.0649      3.2922     24.2847    134.5492
  1104.7000      7.9796      2.6108      0.1008      2.3734     24.4142    135.6642
  1104.8000      7.9705      2.6191      0.1321      1.8730     24.5693    137.6470
  1104.9000      7.9705      2.6125      0.0830      2.2726     24.6637    136.0151
  1105.0000      7.9690      2.6063      0.0865      2.6487     24.5588    129.8689
  1105.1000      7.9690      2.6105      0.0927      2.3957     24.2113    123.1334
  1105.2000      7.9690      2.6110      0.0950      2.3639     23.9717    119.9660
  1105.3000      7.9692      2.5939      0.0576      3.4023     24.0368    119.4675
  1105.4000      7.9692      2.5701      0.0436      4.8442     23.9973    119.3482
  1105.5000      7.9693      2.5621      0.0313      5.3260     23.5568    120.8733
  1105.6000      7.9693      2.5736      0.0638      4.6280     23.0958    125.0879
  1105.7000      7.9693      2.5884      0.0825      3.7310     22.7806    127.9176
  1105.8000      7.9693      2.5979      0.0440      3.1604     22.6404    124.9636
  1105.9000      7.9693      2.6000      0.1072      3.0292     22.8269    118.4453
  1106.0000      7.9700      2.5870      0.0488      3.8189     22.9206    113.3196
  1106.1000      7.9700      2.5625      0.0355      5.3002     22.6485    111.4545
  1106.2000      7.9700      2.5442      0.0217      6.4121     22.3318    108.6084
  1106.3000      7.9698      2.5392      0.0326      6.7142     22.1206    101.8118
  1106.4000      7.9698      2.5396      0.0622      6.6935     22.1055     97.3176
  1106.5000      7.9696      2.5359      0.0691      6.9125     22.2921    101.0802
  1106.6000      7.9696      2.5278      0.0317      7.4039     22.4109    109.5215
  1106.7000      7.9696      2.5216      0.0396      7.7831     22.2882    114.5093
  1106.8000      7.9728      2.5174      0.0681      8.0360     22.0478    112.3783
  1106.9000      7.9728      2.5124      0.0283      8.3410     21.9816    106.4863
  1107.0000      7.9814      2.5139      0.0301      8.2498     22.1774    100.9886
  1107.1000      7.9814      2.5309     -0.0070      7.2188     22.5256     97.6346
  1107.2000      7.9814      2.5591      0.0220      5.5119     23.0330     97.7422
  1107.3000      7.9935      2.5832      0.0358      4.0459     23.5705    101.7744
  1107.4000      7.9935      2.5970      0.0209      3.2093     23.7684    107.0032
  1107.5000      8.0002      2.6082      0.0420      2.5348     23.7861    109.5535
  1107.6000      8.0002      2.6201      0.0294      1.8150     24.1555    109.9116
  1107.7000      8.0002      2.6268      0.0769      1.4073     24.7261    112.1136
  1107.8000      8.0000      2.6237      0.0498      1.5959     25.0042    115.8432
  1107.9000      8.0000      2.6147      0.0645      2.1409     25.1156    116.4767
  1108.0000      7.9989      2.6044      0.0487      2.7636     25.2471    114.6975
  1108.1000      7.9989      2.5907      0.0467      3.5923     25.1102    115.6212
  1108.2000      7.9989      2.5685      0.0526      4.9380     24.8041    119.7890
  1108.3000      8.0000      2.5425      0.0049      6.5131     24.8490    123.7005
  1108.4000      8.0000      2.5291     -0.0048      7.3287     25.4094    125.1543
  1108.5000      8.0011      2.5347      0.0049      6.9902     26.0086    125.8006
  1108.6000      8.0011      2.5498      0.0131      6.0700     26.2363    130.4086
  1108.7000      8.0011      2.5657      0.0144      5.1073     26.0702    140.3738
  1108.8000      7.9993      2.5793      0.0478      4.2831     25.5369    150.4764
  1108.9000      7.9993      2.5884      0.0550      3.7328     25.1493    156.8111
  1109.0000      7.9932      2.5897      0.0448      3.6545     25.5424    159.1522
  1109.1000      7.9932      2.5815      0.0289      4.1524     26.4198    157.1004
  1109.2000      7.9932      2.5718      0.0249      4.7424     27.0738    151.1581
  1109.3000      7.9835      2.5654      0.0410      5.1268     27.3671    145.4766
  1109.4000      7.9835      2.5559     -0.0082      5.7046     27.6318    143.8307
  1109.5000      7.9762      2.5430     -0.0221      6.4866     27.9784    144.4966
  1109.6000      7.9762      2.5395     -0.0464      6.6997     27.9461    143.6843
  1109.7000      7.9762      2.5509      0.0442      6.0067     27.3484    138.1316
  1109.8000      7.9722      2.5653      0.0096      5.1307     26.7479    129.1552
  1109.9000      7.9722      2.5701      0.0633      4.8407     26.7547    121.7758
  1110.0000      7.9692      2.5630      0.0048      5.2753     27.3026    120.0469
  1110.1000      7.9692      2.5541      0.0108      5.8105     27.6411    124.9516
  1110.2000      7.9692      2.5500      0.0161      6.0585     27.4141    132.8551
  1110.3000      7.9710      2.5513     -0.0055      5.9848     27.0600    137.2602
  1110.4000      7.9710      2.5641     -0.0022      5.2073     26.8218    136.1200
  1110.5000      7.9793      2.5861      0.0451      3.8720     26.4570    134.3934
  1110.6000      7.9793      2.6031      0.0067      2.8394     25.7979    135.8215
  1110.7000      7.9793      2.6088      0.0455      2.4987     25.0714    138.0845
  1110.8000      7.9849      2.5984      0.0839      3.1246     24.7343    136.6506
  1110.9000      7.9849      2.5724      0.0308      4.7040     25.0637    130.5603
  1111.0000      7.9834      2.5497      0.0133      6.0812     25.7220    123.3083
  1111.1000      7.9834      2.5460      0.0260      6.3059     25.9637    120.1908
  1111.2000      7.9834      2.5569      0.0075      5.6403     25.6939    122.4421
  1111.3000      7.9812      2.5722      0.0099      4.7130     25.6018    125.0685
  1111.4000      7.9812      2.5917      0.0195      3.5351     25.8575    121.7968
  1111.5000      7.9820      2.6119      0.0644      2.3078     26.0153    114.6835
  1111.6000      7.9820      2.6143      0.0714      2.1657     25.8554    112.2475
  1111.7000      7.9820      2.5969      0.0206      3.2187     25.5859    114.2025
  1111.8000      7.9841      2.5829      0.0045      4.0664     25.3796    115.2296
  1111.9000      7.9841      2.5888      0.0015      3.7082     25.0325    115.6483
  1112.0000      7.9876      2.6072      0.0388      2.5933     24.5982    119.1105
  1112.1000      7.9876      2.6144      0.0472      2.1575     24.4882    124.7656
  1112.2000      7.9876      2.6029      0.0369      2.8559     24.7600    128.9967
  1112.3000      7.9907      2.5931      0.0190      3.4460     25.0624    131.3521
  1112.4000      7.9907      2.6001      0.0580      3.0244     25.0519    131.4709
  1112.5000      7.9873      2.6128      0.0758      2.2540     24.7326    129.7971
  1112.6000      7.9873      2.6214      0.0448      1.7352     24.4923    130.3382
  1112.7000      7.9873      2.6260      0.0934      1.4528     24.5472    133.9147
  1112.8000      7.9784      2.6231      0.0108      1.6308     24.5139    134.3302
  1112.9000      7.9784      2.6095      0.0708      2.4517     24.0398    130.3583
  1113.0000      7.9710      2.5901      0.0351      3.6302     23.4411    128.4021
  1113.1000      7.9710      2.5792      0.0366      4.2915     23.1816    128.0545
  1113.2000      7.9710      2.5778      0.0521      4.3765     23.0825    126.4732
  1113.3000      7.9655      2.5743      0.0505      4.5879     22.7165    124.4637
  1113.4000      7.9655      2.5678      0.0663      4.9814     22.1947    123.9225
  1113.5000      7.9618      2.5584      0.0859      5.5516     21.7722    121.8760
