~Version Information
VERS.                      2.0: CWLS Log ASCII Standard - VERSION 2.0
WRAP.                       NO: One line per depth step
~Well Information Block
STRT.FT               -12.2500: 
STOP.FT              1948.2500: 
STEP.FT                 0.2500: 
NULL.                -999.2500: 
COMP.          Petrogulf Corporation: COMPANY
WELL.            Torcom 17-33R: WELL
FLD.           Purgatorie River: FIELD
LOC.           1483' FSL & 1804' FEL--: LOCATION
PROV.                       CO: PROVINCE
CNTY.               Las Animas: COUNTRY
SRVC.          Patterson Wireline: SERVICE COMPANY
DATE.          Fri Sep 30 10:11:43 2005: LOG DATE
UWI.           05 071 08096 00: UNIQUE WELL ID
~Curve Information Block
DEPT.FT            0 000 00 00: Depth
CCL.                          : Casing Collar Locator
TT3.usec                      : CBL 3' Travel Time
AMP3.mV                       : CBL 3' Amplitude
GR.GAPI                       : Gamma Ray
~Parameter Information Block
~A  Depth       CCL         TT3         AMP3         GR     
# ...
  1428.2500      0.0000    415.9799      6.0381    102.2181
  1428.5000      0.0000    413.1526      6.0905    100.8424
  1428.7500      0.0000    409.2563      6.0803     99.5843
  1429.0000      0.0000    405.9540      6.0228     96.9420
  1429.2500      0.0000    407.3905      5.9597     92.8376
  1429.5000      0.0000    419.2206      5.9345     89.0242
  1429.7500      0.0000    445.2187      5.9715     87.7867
  1430.0000      0.0000    482.4704      6.0651     90.2315
  1430.2500      0.0000    518.6872      6.1792     95.8011
  1430.5000      0.0000    536.6710      6.2629    103.1243
  1430.7500      0.0000    525.9900      6.2792    111.1010
  1431.0000      0.0000    492.3572      6.2286    119.2812
  1431.2500      0.0000    454.5761      6.1446    127.4385
  1431.5000      0.0000    432.1636      6.0682    134.8914
  1431.7500      0.0000    435.7266      6.0251    140.2824
  1432.0000      0.0000    465.0500      6.0210    142.1089
  1432.2500      0.0000    510.3357      6.0493    139.7130
  1432.5000      0.0000    554.9200      6.1004    133.9008
  1432.7500      0.0000    583.1187      6.1633    126.4531
  1433.0000      0.0000    590.9568      6.2225    118.8789
  1433.2500      0.0000    589.0573      6.2554    111.4938
  1433.5000      0.0000    592.6998      6.2400    103.5872
  1433.7500      0.0000    608.8215      6.1684     94.5236
  1434.0000      0.0000    632.4656      6.0519     84.7970
  1434.2500      0.0000    653.1411      5.9145     76.0699
  1434.5000      0.0000    661.8376      5.7805     70.1823
  1434.7500      0.0000    652.9639      5.6671     67.9762
  1435.0000      0.0000    624.1594      5.5822     68.7680
  1435.2500      0.0000    578.2613      5.5282     70.8120
  1435.5000      0.0000    525.1474      5.5031     72.5244
  1435.7500      0.0000    478.2507      5.4970     73.4748
  1436.0000      0.0000    447.5836      5.4903     74.0983
  1436.2500      0.0000    436.8592      5.4628     74.5676
  1436.5000      0.0000    446.6138      5.4068     74.4422
  1436.7500      0.0000    476.6964      5.3323     73.6204
  1437.0000      0.0000    523.6259      5.2592     73.1820
  1437.2500      0.0000    577.4647      5.2077     74.8500
  1437.5000      0.0000    625.0333      5.1951     79.7766
  1437.7500      0.0000    657.6149      5.2331     88.0820
  1438.0000      0.0000    674.8389      5.3236     99.3007
  1438.2500      0.0000    681.7227      5.4565    112.5823
  1438.5000      0.0000    683.6335      5.6144    126.1040
  1438.7500      0.0000    683.8532      5.7793    136.8370
  1439.0000      0.0000    683.7724      5.9340    141.8774
  1439.2500      0.0000    683.7896      6.0655    140.4987
  1439.5000      0.0000    683.8978      6.1699    134.8243
  1439.7500      0.0000    683.9662      6.2538    128.5163
  1440.0000      0.0000    683.7595      6.3273    124.8401
  1440.2500      0.0000    682.7648      6.3947    125.2700
  1440.5000      0.0000    679.9377      6.4537    128.8622
  1440.7500      0.0000    674.0419      6.4976    132.7767
  1441.0000      0.0000    664.9099      6.5159    134.0779
  1441.2500      0.0000    654.2178      6.4926    131.5417
  1441.5000      0.0000    643.1689      6.4102    125.9858
  1441.7500      0.0000    628.4722      6.2600    119.2870
  1442.0000      0.0000    603.3753      6.0511    113.1893
  1442.2500      0.0000    566.6442      5.8129    108.6436
  1442.5000      0.0000    529.7840      5.5942    106.0046
  1442.7500      0.0000    510.6933      5.4574    105.6166
  1443.0000      0.0000    517.5730      5.4601    107.7436
  1443.2500      0.0000    540.6839      5.6259    111.8840
  1443.5000      0.0000    561.7300      5.9241    116.7020
  1443.7500      0.0000    570.3502      6.2774    120.7942
  1444.0000      0.0000    570.2255      6.5925    123.1588
  1444.2500      0.0000    570.7466      6.7991    123.1059
  1444.5000      0.0000    576.1685      6.8790    120.5451
  1444.7500      0.0000    583.8348      6.8634    116.8097
  1445.0000      0.0000    589.3733      6.8011    114.8100
  1445.2500      0.0000    589.6051      6.7258    117.5330
  1445.5000      0.0000    581.1512      6.6529    125.7235
  1445.7500      0.0000    561.2554      6.5966    136.9320
  1446.0000      0.0000    532.3785      6.5761    147.0760
  1446.2500      0.0000    503.2330      6.6040    153.1418
  1446.5000      0.0000    483.1154      6.6668    154.5866
  1446.7500      0.0000    476.9975      6.7200    152.6153
  1447.0000      0.0000    486.4654      6.7095    148.7185
  1447.2500      0.0000    511.8990      6.6179    144.0116
  1447.5000      0.0000    550.7649      6.4925    139.2213
  1447.7500      0.0000    595.1019      6.4175    134.5912
  1448.0000      0.0000    634.1657      6.4460    129.9094
  1448.2500      0.0000    660.8705      6.5583    125.0622
  1448.5000      0.0000    675.0830      6.6848    120.5694
  1448.7500      0.0000    681.0799      6.7661    117.2452
  1449.0000      0.0000    683.1943      6.7930    115.2972
  1449.2500      0.0000    683.6964      6.7969    114.0104
  1449.5000      0.0000    683.1300      6.8084    112.3064
  1449.7500      0.0000    681.5988      6.8286    109.6325
  1450.0000      0.0000    679.7599      6.8418    106.5914
  1450.2500      0.0000    678.7892      6.8504    104.6356
  1450.5000      0.0000    679.4315      6.8865    104.7477
  1450.7500      0.0000    681.3074      6.9878    106.4861
  1451.0000      0.0000    683.2583      7.1650    108.5305
  1451.2500      0.0000    684.1642      7.3891    109.9248
  1451.5000      0.0000    683.4351      7.5986    110.6877
  1451.7500      0.0000    681.2512      7.7231    111.8223
  1452.0000      0.0000    678.7014      7.7170    115.0103
  1452.2500      0.0000    677.3054      7.5866    121.6591
  1452.5000      0.0000    677.8600      7.3882    131.5424
  1452.7500      0.0000    679.7792      7.1948    142.4335
  1453.0000      0.0000    681.7818      7.0532    151.4721
  1453.2500      0.0000    683.0586      6.9615    157.0214
  1453.5000      0.0000    683.6512      6.8838    159.3219
  1453.7500      0.0000    684.0067      6.7898    159.6624
  1454.0000      0.0000    684.5077      6.6821    159.1478
  1454.2500      0.0000    685.4274      6.5821    158.2675
  1454.5000      0.0000    687.1999      6.4839    157.3940
  1454.7500      0.0000    690.5342      6.3405    156.9871
  1455.0000      0.0000    696.0738      6.1142    156.6764
  1455.2500      0.0000    703.6094      5.8450    154.6364
  1455.5000      0.0000    711.6771      5.6512    148.7460
  1455.7500      0.0000    718.3588      5.6462    138.3555
  1456.0000      0.0000    722.9792      5.8471    124.6959
  1456.2500      0.0000    727.0070      6.1673    110.1969
  1456.5000      2.0000    732.8409      6.4937     97.8896
  1456.7500      0.0000    740.9918      6.7569     90.7862
  1457.0000      0.0000    748.0946      6.9317     90.7080
  1457.2500      0.0000    748.5095      7.0046     97.1372
  1457.5000      0.0000    739.1237      6.9654    107.2612
  1457.7500      0.0000    722.5504      6.8192    117.5600
  1458.0000      0.0000    705.1483      6.5950    125.7601
  1458.2500      0.0000    692.3259      6.3521    131.4569
  1458.5000      0.0000    685.7435      6.1655    135.3024
  1458.7500      0.0000    683.7886      6.0825    138.1780
  1459.0000      0.0000    683.6569      6.0901    140.8978
  1459.2500      0.0000    682.7881      6.1385    143.9265
  1459.5000      0.0000    678.7988      6.1911    147.1993
  1459.7500      0.0000    669.0952      6.2429    150.4554
  1460.0000      0.0000    652.5050      6.3028    153.4675
  1460.2500      0.0000    632.6287      6.3700    155.6116
  1460.5000      0.0000    618.3439      6.4294    155.7248
  1460.7500      0.0000    617.9061      6.4617    153.1619
  1461.0000      0.0000    631.5195      6.4536    148.7995
  1461.2500      0.0000    651.1704      6.4017    144.2063
  1461.5000      0.0000    667.9473      6.3147    139.9032
