~Version Information
VERS.                      2.0: CWLS Log ASCII Standard - VERSION 2.0
WRAP.                       NO: One line per depth step
~Well Information Block
STRT.FT                 1.5000: 
STOP.FT              1895.2500: 
STEP.FT                 0.2500: 
NULL.                -999.2500: 
COMP.          Petrogulf Corporation: COMPANY
WELL.             State 16-32R: WELL
FLD.           Purgatorie River: FIELD
LOC.           1849' FNL & 1677' FEL: LOCATION
CNTY.               Las Animas: COUNTY
SRVC.                         : SERVICE COMPANY
DATE.          Thu May 20 08:40:19 2004: LOG DATE
UWI.           05 071 08033 00: UNIQUE WELL ID
STAT.                 Colorado: STATE
~Curve Information Block
DEPT.FT            0 000 00 00: Depth
GR.GAPI                       : Gamma Ray
CCL.                          : Casing Collar Locator
TT3.usec                      : CBL 3' Travel Time
AMP3.mV                       : CBL 3' Amplitude
~Parameter Information Block
~A  Depth        GR         CCL         TT3         AMP3    
# ...
  1006.5000    112.9503      0.0000    246.7518     63.7390
  1006.7500    115.6574      0.0000    246.7475     64.4850
  1007.0000    121.1842      0.0000    246.7075     64.9822
  1007.2500    129.0028      0.0000    246.6521     65.0806
  1007.5000    137.1888      0.0000    246.6108     64.7627
  1007.7500    143.9811      0.0000    246.6021     64.1328
  1008.0000    149.0540      0.0000    246.6274     63.4236
  1008.2500    153.3723      0.0000    246.6789     62.8324
  1008.5000    157.9229      0.0000    246.7534     62.2998
  1008.7500    162.3131      0.0000    246.8478     61.7067
  1009.0000    164.5919      0.0000    246.9467     61.0999
  1009.2500    163.0762      0.0000    247.0304     60.5742
  1009.5000    158.5208      0.0000    247.0918     60.2149
  1009.7500    153.8656      0.0000    247.1422     60.0638
  1010.0000    151.6226      0.0000    247.2007     59.9889
  1010.2500    151.9748      0.0000    247.2682     59.8267
  1010.5000    153.2620      0.0000    247.3226     59.5968
  1010.7500    153.5414      0.0000    247.3503     59.3579
  1011.0000    151.6607      0.0000    247.3665     58.9670
  1011.2500    147.6355      0.0000    247.4243     58.1468
  1011.5000    142.4510      0.0000    247.7614     56.8182
  1011.7500    137.2005      0.0000    249.2544     55.2119
  1012.0000    132.1008      0.0000    253.6941     53.4698
  1012.2500    126.5640      0.0000    262.2786     51.4043
  1012.5000    120.6397      0.0000    272.9727     48.8711
  1012.7500    116.1278      0.0000    281.5347     46.0704
  1013.0000    115.4146      0.0000    285.9374     43.3790
  1013.2500    119.0043      0.0000    287.3895     41.1106
  1013.5000    124.8482      0.0000    287.6927     39.4518
  1013.7500    130.4291      0.0000    287.7259     38.4550
  1014.0000    135.0249      0.0000    287.7147     38.0421
  1014.2500    139.5955      0.0000    287.6684     38.1740
  1014.5000    144.8516      0.0000    287.5126     39.0136
  1014.7500    150.1175      0.0000    287.0135     40.6919
  1015.0000    154.0445      0.0000    285.3781     42.9775
  1015.2500    155.7764      0.0000    280.9230     45.4863
  1015.5000    155.3055      0.0000    272.4706     48.0512
  1015.7500    153.4498      0.0000    261.9517     50.5491
  1016.0000    151.6983      0.0000    253.4794     52.6761
  1016.2500    151.0985      0.0000    249.0585     54.1962
  1016.5000    150.7935      0.0000    247.5519     55.1274
  1016.7500    148.5079      0.0000    247.2243     55.5759
  1017.0000    143.0785      0.0000    247.2145     55.6109
  1017.2500    135.9033      0.0000    247.2796     55.3327
  1017.5000    129.4954      0.0000    247.3611     54.9076
  1017.7500    125.0924      0.0000    247.4350     54.4776
  1018.0000    121.9101      0.0000    247.4880     54.1257
  1018.2500    118.4490      0.0000    247.5078     53.9523
  1018.5000    114.3143      0.0000    247.4794     54.0648
  1018.7500    110.6194      0.0000    247.4085     54.4219
  1019.0000    108.7249      0.0000    247.3338     54.8114
  1019.2500    109.1606      0.0000    247.3025     55.0708
  1019.5000    111.9803      0.0000    247.3942     55.3130
  1019.7500    117.3920      0.0000    247.9640     55.9112
  1020.0000    125.1707      0.0000    250.2039     56.8505
  1020.2500    133.4935      0.0000    256.2169     56.8940
  1020.5000    139.0827      0.0000    266.9089     54.3835
  1020.7500    139.2648      0.0000    279.3186     49.2675
  1021.0000    134.2064      0.0000    288.6156     43.4434
  1021.2500    126.9332      0.0000    293.0247     39.1720
  1021.5000    121.0837      0.0000    294.2557     37.3842
  1021.7500    118.8474      0.0000    294.3728     37.1949
  1022.0000    120.6486     -2.0000    294.3247     37.2061
  1022.2500    125.7407      0.0000    294.3425     36.8542
  1022.5000    132.5147      0.0000    294.4616     36.3726
  1022.7500    138.8181      0.0000    294.7026     36.0940
  1023.0000    142.9619      0.0000    295.0336     35.9221
  1023.2500    144.7471      0.0000    295.1209     35.6704
  1023.5000    145.3187      0.0000    294.0702     35.8820
  1023.7500    145.9189      0.0000    290.6655     37.4848
  1024.0000    146.8837      0.0000    283.8672     40.8125
  1024.2500    147.7220      0.0000    273.5972     45.3916
  1024.5000    147.8040      0.0000    262.1421     50.1296
  1024.7500    146.9598      0.0000    253.2887     53.9483
  1025.0000    145.8518      0.0000    248.7288     56.4620
  1025.2500    145.7928      0.0000    247.2068     57.8725
  1025.5000    147.6886      0.0000    246.9284     58.5493
  1025.7500    151.0303      0.0000    246.9721     58.8354
  1026.0000    154.2672      0.0000    247.0526     58.9107
  1026.2500    156.1027      0.0000    247.1100     58.7053
  1026.5000    156.0299      0.0000    247.1544     58.1085
  1026.7500    153.8420      0.0000    247.2159     57.2168
  1027.0000    149.4329      0.0000    247.3141     56.2968
  1027.2500    143.3481      0.0000    247.4362     55.6473
  1027.5000    137.1204      0.0000    247.5445     55.4447
  1027.7500    132.7026      0.0000    247.6078     55.5946
  1028.0000    131.3659      0.0000    247.6250     55.8277
  1028.2500    132.9517      0.0000    247.6170     55.9322
  1028.5000    136.0881      0.0000    247.6047     55.8458
  1028.7500    139.0357      0.0000    247.5937     55.6422
  1029.0000    140.4531      0.0000    247.5799     55.4222
  1029.2500    139.9143      0.0000    247.5662     55.1751
  1029.5000    138.0583      0.0000    247.5623     54.8932
  1029.7500    135.9841      0.0000    247.5667     54.7949
  1030.0000    134.3905      0.0000    247.5627     55.2190
  1030.2500    133.5141      0.0000    247.5405     56.2608
  1030.5000    133.6113      0.0000    247.5097     57.5858
  1030.7500    134.8743      0.0000    247.4795     58.6473
  1031.0000    136.9450      0.0000    247.4431     59.1126
  1031.2500    139.0395      0.0000    247.3889     59.0092
  1031.5000    140.6169      0.0000    247.3147     58.5079
  1031.7500    141.5785      0.0000    247.2386     57.7871
  1032.0000    141.7639      0.0000    247.2299     56.9829
  1032.2500    140.7784      0.0000    247.5522     56.0902
  1032.5000    138.5581      0.0000    249.0812     54.9887
  1032.7500    135.6511      0.0000    253.5611     53.6240
  1033.0000    132.6862      0.0000    262.1227     52.1055
  1033.2500    129.9627      0.0000    272.7073     50.5635
  1033.5000    127.6541      0.0000    281.1151     48.9553
  1033.7500    125.8871      0.0000    285.3777     47.1301
  1034.0000    124.5367      0.0000    286.7348     45.1301
  1034.2500    123.4323      0.0000    286.9808     43.3102
  1034.5000    122.7210      0.0000    286.9535     42.0836
  1034.7500    122.5093      0.0000    286.8341     41.6388
  1035.0000    122.2657      0.0000    286.6480     41.8843
  1035.2500    121.3488      0.0000    286.4385     42.5327
  1035.5000    120.2952      0.0000    286.2549     43.2561
  1035.7500    120.7728      0.0000    286.1083     43.8587
  1036.0000    123.7136      0.0000    285.9803     44.3069
  1036.2500    128.0397      0.0000    285.8672     44.5947
  1036.5000    131.8241      0.0000    285.7880     44.6443
  1036.7500    134.1995      0.0000    285.7664     44.4135
  1037.0000    135.4130      0.0000    285.8176     44.0691
  1037.2500    135.4423      0.0000    285.9252     43.8834
  1037.5000    133.7184      0.0000    286.0287     43.9123
  1037.7500    130.4672      0.0000    286.0619     43.9435
  1038.0000    127.4244      0.0000    286.0112     43.7717
  1038.2500    126.6891      0.0000    285.9163     43.3659
  1038.5000    129.0898      0.0000    285.8235     42.7678
  1038.7500    133.5243      0.0000    285.7667     41.9784
  1039.0000    137.4619      0.0000    285.7706     41.0332
  1039.2500    138.5050      0.0000    285.8349     40.0737
  1039.5000    136.2574      0.0000    285.9324     39.2444
  1039.7500    132.7390      0.0000    286.0332     38.6091
