~Version Information
VERS.                      2.0: CWLS Log ASCII Standard - VERSION 2.0
WRAP.                       NO: One line per depth step
~Well Information Block
STRT.FT               -16.5000: 
STOP.FT              1244.7500: 
STEP.FT                 0.2500: 
NULL.                -999.2500: 
COMP.          Pioneer Natural Resources: COMPANY
WELL.          Bouncer41-27 Tr: WELL
FLD.           Purgatorie River: FIELD
LOC.           292' FNL & 222' FEL--------: LOCATION
PROV.                       CO: PROVINCE
CNTY.               Las Animas: COUNTRY
SRVC.                         : SERVICE COMPANY
DATE.          Fri Feb 11 15:34:51 2005: LOG DATE
UWI.                071-08291 : UNIQUE WELL ID
~Curve Information Block
DEPT.FT            0 000 00 00: Depth
CCL.                          : Casing Collar Locator
TT3.usec                      : CBL 3' Travel Time
AMP3.mV                       : CBL 3' Amplitude
GR.GAPI                       : Gamma Ray
~Parameter Information Block
~A  Depth       CCL         TT3         AMP3         GR     
# ...
   553.0000      0.0000    770.0493      4.6259    101.8900
   553.2500      0.0000    775.8328      4.6149     95.2330
   553.5000      0.0000    781.7287      4.6313     89.9001
   553.7500      0.0000    785.1880      4.6531     85.6337
   554.0000      0.0000    784.6705      4.6444     82.3847
   554.2500      0.0000    780.0767      4.5789     80.5851
   554.5000      0.0000    772.0337      4.4550     80.9116
   554.7500      0.0000    761.1738      4.3008     83.7313
   555.0000      0.0000    748.1775      4.1696     88.7016
   555.2500      0.0000    734.3047      4.1137     95.2474
   555.5000      0.0000    721.6158      4.1500    103.1945
   555.7500      0.0000    712.4653      4.2586    112.2569
   556.0000      0.0000    708.2947      4.4104    121.1455
   556.2500      0.0000    707.9637      4.5826    128.0273
   556.5000      0.0000    707.4243      4.7546    132.0618
   556.7500     -2.0000    702.7339      4.9077    134.0981
   557.0000     -2.0000    694.4918      5.0286    135.4078
   557.2500      0.0000    688.1765      5.1074    135.7533
   557.5000      0.0000    688.9125      5.1387    133.3033
   557.7500      0.0000    696.8331      5.1273    126.7903
   558.0000      0.0000    708.1212      5.0836    117.1099
   558.2500      0.0000    718.8793      5.0204    106.4239
   558.5000      0.0000    727.0715      4.9650     96.5583
   558.7500      0.0000    732.2454      4.9535     88.9427
   559.0000      0.0000    734.6938      4.9967     85.3514
   559.2500      0.0000    734.5202      5.0685     87.4614
   559.5000      0.0000    730.5804      5.1386     95.2658
   559.7500      0.0000    719.8730      5.1960    106.2910
   560.0000      0.0000    698.6038      5.2402    116.8127
   560.2500      0.0000    665.1157      5.2689    124.1414
   560.5000      0.0000    622.4818      5.2786    127.9558
   560.7500      0.0000    577.8611      5.2647    129.7897
   561.0000      0.0000    539.1857      5.2182    131.4668
   561.2500      0.0000    512.2499      5.1291    133.8512
   561.5000      0.0000    499.4514      4.9994    136.6207
   561.7500      0.0000    499.6478      4.8553    139.1196
   562.0000      0.0000    509.3002      4.7426    141.4706
   562.2500      0.0000    524.6835      4.6992    144.4771
   562.5000      0.0000    543.8170      4.7303    148.2038
   562.7500      0.0000    567.0015      4.8105    151.3060
   563.0000      0.0000    595.2477      4.9090    152.2606
   563.2500      0.0000    626.7351      5.0119    150.7229
   563.5000      0.0000    654.5615      5.1202    147.2376
   563.7500      0.0000    670.1813      5.2282    142.2724
   564.0000      0.0000    670.6884      5.3080    136.1077
   564.2500      0.0000    661.7190      5.3280    129.3604
   564.5000      0.0000    652.4317      5.2858    123.2709
   564.7500      0.0000    649.1638      5.2142    119.4812
   565.0000      0.0000    654.2003      5.1493    119.2118
   565.2500      0.0000    666.8433      5.0996    122.2491
   565.5000      0.0000    682.4167      5.0493    126.8507
   565.7500      0.0000    692.2142      4.9841    131.0169
   566.0000      0.0000    688.2001      4.9122    133.9078
   566.2500      0.0000    669.2092      4.8645    135.9419
   566.5000      0.0000    642.7178      4.8743    137.7357
   566.7500      0.0000    620.8533      4.9474    139.1809
   567.0000      0.0000    614.2702      5.0461    139.6484
   567.2500      0.0000    627.6366      5.1141    139.1250
   567.5000      0.0000    657.4885      5.1291    138.6573
   567.7500      0.0000    692.8330      5.1247    139.0639
   568.0000      0.0000    719.9257      5.1542    139.6691
   568.2500      0.0000    729.6454      5.2327    139.0830
   568.5000      0.0000    721.8884      5.3249    136.7441
   568.7500      0.0000    703.3180      5.3855    133.1531
   569.0000      0.0000    680.7090      5.3985    129.3243
   569.2500      0.0000    655.8296      5.3783    126.5181
   569.5000      0.0000    626.3545      5.3464    125.7398
   569.7500      0.0000    591.0912      5.3123    127.0867
   570.0000      0.0000    553.2185      5.2702    129.9428
   570.2500      0.0000    518.8958      5.2069    133.5947
   570.5000      0.0000    494.5402      5.1136    137.3750
   570.7500      0.0000    485.7794      4.9949    140.6984
   571.0000      0.0000    497.0083      4.8708    143.2421
   571.2500      0.0000    529.4086      4.7720    144.5598
   571.5000      0.0000    578.0424      4.7263    143.4603
   571.7500      0.0000    631.7328      4.7419    138.5569
   572.0000      0.0000    677.9824      4.8006    129.8282
   572.2500      0.0000    709.4866      4.8732    119.2775
   572.5000      0.0000    726.4409      4.9441    109.8895
   572.7500      0.0000    733.4730      5.0230    104.0540
   573.0000      0.0000    735.0773      5.1298    102.6534
   573.2500      0.0000    732.9391      5.2663    104.8734
   573.5000      0.0000    725.5897      5.3992    108.5963
   573.7500      0.0000    709.9005      5.4765    111.5761
   574.0000      0.0000    684.1548      5.4692    112.9656
   574.2500      0.0000    651.0656      5.3918    113.9554
   574.5000      0.0000    617.6475      5.2848    116.6328
   574.7500      0.0000    591.2365      5.1839    121.8506
   575.0000      0.0000    575.3804      5.1065    128.2496
   575.2500      0.0000    569.5519      5.0524    133.3703
   575.5000      0.0000    571.9227      5.0067    135.3532
   575.7500      0.0000    581.4803      4.9471    133.6684
   576.0000      0.0000    597.8901      4.8622    129.3035
   576.2500      0.0000    620.6477      4.7625    124.9532
   576.5000      0.0000    648.7780      4.6734    124.0793
   576.7500      0.0000    680.1957      4.6168    128.2148
   577.0000      0.0000    710.7202      4.5984    134.8121
   577.2500      0.0000    734.9402      4.6051    138.7572
   577.5000      0.0000    749.2789      4.6107    136.8586
   577.7500      0.0000    754.0485      4.5933    130.4970
   578.0000      0.0000    752.4035      4.5527    123.5279
   578.2500      0.0000    747.9853      4.5087    118.5128
   578.5000      0.0000    743.5213      4.4820    115.6297
   578.7500      0.0000    740.4774      4.4769    114.1463
   579.0000      0.0000    739.1263      4.4825    113.6554
   579.2500      0.0000    738.9639      4.4868    114.2431
   579.5000      0.0000    739.3040      4.4898    116.2402
   579.7500      0.0000    739.6829      4.5064    119.4897
   580.0000      0.0000    739.9429      4.5530    122.5229
   580.2500      0.0000    740.1291      4.6266    123.2230
   580.5000      0.0000    740.3862      4.7027    120.8868
   580.7500      0.0000    740.9625      4.7572    117.3110
   581.0000      0.0000    742.3406      4.7851    115.4502
   581.2500      0.0000    745.3022      4.7966    116.9405
   581.5000      0.0000    750.5565      4.8024    120.9478
   581.7500      0.0000    757.8488      4.8102    125.2981
   582.0000      0.0000    765.2619      4.8266    128.3819
   582.2500      0.0000    769.5811      4.8522    129.7854
   582.5000      0.0000    767.4911      4.8766    129.7682
   582.7500      0.0000    756.4265      4.8894    129.0421
   583.0000      0.0000    734.7823      4.8964    128.7894
   583.2500      0.0000    702.6048      4.9159    129.9201
   583.5000      0.0000    663.1822      4.9509    132.3720
   583.7500      0.0000    623.4517      4.9724    135.6797
   584.0000      0.0000    591.0949      4.9420    139.7792
   584.2500      0.0000    570.2455      4.8517    144.5545
   584.5000      0.0000    560.0659      4.7323    148.9397
   584.7500      0.0000    557.1966      4.6257    151.2317
   585.0000      0.0000    559.2042      4.5561    150.3776
   585.2500      0.0000    566.5318      4.5237    146.8242
   585.5000      0.0000    582.2844      4.5143    142.2238
   585.7500      0.0000    609.5275      4.5102    138.3621
   586.0000      0.0000    646.9489      4.5009    136.1450
   586.2500      0.0000    686.9074      4.4899    135.2502
