~Version Information
VERS.                      2.0: CWLS Log ASCII Standard - VERSION 2.0
WRAP.                       NO: One line per depth step
~Well Information Block
STRT.FT                60.5000: 
STOP.FT              1875.7500: 
STEP.FT                 0.2500: 
NULL.                -999.2500: 
COMP.          Petrogulf Corporation: COMPANY
WELL.             State 16-14R: WELL
FLD.           Purgatorie River: FIELD
LOC.           598' FSL & 682' FWL--: LOCATION
PROV.                       CO: PROVINCE
CNTY.               Las Animas: COUNTRY
SRVC.                         : SERVICE COMPANY
DATE.          Fri Nov 12 08:50:45 2004: LOG DATE
UWI.            005 071 08034 : UNIQUE WELL ID
~Curve Information Block
DEPT.FT            0 000 00 00: Depth
GR.GAPI                       : Gamma Ray
CCL.                          : Casing Collar Locator
TT3.usec                      : CBL 3' Travel Time
AMP3.mV                       : CBL 3' Amplitude
~Parameter Information Block
~A  Depth        GR         CCL         TT3         AMP3    
# ...
   998.5000     61.9944      0.0000    714.3295     11.9889
   998.7500     68.2867      0.0000    667.8237     12.5546
   999.0000     74.9907      0.0000    618.6455     13.1971
   999.2500     80.8053      0.0000    592.9006     13.6948
   999.5000     83.9196      0.0000    603.9566     13.9267
   999.7500     83.4678      0.0000    643.3546     13.9260
  1000.0000     80.2143      0.0000    690.1982     13.8077
  1000.2500     75.7675      0.0000    727.6245     13.6814
  1000.5000     71.5903      0.0000    750.6274     13.6165
  1000.7500     68.7616      0.0000    762.5793     13.6442
  1001.0000     67.9040      0.0000    768.7522     13.7599
  1001.2500     68.9435      0.0000    772.5794     13.9272
  1001.5000     71.4034      0.0000    774.7275     14.0936
  1001.7500     75.2541      0.0000    773.7943     14.2158
  1002.0000     81.0234      0.0000    767.6790     14.2718
  1002.2500     88.6001      0.0000    754.8265     14.2528
  1002.5000     96.0993      0.0000    735.3907     14.1533
  1002.7500    100.4789      0.0000    712.6147     13.9798
  1003.0000     99.7564      0.0000    692.9532     13.7653
  1003.2500     94.6537      0.0000    683.2950     13.5636
  1003.5000     88.0062      0.0000    686.4832     13.4191
  1003.7500     82.6634      0.0000    699.0320     13.3364
  1004.0000     79.8374      0.0000    713.4202     13.2734
  1004.2500     78.9651      0.0000    722.8069     13.1628
  1004.5000     78.7596      0.0000    724.1321     12.9464
  1004.7500     78.3362      0.0000    718.2114     12.6044
  1005.0000     77.5914      0.0000    708.0939     12.1686
  1005.2500     76.9583      0.0000    697.2494     11.7144
  1005.5000     76.9416      0.0000    688.4725     11.3397
  1005.7500     77.4623      0.0000    683.8008     11.1481
  1006.0000     77.5646      0.0000    685.4536     11.2354
  1006.2500     76.1705      0.0000    696.7359     11.6660
  1006.5000     73.2258      0.0000    720.6404     12.4482
  1006.7500     70.0333      0.0000    755.4598     13.5328
  1007.0000     68.5601      0.0000    791.1822     14.8349
  1007.2500     70.1281      0.0000    810.9632     16.2585
  1007.5000     74.1594      0.0000    797.1393     17.7206
  1007.7500     78.3768      0.0000    739.2154     19.1812
  1008.0000     80.8510      0.0000    642.1176     20.6475
  1008.2500     81.4833      0.0000    528.5235     22.1288
  1008.5000     80.8107      0.0000    428.0526     23.5741
  1008.7500     78.2334      0.0000    360.2108     24.8477
  1009.0000     72.7660      0.0000    327.9783     25.7488
  1009.2500     65.1426      0.0000    326.7000     26.0598
  1009.5000     57.9715      0.0000    355.3682     25.6238
  1009.7500     53.8127      0.0000    416.9246     24.4238
  1010.0000     53.7411      0.0000    507.8050     22.6064
  1010.2500     57.5214      0.0000    609.9437     20.4398
  1010.5000     64.4081      0.0000    697.5645     18.2360
  1010.7500     73.4734      0.0000    754.1910     16.2595
  1011.0000     83.3525      0.0000    782.0538     14.6540
  1011.2500     92.1592      0.0000    795.0540     13.4367
  1011.5000     98.3687      0.0000    804.6545     12.5541
  1011.7500    102.2312      0.0000    812.4838     11.9387
  1012.0000    105.9345      0.0000    813.5342     11.5317
  1012.2500    111.5321      0.0000    803.8647     11.2952
  1012.5000    118.4801      0.0000    785.2283     11.2238
  1012.7500    123.9422      0.0000    763.8046     11.3264
  1013.0000    125.8961      0.0000    745.4752     11.5804
  1013.2500    125.3497      0.0000    732.5873     11.9062
  1013.5000    125.1793      0.0000    724.6259     12.1968
  1013.7500    127.3643      0.0000    720.5845     12.3717
  1014.0000    131.4909      0.0000    719.8359     12.4021
  1014.2500    135.2429      0.0000    721.5486     12.2920
  1014.5000    136.1213      0.0000    724.6182     12.0474
  1014.7500    133.3526      0.0000    728.4972     11.6701
  1015.0000    128.6224      0.0000    733.3254     11.1756
  1015.2500    124.9987      0.0000    738.9427     10.6085
  1015.5000    124.9596      0.0000    744.2171     10.0322
  1015.7500    129.0368      0.0000    747.6296      9.4997
  1016.0000    135.8712      0.0000    748.2034      9.0359
  1016.2500    143.2487      0.0000    746.0226      8.6495
  1016.5000    149.1630      0.0000    742.5334      8.3530
  1016.7500    152.4427      0.0000    740.3597      8.1613
  1017.0000    153.0317      0.0000    741.9608      8.0705
  1017.2500    151.8893      0.0000    747.8217      8.0458
  1017.5000    150.4123      0.0000    755.9504      8.0389
  1017.7500    149.6969      0.0000    763.1445      8.0214
  1018.0000    150.1043      0.0000    767.0021      7.9981
  1018.2500    151.4798      0.0000    767.3556      7.9865
  1018.5000    153.7546      0.0000    766.1799      7.9843
  1018.7500    156.8520      0.0000    765.6653      7.9621
  1019.0000    159.6222      0.0000    765.8920      7.8871
  1019.2500    159.7406      0.0000    764.6193      7.7567
  1019.5000    155.7754      0.0000    760.0787      7.6044
  1019.7500    149.0240      0.0000    753.7752      7.4705
  1020.0000    142.4123      0.0000    749.3348      7.3696
  1020.2500    137.6436      0.0000    748.6511      7.2903
  1020.5000    133.6624      0.0000    750.4767      7.2245
  1020.7500    127.5019      0.0000    752.5663      7.1872
  1021.0000    116.5818      0.0000    753.8052      7.2016
  1021.2500    100.9095      0.0000    754.2889      7.2667
  1021.5000     83.6214      0.0000    754.4797      7.3478
  1021.7500     69.3549      0.0000    754.6822      7.4033
  1022.0000     61.8401      0.0000    755.0018      7.4204
  1022.2500     62.5868      0.0000    755.5074      7.4176
  1022.5000     71.0135      0.0000    756.4534      7.4182
  1022.7500     85.0506      0.0000    758.2312      7.4296
  1023.0000    101.5874      0.0000    760.8826      7.4477
  1023.2500    117.0770      0.0000    763.5231      7.4659
  1023.5000    128.6853      0.0000    764.6546      7.4770
  1023.7500    135.2883      0.0000    763.5068      7.4764
  1024.0000    137.1107      0.0000    760.8680      7.4689
  1024.2500    134.4958      0.0000    758.2888      7.4653
  1024.5000    127.8297      0.0000    756.7285      7.4718
  1024.7500    118.7610      0.0000    756.2114      7.4866
  1025.0000    110.2786      0.0000    756.2339      7.5058
  1025.2500    104.8596      0.0000    755.8780      7.5233
  1025.5000    102.9992      0.0000    753.8344      7.5278
  1025.7500    103.5870      0.0000    749.1178      7.5077
  1026.0000    105.0733      0.0000    742.0811      7.4643
  1026.2500    106.4291      0.0000    734.6514      7.4182
  1026.5000    107.6932      0.0000    729.8281      7.3994
  1026.7500    109.6339      0.0000    730.6495      7.4294
  1027.0000    112.5273      0.0000    738.3401      7.5094
  1027.2500    115.3301      0.0000    750.8804      7.6185
  1027.5000    116.3312      0.0000    763.9492      7.7253
  1027.7500    114.6503      0.0000    773.6829      7.8062
  1028.0000    111.0342      0.0000    778.9794      7.8544
  1028.2500    107.2920      0.0000    781.7527      7.8735
  1028.5000    105.0200      0.0000    784.7607      7.8700
  1028.7500    104.6027      0.0000    788.6849      7.8570
  1029.0000    105.1526      0.0000    791.3627      7.8555
  1029.2500    105.5605      0.0000    789.9497      7.8811
  1029.5000    105.7789      0.0000    783.6354      7.9269
  1029.7500    106.9308      0.0000    774.3660      7.9644
  1030.0000    110.0341      0.0000    765.3147      7.9648
  1030.2500    114.6769      0.0000    758.7263      7.9225
  1030.5000    119.0211      0.0000    754.9761      7.8637
  1030.7500    121.2481      0.0000    753.1879      7.8322
  1031.0000    121.0574      0.0000    752.3250      7.8624
  1031.2500    119.5864      0.0000    751.7650      7.9582
  1031.5000    117.7829      0.0000    751.2817      8.0909
  1031.7500    115.1029      0.0000    750.8219      8.2194
