~Version Information
VERS.                      2.0: CWLS Log ASCII Standard - VERSION 2.0
WRAP.                       NO: One line per depth step
~Well Information Block
STRT.FT               523.0000: 
STOP.FT              1709.0000: 
STEP.FT                 0.1000: 
NULL.                -999.2500: 
COMP.          Evergreen Operating Corporation: COMPANY
WELL.            Rimrock 14-29: WELL
FLD.           Purgatorie River: FIELD
LOC.           945' FSL & 604' FWL: LOCATION
PROV.                 Colorado: PROVINCE
CNTY.               Las Animas: COUNTRY
SRVC.                         : SERVICE COMPANY
DATE.          Tue Sep 21 04:15:40 2004: LOG DATE
UWI.           05 071 08136 00: UNIQUE WELL ID
~Curve Information Block
DEPT.FT            0 000 00 00: Depth
DCAL.in                       : CDL Caliper
RHOB.g/cc                     : CDL Bulk Density
RHOC.g/cc                     : CDL Density Correction
DPOR.pu                       : CDL Density Porosity
GR.GAPI                       : Gamma Ray
NPOR.pu                       : Neutron Porosity
~Parameter Information Block
~A  Depth       DCAL        RHOB        RHOC        DPOR         GR         NPOR    
# ...
   753.4000      7.9983      2.5860      0.0563      3.8782     89.5568     22.6805
   753.5000      7.9658      2.5732      0.0563      4.6536     82.8043     22.3515
   753.6000      7.9658      2.5599      0.0162      5.4589     76.7521     21.8248
   753.7000      7.9658      2.5624      0.0238      5.3079     75.0005     21.4859
   753.8000      7.9625      2.5872      0.0674      3.8068     74.4522     21.5970
   753.9000      7.9625      2.6150      0.0878      2.1227     71.7476     21.9512
   754.0000      7.9469      2.6178      0.1153      1.9494     67.1690     22.1853
   754.1000      7.9469      2.5925      0.0416      3.4869     63.8391     21.8997
   754.2000      7.9469      2.5609      0.0565      5.4007     63.3503     21.0982
   754.3000      7.9692      2.5358      0.0584      6.9228     65.2423     20.3766
   754.4000      7.9692      2.5208      0.0224      7.8301     69.3989     20.2323
   754.5000      7.9505      2.5206      0.0220      7.8439     72.9205     20.5212
   754.6000      7.9505      2.5325      0.0358      7.1234     72.1741     20.7342
   754.7000      7.9505      2.5489      0.0645      6.1273     69.3479     20.9291
   754.8000      7.9526      2.5662      0.0693      5.0764     67.6222     21.3857
   754.9000      7.9526      2.5819      0.1067      4.1298     68.6027     21.7844
   755.0000      7.9516      2.5825      0.1159      4.0887     73.2989     21.9105
   755.1000      7.9516      2.5688      0.0649      4.9230     77.6172     21.9799
   755.2000      7.9516      2.5694      0.0415      4.8873     75.7995     22.0250
   755.3000      7.9608      2.5922      0.0923      3.5009     69.9276     21.9811
   755.4000      7.9608      2.6187      0.0797      1.8999     66.2350     22.0866
   755.5000      7.9668      2.6399      0.0735      0.6118     65.6865     22.4554
   755.6000      7.9668      2.6483      0.0760      0.1013     65.0313     22.6712
   755.7000      7.9668      2.6378      0.0187      0.7383     63.5456     22.5399
   755.8000      8.0139      2.6154      0.0047      2.0950     64.6678     22.3392
   755.9000      8.0139      2.5873     -0.0236      3.8027     69.1129     22.0494
   756.0000      8.0305      2.5607     -0.0465      5.4124     74.7444     21.5628
   756.1000      8.0305      2.5463      0.0000      6.2851     80.4290     21.1292
   756.2000      8.0305      2.5410      0.0174      6.6073     84.1122     20.9772
   756.3000      8.0184      2.5300      0.0522      7.2708     84.0861     21.2389
   756.4000      8.0184      2.5115      0.0001      8.3964     81.6298     21.5703
   756.5000      8.0373      2.4996     -0.0050      9.1177     79.2695     21.5149
   756.6000      8.0373      2.5020     -0.0198      8.9707     78.3708     21.1951
   756.7000      8.0373      2.5172      0.0164      8.0509     77.0970     20.7371
   756.8000      8.0135      2.5436      0.0409      6.4485     73.9350     20.2350
   756.9000      8.0135      2.5737      0.0773      4.6237     70.9301     20.0004
   757.0000      8.0240      2.5902      0.0712      3.6233     69.5881     20.0093
   757.1000      8.0240      2.5847      0.0552      3.9576     68.5864     20.0884
   757.2000      8.0240      2.5636      0.0584      5.2362     67.7545     20.1270
   757.3000      8.0358      2.5359      0.0112      6.9154     68.4118     19.9285
   757.4000      8.0358      2.5077     -0.0233      8.6264     70.1829     19.5806
   757.5000      8.0220      2.4891     -0.0292      9.7514     70.1168     19.3880
   757.6000      8.0220      2.4918     -0.0361      9.5873     66.4164     19.3810
   757.7000      8.0220      2.5057      0.0261      8.7425     60.5451     19.3498
   757.8000      8.0190      2.5083      0.0465      8.5874     55.0413     19.1331
   757.9000      8.0190      2.5007     -0.0073      9.0506     51.8928     18.8711
   758.0000      8.0541      2.4974      0.0308      9.2464     50.0503     18.7844
   758.1000      8.0541      2.4986      0.0097      9.1752     47.0321     18.8570
   758.2000      8.0541      2.4955      0.0445      9.3611     44.0850     18.9669
   758.3000      8.0677      2.4841      0.0253     10.0564     44.5998     19.0625
   758.4000      8.0677      2.4708      0.0487     10.8609     49.2279     19.0041
   758.5000      8.0503      2.4650      0.0005     11.2127     54.7760     18.7996
   758.6000      8.0503      2.4650      0.0257     11.2097     57.7742     18.8391
   758.7000      8.0503      2.4655      0.0340     11.1806     58.6170     19.3091
   758.8000      8.0487      2.4743      0.0384     10.6481     57.9319     19.8769
   758.9000      8.0487      2.4949      0.0690      9.4027     53.9682     20.2837
   759.0000      8.0296      2.5141      0.0826      8.2374     48.6701     20.6529
   759.1000      8.0296      2.5287      0.0439      7.3488     46.5210     21.0934
   759.2000      8.0296      2.5453      0.0751      6.3452     46.0142     21.4081
   759.3000      8.0490      2.5552      0.1201      5.7469     44.5927     21.3444
   759.4000      8.0490      2.5491      0.0599      6.1165     44.0490     21.1783
   759.5000      8.0309      2.5406      0.0553      6.6324     44.6748     21.3985
   759.6000      8.0309      2.5466      0.0452      6.2666     45.2490     21.9209
   759.7000      8.0309      2.5608      0.0207      5.4085     46.3761     22.1503
   759.8000      7.9978      2.5659      0.0358      5.0987     48.8735     21.8567
   759.9000      7.9978      2.5601      0.0422      5.4492     51.4375     21.6494
   760.0000      7.9771      2.5598      0.0148      5.4659     52.0531     22.0764
   760.1000      7.9771      2.5746      0.0403      4.5671     50.8830     22.7353
   760.2000      7.9771      2.5935      0.0621      3.4251     48.3646     22.7167
   760.3000      8.0017      2.6052      0.0628      2.7167     46.8405     22.1454
   760.4000      8.0017      2.6105      0.0833      2.3915     49.2778     21.8173
   760.5000      7.9798      2.6105      0.0810      2.3936     51.3716     21.7124
   760.6000      7.9798      2.6043      0.0545      2.7685     48.3171     21.4773
   760.7000      7.9798      2.5981      0.0135      3.1445     44.6327     21.2705
   760.8000      7.9886      2.5980      0.0200      3.1516     46.1064     21.1519
   760.9000      7.9886      2.5993      0.0239      3.0709     51.6874     20.8432
   761.0000      7.9674      2.5960      0.0062      3.2726     56.2565     20.3837
   761.1000      7.9674      2.5909      0.0208      3.5807     57.1880     19.9048
   761.2000      7.9674      2.5913      0.0202      3.5606     55.9816     19.4230
   761.3000      7.9709      2.5978      0.0608      3.1640     53.6499     19.0844
   761.4000      7.9709      2.6049      0.0504      2.7320     51.6908     18.8351
   761.5000      7.9952      2.6076      0.0388      2.5672     50.7895     18.4523
   761.6000      7.9952      2.6042      0.0420      2.7763     49.7733     17.9840
   761.7000      7.9952      2.5946      0.0584      3.3588     49.8118     17.5265
   761.8000      7.9862      2.5779      0.0656      4.3722     52.7579     17.2048
   761.9000      7.9862      2.5504      0.0371      6.0339     56.6517     17.0615
   762.0000      8.0642      2.5139      0.0032      8.2481     57.9439     17.1179
   762.1000      8.0642      2.4802     -0.0121     10.2913     55.0858     17.4189
   762.2000      8.0642      2.4607      0.0078     11.4750     50.1859     17.7295
   762.3000      8.0670      2.4588     -0.0119     11.5872     46.9610     17.7254
   762.4000      8.0670      2.4666      0.0434     11.1163     47.4594     17.4784
   762.5000      8.0376      2.4697      0.0339     10.9284     50.0099     17.3986
   762.6000      8.0376      2.4717     -0.0052     10.8031     51.9430     17.6461
   762.7000      8.0376      2.4874      0.0435      9.8569     53.4258     17.9718
   762.8000      8.0417      2.5122      0.0721      8.3536     55.0098     18.2040
   762.9000      8.0417      2.5333      0.1027      7.0711     56.5358     18.3081
