~Version Information
VERS.                      2.0: CWLS Log ASCII Standard - VERSION 2.0
WRAP.                       NO: One line per depth step
~Well Information Block
STRT.FT              1684.7500: 
STOP.FT              2367.7500: 
STEP.FT                 0.2500: 
NULL.                -999.2500: 
COMP.          Petrogulf Corporation: COMPANY
WELL.             Norton 9-14V: WELL
FLD.           Purgatorie River: FIELD
LOC.           250' FSL & 225' FWL--: LOCATION
CNTY.               Las Animas: COUNTY
SRVC.                         : SERVICE COMPANY
DATE.          Mon Jan 10 10:00:10 2005: LOG DATE
UWI.                          : UNIQUE WELL ID
STAT.                       CO: STATE
~Curve Information Block
DEPT.FT            0 000 00 00: Depth
CCL.                          : Casing Collar Locator
TT3.usec                      : CBL 3' Travel Time
AMP3.mV                       : CBL 3' Amplitude
GR.GAPI                       : Gamma Ray
~Parameter Information Block
~A  Depth       CCL         TT3         AMP3         GR     
# ...
  2287.7500      0.0000    266.8255     30.0334    134.1998
  2288.0000      0.0000    266.8860     30.0245    125.3561
  2288.2500      0.0000    266.8839     30.1297    117.6839
  2288.5000      0.0000    266.8065     30.4674    112.6601
  2288.7500      0.0000    266.6528     31.0978    109.6922
  2289.0000      0.0000    266.4507     31.9230    107.0266
  2289.2500      0.0000    266.2559     32.7200    103.0509
  2289.5000      0.0000    266.1175     33.3190     97.0985
  2289.7500      0.0000    266.0511     33.7517     89.6762
  2290.0000      0.0000    266.0519     34.1950     82.1596
  2290.2500      0.0000    266.2184     34.7477     76.0671
  2290.5000      0.0000    266.9646     35.2518     72.1585
  2290.7500      0.0000    269.2793     35.2996     69.9297
  2291.0000      0.0000    274.6227     34.4076     68.1006
  2291.2500      0.0000    284.0160     32.2808     65.7402
  2291.5000      0.0000    296.6974     29.0710     62.8721
  2291.7500      0.0000    309.8071     25.4333     60.0937
  2292.0000      0.0000    319.8627     22.2431     57.8874
  2292.2500      0.0000    324.7861     20.1570     56.2888
  2292.5000      0.0000    324.8401     19.3367     55.0010
  2292.7500      0.0000    322.0745     19.4673     53.7658
  2293.0000      0.0000    318.8543     19.9972     52.6501
  2293.2500      2.0000    316.5233     20.4372     52.0235
  2293.5000      2.0000    315.0759     20.5473     52.2790
  2293.7500      0.0000    313.6536     20.3841     53.5227
  2294.0000      0.0000    311.1491     20.2654     55.5073
  2294.2500      0.0000    306.8038     20.6042     57.8872
  2294.5000      0.0000    300.8168     21.5747     60.4739
  2294.7500      0.0000    294.4059     22.8816     63.0993
  2295.0000      0.0000    288.8875     23.9881     65.2754
  2295.2500      0.0000    284.8909     24.5796     66.3207
  2295.5000      0.0000    282.7837     24.6938     66.0103
  2295.7500      0.0000    283.3136     24.4862     64.9602
  2296.0000      0.0000    286.9572     24.0721     64.1927
  2296.2500      0.0000    292.8009     23.5632     64.3400
  2296.5000      0.0000    298.8095     23.0784     65.3144
  2296.7500      0.0000    303.2976     22.6870     66.7904
  2297.0000      0.0000    305.8530     22.4034     69.3048
  2297.2500      0.0000    307.0059     22.2362     74.8662
  2297.5000      0.0000    307.4454     22.1883     85.7835
  2297.7500      0.0000    307.5938     22.2255    102.4857
  2298.0000      0.0000    307.5667     22.2946    122.8836
  2298.2500      0.0000    307.2196     22.3852    143.8397
  2298.5000      0.0000    306.0997     22.5539    162.4468
  2298.7500      0.0000    303.4444     22.8935    175.8816
  2299.0000      0.0000    298.5273     23.5007    181.4388
  2299.2500      0.0000    291.3771     24.4546    177.8351
  2299.5000      0.0000    283.2066     25.7768    166.2451
  2299.7500      0.0000    275.8511     27.3761    149.6473
  2300.0000      0.0000    270.6049     29.0408    131.2740
  2300.2500      0.0000    267.6177     30.5018    113.6213
  2300.5000      0.0000    266.2644     31.5270     98.2508
  2300.7500      0.0000    265.8188     31.9980     85.8333
  2301.0000      0.0000    265.7869     31.9506     76.2146
  2301.2500      0.0000    265.8984     31.5655     68.7720
  2301.5000      0.0000    266.0192     31.0925     63.0522
  2301.7500      0.0000    266.1037     30.7366     59.1088
  2302.0000      0.0000    266.1595     30.5852     57.2047
  2302.2500      0.0000    266.2032     30.6279     57.2518
  2302.5000      0.0000    266.2248     30.8324     58.4851
  2302.7500      0.0000    266.1896     31.2062     59.6568
  2303.0000      0.0000    266.0643     31.7943     59.7401
  2303.2500      0.0000    265.8451     32.6092     58.6694
  2303.5000      0.0000    265.5729     33.5599     57.3600
  2303.7500      0.0000    265.3161     34.4663     56.8660
  2304.0000      0.0000    265.1249     35.1609     57.4822
  2304.2500      0.0000    265.0016     35.5789     58.6078
  2304.5000      0.0000    264.9142     35.7776     59.3064
  2304.7500      0.0000    264.8287     35.9184     58.9629
  2305.0000      0.0000    264.7277     36.2143     57.6374
  2305.2500      0.0000    264.6152     36.8128     55.9324
  2305.5000      0.0000    264.5136     37.6845     54.3607
  2305.7500      0.0000    264.4495     38.6584     52.8377
  2306.0000      0.0000    264.4358     39.5988     51.0574
  2306.2500      0.0000    264.4628     40.5424     49.2480
  2306.5000      0.0000    264.5017     41.6393     48.0745
  2306.7500      0.0000    264.5213     42.9472     47.8373
  2307.0000      0.0000    264.5097     44.2912     48.1977
  2307.2500      0.0000    264.4815     45.3523     48.6612
  2307.5000      0.0000    264.4644     45.9037     49.1232
  2307.7500      0.0000    264.4788     45.9664     50.0692
  2308.0000      0.0000    264.5276     45.7616     52.1913
  2308.2500      0.0000    264.5931     45.5434     55.4888
  2308.5000      0.0000    264.6429     45.4597     58.9595
  2308.7500      0.0000    264.6467     45.5187     61.6022
  2309.0000      0.0000    264.5977     45.6551     63.4534
  2309.2500      0.0000    264.5166     45.8265     65.1644
  2309.5000      0.0000    264.4335     46.0334     66.8156
  2309.7500      0.0000    264.3687     46.2254     67.7209
  2310.0000      0.0000    264.3324     46.1929     67.3606
  2310.2500      0.0000    264.3375     45.6137     65.9859
  2310.5000      0.0000    264.4035     44.2773     64.2045
  2310.7500      0.0000    264.5427     42.2922     62.4827
  2311.0000      0.0000    264.7422     40.0561     61.2474
  2311.2500      0.0000    264.9663     38.0140     60.9208
  2311.5000      0.0000    265.1763     36.4468     61.3959
  2311.7500      0.0000    265.3433     35.4619     61.7633
  2312.0000      0.0000    265.4448     35.1180     61.0925
  2312.2500      0.0000    265.4599     35.5034     59.5597
  2312.5000      0.0000    265.3767     36.6717     58.4379
  2312.7500      0.0000    265.2050     38.4965     58.6409
  2313.0000      0.0000    264.9801     40.6240     59.5480
  2313.2500      0.0000    264.7518     42.6334     59.8124
  2313.5000      0.0000    264.5650     44.2774     59.1286
  2313.7500      0.0000    264.4430     45.5492     58.4447
  2314.0000      0.0000    264.3838     46.5043     58.4277
  2314.2500      0.0000    264.3681     47.0513     58.5143
  2314.5000      0.0000    264.3730     46.9638     57.7747
  2314.7500      0.0000    264.3875     46.1139     56.1738
  2315.0000      0.0000    264.4164     44.6599     54.5823
  2315.2500      0.0000    264.4724     42.9661     53.8157
  2315.5000      0.0000    264.5618     41.3598     53.9889
  2315.7500      0.0000    264.6796     39.9875     54.6430
  2316.0000      0.0000    264.8167     38.8397     55.2432
  2316.2500      0.0000    264.9662     37.8313     55.6216
  2316.5000      0.0000    265.1265     36.8520     56.0854
  2316.7500      0.0000    265.3046     35.7926     57.1103
  2317.0000      0.0000    265.5140     34.5875     58.9599
  2317.2500      0.0000    265.7569     33.2779     61.4692
  2317.5000      0.0000    266.0042     32.0419     63.9736
  2317.7500      0.0000    266.1967     31.1358     65.5187
  2318.0000      0.0000    266.2747     30.7675     65.3693
  2318.2500      0.0000    266.2181     30.9763     63.3641
  2318.5000      0.0000    266.0657     31.5968     59.8668
  2318.7500      0.0000    265.8954     32.3479     55.6847
  2319.0000      0.0000    265.7714     32.9929     52.0474
  2319.2500      0.0000    265.7070     33.4254     50.2392
  2319.5000      0.0000    265.6851     33.6051     50.9026
  2319.7500      0.0000    265.7072     33.4640     53.5944
  2320.0000      0.0000    265.8015     32.9414     56.9960
  2320.2500      0.0000    265.9826     32.0952     59.5585
  2320.5000      0.0000    266.2245     31.1167     60.1966
  2320.7500      0.0000    266.4744     30.2367     58.9112
  2321.0000      0.0000    266.6778     29.6425     57.0341
