~Version Information
VERS.                      2.0: CWLS Log ASCII Standard - VERSION 2.0
WRAP.                       NO: One line per depth step
~Well Information Block
STRT.FT               440.0000: 
STOP.FT              1003.5000: 
STEP.FT                 0.2500: 
NULL.                -999.2500: 
COMP.          Pioneer Natural Resources: COMPANY
WELL.              Dylan 42-25: WELL
FLD.           Purgatoire River: FIELD
LOC.           2160' FNL & 855' FEL: LOCATION
PROV.                 Colorado: PROVINCE
CNTY.               Las Animas: COUNTRY
SRVC.                Patterson: SERVICE COMPANY
DATE.          Sat Apr 23 11:21:51 2005: LOG DATE
UWI.           05 071 08229 00: UNIQUE WELL ID
~Curve Information Block
DEPT.FT            0 000 00 00: Depth
SN.Ohm-m                      : IEL Short Normal
SP.mV                         : IEL Spontaneous Potential
DIR.Ohm-m                     : IEL Induction Resistivity
GR.GAPI                       : Gamma Ray
~Parameter Information Block
~A  Depth        SN          SP         DIR          GR     
# ...
   842.0000     32.0237     30.0497     31.5152     49.1741
   842.2500     32.5125     29.4854     32.2073     48.3090
   842.5000     32.9765     28.8178     32.8389     48.2268
   842.7500     33.4031     28.0051     33.4065     48.8820
   843.0000     33.7817     27.0193     33.9470     50.6334
   843.2500     34.1155     25.8595     34.5134     52.2178
   843.5000     34.4356     24.5596     35.1440     55.0247
   843.7500     34.7938     23.1877     35.8382     56.8789
   844.0000     35.2381     21.8316     36.5537     58.8505
   844.2500     35.7697     20.5670     37.2273     59.2927
   844.5000     36.3190     19.4230     37.7968     58.7776
   844.7500     36.7936     18.3706     38.2097     58.1223
   845.0000     37.1505     17.3500     38.4261     57.5650
   845.2500     37.4073     16.3164     38.4278     57.6466
   845.5000     37.6098     15.2736     38.2326     57.9257
   845.7500     37.7917     14.2761     37.8938     57.7162
   846.0000     37.9276     13.4051     37.4735     56.3450
   846.2500     37.9383     12.7317     37.0111     54.8479
   846.5000     37.7585     12.2864     36.5144     52.3678
   846.7500     37.3735     12.0487     35.9781     50.9919
   847.0000     36.8040     11.9629     35.4100     50.0301
   847.2500     36.0901     11.9670     34.8380     50.4378
   847.5000     35.2851     12.0132     34.2956     52.7694
   847.7500     34.4521     12.0721     33.7988     55.1654
   848.0000     33.6526     12.1283     33.3354     58.8299
   848.2500     32.9196     12.1792     32.8736     60.5564
   848.5000     32.2470     12.2370     32.3869     61.5715
   848.7500     31.6162     12.3238     31.8756     61.5999
   849.0000     31.0219     12.4638     31.3686     61.8773
   849.2500     30.4740     12.6784     30.9051     62.5910
   849.5000     29.9944     12.9809     30.5131     64.0346
   849.7500     29.6051     13.3696     30.2024     64.6995
   850.0000     29.3127     13.8272     29.9709     64.6330
   850.2500     29.1172     14.3276     29.8160     63.8546
   850.5000     29.0185     14.8464     29.7433     61.9412
   850.7500     29.0075     15.3637     29.7659     60.5239
   851.0000     29.0876     15.8613     29.8951     58.7906
   851.2500     29.2779     16.3197     30.1269     57.9979
   851.5000     29.5623     16.7192     30.4333     57.0125
   851.7500     29.8766     17.0433     30.7696     56.3209
   852.0000     30.1673     17.2782     31.0952     55.4108
   852.2500     30.4198     17.4097     31.3930     54.9710
   852.5000     30.6275     17.4249     31.6678     53.9972
   852.7500     30.7764     17.3236     31.9260     52.6726
   853.0000     30.8613     17.1237     32.1541     49.8734
   853.2500     30.9009     16.8511     32.3177     48.2902
   853.5000     30.9198     16.5245     32.3813     47.7153
   853.7500     30.9148     16.1551     32.3345     48.6284
   854.0000     30.8500     15.7604     32.2023     50.9933
   854.2500     30.6952     15.3788     32.0325     52.6428
   854.5000     30.4614     15.0758     31.8719     54.9355
   854.7500     30.1946     14.9380     31.7464     56.4405
   855.0000     29.9345     15.0451     31.6581     58.5998
   855.2500     29.6776     15.4251     31.5969     59.7434
   855.5000     29.4112     16.0269     31.5526     60.7330
   855.7500     29.1713     16.7413     31.5126     60.9287
   856.0000     29.0076     17.4608     31.4535     60.6795
   856.2500     28.9065     18.1263     31.3437     60.2128
   856.5000     28.8052     18.7305     31.1637     59.1101
   856.7500     28.6694     19.2901     30.9258     58.1054
   857.0000     28.5214     19.8183     30.6698     56.2499
   857.2500     28.3997     20.3138     30.4414     54.9439
   857.5000     28.3195     20.7650     30.2743     53.2628
   857.7500     28.2762     21.1615     30.1884     52.3889
   858.0000     28.2707     21.5068     30.1920     51.2412
   858.2500     28.3088     21.8218     30.2743     50.5279
   858.5000     28.3774     22.1369     30.3961     49.8228
   858.7500     28.4501     22.4762     30.4918     49.8644
   859.0000     28.5234     22.8415     30.4948     51.0663
   859.2500     28.6199     23.2071     30.3745     52.7730
   859.5000     28.7439     23.5320     30.1626     56.8028
   859.7500     28.8582     23.7820     29.9496     60.3732
   860.0000     28.9389     23.9471     29.8498     66.4716
   860.2500     29.0317     24.0423     29.9562     70.4703
   860.5000     29.2102     24.0918     30.3065     75.2707
   860.7500     29.4970     24.1121     30.8736     77.1349
   861.0000     29.8660     24.1052     31.5744     77.3472
   861.2500     30.2937     24.0620     32.2957     75.6185
   861.5000     30.7574     23.9723     32.9299     70.3849
   861.7500     31.2186     23.8323     33.4151     65.6080
   862.0000     31.6472     23.6450     33.7585     57.9370
   862.2500     32.0438     23.4161     34.0249     53.3775
   862.5000     32.4318     23.1496     34.2977     48.3669
   862.7500     32.8254     22.8472     34.6341     46.4706
   863.0000     33.1956     22.5123     35.0409     45.9685
   863.2500     33.4870     22.1561     35.4794     47.2345
   863.5000     33.6671     21.7988     35.8927     50.9496
   863.7500     33.7436     21.4617     36.2380     53.7243
   864.0000     33.7407     21.1569     36.5025     56.5641
   864.2500     33.6719     20.8854     36.6977     57.1197
   864.5000     33.5473     20.6436     36.8442     56.4543
   864.7500     33.3936     20.4334     36.9559     55.6012
   865.0000     33.2401     20.2649     37.0259     54.4181
   865.2500     33.1058     20.1529     37.0262     53.9064
   865.5000     33.0128     20.1082     36.9308     53.8084
   865.7500     32.9847     20.1316     36.7552     54.2482
   866.0000     33.0301     20.2125     36.5696     55.3981
   866.2500     33.1433     20.3328     36.4622     56.1241
   866.5000     33.3126     20.4737     36.4795     56.5492
   866.7500     33.5048     20.6208     36.5946     56.3784
   867.0000     33.6621     20.7675     36.7279     56.2432
   867.2500     33.7752     20.9153     36.8034     56.8452
   867.5000     33.9273     21.0709     36.7979     59.0367
   867.7500     34.1882     21.2412     36.7505     60.8823
   868.0000     34.5209     21.4283     36.7292     63.2426
   868.2500     34.8305     21.6279     36.7876     64.4004
   868.5000     35.0444     21.8290     36.9396     65.9018
   868.7500     35.1431     22.0153     37.1620     66.8995
   869.0000     35.1526     22.1671     37.4160     68.1947
   869.2500     35.1236     22.2646     37.6657     68.7182
   869.5000     35.0995     22.2922     37.8826     68.7584
   869.7500     35.0822     22.2455     38.0311     68.2028
   870.0000     35.0262     22.1359     38.0517     66.5256
   870.2500     34.8726     21.9911     37.8622     65.0997
   870.5000     34.5909     21.8460     37.3935     63.3049
   870.7500     34.2041     21.7309     36.6515     62.7871
   871.0000     33.7803     21.6610     35.7533     63.3711
   871.2500     33.3886     21.6314     34.8987     64.5617
   871.5000     33.0500     21.6219     34.2940     66.9126
   871.7500     32.7289     21.6079     34.0749     68.3657
   872.0000     32.3849     21.5741     34.2543     69.8215
   872.2500     32.0203     21.5209     34.6936     70.2955
   872.5000     31.6644     21.4615     35.1246     70.5106
   872.7500     31.3397     21.4147     35.2636     70.4874
   873.0000     31.0612     21.3964     34.9819     70.5500
   873.2500     30.8484     21.4131     34.3798     70.8198
   873.5000     30.7211     21.4580     33.6779     71.3335
   873.7500     30.6842     21.5143     33.0498     71.3279
   874.0000     30.7254     21.5673     32.5431     70.4013
   874.2500     30.8275     21.6168     32.1143     69.4995
   874.5000     30.9880     21.6797     31.7204     68.8344
   874.7500     31.2168     21.7766     31.3966     69.2050
   875.0000     31.5160     21.9171     31.2678     70.5827
   875.2500     31.8768     22.0942     31.4848     71.5987
