~Version Information
VERS.                      2.0: CWLS Log ASCII Standard - VERSION 2.0
WRAP.                       NO: One line per depth step
~Well Information Block
STRT.FT               375.0000: 
STOP.FT              2637.2500: 
STEP.FT                 0.2500: 
NULL.                -999.2500: 
COMP.          Pioneer Natural Resources: COMPANY
WELL.            Cortina 23-25: WELL
FLD.           Purgatoire River: FIELD
LOC.           2344' FWL & 2526' FSL----: LOCATION
PROV.                 Colorado: PROVINCE
CNTY.               Las Animas: COUNTRY
SRVC.                Patterson: SERVICE COMPANY
DATE.          Wed Mar 23 19:09:49 2005: LOG DATE
UWI.           05 071 08340 00: UNIQUE WELL ID
~Curve Information Block
DEPT.FT            0 000 00 00: Depth
DIR.Ohm-m                     : IEL Induction Resistivity
SN.Ohm-m                      : IEL Short Normal
SP.mV                         : IEL Spontaneous Potential
GR.GAPI                       : Gamma Ray
~Parameter Information Block
~A  Depth       DIR          SN          SP          GR     
# ...
   978.0000      9.4605   2000.0000   2000.0000    135.9326
   978.2500      9.4952   2000.0000   2000.0000    134.7102
   978.5000      9.5959   2000.0000   2000.0000    130.5601
   978.7500      9.7545   2000.0000   2000.0000    126.6684
   979.0000      9.9556   2000.0000   2000.0000    120.7553
   979.2500     10.1792   2000.0000   2000.0000    117.4823
   979.5000     10.4052   2000.0000   2000.0000    113.9132
   979.7500     10.6192   2000.0000   2000.0000    112.2791
   980.0000     10.8160   2000.0000   2000.0000    110.4781
   980.2500     11.0001   2000.0000   2000.0000    109.4832
   980.5000     11.1813   2000.0000   2000.0000    108.3310
   980.7500     11.3682   2000.0000   2000.0000    108.0453
   981.0000     11.5637   2000.0000   2000.0000    108.6195
   981.2500     11.7673   2000.0000   2000.0000    109.5073
   981.5000     11.9790   2000.0000   2000.0000    111.0218
   981.7500     12.2030   2000.0000   2000.0000    111.9203
   982.0000     12.4450   2000.0000   2000.0000    112.9184
   982.2500     12.7062   2000.0000   2000.0000    113.2732
   982.5000     12.9764   2000.0000   2000.0000    113.3394
   982.7500     13.2326   2000.0000   2000.0000    113.2134
   983.0000     13.4436   2000.0000   2000.0000    112.9506
   983.2500     13.5797   2000.0000   2000.0000    112.6599
   983.5000     13.6252   2000.0000   2000.0000    112.0879
   983.7500     13.5833   2000.0000   2000.0000    112.0587
   984.0000     13.4723   2000.0000   2000.0000    113.6974
   984.2500     13.3153   2000.0000   2000.0000    116.1871
   984.5000     13.1335   2000.0000   2000.0000    121.1882
   984.7500     12.9434   2000.0000   2000.0000    124.4450
   985.0000     12.7596   2000.0000   2000.0000    127.7458
   985.2500     12.5985   2000.0000   2000.0000    128.2617
   985.5000     12.4793   2000.0000   2000.0000    126.0097
   985.7500     12.4223   2000.0000   2000.0000    122.8067
   986.0000     12.4465   2000.0000   2000.0000    117.0301
   986.2500     12.5670   2000.0000   2000.0000    113.4318
   986.5000     12.7934   2000.0000   2000.0000    108.6790
   986.7500     13.1280   2000.0000   2000.0000    105.4385
   987.0000     13.5634   2000.0000   2000.0000     99.7251
   987.2500     14.0825   2000.0000   2000.0000     95.4174
   987.5000     14.6598   2000.0000   2000.0000     89.0398
   987.7500     15.2672   2000.0000   2000.0000     85.4978
   988.0000     15.8791   2000.0000   2000.0000     82.1687
   988.2500     16.4758   2000.0000   2000.0000     81.4393
   988.5000     17.0422   2000.0000   2000.0000     82.2036
   988.7500     17.5643   2000.0000   2000.0000     83.6085
   989.0000     18.0295   2000.0000   2000.0000     86.5926
   989.2500     18.4303   2000.0000   2000.0000     88.8451
   989.5000     18.7705   2000.0000   2000.0000     91.6844
   989.7500     19.0661   2000.0000   2000.0000     92.6286
   990.0000     19.3404   2000.0000   2000.0000     92.2807
   990.2500     19.6147   2000.0000   2000.0000     91.2176
   990.5000     19.9017   2000.0000   2000.0000     89.3213
   990.7500     20.2051   2000.0000   2000.0000     88.2133
   991.0000     20.5250   2000.0000   2000.0000     86.8638
   991.2500     20.8603   2000.0000   2000.0000     86.1209
   991.5000     21.2061   2000.0000   2000.0000     85.5637
   991.7500     21.5452   2000.0000   2000.0000     86.0373
   992.0000     21.8440   2000.0000   2000.0000     88.5111
   992.2500     22.0575   2000.0000   2000.0000     90.9357
   992.5000     22.1442   2000.0000   2000.0000     94.1159
   992.7500     22.0812   2000.0000   2000.0000     95.1776
   993.0000     21.8728   2000.0000   2000.0000     95.2904
   993.2500     21.5500   2000.0000   2000.0000     95.2181
   993.5000     21.1639   2000.0000   2000.0000     96.7264
   993.7500     20.7719   2000.0000   2000.0000     99.4859
   994.0000     20.4213   2000.0000   2000.0000    105.8263
   994.2500     20.1329   2000.0000   2000.0000    110.2568
   994.5000     19.8953   2000.0000   2000.0000    114.2525
   994.7500     19.6717   2000.0000   2000.0000    113.8872
   995.0000     19.4197   2000.0000   2000.0000    108.8185
   995.2500     19.1122   2000.0000   2000.0000    103.7781
   995.5000     18.7505   2000.0000   2000.0000     97.0682
   995.7500     18.3597   2000.0000   2000.0000     94.6995
   996.0000     17.9708   2000.0000   2000.0000     95.0375
   996.2500     17.6042   2000.0000   2000.0000     97.3438
   996.5000     17.2644   2000.0000   2000.0000    102.7401
   996.7500     16.9462   2000.0000   2000.0000    107.2023
   997.0000     16.6429   2000.0000   2000.0000    114.5407
   997.2500     16.3515   2000.0000   2000.0000    119.1516
   997.5000     16.0722   2000.0000   2000.0000    123.8914
   997.7500     15.8076   2000.0000   2000.0000    124.6739
   998.0000     15.5633   2000.0000   2000.0000    121.9189
   998.2500     15.3482   2000.0000   2000.0000    118.3727
   998.5000     15.1735   2000.0000   2000.0000    113.4972
   998.7500     15.0482   2000.0000   2000.0000    112.1977
   999.0000     14.9744   2000.0000   2000.0000    114.0922
   999.2500     14.9454   2000.0000   2000.0000    117.1064
   999.5000     14.9458   2000.0000   2000.0000    121.5769
   999.7500     14.9521   2000.0000   2000.0000    123.1028
  1000.0000     14.9360   2000.0000   2000.0000    122.2785
  1000.2500     14.8700   2000.0000   2000.0000    120.1073
  1000.5000     14.7382   2000.0000   2000.0000    116.1700
  1000.7500     14.5451   2000.0000   2000.0000    114.1138
  1001.0000     14.3155   2000.0000   2000.0000    113.0003
  1001.2500     14.0839   2000.0000   2000.0000    113.8245
  1001.5000     13.8789   2000.0000   2000.0000    117.2565
  1001.7500     13.7128   2000.0000   2000.0000    120.6009
  1002.0000     13.5802   2000.0000   2000.0000    126.3246
  1002.2500     13.4647   2000.0000   2000.0000    130.3466
  1002.5000     13.3491   2000.0000   2000.0000    136.6293
  1002.7500     13.2259   2000.0000   2000.0000    140.6322
  1003.0000     13.1026   2000.0000   2000.0000    144.6382
  1003.2500     12.9997   2000.0000   2000.0000    144.9041
  1003.5000     12.9444   2000.0000   2000.0000    141.5653
  1003.7500     12.9615   2000.0000   2000.0000    138.0798
  1004.0000     13.0686   2000.0000   2000.0000    133.9085
  1004.2500     13.2739   2000.0000   2000.0000    132.8335
  1004.5000     13.5776   2000.0000   2000.0000    133.0397
  1004.7500     13.9730   2000.0000   2000.0000    132.8691
  1005.0000     14.4479   2000.0000   2000.0000    129.5893
  1005.2500     14.9855   2000.0000   2000.0000    124.8483
  1005.5000     15.5676   2000.0000   2000.0000    115.0872
  1005.7500     16.1787   2000.0000   2000.0000    108.2261
  1006.0000     16.8091   2000.0000   2000.0000     99.5704
  1006.2500     17.4555   2000.0000   2000.0000     95.4382
  1006.5000     18.1187   2000.0000   2000.0000     91.4237
  1006.7500     18.7983   2000.0000   2000.0000     89.8117
  1007.0000     19.4882   2000.0000   2000.0000     88.8319
  1007.2500     20.1722   2000.0000   2000.0000     89.3222
  1007.5000     20.8201   2000.0000   2000.0000     91.4751
  1007.7500     21.3880   2000.0000   2000.0000     92.9265
  1008.0000     21.8265   2000.0000   2000.0000     93.3065
  1008.2500     22.0976   2000.0000   2000.0000     92.1989
  1008.5000     22.1883   2000.0000   2000.0000     90.0174
  1008.7500     22.1083   2000.0000   2000.0000     89.2448
  1009.0000     21.8732   2000.0000   2000.0000     89.7662
  1009.2500     21.4917   2000.0000   2000.0000     91.1069
  1009.5000     20.9696   2000.0000   2000.0000     94.2139
  1009.7500     20.3233   2000.0000   2000.0000     96.8035
  1010.0000     19.5859   2000.0000   2000.0000    101.1237
  1010.2500     18.7988   2000.0000   2000.0000    104.1787
  1010.5000     18.0010   2000.0000   2000.0000    109.0033
  1010.7500     17.2259   2000.0000   2000.0000    112.3458
  1011.0000     16.5038   2000.0000   2000.0000    117.1098
  1011.2500     15.8607   2000.0000   2000.0000    119.6604
