~Version Information
 VERS.                      2.0: CWLS Log ASCII Standard - VERSION 2.0
 WRAP.                       NO: One line per depth step
 ~Well Information Block
 STRT.FT               465.6000: 
 STOP.FT              1777.2000: 
 STEP.FT                 0.1000: 
 NULL.                -999.2500: 
 COMP.          Petrogulf Corporation: COMPANY
 WELL.          Alexander 9-43R: WELL
 FLD.           Purgatorie River: FIELD
 LOC.           1652' FSL & 1049' FEL: LOCATION
 CNTY.               Las Animas: COUNTY
 SRVC.                         : SERVICE COMPANY
 DATE.          Fri Sep 03 15:08:45 2004: LOG DATE
 UWI.           05 071 08036 00: UNIQUE WELL ID
 STAT.                 Colorado: STATE
 PROV.                         :Province
 ~Curve Information Block
 DEPT.FT            0 000 00 00: Depth
 DCAL.in                       : CDL Caliper
 RHOB.g/cc                     : CDL Bulk Density
 RHOC.g/cc                     : CDL Density Correction
 DPOR.pu                       : CDL Density Porosity
 GR.GAPI                       : Gamma Ray
 NPOR.pu                       : Neutron Porosity
 ~Parameter Information Block
 ~A  Depth       DCAL        RHOB        RHOC        DPOR         GR         NPOR    
# ...
  1166.4000      8.1167      2.4810      0.1410     10.2438    114.7355     27.8373
  1166.5000      8.1131      2.5082      0.0906      8.5916    118.4843     27.4975
  1166.6000      8.1131      2.5315      0.1185      7.1844    115.8610     26.7117
  1166.7000      8.1131      2.5560      0.1109      5.6992    108.9754     26.0423
  1166.8000      8.0876      2.5708      0.1278      4.8019    106.3210     25.8707
  1166.9000      8.0876      2.5716      0.0702      4.7485    112.0415     26.2523
  1167.0000      8.0885      2.5717      0.0495      4.7465    115.3172     26.7537
  1167.1000      8.0885      2.5743      0.0758      4.5905    106.5852     26.8641
  1167.2000      8.0885      2.5685      0.0429      4.9374     96.0037     26.8222
  1167.3000      8.0823      2.5585      0.0199      5.5437     95.4400     26.9362
  1167.4000      8.0823      2.5653      0.0250      5.1351    101.9944     26.9064
  1167.5000      8.0770      2.5883      0.0507      3.7372    109.8584     26.6643
  1167.6000      8.0770      2.5965      0.0537      3.2427    117.9477     26.5967
  1167.7000      8.0770      2.5801      0.0241      4.2383    123.6683     26.8041
  1167.8000      8.0790      2.5628      0.0394      5.2824    125.7943     27.0500
  1167.9000      8.0790      2.5582      0.0330      5.5616    124.6648     27.2150
  1168.0000      8.0846      2.5630      0.0146      5.2754    119.0632     27.3776
  1168.1000      8.0846      2.5753      0.0030      4.5258    114.0065     27.8118
  1168.2000      8.0846      2.5870      0.0502      3.8166    113.4586     28.6111
  1168.3000      8.1055      2.5913      0.0105      3.5554    114.9203     29.2798
  1168.4000      8.1055      2.5947      0.0418      3.3489    119.5967     29.2841
  1168.5000      8.1025      2.5936      0.1022      3.4158    127.5557     28.9709
  1168.6000      8.1025      2.5772      0.0311      4.4100    132.7271     29.0376
  1168.7000      8.1025      2.5553      0.0108      5.7423    134.0843     29.4389
  1168.8000      8.0883      2.5325      0.0562      7.1184    136.5967     29.6310
  1168.9000      8.0883      2.4969     -0.0368      9.2760    140.0849     29.0992
  1169.0000      8.0964      2.4556     -0.0518     11.7809    142.4506     27.8848
  1169.1000      8.0964      2.4273     -0.0471     13.4990    146.2254     26.7665
  1169.2000      8.0964      2.4213     -0.0938     13.8617    151.0447     26.4576
  1169.3000      8.0816      2.4321      0.0033     13.2062    152.2029     26.9736
  1169.4000      8.0816      2.4391      0.0139     12.7833    149.3054     27.8572
  1169.5000      8.0788      2.4362      0.0138     12.9547    146.4700     28.3983
  1169.6000      8.0788      2.4359      0.0495     12.9749    143.5245     28.1703
  1169.7000      8.0788      2.4364      0.1085     12.9468    138.6395     27.4918
  1169.8000      8.0617      2.4359      0.0400     12.9773    136.5477     27.0150
  1169.9000      8.0617      2.4575      0.0804     11.6659    139.5060     27.1398
  1170.0000      8.0603      2.5099      0.1466      8.4933    141.3071     27.6161
  1170.1000      8.0603      2.5724      0.1556      4.7000    138.9689     27.9576
  1170.2000      8.0603      2.6287      0.2049      1.2930    133.9564     28.0187
  1170.3000      8.0509      2.6642      0.2164     -0.8587    125.6454     27.9094
  1170.4000      8.0509      2.6608      0.1914     -0.6526    117.2786     27.7532
  1170.5000      8.0525      2.6237      0.1563      1.5943    115.1855     27.5925
  1170.6000      8.0525      2.5907      0.0699      3.5929    116.7010     27.5447
  1170.7000      8.0525      2.5844      0.0829      3.9756    114.8220     27.5198
  1170.8000      8.0541      2.5820      0.1188      4.1199    114.1566     27.2809
  1170.9000      8.0541      2.5603      0.0409      5.4343    118.7484     26.7373
  1171.0000      8.0653      2.5288      0.0132      7.3443    120.9557     25.9831
  1171.1000      8.0653      2.5100     -0.0164      8.4822    120.0028     25.1051
  1171.2000      8.0653      2.5124      0.0398      8.3391    121.9437     24.1400
  1171.3000      8.0814      2.5184      0.0272      7.9750    125.1324     23.3899
  1171.4000      8.0814      2.5121      0.0203      8.3579    125.1632     23.2213
  1171.5000      8.0801      2.4969      0.0452      9.2770    125.6309     23.6031
  1171.6000      8.0801      2.4794      0.0491     10.3383    130.3640     24.1527
  1171.7000      8.0801      2.4639      0.0696     11.2782    137.8159     24.3537
  1171.8000      8.0764      2.4607      0.0403     11.4699    144.5660     23.9439
  1171.9000      8.0764      2.4787      0.0718     10.3834    146.7730     23.1167
  1172.0000      8.0806      2.4990      0.1604      9.1514    147.1914     22.0324
  1172.1000      8.0806      2.4808      0.1328     10.2547    151.4207     20.8878
  1172.2000      8.0806      2.4029      0.1000     14.9757    155.0115     19.9677
  1172.3000      8.0917      2.2874      0.0119     21.9729    153.0430     19.2120
  1172.4000      8.0917      2.1729      0.0320     28.9164    148.7652     18.4606
  1172.5000      8.0979      2.0662      0.0245     35.3816    144.7937     17.8322
  1172.6000      8.0979      1.9691     -0.0354     41.2643    138.1898     17.6114
  1172.7000      8.0979      1.9196     -0.0709     44.2686    126.5339     17.8947
  1172.8000      8.1031      1.9455      0.0297     42.6996    114.9998     18.6379
  1172.9000      8.1031      2.0250      0.1189     37.8810    108.9093     19.6876
  1173.0000      8.1049      2.1216      0.2367     32.0228    106.5576     20.9223
  1173.1000      8.1049      2.2193      0.2861     26.1052    105.6085     22.2158
  1173.2000      8.1049      2.3200      0.3787     19.9982    105.5392     23.2494
  1173.3000      8.1016      2.4289      0.4379     13.3974    105.2884     23.7553
  1173.4000      8.1016      2.5343      0.4262      7.0129    105.1509     23.9507
  1173.5000      8.1194      2.5967      0.4259      3.2299    107.7323     24.3582
  1173.6000      8.1194      2.5959      0.2291      3.2778    113.4410     25.0842
  1173.7000      8.1194      2.5752      0.0933      4.5330    116.8248     25.8295
  1173.8000      8.1835      2.5803      0.0947      4.2270    114.8235     26.2969
  1173.9000      8.1835      2.6001      0.1265      3.0256    113.3534     26.3755
  1174.0000      8.1219      2.6079      0.0316      2.5505    115.8198     26.1386
  1174.1000      8.1219      2.6008      0.0715      2.9810    116.8000     25.6759
  1174.2000      8.1219      2.5754      0.0676      4.5191    111.7998     25.0499
  1174.3000      8.1286      2.5326      0.0560      7.1173    104.8080     24.3663
  1174.4000      8.1286      2.4947     -0.0035      9.4113    101.7346     23.8659
  1174.5000      8.1193      2.4819      0.0018     10.1853    101.1126     23.5905
  1174.6000      8.1193      2.4925     -0.0342      9.5460     99.5665     23.3842
  1174.7000      8.1193      2.5183     -0.0061      7.9820     96.3492     23.3353
  1174.8000      8.0905      2.5479      0.0551      6.1898     91.9260     23.1983
  1174.9000      8.0905      2.5631      0.0812      5.2694     86.7126     22.5234
  1175.0000      8.0741      2.5611      0.0535      5.3866     81.3719     21.6635
  1175.1000      8.0741      2.5578      0.0449      5.5869     78.7263     21.1873
  1175.2000      8.0741      2.5554      0.0826      5.7358     78.3460     21.2120
  1175.3000      8.0720      2.5453      0.0547      6.3459     76.4963     21.6792
  1175.4000      8.0720      2.5330      0.0308      7.0882     73.6407     22.2463
  1175.5000      8.0693      2.5228      0.0494      7.7086     72.4993     22.4423
  1175.6000      8.0693      2.5176     -0.0380      8.0237     73.1875     22.2128
  1175.7000      8.0693      2.5252      0.0284      7.5623     75.4351     21.7774
  1175.8000      8.0712      2.5313      0.0720      7.1952     78.0349     21.2964
  1175.9000      8.0712      2.5230     -0.0065      7.6962     80.2680     21.0815
