~Version Information
VERS.                      2.0: CWLS Log ASCII Standard - VERSION 2.0
WRAP.                       NO: One line per depth step
~Well Information Block
STRT.FT               -14.5000: 
STOP.FT              2676.5000: 
STEP.FT                 0.1000: 
NULL.                -999.2500: 
COMP.          Petrogulf Corporation: COMPANY
WELL.          Latiluppe 8-13V: WELL
FLD.           Purgatorie River: FIELD
LOC.           1069' FWL & 1647' FSL: LOCATION
CNTY.               Las Animas: COUNTY
SRVC.                         : SERVICE COMPANY
DATE.          Tue Nov 18 16:12:50 2003: LOG DATE
UWI.                          : UNIQUE WELL ID
STAT.                 Colorado: STATE
~Curve Information Block
DEPT.FT            0 000 00 00: Depth
CCL.                          : Casing Collar Locator
TT3.usec                      : CBL 3' Travel Time
AMP3.mV                       : CBL 3' Amplitude
GR.GAPI                       : Gamma Ray
~Parameter Information Block
~A  Depth       CCL         TT3         AMP3         GR     
# ...
   521.5000      0.0000    847.1343      3.3184    103.3720
   521.6000      0.0000    847.1343      3.3184    103.3720
   521.7000      0.0000    847.1343      3.3184    103.3720
   521.8000      0.0000    857.7062      3.3817    103.5682
   521.9000      0.0000    857.7062      3.3817    103.5682
   522.0000      0.0000    865.4130      3.4271    103.3673
   522.1000      0.0000    865.4130      3.4271    103.3673
   522.2000      0.0000    865.4130      3.4271    103.3673
   522.3000      0.0000    869.3683      3.4868    102.7620
   522.4000      0.0000    869.3683      3.4868    102.7620
   522.5000      0.0000    868.9506      3.5883    101.9109
   522.6000      0.0000    868.9506      3.5883    101.9109
   522.7000      0.0000    868.9506      3.5883    101.9109
   522.8000      0.0000    863.1102      3.7347    101.1684
   522.9000      0.0000    863.1102      3.7347    101.1684
   523.0000      0.0000    851.6115      3.8969    100.9922
   523.1000      0.0000    851.6115      3.8969    100.9922
   523.2000      0.0000    851.6115      3.8969    100.9922
   523.3000      0.0000    836.3411      4.0265    101.6460
   523.4000      0.0000    836.3411      4.0265    101.6460
   523.5000      0.0000    820.9360      4.0900    102.6832
   523.6000      0.0000    820.9360      4.0900    102.6832
   523.7000      0.0000    820.9360      4.0900    102.6832
   523.8000      0.0000    809.3409      4.0955    102.6827
   523.9000      0.0000    809.3409      4.0955    102.6827
   524.0000      0.0000    803.7010      4.0819    100.0963
   524.1000      0.0000    803.7010      4.0819    100.0963
   524.2000      0.0000    803.7010      4.0819    100.0963
   524.3000      0.0000    802.4240      4.0869     94.8703
   524.4000      0.0000    802.4240      4.0869     94.8703
   524.5000      0.0000    801.0070      4.1223     88.9014
   524.6000      0.0000    801.0070      4.1223     88.9014
   524.7000      0.0000    801.0070      4.1223     88.9014
   524.8000      0.0000    796.3425      4.1736     84.3040
   524.9000      0.0000    796.3425      4.1736     84.3040
   525.0000      0.0000    789.6367      4.2192     81.3315
   525.1000      0.0000    789.6367      4.2192     81.3315
   525.2000      0.0000    789.6367      4.2192     81.3315
   525.3000      0.0000    784.2486      4.2483     78.4659
   525.4000      0.0000    784.2486      4.2483     78.4659
   525.5000      0.0000    781.7739      4.2618     74.4417
   525.6000      0.0000    781.7739      4.2618     74.4417
   525.7000      0.0000    781.7739      4.2618     74.4417
   525.8000      0.0000    781.3268      4.2609     69.6392
   525.9000      0.0000    781.3268      4.2609     69.6392
   526.0000      0.0000    781.5516      4.2403     65.4821
   526.1000      0.0000    781.5516      4.2403     65.4821
   526.2000      0.0000    781.5516      4.2403     65.4821
   526.3000      0.0000    782.0985      4.1955     63.1051
   526.4000      0.0000    782.0985      4.1955     63.1051
   526.5000      0.0000    783.3781      4.1335     62.7742
   526.6000      0.0000    783.3781      4.1335     62.7742
   526.7000      0.0000    783.3781      4.1335     62.7742
   526.8000      0.0000    785.4422      4.0753     64.0456
   526.9000      0.0000    785.4422      4.0753     64.0456
   527.0000      0.0000    786.7466      4.0433     66.0313
   527.1000      0.0000    786.7466      4.0433     66.0313
   527.2000      0.0000    786.7466      4.0433     66.0313
   527.3000      0.0000    783.7476      4.0418     67.7353
   527.4000      0.0000    783.7476      4.0418     67.7353
   527.5000      0.0000    772.2613      4.0528     68.6896
   527.6000      0.0000    772.2613      4.0528     68.6896
   527.7000      0.0000    772.2613      4.0528     68.6896
   527.8000      0.0000    750.1362      4.0556     69.4625
   527.9000      0.0000    750.1362      4.0556     69.4625
   528.0000      0.0000    719.4863      4.0469     71.3872
   528.1000      0.0000    719.4863      4.0469     71.3872
   528.2000      0.0000    719.4863      4.0469     71.3872
   528.3000      0.0000    687.6850      4.0385     75.7058
   528.4000      0.0000    687.6850      4.0385     75.7058
   528.5000      0.0000    665.8893      4.0408     82.8870
   528.6000      0.0000    665.8893      4.0408     82.8870
   528.7000      0.0000    665.8893      4.0408     82.8870
   528.8000      0.0000    663.6022      4.0508     92.2692
   528.9000      0.0000    663.6022      4.0508     92.2692
   529.0000      0.0000    682.2268      4.0541    101.8498
   529.1000      0.0000    682.2268      4.0541    101.8498
   529.2000      0.0000    682.2268      4.0541    101.8498
   529.3000      0.0000    714.5264      4.0344    108.7678
   529.4000      0.0000    714.5264      4.0344    108.7678
   529.5000      0.0000    750.4930      3.9830    110.7933
   529.6000      0.0000    750.4930      3.9830    110.7933
   529.7000      0.0000    750.4930      3.9830    110.7933
   529.8000      0.0000    782.6226      3.9043    107.6213
   529.9000      0.0000    782.6226      3.9043    107.6213
   530.0000      0.0000    806.8876      3.8130    100.8237
   530.1000      0.0000    806.8876      3.8130    100.8237
   530.2000      0.0000    806.8876      3.8130    100.8237
   530.3000      0.0000    822.0427      3.7299     93.0050
   530.4000      0.0000    822.0427      3.7299     93.0050
   530.5000      0.0000    828.9777      3.6750     86.9785
   530.6000      0.0000    828.9777      3.6750     86.9785
   530.7000      0.0000    828.9777      3.6750     86.9785
   530.8000      0.0000    829.2858      3.6600     84.9053
   530.9000      0.0000    829.2858      3.6600     84.9053
   531.0000      0.0000    823.8374      3.6863     87.4247
   531.1000      0.0000    823.8374      3.6863     87.4247
   531.2000      0.0000    823.8374      3.6863     87.4247
   531.3000      0.0000    812.5951      3.7560     93.3894
   531.4000      0.0000    812.5951      3.7560     93.3894
   531.5000      0.0000    794.4269      3.8812    100.5296
   531.6000      0.0000    794.4269      3.8812    100.5296
   531.7000      0.0000    794.4269      3.8812    100.5296
   531.8000      0.0000    766.8021      4.0721    106.6423
   531.9000      0.0000    766.8021      4.0721    106.6423
   532.0000      0.0000    727.9921      4.3108    110.7082
   532.1000      0.0000    727.9921      4.3108    110.7082
   532.2000      0.0000    727.9921      4.3108    110.7082
   532.3000      0.0000    681.6865      4.5450    113.2760
   532.4000      0.0000    681.6865      4.5450    113.2760
   532.5000      0.0000    639.1540      4.7144    115.6988
   532.6000      0.0000    639.1540      4.7144    115.6988
   532.7000      0.0000    639.1540      4.7144    115.6988
   532.8000      0.0000    615.0468      4.7792    118.8156
   532.9000      0.0000    615.0468      4.7792    118.8156
   533.0000      0.0000    618.0618      4.7319    122.2067
   533.1000      0.0000    618.0618      4.7319    122.2067
   533.2000      0.0000    618.0618      4.7319    122.2067
   533.3000      0.0000    643.0685      4.5953    124.3966
   533.4000      0.0000    643.0685      4.5953    124.3966
   533.5000      0.0000    672.3738      4.4138    123.7910
   533.6000      0.0000    672.3738      4.4138    123.7910
   533.7000      0.0000    672.3738      4.4138    123.7910
   533.8000      0.0000    687.2670      4.2377    120.0906
   533.9000      0.0000    687.2670      4.2377    120.0906
   534.0000      0.0000    680.0090      4.1063    115.1032
   534.1000      0.0000    680.0090      4.1063    115.1032
   534.2000      0.0000    680.0090      4.1063    115.1032
   534.3000      0.0000    655.8209      4.0361    111.6274
   534.4000      0.0000    655.8209      4.0361    111.6274
   534.5000      0.0000    626.6457      4.0198    111.0939
   534.6000      0.0000    626.6457      4.0198    111.0939
   534.7000      0.0000    626.6457      4.0198    111.0939
   534.8000      0.0000    604.9110      4.0319    112.5260
