~Version Information
VERS.                      2.0: CWLS Log ASCII Standard - VERSION 2.0
WRAP.                       NO: One line per depth step
~Well Information Block
STRT.FT               588.6000: 
STOP.FT              2281.0000: 
STEP.FT                 0.1000: 
NULL.                -999.2500: 
COMP.          Petrogulf Corporation: COMPANY
WELL.             State 16-41V: WELL
FLD.           Purgatorie River: FIELD
LOC.           335' FNL & 823' FEL: LOCATION
CNTY.               Las Animas: COUNTY
SRVC.                         : SERVICE COMPANY
DATE.          Tue Aug 02 07:31:25 2005: LOG DATE
UWI.                          : UNIQUE WELL ID
STAT.                 Colorado: STATE
~Curve Information Block
DEPT.FT            0 000 00 00: Depth
DCAL.in                       : CDL Caliper
RHOB.g/cc                     : CDL Bulk Density
RHOC.g/cc                     : CDL Density Correction
DPOR.pu                       : CDL Density Porosity
GR.GAPI                       : Gamma Ray
NPOR.pu                       : Neutron Porosity
~Parameter Information Block
~A  Depth       DCAL        RHOB        RHOC        DPOR         GR         NPOR    
# ...
  2239.8000      7.9264      2.5755      0.0511      4.5179     65.6360     66.3145
  2239.9000      7.9264      2.5920      0.0859      3.5143     64.0656     66.3257
  2240.0000      7.9198      2.6060      0.0808      2.6649     62.8294     66.3322
  2240.1000      7.9198      2.6036      0.0766      2.8126     61.4045     66.3359
  2240.2000      7.9198      2.5949      0.0525      3.3372     59.9646     66.3378
  2240.3000      7.8754      2.5919      0.0453      3.5240     59.2525     66.3388
  2240.4000      7.8754      2.5937      0.0665      3.4142     58.7177     66.3394
  2240.5000      7.9193      2.5984      0.0671      3.1261     59.5540     66.3396
  2240.6000      7.9193      2.6062      0.0800      2.6551     62.5849     66.3397
  2240.7000      7.9193      2.6142      0.0600      2.1681     64.7554   -999.2500
  2240.8000      7.9377      2.6158      0.1263      2.0735     64.1087   -999.2500
  2240.9000      7.9377      2.6065      0.0873      2.6380     64.0743   -999.2500
  2241.0000      7.9054      2.5972      0.0658      3.2022     66.5107   -999.2500
  2241.1000      7.9054      2.5998      0.0645      3.0402     68.1196   -999.2500
  2241.2000      7.9054      2.6059      0.1089      2.6754     68.3981   -999.2500
  2241.3000      7.9199      2.6001      0.0968      3.0254     70.2279   -999.2500
  2241.4000      7.9199      2.5873      0.0574      3.8002     72.6549   -999.2500
  2241.5000      7.8942      2.5837      0.0267      4.0189     73.8046   -999.2500
  2241.6000      7.8942      2.5897      0.0771      3.6565     75.6453   -999.2500
  2241.7000      7.8942      2.5898      0.0827      3.6503     78.8597   -999.2500
  2241.8000      7.9621      2.5772      0.0610      4.4091     80.0700   -999.2500
  2241.9000      7.9621      2.5620      0.0375      5.3320     78.0871   -999.2500
  2242.0000      7.9558      2.5560      0.0506      5.6977     76.0095   -999.2500
  2242.1000      7.9558      2.5606      0.0712      5.4179     74.9626   -999.2500
  2242.2000      7.9558      2.5730      0.0583      4.6675     75.1527   -999.2500
  2242.3000      7.9817      2.5905      0.0949      3.6052     78.4581   -999.2500
  2242.4000      7.9817      2.6041      0.0820      2.7814     83.7397   -999.2500
  2242.5000      7.9593      2.6016      0.1175      2.9319     86.7576   -999.2500
  2242.6000      7.9593      2.5831      0.1055      4.0554     86.3530   -999.2500
  2242.7000      7.9593      2.5671      0.0456      5.0232     84.2600   -999.2500
  2242.8000      7.9782      2.5671      0.0658      5.0269     81.5238   -999.2500
  2242.9000      7.9782      2.5743      0.0890      4.5882     79.9307   -999.2500
  2243.0000      7.9721      2.5774      0.0947      4.3977     80.1566   -999.2500
  2243.1000      7.9721      2.5765      0.1020      4.4546     80.2982   -999.2500
  2243.2000      7.9721      2.5796      0.0745      4.2673     80.5298   -999.2500
  2243.3000      7.9945      2.5888      0.1237      3.7073     83.2398   -999.2500
  2243.4000      7.9945      2.5932      0.1318      3.4438     87.0177   -999.2500
  2243.5000      7.9073      2.5871      0.1191      3.8142     87.2955   -999.2500
  2243.6000      7.9073      2.5800      0.0768      4.2430     83.5979   -999.2500
  2243.7000      7.9073      2.5809      0.1183      4.1850     79.8620   -999.2500
  2243.8000      7.8942      2.5846      0.1166      3.9607     78.3251   -999.2500
  2243.9000      7.8942      2.5813      0.0906      4.1642     78.2672   -999.2500
  2244.0000      7.9075      2.5685      0.0968      4.9410     77.9083   -999.2500
  2244.1000      7.9075      2.5525      0.0352      5.9097     72.6952   -999.2500
  2244.2000      7.9075      2.5406      0.0677      6.6281     55.4965   -999.2500
  2244.3000      7.9082      2.5276      0.0995      7.4205     29.4058   -999.2500
  2244.4000      7.9082      2.5146      0.0108      8.2070      9.5542   -999.2500
  2244.5000      7.9430      2.5206      0.0467      7.8448      1.7709   -999.2500
  2244.6000      7.9430      2.5457      0.1027      6.3193      0.1801   -999.2500
  2244.7000      7.9430      2.5686      0.0785      4.9359      0.0096   -999.2500
  2244.8000      7.9950      2.5748      0.0631      4.5595      0.0000   -999.2500
  2244.9000      7.9950      2.5629      0.0722      5.2816   -999.2500   -999.2500
  2245.0000      7.9913      2.5394      0.0685      6.7042   -999.2500   -999.2500
  2245.1000      7.9913      2.5229      0.0437      7.7032   -999.2500   -999.2500
  2245.2000      7.9913      2.5317      0.0586      7.1711   -999.2500   -999.2500
  2245.3000      8.0028      2.5570      0.1156      5.6361   -999.2500   -999.2500
  2245.4000      8.0028      2.5769      0.0592      4.4291   -999.2500   -999.2500
  2245.5000      7.9599      2.5864      0.0870      3.8571   -999.2500   -999.2500
  2245.6000      7.9599      2.5850      0.0968      3.9413   -999.2500   -999.2500
  2245.7000      7.9599      2.5716      0.0579      4.7523   -999.2500   -999.2500
  2245.8000      7.9633      2.5510      0.0786      6.0027   -999.2500   -999.2500
  2245.9000      7.9633      2.5307      0.0245      7.2323   -999.2500   -999.2500
  2246.0000      7.9492      2.5212      0.0573      7.8045   -999.2500   -999.2500
  2246.1000      7.9492      2.5283      0.0651      7.3735   -999.2500   -999.2500
  2246.2000      7.9492      2.5493      0.0821      6.1012   -999.2500   -999.2500
  2246.3000      7.9397      2.5731      0.0947      4.6587   -999.2500   -999.2500
  2246.4000      7.9397      2.5878      0.1383      3.7680   -999.2500   -999.2500
  2246.5000      7.9551      2.5913      0.1021      3.5589   -999.2500   -999.2500
  2246.6000      7.9551      2.5850      0.1162      3.9404   -999.2500   -999.2500
  2246.7000      7.9551      2.5715      0.0769      4.7564   -999.2500   -999.2500
  2246.8000      7.9926      2.5653      0.0478      5.1315   -999.2500   -999.2500
  2246.9000      7.9926      2.5784      0.0672      4.3417   -999.2500   -999.2500
  2247.0000      7.9978      2.6000      0.1083      3.0278   -999.2500   -999.2500
  2247.1000      7.9978      2.6126      0.1236      2.2686   -999.2500   -999.2500
  2247.2000      7.9978      2.6163      0.0804      2.0449   -999.2500   -999.2500
  2247.3000      7.9677      2.6225      0.0968      1.6647   -999.2500   -999.2500
  2247.4000      7.9677      2.6284      0.1106      1.3102   -999.2500   -999.2500
  2247.5000      7.9358      2.6244      0.0612      1.5530   -999.2500   -999.2500
  2247.6000      7.9358      2.6114      0.0564      2.3407   -999.2500   -999.2500
  2247.7000      7.9358      2.5952      0.0438      3.3204   -999.2500   -999.2500
  2247.8000      7.9646      2.5865      0.0266      3.8463   -999.2500   -999.2500
  2247.9000      7.9646      2.5926      0.0794      3.4763   -999.2500   -999.2500
  2248.0000      7.9719      2.6040      0.0788      2.7878   -999.2500   -999.2500
  2248.1000      7.9719      2.6089      0.0755      2.4900   -999.2500   -999.2500
  2248.2000      7.9719      2.6073      0.0625      2.5898   -999.2500   -999.2500
  2248.3000      7.9699      2.6044      0.0775      2.7636   -999.2500   -999.2500
  2248.4000      7.9699      2.6029      0.0836      2.8519   -999.2500   -999.2500
  2248.5000      7.9995      2.6034      0.0662      2.8262   -999.2500   -999.2500
  2248.6000      7.9995      2.6028      0.0877      2.8635   -999.2500   -999.2500
  2248.7000      7.9995      2.5957      0.0865      3.2916   -999.2500   -999.2500
  2248.8000      7.9370      2.5871      0.0522      3.8151   -999.2500   -999.2500
  2248.9000      7.9370      2.5837      0.1083      4.0152   -999.2500   -999.2500
  2249.0000      7.9078      2.5800      0.0982      4.2434   -999.2500   -999.2500
  2249.1000      7.9078      2.5739      0.0785      4.6103   -999.2500   -999.2500
  2249.2000      7.9078      2.5759      0.0676      4.4915   -999.2500   -999.2500
  2249.3000      7.9460      2.5921      0.0800      3.5113   -999.2500   -999.2500
