~Version Information
VERS.                      2.0: CWLS Log ASCII Standard - VERSION 2.0
WRAP.                       NO: One line per depth step
~Well Information Block
STRT.FT               732.2500: 
STOP.FT              2476.0000: 
STEP.FT                 0.2500: 
NULL.                -999.2500: 
COMP.          Petrogulf Corporation: COMPANY
WELL.            Montoya 7-14V: WELL
FLD.           Purgatorie River: FIELD
LOC.           535' FSL & 491' FWL: LOCATION
CNTY.               Las Animas: COUNTY
SRVC.                         : SERVICE COMPANY
DATE.          Mon Aug 23 05:51:43 2004: LOG DATE
UWI.           05 071 08019 00: UNIQUE WELL ID
STAT.                 Colorado: STATE
~Curve Information Block
DEPT.FT            0 000 00 00: Depth
SP.mV                         : DIL Spontaneous Potential
RILD.Ohm-m                    : DIL Deep Resistivity
RILM.Ohm-m                    : DIL Medium Resistivity
RLL3.Ohm-m                    : DIL Shallow Resistivity
GR.GAPI                       : Gamma Ray
~Parameter Information Block
~A  Depth        SP         RILD        RILM        RLL3         GR     
# ...
  2328.2500    -18.9248     13.2209     15.0304     19.0281     68.0222
  2328.5000    -19.1819     13.1899     14.8304     18.0241     74.3281
  2328.7500    -19.4131     13.2015     14.6893     16.7388     79.4265
  2329.0000    -19.6214     13.2536     14.6289     15.4518     86.9686
  2329.2500    -19.8147     13.3458     14.6619     14.5461     90.8049
  2329.5000    -20.0071     13.4790     14.7919     14.3641     93.2445
  2329.7500    -20.2174     13.6550     15.0138     15.0619     92.3906
  2330.0000    -20.4640     13.8760     15.3158     16.5381     87.9478
  2330.2500    -20.7567     14.1447     15.6814     18.4686     83.5394
  2330.5000    -21.0900     14.4630     16.0923     20.4303     75.9824
  2330.7500    -21.4422     14.8300     16.5318     22.0523     70.9596
  2331.0000    -21.7807     15.2407     16.9864     23.1260     64.5646
  2331.2500    -22.0724     15.6857     17.4465     23.6286     61.7407
  2331.5000    -22.2931     16.1534     17.9055     23.6724     60.3534
  2331.7500    -22.4334     16.6318     18.3574     23.4248     61.1070
  2332.0000    -22.4976     17.1119     18.7944     23.0462     63.3628
  2332.2500    -22.4989     17.5870     19.2058     22.6589     64.6151
  2332.5000    -22.4543     18.0511     19.5780     22.3396     64.9501
  2332.7500    -22.3794     18.4971     19.8967     22.1198     64.0393
  2333.0000    -22.2873     18.9151     20.1495     21.9940     61.5617
  2333.2500    -22.1883     19.2944     20.3289     21.9329     59.6682
  2333.5000    -22.0902     19.6252     20.4345     21.9003     57.2444
  2333.7500    -21.9994     19.9004     20.4725     21.8649     56.1950
  2334.0000    -21.9211     20.1154     20.4550     21.8080     55.4580
  2334.2500    -21.8588     20.2684     20.3968     21.7258     55.2542
  2334.5000    -21.8155     20.3609     20.3128     21.6297     54.8605
  2334.7500    -21.7927     20.3990     20.2156     21.5417     54.3343
  2335.0000    -21.7909     20.3952     20.1137     21.4858     53.0004
  2335.2500    -21.8095     20.3670     20.0114     21.4771     51.8407
  2335.5000    -21.8467     20.3350     19.9099     21.5143     50.2885
  2335.7500    -21.8995     20.3194     19.8087     21.5764     49.8952
  2336.0000    -21.9632     20.3355     19.7078     21.6239     51.0212
  2336.2500    -22.0318     20.3901     19.6084     21.6069     53.0116
  2336.5000    -22.0977     20.4799     19.5137     21.4822     57.1070
  2336.7500    -22.1525     20.5909     19.4278     21.2363     59.7062
  2337.0000    -22.1874     20.7018     19.3546     20.9026     61.9249
  2337.2500    -22.1941     20.7889     19.2969     20.5584     61.9105
  2337.5000    -22.1668     20.8320     19.2555     20.2969     60.2454
  2337.7500    -22.1035     20.8188     19.2293     20.1840     58.8242
  2338.0000    -22.0072     20.7487     19.2155     20.2249     57.2486
  2338.2500    -21.8856     20.6338     19.2100     20.3654     56.6631
  2338.5000    -21.7497     20.4966     19.2077     20.5331     56.1458
  2338.7500    -21.6115     20.3648     19.2025     20.6887     55.8867
  2339.0000    -21.4807     20.2628     19.1869     20.8495     55.4767
  2339.2500    -21.3623     20.2044     19.1530     21.0615     55.0270
  2339.5000    -21.2557     20.1883     19.0923     21.3429     53.8250
  2339.7500    -21.1553     20.1994     18.9972     21.6438     52.7891
  2340.0000    -21.0516     20.2138     18.8626     21.8583     51.4978
  2340.2500    -20.9347     20.2053     18.6864     21.8801     51.0092
  2340.5000    -20.7962     20.1517     18.4715     21.6602     50.6210
  2340.7500    -20.6312     20.0396     18.2249     21.2233     50.5512
  2341.0000    -20.4395     19.8676     17.9573     20.6365     51.3682
  2341.2500    -20.2254     19.6467     17.6814     19.9645     52.9814
  2341.5000    -19.9964     19.3984     17.4097     19.2479     57.0509
  2341.7500    -19.7626     19.1485     17.1529     18.5142     60.4492
  2342.0000    -19.5341     18.9193     16.9187     17.8006     65.6022
  2342.2500    -19.3203     18.7228     16.7108     17.1608     68.6020
  2342.5000    -19.1289     18.5579     16.5292     16.6541     72.1938
  2342.7500    -18.9651     18.4128     16.3710     16.3285     74.1946
  2343.0000    -18.8316     18.2711     16.2307     16.2085     76.9851
  2343.2500    -18.7292     18.1199     16.1021     16.2868     78.5550
  2343.5000    -18.6568     17.9545     15.9790     16.5191     79.6286
  2343.7500    -18.6116     17.7782     15.8564     16.8250     79.0621
  2344.0000    -18.5898     17.5996     15.7306     17.1064     76.4760
  2344.2500    -18.5865     17.4278     15.5998     17.2781     74.3275
  2344.5000    -18.5966     17.2698     15.4633     17.2965     72.0008
  2344.7500    -18.6146     17.1285     15.3216     17.1699     71.4892
  2345.0000    -18.6355     17.0020     15.1751     16.9431     71.8834
  2345.2500    -18.6549     16.8835     15.0247     16.6693     72.3038
  2345.5000    -18.6699     16.7635     14.8714     16.3868     72.1098
  2345.7500    -18.6790     16.6328     14.7166     16.1115     71.1112
  2346.0000    -18.6831     16.4868     14.5625     15.8440     68.6561
  2346.2500    -18.6845     16.3279     14.4119     15.5777     66.9637
  2346.5000    -18.6876     16.1647     14.2681     15.3033     65.1607
  2346.7500    -18.6972     16.0084     14.1346     15.0101     64.6210
  2347.0000    -18.7181     15.8695     14.0146     14.6913     64.9164
  2347.2500    -18.7538     15.7540     13.9106     14.3559     65.8845
  2347.5000    -18.8058     15.6638     13.8244     14.0382     68.1076
  2347.7500    -18.8723     15.5972     13.7567     13.7950     69.5112
  2348.0000    -18.9485     15.5507     13.7075     13.6844     70.3385
  2348.2500    -19.0265     15.5213     13.6765     13.7350     69.7053
  2348.5000    -19.0964     15.5073     13.6631     13.9257     67.3640
  2348.7500    -19.1478     15.5093     13.6669     14.1931     65.4021
  2349.0000    -19.1711     15.5305     13.6877     14.4624     62.5289
  2349.2500    -19.1599     15.5743     13.7257     14.6815     60.8282
  2349.5000    -19.1116     15.6429     13.7807     14.8375     58.9436
  2349.7500    -19.0288     15.7336     13.8524     14.9517     58.4698
  2350.0000    -18.9191     15.8379     13.9396     15.0601     59.4396
  2350.2500    -18.7946     15.9424     14.0401     15.1933     61.1736
  2350.5000    -18.6704     16.0313     14.1510     15.3621     64.4977
  2350.7500    -18.5627     16.0908     14.2687     15.5562     66.4059
  2351.0000    -18.4866     16.1139     14.3892     15.7536     68.0355
  2351.2500    -18.4537     16.1019     14.5088     15.9348     68.4363
  2351.5000    -18.4706     16.0646     14.6236     16.0911     68.5659
  2351.7500    -18.5376     16.0168     14.7304     16.2202     68.4498
  2352.0000    -18.6491     15.9741     14.8264     16.3172     67.8479
  2352.2500    -18.7947     15.9492     14.9099     16.3705     67.1017
  2352.5000    -18.9621     15.9500     14.9802     16.3685     65.5536
  2352.7500    -19.1392     15.9796     15.0382     16.3109     64.4469
  2353.0000    -19.3170     16.0372     15.0864     16.2147     63.2166
  2353.2500    -19.4907     16.1174     15.1284     16.1080     62.8477
  2353.5000    -19.6608     16.2110     15.1685     16.0167     62.7370
  2353.7500    -19.8316     16.3052     15.2112     15.9566     62.8176
  2354.0000    -20.0102     16.3880     15.2599     15.9356     63.4771
  2354.2500    -20.2047     16.4527     15.3168     15.9627     64.5159
  2354.5000    -20.4215     16.5021     15.3829     16.0540     66.6649
  2354.7500    -20.6639     16.5480     15.4580     16.2275     68.0114
  2355.0000    -20.9299     16.6073     15.5417     16.4867     69.4775
  2355.2500    -21.2111     16.6954     15.6343     16.8050     70.1887
  2355.5000    -21.4921     16.8216     15.7378     17.1210     71.0741
  2355.7500    -21.7517     16.9884     15.8566     17.3549     71.5147
  2356.0000    -21.9658     17.1939     15.9977     17.4407     71.9465
