~Version Information
 VERS.                                  2.0 : CWLS LAS VERSION
 WRAP.                                   NO : WRAPING MODE
 SWARE .                 MController 2.5.0E : SOFTWARE VERSION
~Well Information
 WELL.                        Triumph 13 10 : WELL
 COMP.             Evergreen Operating Corp : COMPANY
 FLD.                      Purgatorie River : FIELD
 LOC.                NW/SW Sec 10 T32S R66W : LOCATION
 DATE.                           7/22 23/04 : DATE(S) LOGGED
 SRVC.       Blanco Geological Services LLC : SERVICE COMPANY
 STAT.                                   CO : STATE
 CNTY.                           Las Animas : COUNTY
 CTRY.                                  USA : COUNTRY
 API.                       05 071 08108 00 : API NUMBER
 STRT.FT                             414.00 : START DEPTH
 STOP.FT                            2210.00 : STOP DEPTH
 STEP.FT                               1.00 : DEPTH INCREMENT
 NULL.                                 9999 : NULL VALUE
~Curve information
 DEPTH.FT                                   :
 ROP.MIN/FT                                 :
 GAS.UNITS                                  :
~ASCII Log data
# ...
      614.00        0.167         10.5 
      615.00        0.167         11.6 
      616.00        0.133         12.5 
      617.00        0.100         12.5 
      618.00        0.133         12.5 
      619.00        0.100         13.5 
      620.00        0.100         13.5 
      621.00        0.100         12.4 
      622.00        0.100         12.4 
      623.00        0.100         11.7 
      624.00        0.100         10.1 
      625.00        0.167         10.2 
      626.00        1.683         30.2 
      627.00        0.300         13.1 
      628.00        0.167          9.5 
      629.00        0.167          8.4 
      630.00        0.133          7.9 
      631.00        0.133          7.6 
      632.00        0.167          7.0 
      633.00        0.133          7.0 
      634.00        0.167          7.3 
      635.00        0.167          6.7 
      636.00        0.133          6.0 
      637.00        0.133          6.0 
      638.00        0.167          5.9 
      639.00        0.133          5.8 
      640.00        0.150          6.1 
      641.00        0.200          5.1 
      642.00        0.167          5.9 
      643.00        0.133          5.1 
      644.00        0.133          5.1 
      645.00        0.167          6.3 
      646.00        0.167          8.0 
      647.00        0.200          8.3 
      648.00        0.200          8.1 
      649.00        0.200          8.0 
      650.00        0.167          7.9 
      651.00        0.200          7.2 
      652.00        0.200          6.0 
      653.00        0.200          5.8 
      654.00        0.133          5.7 
      655.00        0.200          6.3 
      656.00        1.983         22.2 
      657.00        0.300          6.5 
      658.00        0.167          6.5 
      659.00        0.167          6.6 
      660.00        0.133          6.9 
      661.00        0.133          6.9 
      662.00        0.133          7.1 
      663.00        0.133          8.0 
      664.00        0.100          9.9 
      665.00        0.133         14.1 
      666.00        0.133         18.4 
      667.00        0.200         19.3 
      668.00        0.233         18.7 
      669.00        0.283         15.8 
      670.00        0.167         12.9 
      671.00        0.167         10.7 
      672.00        0.167         10.4 
      673.00        0.200          8.3 
      674.00        0.167          8.3 
      675.00        0.100          7.6 
      676.00        0.133          7.4 
      677.00        0.133          7.2 
      678.00        0.167          6.3 
      679.00        0.133          5.9 
      680.00        0.133          5.4 
      681.00        0.133          5.4 
      682.00        0.133          5.7 
      683.00        0.167          5.1 
      684.00        0.133          5.2 
      685.00        0.433          8.6 
      686.00        1.183         25.5 
      687.00        0.267         13.2 
      688.00        0.200          9.5 
      689.00        0.200          7.8 
      690.00        0.200          7.4 
      691.00        0.300          6.7 
      692.00        0.333         24.8 
      693.00        0.200         38.0 
      694.00        0.200         75.7 
      695.00        0.133         98.3 
      696.00        0.167        116.8 
      697.00        0.100        123.7 
      698.00        0.133        125.1 
      699.00        0.100        122.6 
      700.00        0.150        122.6 
      701.00        0.167        116.5 
      702.00        0.133        108.4 
      703.00        0.167        107.0 
      704.00        0.167         95.7 
      705.00        0.167         94.7 
      706.00        0.167         89.3 
      707.00        0.133         91.8 
      708.00        0.167         91.3 
      709.00        0.133         91.3 
      710.00        0.167         87.0 
      711.00        0.133         85.1 
      712.00        0.133         79.4 
      713.00        0.167         76.2 
      714.00        0.200         68.1 
      715.00        0.167         60.6 
      716.00        1.617        144.1 
      717.00        0.500        120.6 
      718.00        0.267         65.7 
      719.00        0.433         62.2 
      720.00        0.267         48.9 
      721.00        0.233         44.2 
      722.00        0.200         43.9 
      723.00        0.200         42.8 
      724.00        0.167         40.0 
      725.00        0.167         40.5 
      726.00        0.167         39.5 
      727.00        0.183         38.1 
      728.00        0.167         37.1 
      729.00        0.133         36.6 
      730.00        0.200         36.0 
      731.00        0.167         35.5 
      732.00        0.167         34.7 
      733.00        0.167         33.9 
      734.00        0.133         33.9 
      735.00        0.133         33.9 
      736.00        0.133         34.5 
      737.00        0.267         33.2 
      738.00        0.200         31.5 
      739.00        0.133         30.7 
      740.00        0.167         29.9 
      741.00        0.167         29.9 
      742.00        0.167         28.8 
      743.00        0.167         28.8 
      744.00        0.167         26.0 
      745.00        0.133         25.9 
      746.00        1.383        108.7 
      747.00        0.233        105.8 
      748.00        0.100         95.9 
      749.00        0.100         82.4 
      750.00        0.067         82.4 
      751.00        0.067         77.4 
      752.00        0.100         64.2 
      753.00        0.200         60.6 
      754.00        0.233         57.6 
      755.00        0.233         47.9 
      756.00        0.233         44.0 
      757.00        0.267         43.0 
      758.00        0.333         41.2 
      759.00        0.383         39.5 
      760.00        0.400         38.5 
      761.00        0.367         36.7 
      762.00        0.367         35.0 
      763.00        0.300         34.7 
      764.00        0.300         32.6 
      765.00        0.300         34.0 
      766.00        0.233         35.2 
      767.00        0.267         35.6 
      768.00        0.200         35.9 
      769.00        0.200         35.3 
      770.00        0.217         33.9 
      771.00        0.267         34.2 
      772.00        0.233         35.9 
      773.00        0.233         35.3 
      774.00        0.200         34.1 
      775.00        0.167         32.3 
      776.00        1.833        110.2 
      777.00        0.250         68.9 
      778.00        0.167         49.1 
      779.00        0.200         47.0 
      780.00        0.233         40.4 
      781.00        0.267         36.1 
      782.00        0.267         31.2 
      783.00        0.233         30.3 
      784.00        0.267         30.7 
      785.00        0.200         35.2 
      786.00        0.200         41.4 
      787.00        0.200         41.8 
      788.00        0.167         41.8 
      789.00        0.167         41.7 
      790.00        0.233         41.8 
      791.00        0.167         43.2 
      792.00        0.167         43.1 
      793.00        0.167         43.1 
      794.00        0.217         43.2 
      795.00        0.233         40.4 
      796.00        0.233         39.0 
      797.00        0.233         45.8 
      798.00        0.200         55.9 
      799.00        0.200         62.4 
      800.00        0.267         59.3 
      801.00        0.233         54.7 
      802.00        0.300         52.7 
      803.00        0.333         45.2 
      804.00        0.233         35.7 
      805.00        0.200         34.6 
      806.00        2.217        196.7 
      807.00        0.233        112.9 
      808.00        0.167        124.7 
      809.00        0.167        160.9 
      810.00        0.300        183.5 
      811.00        0.233        199.7 
      812.00        0.200        203.7 
      813.00        0.200        207.1 
