~Version Information
VERS.                      2.0: CWLS Log ASCII Standard - VERSION 2.0
WRAP.                       NO: One line per depth step
~Well Information Block
STRT.FT               550.0000: 
STOP.FT              1577.7500: 
STEP.FT                 0.2500: 
NULL.                -999.2500: 
COMP.          Pioneer Natural Resources: COMPANY
WELL.          Kristin 22-23 Tr: WELL
FLD.           Purgatoire River: FIELD
LOC.           2273' FNL & 2029' FWL: LOCATION
PROV.                 Colorado: PROVINCE
CNTY.               Las Animas: COUNTRY
SRVC.                Patterson: SERVICE COMPANY
DATE.          Thu Jan 20 21:18:23 2005: LOG DATE
UWI.           05 071 08259 00: UNIQUE WELL ID
~Curve Information Block
DEPT.FT            0 000 00 00: Depth
SN.Ohm-m                      : IEL Short Normal
SP.mV                         : IEL Spontaneous Potential
DIR.Ohm-m                     : IEL Induction Resistivity
GR.GAPI                       : Gamma Ray
~Parameter Information Block
~A  Depth        SN          SP         DIR          GR     
# ...
   751.0000     56.8147   -279.7773     37.5466     88.9212
   751.2500     58.2966   -280.1998     38.9338     86.8230
   751.5000     59.8155   -280.5945     40.2191     83.9198
   751.7500     61.4046   -280.9353     41.3053     81.9015
   752.0000     63.0297   -281.1991     42.1796     78.5902
   752.2500     64.5985   -281.3703     42.8828     76.3876
   752.5000     65.9979   -281.4445     43.4587     73.6530
   752.7500     67.1400   -281.4279     43.9202     72.4535
   753.0000     67.9945   -281.3356     44.2469     71.7050
   753.2500     68.5883   -281.1877     44.4083     71.7736
   753.5000     68.9814   -281.0063     44.3955     72.0868
   753.7500     69.2325   -280.8141     44.2337     71.9384
   754.0000     69.3685   -280.6357     43.9631     70.6708
   754.2500     69.3738   -280.5005     43.6100     69.2008
   754.5000     69.2113   -280.4430     43.1811     66.4201
   754.7500     68.8569   -280.5002     42.6797     64.2345
   755.0000     68.3196   -280.7018     42.1267     60.3113
   755.2500     67.6346   -281.0574     41.5637     57.2734
   755.5000     66.8356   -281.5421     41.0416     52.4142
   755.7500     65.9216   -282.0882     40.5952     49.2258
   756.0000     64.8304   -282.5871     40.2119     44.7654
   756.2500     63.4340   -282.9041     39.8078     42.0139
   756.5000     61.5611   -282.9040     39.2335     38.3455
   756.7500     59.0530   -282.4804     38.3154     36.5814
   757.0000     55.8393   -281.5816     36.9133     36.0274
   757.2500     51.9949   -280.2232     34.9691     37.6673
   757.5000     47.7321   -278.4859     32.5396     43.9977
   757.7500     43.3210   -276.4989     29.8005     51.1525
   758.0000     38.9932   -274.4153     26.9994     65.9957
   758.2500     34.8952   -272.3854     24.3678     77.5870
   758.5000     31.1100   -270.5337     22.0522     94.9453
   758.7500     27.7097   -268.9436     20.1039    105.4928
   759.0000     24.7836   -267.6525     18.5089    119.6026
   759.2500     22.4196   -266.6567     17.2258    127.9577
   759.5000     20.6570   -265.9247     16.2117    137.7722
   759.7500     19.4559   -265.4123     15.4331    141.2234
   760.0000     18.7065   -265.0768     14.8653    140.5518
   760.2500     18.2718   -264.8839     14.4867    136.9005
   760.5000     18.0340   -264.8090     14.2737    129.5003
   760.7500     17.9221   -264.8327     14.2012    124.8381
   761.0000     17.9134   -264.9343     14.2480    119.4948
   761.2500     18.0140   -265.0883     14.4020    117.1441
   761.5000     18.2338   -265.2642     14.6588    115.2188
   761.7500     18.5671   -265.4310     15.0143    114.6388
   762.0000     18.9854   -265.5645     15.4539    113.8147
   762.2500     19.4426   -265.6528     15.9473    112.7853
   762.5000     19.8915   -265.6973     16.4511    110.2547
   762.7500     20.3020   -265.7076     16.9219    108.1222
   763.0000     20.6697   -265.6924     17.3307    105.1873
   763.2500     21.0013   -265.6509     17.6727    104.1568
   763.5000     21.2859   -265.5702     17.9610    104.7309
   763.7500     21.4719   -265.4284     18.2052    106.0565
   764.0000     21.4796   -265.2035     18.3881    107.2465
   764.2500     21.2447   -264.8817     18.4598    106.2742
   764.5000     20.7630   -264.4628     18.3607    101.8720
   764.7500     20.0965   -263.9590     18.0596     98.0405
   765.0000     19.3415   -263.3918     17.5739     93.7598
   765.2500     18.5836   -262.7876     16.9577     93.3001
   765.5000     17.8678   -262.1758     16.2736     97.3370
   765.7500     17.1931   -261.5875     15.5726    102.8772
   766.0000     16.5306   -261.0546     14.8880    113.4646
   766.2500     15.8549   -260.6066     14.2383    120.5256
   766.5000     15.1694   -260.2666     13.6348    129.1888
   766.7500     14.5071   -260.0467     13.0895    133.2652
   767.0000     13.9067   -259.9466     12.6185    137.0679
   767.2500     13.3901   -259.9544     12.2379    138.3779
   767.5000     12.9583   -260.0505     11.9562    138.8948
   767.7500     12.6041   -260.2135     11.7699    138.4951
   768.0000     12.3246   -260.4243     11.6650    137.4948
   768.2500     12.1262   -260.6692     11.6213    137.0846
   768.5000     12.0209   -260.9401     11.6182    137.3424
   768.7500     12.0128   -261.2316     11.6366    137.9464
   769.0000     12.0848   -261.5349     11.6587    138.7038
   769.2500     12.1979   -261.8300     11.6694    138.6525
   769.5000     12.3071   -262.0792     11.6581    137.5365
   769.7500     12.3839   -262.2260     11.6230    136.3021
   770.0000     12.4286   -262.2066     11.5710    134.1094
   770.2500     12.4637   -261.9714     11.5154    132.5594
   770.5000     12.5151   -261.5102     11.4715    130.3805
   770.7500     12.5944   -260.8698     11.4527    129.2637
   771.0000     12.6968   -260.1506     11.4679    128.4546
   771.2500     12.8118   -259.4828     11.5215    128.5701
   771.5000     12.9355   -258.9889     11.6166    129.5085
   771.7500     13.0733   -258.7488     11.7569    130.3175
   772.0000     13.2372   -258.7803     11.9471    131.0914
   772.2500     13.4398   -259.0420     12.1887    130.8987
   772.5000     13.6856   -259.4532     12.4764    129.0257
   772.7500     13.9669   -259.9210     12.7978    126.7509
   773.0000     14.2686   -260.3644     13.1384    122.7280
   773.2500     14.5761   -260.7287     13.4877    120.5001
   773.5000     14.8765   -260.9886     13.8419    119.1413
   773.7500     15.1562   -261.1432     14.1989    119.9334
   774.0000     15.4037   -261.2079     14.5495    123.4133
   774.2500     15.6171   -261.2064     14.8718    126.5317
   774.5000     15.8027   -261.1641     15.1372    130.5684
   774.7500     15.9624   -261.1049     15.3211    131.9635
   775.0000     16.0869   -261.0481     15.4127    131.8124
   775.2500     16.1656   -261.0066     15.4190    130.7168
   775.5000     16.2046   -260.9851     15.3652    128.7932
   775.7500     16.2324   -260.9815     15.2908    127.7657
   776.0000     16.2898   -260.9898     15.2418    126.5975
   776.2500     16.4133   -261.0046     15.2584    125.8369
   776.5000     16.6267   -261.0258     15.3636    124.5913
   776.7500     16.9418   -261.0609     15.5547    123.9270
   777.0000     17.3646   -261.1247     15.8048    123.8032
   777.2500     17.9007   -261.2368     16.0788    124.4118
   777.5000     18.5582   -261.4164     16.3591    125.6386
   777.7500     19.3465   -261.6779     16.6611    125.9549
   778.0000     20.2725   -262.0283     17.0238    124.9685
   778.2500     21.3406   -262.4660     17.4875    123.4588
   778.5000     22.5611   -262.9831     18.0793    120.4784
   778.7500     23.9574   -263.5695     18.8123    118.1538
   779.0000     25.5663   -264.2173     19.6935    114.0596
   779.2500     27.4274   -264.9240     20.7277    110.8949
   779.5000     29.5669   -265.6935     21.9154    105.5563
   779.7500     31.9774   -266.5318     23.2453    101.4441
   780.0000     34.5967   -267.4400     24.6837     93.5159
   780.2500     37.3019   -268.4048     26.1710     86.4230
   780.5000     39.9289   -269.3907     27.6291     73.1350
   780.7500     42.3115   -270.3370     28.9842     63.6416
   781.0000     44.3074   -271.1618     30.1839     51.3962
   781.2500     45.7903   -271.7730     31.1971     45.8358
   781.5000     46.6268   -272.0857     31.9965     41.7043
   781.7500     46.6858   -272.0391     32.5480     41.1071
   782.0000     45.8986   -271.6095     32.8153     42.2173
   782.2500     44.3299   -270.8155     32.7683     44.0334
   782.5000     42.1884   -269.7141     32.3716     48.8352
   782.7500     39.7552   -268.3905     31.5691     53.9738
   783.0000     37.2792   -266.9445     30.3126     65.3200
   783.2500     34.9091   -265.4763     28.6364     75.2553
   783.5000     32.6923   -264.0740     26.6976     92.3153
   783.7500     30.6180   -262.8031     24.7182    103.5782
   784.0000     28.6674   -261.7024     22.8801    117.3311
   784.2500     26.8442   -260.7861     21.2725    123.2451
