~Version Information
 VERS.                                  2.0 : CWLS LAS VERSION
 WRAP.                                   NO : WRAPING MODE
 SWARE .                 MController 2.5.0N : SOFTWARE VERSION
~Well Information
 WELL.                    DrewMeister 34-34 : WELL
 COMP.    Pioneer Natural Resources USA Inc : COMPANY
 FLD.                      Purgatoire River : FIELD
 LOC.                 SW/SE SEC34 T32S R65W : LOCATION
 DATE.                             10/03/05 : DATE(S) LOGGED
 SRVC.       Blanco Geological Services LLC : SERVICE COMPANY
 STAT.                             Colorado : STATE
 CNTY.                           Las Animas : COUNTY
 CTRY.                                  USA : COUNTRY
 API.                       05-071-08131-00 : API NUMBER
 STRT.FT                             495.00 : START DEPTH
 STOP.FT                            1150.00 : STOP DEPTH
 STEP.FT                               1.00 : DEPTH INCREMENT
 NULL.                                -9999 : NULL VALUE
~Curve information
 DEPTH.FT                                   :
 ROP.MIN/FT                                 :
 GAS.UNITS                                  :
~ASCII Log data
# ...
       695.0         0.20          3.0 
       696.0         0.20          3.5 
       697.0         0.20          3.2 
       698.0         0.27          3.4 
       699.0         0.23          3.2 
       700.0         0.23          2.8 
       701.0         0.23          3.3 
       702.0         0.25          3.5 
       703.0         0.23          3.4 
       704.0         0.23          2.8 
       705.0         0.17          2.8 
       706.0         0.23          2.9 
       707.0         0.23          3.6 
       708.0         0.20          2.7 
       709.0         0.13          3.2 
       710.0         0.20          3.4 
       711.0         0.13          3.4 
       712.0         0.17          3.5 
       713.0         0.13          3.5 
       714.0         0.17          2.7 
       715.0         0.13          2.7 
       716.0         1.95          3.7 
       717.0         0.30          3.7 
       718.0         0.30          3.9 
       719.0         0.33          3.6 
       720.0         0.13          3.7 
       721.0         0.20          3.3 
       722.0         0.30          4.1 
       723.0         0.23          3.3 
       724.0         0.32          3.6 
       725.0         0.33          3.3 
       726.0         0.30          4.0 
       727.0         0.27          4.1 
       728.0         0.20          3.3 
       729.0         0.20          4.0 
       730.0         0.17          4.0 
       731.0         0.20          4.2 
       732.0         0.23          4.1 
       733.0         0.23          3.9 
       734.0         0.20          3.9 
       735.0         0.20          4.5 
       736.0         0.20          3.8 
       737.0         0.23          4.1 
       738.0         0.20          3.5 
       739.0         0.32          4.3 
       740.0         0.23          4.1 
       741.0         0.30          4.7 
       742.0         0.27          4.6 
       743.0         0.27          4.7 
       744.0         0.23          3.9 
       745.0         0.23          4.6 
       746.0         1.72          4.5 
       747.0         0.47          4.5 
       748.0         0.37          4.3 
       749.0         0.23          4.0 
       750.0         0.23          4.5 
       751.0         0.17          3.3 
       752.0         0.13          3.3 
       753.0         0.17          4.3 
       754.0         0.17          3.2 
       755.0         0.17          3.2 
       756.0         0.23          4.4 
       757.0         0.27          4.3 
       758.0         0.20          4.4 
       759.0         0.17          4.4 
       760.0         0.30          4.1 
       761.0         0.28          4.2 
       762.0         0.27          4.3 
       763.0         0.27          4.1 
       764.0         0.30          3.5 
       765.0         0.27          4.4 
       766.0         0.27         29.6 
       767.0         0.27         69.4 
       768.0         0.23         69.4 
       769.0         0.27         74.1 
       770.0         0.23         70.3 
       771.0         0.23         70.3 
       772.0         0.23         69.9 
       773.0         0.23         64.3 
       774.0         0.18         61.1 
       775.0         0.20         62.9 
       776.0         2.10        216.0 
       777.0         0.13        100.4 
       778.0         0.27         98.2 
       779.0         0.13         96.0 
       780.0         0.65         93.6 
       781.0         0.37         81.4 
       782.0         0.43         72.2 
       783.0         0.53         64.8 
       784.0         0.53         61.3 
       785.0         0.53         59.3 
       786.0         0.30         58.3 
       787.0         0.23         56.4 
       788.0         0.25         53.7 
       789.0         0.20         53.1 
       790.0         0.23         52.6 
       791.0         0.23         53.1 
       792.0         0.20         53.5 
       793.0         0.20         53.0 
       794.0         0.20         50.9 
       795.0         0.23         49.9 
       796.0         0.43         49.3 
       797.0         0.33         49.2 
       798.0         0.20         48.9 
       799.0         0.23         48.9 
       800.0         0.23         48.6 
       801.0         0.25         49.4 
       802.0         0.23         47.3 
       803.0         0.27         47.2 
       804.0         0.30         42.1 
       805.0         0.27         42.0 
       806.0         2.20        116.9 
       807.0         0.62         79.4 
       808.0         0.37         55.1 
       809.0         0.30         48.2 
       810.0         0.27         48.5 
       811.0         0.33         45.1 
       812.0         0.33         43.9 
       813.0         0.30         43.1 
       814.0         0.27         42.3 
       815.0         0.30         41.4 
       816.0         0.28         41.7 
       817.0         0.30         41.0 
       818.0         0.27         40.9 
       819.0         0.27         41.0 
       820.0         0.27         41.1 
       821.0         0.27         41.1 
       822.0         0.30         39.7 
       823.0         0.30         37.8 
       824.0         0.30         36.4 
       825.0         0.30         33.6 
       826.0         0.23         34.2 
       827.0         0.27         31.5 
       828.0         0.28         32.2 
       829.0         0.23         31.5 
       830.0         0.23         30.1 
       831.0         0.20         29.7 
       832.0         0.23         26.7 
       833.0         0.20         25.6 
       834.0         0.20         26.6 
       835.0         0.20         29.8 
       836.0         1.60         61.9 
       837.0         0.42         41.2 
       838.0         0.27         41.7 
       839.0         0.23         43.7 
       840.0         0.23         44.6 
       841.0         0.20         45.6 
       842.0         0.17         46.6 
       843.0         0.13         46.5 
       844.0         0.17         46.5 
       845.0         0.17         46.3 
       846.0         0.20         45.4 
       847.0         0.23         44.8 
       848.0         0.27         43.4 
       849.0         0.17         42.3 
       850.0         0.20         41.8 
       851.0         0.17         41.8 
       852.0         0.20         41.0 
       853.0         0.22         40.1 
       854.0         0.20         40.0 
       855.0         0.23         40.0 
       856.0         0.20         40.0 
       857.0         0.20         40.1 
       858.0         0.20         40.5 
       859.0         0.20         42.8 
       860.0         0.23         44.3 
       861.0         0.17         49.2 
       862.0         0.13         49.2 
       863.0         0.07         51.8 
       864.0         0.10         66.0 
       865.0         0.13         66.0 
       866.0         2.22        419.3 
       867.0         0.37        244.0 
       868.0         0.33        218.0 
       869.0         0.27        162.7 
       870.0         0.23        139.9 
       871.0         0.23        131.2 
       872.0         0.20        118.3 
       873.0         0.20        107.4 
       874.0         0.23         95.7 
       875.0         0.28         90.9 
       876.0         0.40         93.1 
       877.0         0.20        100.0 
       878.0         0.30        126.1 
       879.0         0.27        147.0 
       880.0         0.20        165.1 
       881.0         0.13        169.5 
       882.0         0.10        175.3 
       883.0         0.20        185.2 
       884.0         0.13        192.5 
       885.0         0.13        199.2 
       886.0         0.17        199.2 
       887.0         0.20        204.4 
       888.0         0.20        195.7 
       889.0         0.20        195.7 
       890.0         0.23        176.5 
       891.0         0.20        167.3 
       892.0         0.18        163.0 
       893.0         0.23        153.0 
       894.0         0.17        144.7 
