~Version Information
VERS.                      2.0: CWLS Log ASCII Standard - VERSION 2.0
WRAP.                       NO: One line per depth step
~Well Information Block
STRT.FT                -4.5000: 
STOP.FT              1680.2500: 
STEP.FT                 0.2500: 
NULL.                -999.2500: 
COMP.          Pioneer Natural Resources: COMPANY
WELL.            Salty 42-6 Tr: WELL
FLD.           Purgatorie River: FIELD
LOC.           2409' FNL & 599' FEL--: LOCATION
PROV.                       CO: PROVINCE
CNTY.               Las Animas: COUNTRY
SRVC.                         : SERVICE COMPANY
DATE.          Mon Dec 20 13:36:48 2004: LOG DATE
UWI.           071-08238      : UNIQUE WELL ID
~Curve Information Block
DEPT.FT            0 000 00 00: Depth
HVOLTA.V                      : Head Voltage Apparent
GR.GAPI                       : Gamma Ray
CCL.                          : Casing Collar Locator
TT3.usec                      : CBL 3' Travel Time
AMP3.mV                       : CBL 3' Amplitude
~Parameter Information Block
~A  Depth      HVOLTA        GR         CCL         TT3         AMP3    
# ...
  1423.5000     97.1573    141.2928      0.0000    677.1995      6.2233
  1423.7500     97.2386    140.2827      0.0000    670.3305      6.2554
  1424.0000     97.1252    137.7453      0.0000    669.4602      6.2474
  1424.2500     97.1634    134.7028      0.0000    678.0222      6.1796
  1424.5000     97.2040    133.0367      0.0000    695.7238      6.0596
  1424.7500     97.1526    134.2375      0.0000    715.9635      5.9201
  1425.0000     97.2350    138.3274      0.0000    728.9598      5.7963
  1425.2500     97.2875    144.1482      0.0000    729.1921      5.7125
  1425.5000     97.1370    150.1135      0.0000    719.1763      5.6919
  1425.7500     97.1024    154.6313      0.0000    705.8618      5.7564
  1426.0000     97.1634    156.6944      0.0000    695.0662      5.8980
  1426.2500     97.1024    156.6725      0.0000    689.3427      6.0621
  1426.5000     97.1873    156.3686      2.0000    688.4850      6.1864
  1426.7500     97.1669    158.1923      2.0000    690.6096      6.2551
  1427.0000     97.2254    163.9226      0.0000    693.6931      6.3129
  1427.2500     97.0439    173.3427      0.0000    696.8256      6.4310
  1427.5000     97.1502    183.7043      0.0000    700.0361      6.6545
  1427.7500     97.0475    191.2161      0.0000    703.4779      6.9588
  1428.0000     97.1598    193.5140      0.0000    707.1759      7.2517
  1428.2500     97.2015    190.6258      0.0000    710.9537      7.4430
  1428.5000     97.1430    184.1517      0.0000    714.1909      7.5195
  1428.7500     97.3032    176.6062      0.0000    716.1053      7.5387
  1429.0000     96.9615    171.3278      0.0000    716.6766      7.5578
  1429.2500     97.1897    171.0916      0.0000    716.8793      7.5866
  1429.5000     97.1049    175.6254      0.0000    717.6077      7.5987
  1429.7500     97.0606    181.4431      0.0000    718.7398      7.5655
  1430.0000     96.9472    185.1165      0.0000    719.4991      7.4741
  1430.2500     97.0057    186.2146      0.0000    719.2128      7.3255
  1430.5000     97.5067    186.7542      0.0000    717.4595      7.1312
  1430.7500     97.5748    188.7759      0.0000    713.8892      6.9153
  1431.0000     96.9950    192.8282      0.0000    707.9426      6.7101
  1431.2500     97.1120    197.7600      0.0000    698.6320      6.5411
  1431.5000     96.9782    201.1956      0.0000    685.3310      6.4132
  1431.7500     97.0881    200.8601      0.0000    669.3903      6.3153
  1432.0000     96.9961    196.4591      0.0000    654.3378      6.2361
  1432.2500     97.2004    190.3055      0.0000    643.9305      6.1772
  1432.5000     97.1084    185.4468      0.0000    640.4913      6.1538
  1432.7500     97.2518    183.0935      0.0000    645.1439      6.1856
  1433.0000     97.2996    182.3464      0.0000    658.2469      6.2811
  1433.2500     97.0403    182.1959      0.0000    678.3520      6.4243
  1433.5000     97.0678    182.8000      0.0000    701.2396      6.5758
  1433.7500     97.0642    184.6016      0.0000    721.4508      6.6948
  1434.0000     97.1801    187.0921      0.0000    735.4602      6.7669
  1434.2500     97.1801    188.9248      0.0000    743.1827      6.8144
  1434.5000     97.1491    188.9243      0.0000    746.7006      6.8778
  1434.7500     97.1120    186.9623      0.0000    748.1740      6.9828
  1435.0000     97.0631    184.1785      0.0000    748.8479      7.1209
  1435.2500     97.1252    182.3381      0.0000    749.1542      7.2573
  1435.5000     97.0296    182.6098      0.0000    749.0838      7.3533
  1435.7500     97.1120    184.5904      0.0000    748.4218      7.3829
  1436.0000     97.1466    186.5961      0.0000    747.0023      7.3404
  1436.2500     97.1024    187.3990      0.0000    745.1884      7.2386
  1436.5000     97.0917    187.6685      0.0000    744.1699      7.1000
  1436.7500     97.1801    188.9961      0.0000    745.2006      6.9471
  1437.0000     97.0128    191.5410      0.0000    748.0691      6.7958
  1437.2500     97.0678    193.6988      0.0000    750.6822      6.6576
  1437.5000     97.1669    194.3994      0.0000    750.5652      6.5448
  1437.7500     97.0475    194.6337      0.0000    746.2133      6.4700
  1438.0000     96.9101    195.9995      0.0000    736.6579      6.4361
  1438.2500     97.1419    198.3895      0.0000    720.9691      6.4254
  1438.5000     97.1191    200.1164      0.0000    699.6412      6.4077
  1438.7500     97.2243    200.4654      0.0000    676.1580      6.3667
  1439.0000     97.3067    200.9541      0.0000    655.7508      6.3162
  1439.2500     96.9340    203.1404      0.0000    642.1231      6.2862
  1439.5000     97.1359    205.9783      0.0000    635.8452      6.2897
  1439.7500     97.2924    206.6514      0.0000    635.8614      6.3119
  1440.0000     97.1790    203.7760      0.0000    641.6717      6.3302
  1440.2500     97.0535    198.7799      0.0000    653.3896      6.3404
  1440.5000     97.1455    194.5892      0.0000    669.7280      6.3566
  1440.7500     97.0738    193.9127      0.0000    686.6591      6.3941
  1441.0000     97.2636    197.9249      0.0000    699.0588      6.4530
  1441.2500     96.9986    204.9163      0.0000    704.2187      6.5160
  1441.5000     96.9758    210.2924      0.0000    703.7919      6.5584
  1441.7500     97.2828    209.5100      0.0000    702.3048      6.5663
  1442.0000     96.9925    202.0038      0.0000    703.7796      6.5474
  1442.2500     97.2661    191.8776      0.0000    709.3594      6.5237
  1442.5000     97.1288    184.3415      0.0000    717.1628      6.5175
  1442.7500     97.0260    181.7617      0.0000    723.3665      6.5428
  1443.0000     97.0714    182.9602      0.0000    723.5867      6.6019
  1443.2500     97.0367    185.0586      0.0000    714.7855      6.6835
  1443.5000     97.2625    185.2727      0.0000    697.5107      6.7650
  1443.7500     97.1252    182.0177      0.0000    676.7350      6.8226
  1444.0000     97.0164    175.6896      0.0000    659.8083      6.8432
  1444.2500     97.0236    168.4131      0.0000    652.7637      6.8299
  1444.5000     97.0225    162.5429      0.0000    657.7241      6.7969
  1444.7500     97.0225    159.3861      0.0000    672.5572      6.7594
  1445.0000     96.9950    158.8640      0.0000    692.3344      6.7257
  1445.2500     97.3092    159.4647      0.0000    711.9518      6.6920
  1445.5000     96.9950    158.6270      0.0000    728.3964      6.6433
  1445.7500     97.1395    154.2542      0.0000    740.8907      6.5689
  1446.0000     97.0821    146.4399      0.0000    749.4142      6.4819
  1446.2500     96.9722    137.5987      0.0000    753.8831      6.4189
  1446.5000     97.0439    130.7363      0.0000    754.8308      6.4136
  1446.7500     96.9686    127.3268      0.0000    754.0928      6.4703
  1447.0000     97.2447    126.3874      0.0000    754.2047      6.5626
  1447.2500     97.2900    125.1552      0.0000    757.0319      6.6531
  1447.5000     97.0164    120.7192      0.0000    762.9275      6.7179
  1447.7500     96.9997    111.6573      0.0000    770.9851      6.7560
  1448.0000     97.0988     98.9959      0.0000    779.7585      6.7779
  1448.2500     97.0439     85.9256      0.0000    787.2441      6.7892
  1448.5000     97.0307     76.2144      0.0000    790.4897      6.7867
  1448.7500     96.9722     72.1741      0.0000    786.8898      6.7677
  1449.0000     97.3246     73.4774      0.0000    776.9197      6.7372
  1449.2500     97.1502     77.5777      0.0000    764.6376      6.7059
  1449.5000     97.1812     81.4402      0.0000    754.5926      6.6847
  1449.7500     96.9722     83.4151      0.0000    748.7192      6.6773
  1450.0000     96.9986     83.8616      0.0000    746.2606      6.6774
  1450.2500     97.0845     84.0996      0.0000    745.5905      6.6751
  1450.5000     97.0236     84.8900      0.0000    745.5867      6.6680
  1450.7500     97.0200     85.9409      0.0000    745.9554      6.6596
  1451.0000     97.2661     86.5476      0.0000    747.0842      6.6515
  1451.2500     97.0821     86.3401      0.0000    749.7467      6.6398
