~Version Information
VERS.                      2.0: CWLS Log ASCII Standard - VERSION 2.0
WRAP.                       NO: One line per depth step
~Well Information Block
STRT.FT               440.0000: 
STOP.FT              2735.2000: 
STEP.FT                 0.1000: 
NULL.                -999.2500: 
COMP.          Pioneer Natural Resources: COMPANY
WELL.              Cluck 21-25: WELL
FLD.           Purgatoire River: FIELD
LOC.           91' FNL & 1834' FWL--: LOCATION
PROV.                 Colorado: PROVINCE
CNTY.               Las Animas: COUNTRY
SRVC.                Patterson: SERVICE COMPANY
DATE.          Tue Jun 07 07:26:19 2005: LOG DATE
UWI.           05 071 08397 00: UNIQUE WELL ID
~Curve Information Block
DEPT.FT            0 000 00 00: Depth
DCAL.in                       : CDL Caliper
RHOB.g/cc                     : CDL Bulk Density
RHOC.g/cc                     : CDL Density Correction
DPOR.pu                       : CDL Density Porosity
NPOR.pu                       : Neutron Porosity
GR.GAPI                       : Gamma Ray
~Parameter Information Block
SNDERRM.mmho-m          0.0000: Medium Sonde Error Correction
~A  Depth       DCAL        RHOB        RHOC        DPOR        NPOR         GR     
# ...
  1496.0000      7.9392      2.6491      0.0649      0.0568     19.8492     88.8921
  1496.1000      7.9392      2.6391      0.0599      0.6628     20.5909     81.6096
  1496.2000      7.9392      2.6236     -0.0038      1.6026     21.2692     73.7273
  1496.3000      7.9365      2.6195      0.0384      1.8496     21.2765     69.1448
  1496.4000      7.9365      2.6341      0.0135      0.9610     21.0167     69.3266
  1496.5000      7.9309      2.6598      0.0253     -0.5914     21.5104     73.2285
  1496.6000      7.9309      2.6753      0.0448     -1.5321     22.4881     80.6823
  1496.7000      7.9309      2.6682      0.0478     -1.1003     22.9490     86.7721
  1496.8000      7.9283      2.6575      0.0107     -0.4522     23.1515     87.3121
  1496.9000      7.9283      2.6630      0.0379     -0.7907     23.4765     87.5497
  1497.0000      7.9264      2.6712      0.0856     -1.2838     23.6847     92.2150
  1497.1000      7.9264      2.6627      0.0455     -0.7693     23.6978     99.0773
  1497.2000      7.9264      2.6414      0.0621      0.5214     23.7938    105.4060
  1497.3000      7.9248      2.6190      0.0461      1.8762     24.3154    109.8034
  1497.4000      7.9248      2.6024      0.0340      2.8861     25.2705    108.8715
  1497.5000      7.9261      2.5921      0.0040      3.5091     26.2503    102.2059
  1497.6000      7.9261      2.5820      0.0437      4.1199     27.0857     97.2325
  1497.7000      7.9261      2.5649      0.0175      5.1555     27.8315    100.5565
  1497.8000      7.9281      2.5422      0.0256      6.5310     28.2800    110.0089
  1497.9000      7.9281      2.5138      0.0286      8.2517     28.6092    119.4424
  1498.0000      7.9336      2.4739      0.0190     10.6737     29.2136    124.5904
  1498.1000      7.9336      2.4221      0.0120     13.8150     29.9092    126.1616
  1498.2000      7.9336      2.3640     -0.0095     17.3338     30.3085    127.2247
  1498.3000      7.9512      2.3076     -0.0194     20.7532     30.4479    126.2429
  1498.4000      7.9512      2.2673     -0.0503     23.1922     30.4683    118.4876
  1498.5000      7.9773      2.2526     -0.0337     24.0841     30.6611    108.5340
  1498.6000      7.9773      2.2530      0.0133     24.0578     31.2569    104.6937
  1498.7000      7.9773      2.2588      0.0071     23.7064     31.8132    106.9272
  1498.8000      8.0041      2.2761      0.0482     22.6616     31.8398    112.1977
  1498.9000      8.0041      2.3044      0.1104     20.9468     31.4139    119.4307
  1499.0000      8.0266      2.3380      0.1269     18.9118     30.9342    127.0303
  1499.1000      8.0266      2.3749      0.1917     16.6745     30.3527    130.9077
  1499.2000      8.0266      2.4066      0.1712     14.7518     29.6877    129.2208
  1499.3000      8.0402      2.4293      0.1300     13.3769     29.5397    124.5819
  1499.4000      8.0402      2.4483      0.0941     12.2227     29.9004    120.5761
  1499.5000      8.0490      2.4610      0.0912     11.4570     30.1998    121.2374
  1499.6000      8.0490      2.4669      0.0517     11.0999     30.4037    125.8755
  1499.7000      8.0490      2.4780      0.0756     10.4217     30.8809    128.8849
  1499.8000      8.0571      2.4950      0.1100      9.3944     31.5897    130.3923
  1499.9000      8.0571      2.5026      0.1001      8.9357     31.9133    133.3982
  1500.0000      8.0610      2.4912      0.0736      9.6256     31.6199    135.9642
  1500.1000      8.0610      2.4663      0.0382     11.1343     31.3132    134.2805
  1500.2000      8.0610      2.4357      0.0271     12.9888     31.2538    130.2474
  1500.3000      8.0616      2.3988      0.0212     15.2265     31.3716    127.0264
  1500.4000      8.0616      2.3534      0.0199     17.9774     31.8593    123.5101
  1500.5000      8.0611      2.3043      0.0189     20.9496     32.3948    123.7113
  1500.6000      8.0611      2.2638     -0.0047     23.4037     32.3578    128.2443
  1500.7000      8.0611      2.2418     -0.0265     24.7379     31.7776    125.9408
  1500.8000      8.0589      2.2350     -0.0171     25.1529     30.8673    117.2610
  1500.9000      8.0589      2.2372     -0.0258     25.0170     29.6007    112.1350
  1501.0000      8.0555      2.2514     -0.0064     24.1578     28.4508    109.8923
  1501.1000      8.0555      2.2821      0.0549     22.2943     28.0039    106.8702
  1501.2000      8.0555      2.3300      0.0959     19.3932     27.8104    104.1863
  1501.3000      8.0515      2.3924      0.1378     15.6091     26.9916    102.5727
  1501.4000      8.0515      2.4575      0.1897     11.6689     25.7747    100.5255
  1501.5000      8.0418      2.5064      0.2010      8.7022     24.8115     96.8809
  1501.6000      8.0418      2.5344      0.1549      7.0043     24.2391     91.3376
  1501.7000      8.0418      2.5491      0.1170      6.1180     24.2489     86.9355
  1501.8000      8.0247      2.5530      0.0903      5.8816     24.9062     87.2206
  1501.9000      8.0247      2.5490      0.0655      6.1228     25.7328     92.1225
  1502.0000      8.0075      2.5526      0.0208      5.9030     26.4192     97.9473
  1502.1000      8.0075      2.5749      0.0559      4.5509     26.8234     99.6701
  1502.2000      8.0075      2.5993      0.0801      3.0704     26.7285     98.8998
  1502.3000      7.9988      2.6085      0.0615      2.5129     26.2820    103.8824
  1502.4000      7.9988      2.6069      0.0593      2.6132     25.9218    115.8782
  1502.5000      8.0037      2.5994      0.0396      3.0663     25.9029    123.5488
  1502.6000      8.0037      2.5910      0.0248      3.5761     26.2050    120.2576
  1502.7000      8.0037      2.5894      0.0586      3.6743     26.5586    113.3489
  1502.8000      8.0086      2.5915      0.0530      3.5478     26.4027    109.3884
  1502.9000      8.0086      2.5890      0.0558      3.6941     25.6441    107.9688
  1503.0000      7.9963      2.5789      0.0506      4.3081     24.9535    106.5196
  1503.1000      7.9963      2.5648      0.0112      5.1620     24.9043    100.5433
  1503.2000      7.9963      2.5551      0.0306      5.7543     25.4360     90.4454
  1503.3000      7.9751      2.5549      0.0327      5.7657     25.8401     84.5194
  1503.4000      7.9751      2.5616      0.0317      5.3577     25.6078     87.1750
  1503.5000      7.9598      2.5667      0.0832      5.0509     25.1879     92.8481
  1503.6000      7.9598      2.5679      0.0328      4.9786     25.2224     96.8339
  1503.7000      7.9598      2.5710      0.0647      4.7879     25.3808    100.1303
  1503.8000      7.9557      2.5718      0.0796      4.7403     25.5483    103.0591
  1503.9000      7.9557      2.5688      0.0162      4.9231     26.1118    102.0227
  1504.0000      7.9574      2.5716      0.0372      4.7541     26.7963     98.1785
  1504.1000      7.9574      2.5731      0.0643      4.6605     27.4577     99.2895
  1504.2000      7.9574      2.5585      0.0602      5.5425     28.1078    105.4428
  1504.3000      7.9578      2.5411      0.0238      6.6013     28.3204    110.7770
  1504.4000      7.9578      2.5467      0.0178      6.2585     28.0111    112.4581
  1504.5000      7.9588      2.5679      0.0639      4.9777     27.5335    110.6274
  1504.6000      7.9588      2.5728      0.0727      4.6766     27.1481    112.3218
  1504.7000      7.9588      2.5606      0.0381      5.4197     27.1287    120.6712
  1504.8000      7.9657      2.5576      0.0417      5.5985     27.8135    127.8416
  1504.9000      7.9657      2.5627      0.0988      5.2882     28.7198    133.4317
  1505.0000      7.9753      2.5628      0.0581      5.2842     28.8716    138.9201
  1505.1000      7.9753      2.5735      0.0430      4.6376     28.2811    136.5625
  1505.2000      7.9753      2.5967      0.0921      3.2287     27.3524    124.5263
  1505.3000      7.9711      2.6015      0.1126      2.9412     26.2556    113.1259
  1505.4000      7.9711      2.5781      0.0728      4.3559     25.5032    108.2562
  1505.5000      7.9450      2.5583      0.0336      5.5581     25.4973    105.9311
