~Version Information
VERS.                      2.0: CWLS Log ASCII Standard - VERSION 2.0
WRAP.                       NO: One line per depth step
~Well Information Block
STRT.FT               488.0000: 
STOP.FT              1824.7000: 
STEP.FT                 0.1000: 
NULL.                -999.2500: 
COMP.          Pioneer Natural Resources: COMPANY
WELL.            Buckeye 11-13: WELL
FLD.           Purgatoire River: FIELD
LOC.           211' FNL & 1054' FWL: LOCATION
STAT.                 Colorado: State
CNTY.               Las Animas: COUNTY
CTRY. USA : Country
SECT. 13 : Section
TOWN. 33S : Township
RANG. 67W : Range
SRVC.                Patterson: SERVICE COMPANY
DATE.          Mon Mar 07 02:06:39 2005: LOG DATE
API.           05 071 08317 00: UNIQUE WELL ID
~Curve Information Block
DEPT.FT            0 000 00 00: Depth
DCAL.in                       : CDL Caliper
RHOB.g/cc                     : CDL Bulk Density
RHOC.g/cc                     : CDL Density Correction
DPOR.pu                       : CDL Density Porosity
GR.GAPI                       : Gamma Ray
NPOR.pu                       : Neutron Porosity
~Parameter Information Block
~A  Depth       DCAL        RHOB        RHOC        DPOR         GR         NPOR    
# ...
  1544.0000      7.9836      2.4824     -0.0255     10.1566    123.6933     23.2310
  1544.1000      7.9836      2.4896      0.0179      9.7234    124.6643     23.8486
  1544.2000      7.9836      2.5289      0.0650      7.3409    124.6860     24.5805
  1544.3000      7.9842      2.5689      0.0909      4.9163    126.7237     25.2620
  1544.4000      7.9842      2.5835      0.1230      4.0301    133.1334     25.3880
  1544.5000      7.9855      2.5669      0.0637      5.0364    139.3624     25.0750
  1544.6000      7.9855      2.5329      0.0387      7.0947    141.3349     24.5703
  1544.7000      7.9855      2.5000     -0.0269      9.0915    138.8680     23.8008
  1544.8000      7.9856      2.4821     -0.0674     10.1757    134.7359     22.9492
  1544.9000      7.9856      2.4854      0.0173      9.9728    133.4809     22.4873
  1545.0000      7.9850      2.5079      0.0071      8.6133    135.5815     22.3350
  1545.1000      7.9850      2.5387      0.0560      6.7456    134.7732     22.0160
  1545.2000      7.9850      2.5586      0.0802      5.5406    126.1866     21.5788
  1545.3000      7.9850      2.5537      0.0680      5.8338    113.8394     20.8276
  1545.4000      7.9850      2.5349      0.0159      6.9728    104.7231     19.9078
  1545.5000      7.9854      2.5307     -0.0236      7.2319    101.6384     19.4793
  1545.6000      7.9854      2.5500      0.0157      6.0577     99.0687     19.2073
  1545.7000      7.9854      2.5732      0.0825      4.6571     91.8346     18.4687
  1545.8000      7.9844      2.5910      0.0056      3.5737     82.1139     17.2170
  1545.9000      7.9844      2.6087      0.0290      2.5046     74.4496     16.1813
  1546.0000      7.9846      2.6152      0.0360      2.1108     71.7202     16.0211
  1546.1000      7.9846      2.6027      0.0033      2.8690     71.8238     16.1578
  1546.2000      7.9846      2.5872     -0.0227      3.8090     70.9664     15.9845
  1546.3000      7.9837      2.5900     -0.0446      3.6382     69.8199     15.9723
  1546.4000      7.9837      2.6117      0.0049      2.3241     70.7259     16.0769
  1546.5000      7.9854      2.6307      0.0447      1.1684     72.7137     15.4850
  1546.6000      7.9854      2.6329      0.0050      1.0360     74.0998     14.7223
  1546.7000      7.9854      2.6244     -0.0128      1.5533     76.1179     14.9797
  1546.8000      7.9903      2.6086      0.0201      2.5097     81.6084     16.2493
  1546.9000      7.9903      2.5882     -0.0300      3.7451     92.3647     17.6954
  1547.0000      7.9873      2.5713      0.0011      4.7683    106.7795     18.6139
  1547.1000      7.9873      2.5547     -0.0458      5.7731    118.4782     19.0543
  1547.2000      7.9873      2.5348     -0.0158      6.9830    124.5594     19.6765
  1547.3000      7.9866      2.5199     -0.0263      7.8820    130.2645     20.8920
  1547.4000      7.9866      2.5223     -0.0203      7.7402    136.5635     22.4810
  1547.5000      7.9872      2.5323     -0.0041      7.1311    138.1291     23.8761
  1547.6000      7.9872      2.5293      0.0311      7.3132    135.6348     24.5960
  1547.7000      7.9872      2.5183      0.0193      7.9832    134.4857     24.7940
  1547.8000      7.9853      2.5143      0.0695      8.2249    135.3040     25.0839
  1547.9000      7.9853      2.5161      0.0299      8.1139    136.7452     25.7165
  1548.0000      7.9863      2.5169      0.0653      8.0645    138.4055     26.4413
  1548.1000      7.9863      2.5146      0.0116      8.2057    136.2233     26.7811
  1548.2000      7.9863      2.5150      0.0131      8.1802    127.4137     26.4796
  1548.3000      7.9867      2.5232      0.0172      7.6840    116.3853     25.8777
  1548.4000      7.9867      2.5308      0.0532      7.2242    109.0363     25.3664
  1548.5000      7.9863      2.5352     -0.0130      6.9597    104.3219     24.8487
  1548.6000      7.9863      2.5483     -0.0042      6.1641    100.9630     24.2807
  1548.7000      7.9863      2.5664      0.0084      5.0648    102.1327     23.8430
  1548.8000      7.9855      2.5787     -0.0177      4.3191    105.5460     23.4673
  1548.9000      7.9855      2.5898      0.0103      3.6476    105.1996     23.5963
  1549.0000      7.9859      2.5987      0.0220      3.1106    104.0907     24.5736
  1549.1000      7.9859      2.5979     -0.0403      3.1595    106.1647     24.8489
  1549.2000      7.9859      2.5980     -0.0179      3.1502    104.5803     23.3896
  1549.3000      7.9857      2.6105     -0.0174      2.3914     96.9036     21.9494
  1549.4000      7.9857      2.6214      0.0049      1.7354     90.7073     21.5869
  1549.5000      7.9859      2.6084      0.0023      2.5241     89.7741     21.7209
  1549.6000      7.9859      2.5769     -0.0699      4.4292     94.3695     21.9827
  1549.7000      7.9859      2.5608     -0.1020      5.4060    103.9446     21.9801
  1549.8000      7.9877      2.5743     -0.0201      4.5863    113.4542     21.3867
  1549.9000      7.9877      2.5890     -0.0309      3.6979    117.4699     20.7170
  1550.0000      7.9856      2.5757     -0.0063      4.5009    115.3753     21.0024
  1550.1000      7.9856      2.5387     -0.0568      6.7443    111.7090     22.3004
  1550.2000      7.9856      2.5015     -0.0349      8.9982    111.5506     23.6036
  1550.3000      7.9850      2.4765     -0.0371     10.5139    117.5003     24.3024
  1550.4000      7.9850      2.4570     -0.0448     11.6960    126.5363     24.1917
  1550.5000      7.9851      2.4352     -0.0542     13.0200    129.9876     23.2615
  1550.6000      7.9851      2.4198     -0.0553     13.9493    126.2579     22.5248
  1550.7000      7.9851      2.4286     -0.0591     13.4206    123.2581     22.8882
  1550.8000      7.9847      2.4608     -0.0187     11.4684    124.1358     23.7927
  1550.9000      7.9847      2.4917      0.0294      9.5940    124.1150     24.1328
  1551.0000      7.9856      2.5050      0.0092      8.7881    122.2944     23.7498
  1551.1000      7.9856      2.5089      0.0290      8.5500    121.6443     23.0301
  1551.2000      7.9856      2.5175      0.0324      8.0304    120.7910     22.1967
  1551.3000      7.9863      2.5386      0.0161      6.7540    118.3096     21.4736
  1551.4000      7.9863      2.5667      0.0636      5.0474    115.3026     20.8451
  1551.5000      7.9861      2.5850      0.0769      3.9418    109.5996     20.2395
  1551.6000      7.9861      2.5895      0.0819      3.6685    100.2913     19.6080
  1551.7000      7.9861      2.5910      0.0785      3.5743     93.4340     18.8600
  1551.8000      7.9860      2.5872      0.0859      3.8083     91.2904     18.3672
  1551.9000      7.9860      2.5710      0.0127      4.7878     89.2850     18.1344
  1552.0000      7.9858      2.5511      0.0053      5.9946     85.5646     17.8817
  1552.1000      7.9858      2.5370     -0.0131      6.8503     81.2783     17.7557
  1552.2000      7.9858      2.5265     -0.0176      7.4823     78.9621     17.8271
  1552.3000      7.9846      2.5160     -0.0719      8.1199     81.5951     18.2514
  1552.4000      7.9846      2.5139     -0.0950      8.2479     87.1326     19.0822
  1552.5000      7.9860      2.5315     -0.0769      7.1821     92.5365     19.7967
  1552.6000      7.9860      2.5685     -0.0396      4.9417     97.8836     20.0581
  1552.7000      7.9860      2.6044      0.0351      2.7638    102.9818     20.1931
  1552.8000      7.9852      2.6105      0.0815      2.3935    107.2708     20.2325
  1552.9000      7.9852      2.5907      0.0355      3.5942    110.3404     20.0341
  1553.0000      7.9862      2.5761      0.0612      4.4771    112.5716     20.1044
  1553.1000      7.9862      2.5718      0.0548      4.7410    114.8344     20.5842
  1553.2000      7.9862      2.5593      0.0778      5.4950    117.6796     21.0726
  1553.3000      7.9862      2.5376      0.0137      6.8096    120.8783     21.5008
  1553.4000      7.9862      2.5175      0.0347      8.0326    125.6937     22.0341
  1553.5000      7.9868      2.4945      0.0016      9.4243    132.1822     22.8320
