~Version Information
VERS.                      2.0: CWLS Log ASCII Standard - VERSION 2.0
WRAP.                       NO: One line per depth step
~Well Information Block
STRT.FT               825.0000: 
STOP.FT              2446.5000: 
STEP.FT                 0.2500: 
NULL.                -999.2500: 
COMP.          Petrogulf Corporation: COMPANY
WELL.            Kraft 17-23 V: WELL
FLD.           Purgatorie River: FIELD
LOC.           1500' FSL & 1773' FWL: LOCATION
CNTY.               Las Animas: COUNTY
SRVC.                         : SERVICE COMPANY
DATE.          Thu Nov 20 06:35:41 2003: LOG DATE
UWI.                          : UNIQUE WELL ID
STAT.                 Colorado: STATE
~Curve Information Block
DEPT.FT            0 000 00 00: Depth
SN.Ohm-m                      : IEL Short Normal
SP.mV                         : IEL Spontaneous Potential
DIR.Ohm-m                     : IEL Induction Resistivity
GR.GAPI                       : Gamma Ray
~Parameter Information Block
~A  Depth        SN          SP         DIR          GR     
# ...
  1863.5000     20.6114     44.7151     14.3815    134.8453
  1863.7500     21.4018     44.4361     13.6958    144.0636
  1864.0000     21.8511     44.0984     13.0857    155.4234
  1864.2500     20.9085     43.6597     12.5841    161.1208
  1864.5000     19.2076     43.1197     12.2141    166.8213
  1864.7500     18.0644     42.5160     11.9918    169.1669
  1865.0000     17.9714     41.9004     11.9265    171.7029
  1865.2500     18.5956     41.3129     12.0158    173.1981
  1865.5000     19.3646     40.7870     12.2449    175.1509
  1865.7500     19.9189     40.3867     12.5896    176.0242
  1866.0000     20.3156     40.2001     13.0185    175.9669
  1866.2500     20.8740     40.2343     13.4961    174.1331
  1866.5000     21.8414     40.3059     13.9847    166.6834
  1866.7500     23.1713     40.1234     14.4543    158.0097
  1867.0000     24.6210     39.5627     14.8970    140.7719
  1867.2500     26.0082     38.8243     15.3359    128.1812
  1867.5000     27.2779     38.2460     15.8193    110.1285
  1867.7500     28.3994     37.9929     16.3953     99.1345
  1868.0000     29.3124     37.9646     17.0796     83.9188
  1868.2500     29.9986     37.9374     17.8308     74.5884
  1868.5000     30.5247     37.7316     18.5422     62.7341
  1868.7500     30.9105     37.2781     19.0789     56.9835
  1869.0000     31.0624     36.6103     19.3414     51.7126
  1869.2500     30.9867     35.8399     19.3289     49.6115
  1869.5000     30.9587     35.1212     19.1329     46.8462
  1869.7500     31.2283     34.5815     18.8748     44.8873
  1870.0000     31.7038     34.2277     18.6498     42.3759
  1870.2500     32.1589     33.9307     18.5165     41.4501
  1870.5000     32.5017     33.5471     18.5235     41.1877
  1870.7500     32.7359     33.0777     18.7267     41.2697
  1871.0000     32.8261     32.6995     19.1694     40.6760
  1871.2500     32.6771     32.6273     19.8298     39.4322
  1871.5000     32.2913     32.9326     20.5593     36.6257
  1871.7500     31.8662     33.4760     21.0882     34.8503
  1872.0000     31.4944     33.9964     21.1495     34.0615
  1872.2500     30.8991     34.2753     20.6801     35.8349
  1872.5000     29.8736     34.2437     19.8726     43.2422
  1872.7500     28.6676     33.9431     19.0199     51.4244
  1873.0000     27.5871     33.4211     18.3437     66.9923
  1873.2500     26.7062     32.7163     17.9441     77.7625
  1873.5000     26.0665     31.9221     17.8397     91.0623
  1873.7500     25.7581     31.1695     18.0111     96.5740
  1874.0000     25.7655     30.5022     18.4150     98.8646
  1874.2500     25.9368     29.8073     18.9712     96.7025
  1874.5000     26.1828     28.9028     19.5347     89.7010
  1874.7500     26.4306     27.6879     19.9088     83.9856
  1875.0000     26.4307     26.2062     19.9124     75.9157
  1875.2500     26.1132     24.6088     19.4728     71.4270
  1875.5000     25.8896     23.1193     18.6562     66.1590
  1875.7500     26.1315     22.0121     17.6224     63.5988
  1876.0000     26.7206     21.5214     16.5554     61.3478
  1876.2500     27.4274     21.6927     15.6265     61.0853
  1876.5000     28.2833     22.3355     14.9795     62.6537
  1876.7500     29.4164     23.1607     14.7214     64.6812
  1877.0000     30.7557     23.9827     14.9181     67.5674
  1877.2500     31.9851     24.8014     15.5857     67.9496
  1877.5000     32.8474     25.7288     16.6721     64.2927
  1877.7500     33.3760     26.8817     18.0333     59.0934
  1878.0000     33.7921     28.3513     19.4412     49.2823
  1878.2500     34.2759     30.2078     20.6585     42.9751
  1878.5000     34.7817     32.4246     21.5417     35.7500
  1878.7500     35.0296     34.7577     22.0934     32.9025
  1879.0000     34.8169     36.8117     22.4117     31.6530
  1879.2500     34.2861     38.3255     22.6121     32.6180
  1879.5000     33.8195     39.3071     22.7673     36.2985
  1879.7500     33.7353     39.8221     22.8772     40.0369
  1880.0000     33.9540     39.8068     22.8652     47.2680
  1880.2500     34.1123     39.2076     22.6169     52.8942
  1880.5000     34.0698     38.1633     22.0526     61.9348
  1880.7500     33.9235     36.9079     21.2209     68.0900
  1881.0000     33.7352     35.5664     20.2987     77.3037
  1881.2500     33.5519     34.1262     19.5147     83.3046
  1881.5000     33.4673     32.5506     19.0572     91.5629
  1881.7500     33.5204     30.8595     19.0336     96.1250
  1882.0000     33.5486     29.1096     19.4667    100.9401
  1882.2500     33.1556     27.3057     20.2925    102.6896
  1882.5000     32.0440     25.3403     21.3336    103.2975
  1882.7500     30.4238     23.0760     22.2752    102.6807
  1883.0000     28.8278     20.5621     22.7231    101.6043
  1883.2500     27.5783     18.1671     22.4051    102.1519
  1883.5000     26.6137     16.3956     21.3802    106.8778
  1883.7500     25.6760     15.4850     19.9914    112.5507
  1884.0000     24.5028     15.2024     18.6101    122.2722
  1884.2500     23.1204     15.0668     17.4459    127.7410
  1884.5000     22.0788     14.7218     16.5356    132.8421
  1884.7500     21.9142     14.0940     15.8103    134.2740
  1885.0000     22.3980     13.3045     15.1717    134.3544
  1885.2500     22.8317     12.5135     14.5521    133.5494
  1885.5000     22.8569     11.8255     13.9395    131.9255
  1885.7500     22.6275     11.2767     13.3690    131.1255
  1886.0000     22.3793     10.8691     12.8930    130.9818
  1886.2500     22.1083     10.5918     12.5568    131.3952
  1886.5000     21.7294     10.3996     12.3877    131.4703
  1886.7500     21.3746     10.2127     12.3975    130.3427
  1887.0000     21.2334      9.9870     12.5831    126.5422
  1887.2500     21.2777      9.7848     12.9258    123.2437
  1887.5000     21.3417      9.7509     13.3861    119.0299
  1887.7500     21.2164     10.0238     13.8973    117.6311
  1888.0000     20.7015     10.6502     14.3704    118.2228
  1888.2500     19.7526     11.5044     14.7152    120.2428
  1888.5000     18.6653     12.2609     14.8691    124.7544
  1888.7500     17.9902     12.5444     14.8182    127.8481
  1889.0000     17.9233     12.2096     14.5906    131.1371
  1889.2500     17.9886     11.4520     14.2356    132.2180
  1889.5000     17.6732     10.5919     13.8035    133.2797
  1889.7500     17.0806      9.7873     13.3414    134.6000
  1890.0000     16.6730      9.0101     12.8968    138.4345
  1890.2500     16.5594      8.2510     12.5208    141.8741
  1890.5000     16.4117      7.6380     12.2666    146.3804
  1890.7500     16.0433      7.3135     12.1821    147.6782
  1891.0000     15.6417      7.2682     12.3021    146.3495
  1891.2500     15.5916      7.3385     12.6342    144.1152
  1891.5000     16.3218      7.3172     13.1339    141.3710
  1891.7500     17.8851      7.0720     13.6771    141.1181
  1892.0000     19.6438      6.6391     14.0580    142.8876
  1892.2500     20.6977      6.1906     14.0698    144.1229
  1892.5000     20.3254      5.8108     13.6421    143.6938
  1892.7500     18.4225      5.3190     12.8953    141.7838
  1893.0000     16.0274      4.4284     12.0392    138.4895
  1893.2500     14.5476      3.1119     11.2421    137.2321
  1893.5000     14.3366      1.7283     10.5869    137.3319
  1893.7500     14.6206      0.7511     10.0958    138.3456
  1894.0000     14.6878      0.4127      9.7680    140.3355
  1894.2500     14.5598      0.6167      9.5979    141.6199
  1894.5000     14.5125      1.0933      9.5759    143.6437
  1894.7500     14.5494      1.5506      9.6793    145.2949
  1895.0000     14.5274      1.7404      9.8653    147.5413
  1895.2500     14.4028      1.5512     10.0765    147.8537
  1895.5000     14.0770      1.1218     10.2592    145.5458
  1895.7500     13.2972      0.7772     10.3844    142.6719
  1896.0000     12.1566      0.7888     10.4549    138.2405
  1896.2500     11.4182      1.2317     10.4925    136.1790
  1896.5000     11.6561      2.0558     10.5179    135.6443
  1896.7500     12.4526      3.1737     10.5381    137.4138
