~Version Information
 VERS.                                  2.0 : CWLS LAS VERSION
 WRAP.                                   NO : WRAPING MODE
 SWARE .                 MController 2.5.0J : SOFTWARE VERSION
~Well Information
 WELL.                        Montoya 1-24V : WELL
 COMP.                       Petrogulf Corp : COMPANY
 FLD.                      Purgatoire River : FIELD
 LOC.                 SE/SW Sec 1 T33S R68W : LOCATION
 DATE.                          10/19-20/04 : DATE(S) LOGGED
 SRVC.       Blanco Geological Services LLC : SERVICE COMPANY
 STAT.                                   CO : STATE
 CNTY.                           Las Animas : COUNTY
 CTRY.                                  USA : COUNTRY
 API.                       05-071-08194-00 : API NUMBER
 STRT.FT                             116.00 : START DEPTH
 STOP.FT                            2700.00 : STOP DEPTH
 STEP.FT                               1.00 : DEPTH INCREMENT
 NULL.                                -9999 : NULL VALUE
~Curve information
 DEPTH.FT                                   :
 ROP.MIN/FT                                 :
 GAS.UNITS                                  :
~ASCII Log data
       116.0     -9999.00          2.4 
       117.0        11.57         55.2 
       118.0         0.47          3.9 
       119.0         0.43          4.2 
       120.0         0.27          4.5 
       121.0         0.27          4.5 
       122.0         0.55          5.0 
       123.0         0.27          4.9 
       124.0         0.57          5.0 
       125.0         0.23          4.7 
       126.0         0.07          4.7 
       127.0         0.10          4.5 
       128.0         0.10          4.5 
       129.0         0.37          4.3 
       130.0         0.33          4.7 
       131.0         0.27          4.7 
       132.0         0.57          4.9 
       133.0         0.10          4.5 
       134.0         0.13          4.6 
       135.0         0.25          4.6 
       136.0         0.10          4.4 
       137.0         0.27          4.8 
       138.0         0.63          5.2 
       139.0         0.23          5.3 
       140.0         0.13          5.2 
       141.0         0.17          5.2 
       142.0         0.07          5.2 
       143.0         0.57          5.5 
       144.0         0.13          5.3 
       145.0         0.30          5.6 
       146.0         0.17          5.8 
       147.0         0.10          5.5 
       148.0         0.20          6.0 
       149.0         0.28          5.9 
       150.0         0.20          5.5 
       151.0         0.30          5.5 
       152.0         0.27          5.6 
       153.0         0.33          5.3 
       154.0         0.23          4.7 
       155.0         0.27          4.7 
       156.0         0.17          5.0 
       157.0         0.07          5.0 
       158.0         0.20          4.5 
       159.0         0.07          4.5 
       160.0         0.20          4.5 
       161.0         0.27          4.5 
       162.0         0.23          4.6 
       163.0         0.20          4.8 
       164.0         0.23          4.7 
       165.0         0.20          4.4 
       166.0         0.23          4.4 
       167.0         0.23          4.3 
       168.0         0.23          3.9 
       169.0         0.20          4.1 
       170.0         0.10          4.1 
       171.0         0.13          4.1 
       172.0         0.20          4.5 
       173.0         0.25          4.0 
       174.0         0.20          4.0 
       175.0         0.23          4.0 
       176.0         0.27          4.2 
       177.0         0.17          3.6 
       178.0         0.10          3.6 
       179.0         0.27          4.1 
       180.0         0.30          3.8 
       181.0         0.20          3.5 
       182.0         0.07          3.5 
       183.0         0.13          3.3 
       184.0         0.23          3.5 
       185.0         0.27          3.3 
       186.0         0.27          3.6 
       187.0         0.27          3.2 
       188.0         0.32          3.5 
       189.0         0.27          3.5 
       190.0         0.27          3.5 
       191.0         0.27          3.8 
       192.0         0.27          3.6 
       193.0         0.27          3.9 
       194.0         0.23          3.8 
       195.0         0.23          3.9 
       196.0         0.27          3.7 
       197.0         0.23          3.7 
       198.0         0.23          4.1 
       199.0         0.23          4.1 
       200.0         0.23          3.7 
       201.0         0.23          3.8 
       202.0         0.25          3.6 
       203.0         0.27          4.0 
       204.0         0.23          3.8 
       205.0         0.27          4.0 
       206.0         0.27          3.4 
       207.0         0.23          4.2 
       208.0         0.23          3.9 
       209.0         0.23          3.9 
       210.0         0.23          3.7 
       211.0         0.23          3.7 
       212.0         0.27          3.7 
       213.0         0.33          3.8 
       214.0         0.27          3.5 
       215.0         0.28          3.9 
       216.0         0.27          3.8 
       217.0         0.37          3.9 
       218.0         0.53          4.2 
       219.0         0.38          4.0 
       220.0         0.33          3.9 
       221.0         0.40          4.1 
       222.0         0.37          4.0 
       223.0         0.33          3.9 
       224.0         0.37          3.8 
       225.0         0.33          4.2 
       226.0         0.33          4.3 
       227.0         0.37          3.9 
       228.0         0.33          4.0 
       229.0         0.32          4.0 
       230.0         0.30          4.2 
       231.0         0.33          3.8 
       232.0         0.33          3.9 
       233.0         0.37          4.0 
       234.0         0.40          4.3 
       235.0         0.40          4.2 
       236.0         0.37          4.2 
       237.0         0.40          4.4 
       238.0         0.38          4.3 
       239.0         0.37          4.7 
       240.0         0.37          4.6 
       241.0         0.47          4.7 
       242.0         0.37          4.2 
       243.0         0.37          4.3 
       244.0         0.20          4.0 
       245.0         0.37          4.6 
       246.0         0.40          5.0 
       247.0         0.43          4.6 
       248.0         0.37          4.8 
       249.0         0.37          4.9 
       250.0         0.43          4.8 
       251.0         0.43          4.8 
       252.0         0.37          4.8 
       253.0         0.38          4.5 
       254.0         0.40          4.4 
       255.0         0.40          4.8 
       256.0         0.40          4.5 
       257.0         0.37          4.7 
       258.0         0.37          4.7 
       259.0         0.43          4.5 
       260.0         0.53         21.8 
       261.0         0.38         14.6 
       262.0         0.37          4.6 
       263.0         0.30          0.7 
       264.0         0.33          0.1 
       265.0         0.40          0.7 
       266.0         0.40          1.3 
       267.0         0.37          2.1 
       268.0         0.37          2.4 
       269.0         0.37          2.6 
       270.0         0.37          3.7 
       271.0         0.42          3.8 
       272.0         0.33          3.5 
       273.0         0.37          4.0 
       274.0         0.37          4.1 
       275.0         0.40          4.3 
       276.0         0.13          4.3 
       277.0         0.40          4.2 
       278.0         0.40          4.1 
       279.0         0.33          4.3 
       280.0         0.37          4.0 
       281.0         0.37          4.0 
       282.0         0.33          4.3 
       283.0         0.33          4.3 
       284.0         0.38          4.3 
       285.0         0.33          4.2 
       286.0         0.37          4.3 
       287.0         0.37          3.9 
       288.0         0.40          4.0 
       289.0         0.37          4.4 
       290.0         0.37          4.2 
       291.0         0.30          4.2 
       292.0         0.30          4.8 
       293.0         0.35          4.6 
       294.0         0.30          4.5 
       295.0         0.33          4.6 
       296.0         0.37          4.6 
       297.0         0.40          4.6 
       298.0         0.37          4.1 
       299.0         0.30          4.4 
       300.0         0.33          5.2 
       301.0         0.33          5.1 
       302.0         0.33          5.0 
       303.0         0.35          4.8 
       304.0         0.30          5.0 
       305.0         0.30          5.0 
       306.0         0.27          4.9 
       307.0         0.37          5.2 
       308.0         0.27          4.6 
       309.0         0.38          5.0 
       310.0         0.27          4.9 
       311.0         0.30          5.3 
       312.0         0.30          5.4 
       313.0         0.37          4.9 
       314.0         0.37          5.8 
       315.0         0.37          5.8 
