~Version Information
VERS.                      2.0: CWLS Log ASCII Standard - VERSION 2.0
WRAP.                       NO: One line per depth step
~Well Information Block
STRT.FT                 6.5000: 
STOP.FT              1054.0000: 
STEP.FT                 0.2500: 
NULL.                -999.2500: 
COMP.          Pioneer Natural Resources: COMPANY
WELL.            Galileo 21-11: WELL
FLD.           Purgatoire River: FIELD
LOC.           407' FNL & 2394' FWL: LOCATION
PROV.                 Colorado: PROVINCE
CNTY.               Las Animas: COUNTRY
SRVC.                Patterson: SERVICE COMPANY
DATE.          Sat Apr 16 10:31:00 2005: LOG DATE
UWI.           05 071 08353 00: UNIQUE WELL ID
~Curve Information Block
DEPT.FT            0 000 00 00: Depth
GR.GAPI                       : Gamma Ray
CCL.                          : Casing Collar Locator
TT3.usec                      : CBL 3' Travel Time
AMP3.mV                       : CBL 3' Amplitude
~Parameter Information Block
~A  Depth        GR         CCL         TT3         AMP3    
# ...
  1011.5000    116.1805      0.0000    809.4633     11.8072
  1011.7500    114.3868      0.0000    807.1550     11.7659
  1012.0000    110.5662      0.0000    803.8491     11.6779
  1012.2500    106.5611      0.0000    799.9316     11.5620
  1012.5000    103.8213      0.0000    797.3815     11.4483
  1012.7500    103.1939      0.0000    799.7658     11.3613
  1013.0000    104.7928      0.0000    810.4819     11.3082
  1013.2500    107.5399      0.0000    828.8943     11.2829
  1013.5000    109.4730      0.0000    847.9908     11.2819
  1013.7500    109.4547      0.0000    858.8530     11.3083
  1014.0000    108.6282      0.0000    859.5008     11.3516
  1014.2500    109.5179      0.0000    856.8324     11.3626
  1014.5000    113.3167      0.0000    858.2126     11.2530
  1014.7500    118.3870      0.0000    864.7474     10.9361
  1015.0000    121.7913      0.0000    875.2972     10.3828
  1015.2500    121.9951      0.0000    892.3618      9.6474
  1015.5000    119.7813      0.0000    919.7640      8.8481
  1015.7500    117.0899      0.0000    957.8995      8.1293
  1016.0000    115.7721      0.0000   1005.0928      7.6147
  1016.2500    117.0326     -1.6284   1059.8646      7.3534
  1016.5000    120.8318      0.0000   1116.7190      7.3021
  1016.7500    125.5265      0.0000   1162.5387      7.3685
  1017.0000    128.9540      0.0000   1184.2911      7.4844
  1017.2500    130.2912      0.0000   1180.3765      7.6585
  1017.5000    130.4957      0.0000   1159.8043      7.9733
  1017.7500    131.0219      0.0000   1132.0229      8.5108
  1018.0000    132.5871      0.0000   1103.1165      9.2581
  1018.2500    134.9432      0.0000   1078.7596     10.0898
  1018.5000    137.0422      0.0000   1061.5052     10.8454
  1018.7500    137.4962      0.0000   1044.2061     11.4162
  1019.0000    135.6030      0.0000   1013.7700     11.7748
  1019.2500    132.1602      0.0000    964.7361     11.9537
  1019.5000    129.0471      0.0000    906.4764     12.0119
  1019.7500    127.9835      0.0000    855.6241     12.0072
  1020.0000    129.6911      0.0000    823.1881     11.9815
  1020.2500    133.7748      0.0000    809.4987     11.9515
  1020.5000    138.8620      0.0000    808.7759     11.9098
  1020.7500    143.0904      0.0000    815.2585     11.8440
  1021.0000    145.2843      0.0000    824.8829     11.7571
  1021.2500    145.8476      0.0000    833.3915     11.6682
  1021.5000    146.1591      0.0000    836.1119     11.5935
  1021.7500    147.1801      0.0000    831.2176     11.5293
  1022.0000    148.9565      0.0000    821.7595     11.4568
  1022.2500    151.1482      0.0000    812.5562     11.3652
  1022.5000    153.5062      0.0000    805.8168     11.2688
  1022.7500    155.9353      0.0000    800.9089     11.1933
  1023.0000    158.1974      0.0000    796.9203     11.1495
  1023.2500    159.3000      0.0000    793.8484     11.1267
  1023.5000    157.2878      0.0000    791.9627     11.1058
  1023.7500    150.4319      0.0000    791.2845     11.0690
  1024.0000    139.2599      0.0000    791.8342     11.0003
  1024.2500    127.1493      0.0000    793.8940     10.8852
  1024.5000    118.3027      0.0000    797.9296     10.7161
  1024.7500    114.9642      0.0000    804.3612     10.4985
  1025.0000    116.2950      0.0000    813.6621     10.2558
  1025.2500    119.1042      0.0000    826.3821     10.0287
  1025.5000    119.7234      0.0000    842.2421      9.8623
  1025.7500    116.4483      0.0000    859.1360      9.7895
  1026.0000    110.9305      0.0000    874.2639      9.8193
  1026.2500    106.7891      0.0000    886.3965      9.9349
  1026.5000    106.5320      0.0000    895.2529     10.0987
  1026.7500    109.8192      0.0000    898.6530     10.2653
  1027.0000    114.4222      0.0000    893.3447     10.4023
  1027.2500    118.2973      0.0000    879.7596     10.5014
  1027.5000    120.5033      0.0000    863.6626     10.5703
  1027.7500    120.7552      0.0000    852.1470     10.6185
  1028.0000    119.2639      0.0000    849.6636     10.6523
  1028.2500    117.2963      0.0000    857.3693     10.6732
  1028.5000    116.8784      0.0000    872.7974     10.6780
  1028.7500    119.0832      0.0000    888.6597     10.6621
  1029.0000    122.8874      0.0000    895.3273     10.6260
  1029.2500    126.2643      0.0000    888.1414     10.5761
  1029.5000    128.1080      0.0000    871.6596     10.5209
  1029.7500    128.5356      0.0000    854.9272     10.4683
  1030.0000    127.7844      0.0000    843.7198     10.4257
  1030.2500    125.8063      0.0000    838.2605     10.3994
  1030.5000    122.9612      0.0000    836.1863     10.3956
  1030.7500    120.1902      0.0000    835.5446     10.4220
  1031.0000    118.1859      0.0000    835.7556     10.4841
  1031.2500    116.7637      0.0000    837.6027     10.5732
  1031.5000    115.1241      0.0000    843.1987     10.6573
  1031.7500    112.4400      0.0000    855.2172     10.6949
  1032.0000    108.2926      0.0000    874.4248     10.6613
  1032.2500    102.9819      0.0000    897.6099     10.5663
  1032.5000     97.7427      0.0000    920.0702     10.4471
  1032.7500     94.4537      0.0000    941.4758     10.3449
  1033.0000     94.5037      0.0000    966.5801     10.2813
  1033.2500     97.6376      0.0000    997.1070     10.2514
  1033.5000    102.2214      0.0000   1023.8777     10.2339
  1033.7500    106.7913      0.0000   1030.2242     10.2062
  1034.0000    110.9890      0.0000   1005.9653     10.1577
  1034.2500    114.9352      0.0000    958.2750     10.0957
  1034.5000    118.3485      0.0000    906.8203     10.0400
  1034.7500    120.6566      0.0000    868.2169     10.0053
  1035.0000    121.5100      0.0000    846.6508      9.9878
  1035.2500    120.8647      0.0000    837.0150      9.9698
  1035.5000    119.0078      0.0000    832.5850      9.9375
  1035.7500    116.8643      0.0000    829.3031      9.8919
  1036.0000    115.9639      0.0000    826.0560      9.8448
  1036.2500    117.4984      0.0000    823.2882      9.8092
  1036.5000    121.0667      0.0000    821.4172      9.7908
  1036.7500    124.5524      0.0000    820.1545      9.7861
  1037.0000    125.8756      0.0000    818.7000      9.7824
  1037.2500    124.9469      0.0000    816.0916      9.7630
  1037.5000    123.3964      0.0000    811.6844      9.7167
  1037.7500    122.3334      0.0000    805.9030      9.6454
  1038.0000    120.9923      0.0000    800.3582      9.5632
  1038.2500    117.8195      0.0000    796.7782      9.4870
  1038.5000    112.6342      0.0000    795.7822      9.4314
  1038.7500    107.5129      0.0000    795.8925      9.3981
  1039.0000    105.4031      0.0000    792.0724      9.3468
  1039.2500    107.7868      0.0000    773.5746      9.1487
  1039.5000    113.6751      0.0000    723.9514      8.5825
  1039.7500    120.6156      0.0000    628.2661      7.4461
  1040.0000    126.3012      0.0000    487.3960      5.7536
  1040.2500    129.5339      0.0000    326.5716      3.8289
  1040.5000    130.4372      0.0000    183.7090      2.1364
  1040.7500    130.0165      0.0000     84.9273      0.9796
  1041.0000    129.3751      0.0000     31.7711      0.3637
  1041.2500    129.1764      0.0000      9.5120      0.1082
  1041.5000    129.4983      0.0000      2.2583      0.0256
  1041.7500    129.7587      0.0000      0.4192      0.0047
  1042.0000    128.8811      0.0000   -999.2500   -999.2500
  1042.2500    125.9977      0.0000   -999.2500   -999.2500
  1042.5000    121.2278      0.0000   -999.2500   -999.2500
  1042.7500    115.9737      0.0000   -999.2500   -999.2500
  1043.0000    112.6158      0.0000   -999.2500   -999.2500
  1043.2500    113.4122      0.0000   -999.2500   -999.2500
  1043.5000    118.6873      0.0000   -999.2500   -999.2500
  1043.7500    125.7956      0.0000   -999.2500   -999.2500
  1044.0000    130.4593      0.0000   -999.2500   -999.2500
  1044.2500    129.7345      0.0000   -999.2500   -999.2500
  1044.5000    123.9495      0.0000   -999.2500   -999.2500
  1044.7500    116.1516      0.0000   -999.2500   -999.2500
