~Version Information
VERS.                      2.0: CWLS Log ASCII Standard - VERSION 2.0
WRAP.                       NO: One line per depth step
~Well Information Block
STRT.FT               647.0000: 
STOP.FT              1166.0000: 
STEP.FT                 0.1000: 
NULL.                -999.2500: 
COMP.          Pioneer Natural Resources: COMPANY
WELL.             Linda T 32-3: WELL
FLD.           Purgatoire River: FIELD
LOC.           1350' FNL & 2290' FEL: LOCATION
PROV.                 Colorado: PROVINCE
CNTY.               Las Animas: COUNTRY
SRVC.                Patterson: SERVICE COMPANY
DATE.          Sat Feb 05 08:06:50 2005: LOG DATE
UWI.           05 071 08215 00: UNIQUE WELL ID
~Curve Information Block
DEPT.FT            0 000 00 00: Depth
DCAL.in                       : CDL Caliper
RHOB.g/cc                     : CDL Bulk Density
RHOC.g/cc                     : CDL Density Correction
DPOR.pu                       : CDL Density Porosity
GR.GAPI                       : Gamma Ray
NPOR.pu                       : Neutron Porosity
~Parameter Information Block
~A  Depth       DCAL        RHOB        RHOC        DPOR         GR         NPOR    
# ...
  1021.4000      8.0367      2.5967      0.0517      3.2287     65.2717     14.6005
  1021.5000      8.0432      2.5939      0.0147      3.4014     65.8013     14.1512
  1021.6000      8.0432      2.5900      0.0131      3.6376     66.1705     13.9189
  1021.7000      8.0432      2.5811      0.0461      4.1764     68.2986     14.4076
  1021.8000      8.0317      2.5724      0.0234      4.7019     69.6175     15.5229
  1021.9000      8.0317      2.5695      0.0278      4.8800     66.5222     16.3481
  1022.0000      8.0220      2.5705      0.0352      4.8201     61.6253     16.3071
  1022.1000      8.0220      2.5746      0.0224      4.5718     58.6196     16.0363
  1022.2000      8.0220      2.5793      0.0492      4.2853     58.0854     16.1446
  1022.3000      8.0431      2.5765      0.0339      4.4543     60.0424     16.5445
  1022.4000      8.0431      2.5630      0.0340      5.2714     62.9439     16.9655
  1022.5000      8.0497      2.5451      0.0361      6.3589     63.9576     17.3427
  1022.6000      8.0497      2.5280      0.0684      7.3916     63.8077     17.4441
  1022.7000      8.0497      2.5087      0.0345      8.5655     63.6123     17.2504
  1022.8000      8.0474      2.4885      0.0467      9.7875     62.0117     17.1087
  1022.9000      8.0474      2.4818     -0.0330     10.1923     58.8803     16.9304
  1023.0000      8.0467      2.4956      0.0075      9.3593     58.4284     16.6436
  1023.1000      8.0467      2.5131      0.0418      8.2948     63.0422     16.7116
  1023.2000      8.0467      2.5233      0.0245      7.6758     68.0531     17.3507
  1023.3000      8.0339      2.5356      0.0575      6.9355     69.9085     18.2779
  1023.4000      8.0339      2.5519      0.1052      5.9445     71.7800     18.9025
  1023.5000      8.0250      2.5610      0.0685      5.3935     77.1741     18.3425
  1023.6000      8.0250      2.5563      0.0722      5.6776     83.2889     16.9821
  1023.7000      8.0250      2.5420      0.0462      6.5429     84.3478     16.5976
  1023.8000      8.0116      2.5273      0.0462      7.4347     80.3689     17.5075
  1023.9000      8.0116      2.5117      0.0684      8.3809     78.6050     18.3404
  1024.0000      8.0236      2.4920      0.0190      9.5743     80.8928     18.5243
  1024.1000      8.0236      2.4786      0.0170     10.3885     83.4829     18.4079
  1024.2000      8.0236      2.4815      0.0173     10.2118     87.3046     18.3727
  1024.3000      8.0320      2.4966      0.0330      9.2952     93.1456     18.8466
  1024.4000      8.0320      2.5119      0.0406      8.3697     97.9239     19.7977
  1024.5000      8.0373      2.5220      0.0208      7.7576    100.4269     20.7957
  1024.6000      8.0373      2.5290      0.0308      7.3304    101.9230     21.4363
  1024.7000      8.0373      2.5317      0.0605      7.1707    103.4555     21.7965
  1024.8000      8.0337      2.5307      0.0240      7.2300    103.1665     21.9696
  1024.9000      8.0337      2.5342      0.0392      7.0181     99.4962     21.5678
  1025.0000      8.0290      2.5444      0.0421      6.3997     94.8881     20.6572
  1025.1000      8.0290      2.5575      0.0394      5.6072     94.1880     19.5760
  1025.2000      8.0290      2.5650      0.0982      5.1500     97.7819     18.7269
  1025.3000      8.0299      2.5583      0.0842      5.5594    101.4061     18.6910
  1025.4000      8.0299      2.5487      0.0636      6.1411    102.2325     19.3483
  1025.5000      8.0222      2.5546      0.0512      5.7792     98.8620     19.8632
  1025.6000      8.0222      2.5768      0.0644      4.4387     92.9072     19.5618
  1025.7000      8.0222      2.6014      0.0897      2.9475     87.7723     18.7699
  1025.8000      8.0360      2.6104      0.1294      2.3985     86.1779     18.4536
  1025.9000      8.0360      2.5996      0.0719      3.0519     86.7420     18.8034
  1026.0000      8.0154      2.5838      0.0664      4.0097     85.9758     19.3019
  1026.1000      8.0154      2.5728      0.0687      4.6771     86.2119     19.6229
  1026.2000      8.0154      2.5674      0.0450      5.0063     91.1259     19.8740
  1026.3000      8.0228      2.5690      0.0558      4.9072     98.8065     20.1647
  1026.4000      8.0228      2.5769      0.0459      4.4282    104.0740     20.5781
  1026.5000      8.0256      2.5908      0.0570      3.5903    104.5324     21.4383
  1026.6000      8.0256      2.6088      0.0925      2.4966    102.4267     22.3091
  1026.7000      8.0256      2.6239      0.1220      1.5793    100.9634     22.2870
  1026.8000      8.0128      2.6267      0.1563      1.4116    100.1540     21.8891
  1026.9000      8.0128      2.6130      0.1022      2.2442     97.2016     21.9411
  1027.0000      7.9967      2.5905      0.0774      3.6054     91.4354     22.1480
  1027.1000      7.9967      2.5717      0.0763      4.7467     86.0680     22.0961
  1027.2000      7.9967      2.5667      0.0402      5.0458     81.5684     21.8628
  1027.3000      8.0166      2.5738      0.0668      4.6204     77.5730     21.5695
  1027.4000      8.0166      2.5759      0.0735      4.4907     74.8392     21.2530
  1027.5000      8.0477      2.5655      0.0670      5.1203     73.1952     21.1015
  1027.6000      8.0477      2.5528      0.0685      5.8926     74.3625     21.0437
  1027.7000      8.0477      2.5484      0.0215      6.1549     77.9948     20.8414
  1027.8000      8.0545      2.5467      0.0576      6.2599     77.9412     20.5913
  1027.9000      8.0545      2.5392      0.0383      6.7130     71.3479     20.6550
  1028.0000      8.0324      2.5342      0.0250      7.0170     65.4857     20.9850
  1028.1000      8.0324      2.5389      0.0344      6.7348     66.8813     20.8195
  1028.2000      8.0324      2.5443      0.0609      6.4063     71.8963     19.9025
  1028.3000      8.0335      2.5454      0.0307      6.3376     74.1737     19.0056
  1028.4000      8.0335      2.5508      0.0693      6.0101     72.9716     18.7100
  1028.5000      8.0245      2.5580      0.0655      5.5729     71.6863     18.9926
  1028.6000      8.0245      2.5552      0.0407      5.7430     72.6747     19.3957
  1028.7000      8.0245      2.5402      0.0596      6.6541     74.9903     19.1533
  1028.8000      8.0209      2.5205      0.0062      7.8464     76.6120     18.2473
  1028.9000      8.0209      2.5100     -0.0049      8.4870     77.8397     17.6323
  1029.0000      8.0133      2.5146      0.0318      8.2064     75.8983     17.7090
  1029.1000      8.0133      2.5220      0.0369      7.7596     69.6324     17.8487
  1029.2000      8.0133      2.5150      0.0722      8.1802     65.4452     17.8550
  1029.3000      8.0121      2.4950      0.0493      9.3954     68.2374     17.9727
  1029.4000      8.0121      2.4831      0.0202     10.1171     75.1050     17.8912
  1029.5000      8.0144      2.4952      0.0172      9.3815     80.1223     17.7590
  1029.6000      8.0144      2.5196      0.1095      7.9012     81.3126     18.3120
  1029.7000      8.0144      2.5318      0.0869      7.1614     79.0115     19.3476
  1029.8000      8.0104      2.5247      0.0785      7.5937     74.8965     19.8380
  1029.9000      8.0104      2.5013      0.0874      9.0112     73.0530     19.6358
  1030.0000      8.0107      2.4717      0.0464     10.8075     78.3227     19.0287
  1030.1000      8.0107      2.4547      0.0243     11.8333     90.1925     18.1425
  1030.2000      8.0107      2.4552      0.0313     11.8069    100.0844     17.6404
  1030.3000      8.0198      2.4604      0.0290     11.4902    103.1289     17.7413
  1030.4000      8.0198      2.4597      0.0570     11.5312    102.3377     17.9822
  1030.5000      8.0260      2.4545      0.0410     11.8508     97.8595     18.2113
  1030.6000      8.0260      2.4582      0.0318     11.6234     88.8374     18.5524
  1030.7000      8.0260      2.4740      0.0784     10.6693     82.5795     19.1093
  1030.8000      8.0313      2.4819      0.0868     10.1856     85.5203     19.6643
  1030.9000      8.0313      2.4694      0.0742     10.9429     90.6586     19.7615
