~Version Information
VERS.                      2.0: CWLS Log ASCII Standard - VERSION 2.0
WRAP.                       NO: One line per depth step
~Well Information Block
STRT.FT               780.0000: 
STOP.FT              3152.2500: 
STEP.FT                 0.2500: 
NULL.                -999.2500: 
COMP.          Pioneer Natural Resources: COMPANY
WELL.            Paradise 13-8: WELL
FLD.           Purgatoire River: FIELD
LOC.           1896' FSL & 1120' FWL: LOCATION
PROV.                 Colorado: PROVINCE
CNTY.               Las Animas: COUNTRY
SRVC.                Patterson: SERVICE COMPANY
DATE.          Sat Jan 22 20:39:47 2005: LOG DATE
UWI.           05 071 07946 00: UNIQUE WELL ID
~Curve Information Block
DEPT.FT            0 000 00 00: Depth
SN.Ohm-m                      : IEL Short Normal
SP.mV                         : IEL Spontaneous Potential
DIR.Ohm-m                     : IEL Induction Resistivity
GR.GAPI                       : Gamma Ray
~Parameter Information Block
~A  Depth        SN          SP         DIR          GR     
# ...
   947.5000   2000.0000   2000.0000     18.6222    113.7213
   947.7500   2000.0000   2000.0000     18.0702    113.9392
   948.0000   2000.0000   2000.0000     17.6828    115.0158
   948.2500   2000.0000   2000.0000     17.4434    116.4072
   948.5000   2000.0000   2000.0000     17.3334    118.9481
   948.7500   2000.0000   2000.0000     17.3459    120.4558
   949.0000   2000.0000   2000.0000     17.4811    121.9987
   949.2500   2000.0000   2000.0000     17.7314    122.5580
   949.5000   2000.0000   2000.0000     18.0746    122.6807
   949.7500   2000.0000   2000.0000     18.4841    121.9854
   950.0000   2000.0000   2000.0000     18.9469    118.6940
   950.2500   2000.0000   2000.0000     19.4712    114.4212
   950.5000   2000.0000   2000.0000     20.0769    105.1723
   950.7500   2000.0000   2000.0000     20.7770     98.3090
   951.0000   2000.0000   2000.0000     21.5662     89.7857
   951.2500   2000.0000   2000.0000     22.4209     86.3662
   951.5000   2000.0000   2000.0000     23.3088     84.4240
   951.7500   2000.0000   2000.0000     24.1998     84.1979
   952.0000   2000.0000   2000.0000     25.0665     83.5261
   952.2500   2000.0000   2000.0000     25.8759     82.3465
   952.5000   2000.0000   2000.0000     26.5871     79.8480
   952.7500   2000.0000   2000.0000     27.1686     78.2006
   953.0000   2000.0000   2000.0000     27.6335     76.3602
   953.2500   2000.0000   2000.0000     28.0597     75.6756
   953.5000   2000.0000   2000.0000     28.5754     75.3560
   953.7500   2000.0000   2000.0000     29.3156     75.3290
   954.0000   2000.0000   2000.0000     30.3743     74.8413
   954.2500   2000.0000   2000.0000     31.7571     73.9343
   954.5000   2000.0000   2000.0000     33.3356     71.7423
   954.7500   2000.0000   2000.0000     34.8356     69.9372
   955.0000   2000.0000   2000.0000     35.9394     67.1612
   955.2500   2000.0000   2000.0000     36.5001     65.5985
   955.5000   2000.0000   2000.0000     36.6664     64.3535
   955.7500   2000.0000   2000.0000     36.7576     64.4839
   956.0000   2000.0000   2000.0000     37.0292     65.8796
   956.2500   2000.0000   2000.0000     37.5514     67.1210
   956.5000   2000.0000   2000.0000     38.2380     68.3413
   956.7500   2000.0000   2000.0000     38.9453     68.1668
   957.0000   2000.0000   2000.0000     39.5570     66.1920
   957.2500   2000.0000   2000.0000     40.0115     64.1966
   957.5000   2000.0000   2000.0000     40.2869     61.4553
   957.7500   2000.0000   2000.0000     40.3827     60.2209
   958.0000   2000.0000   2000.0000     40.3279     58.9153
   958.2500   2000.0000   2000.0000     40.1950     57.8505
   958.5000   2000.0000   2000.0000     40.1004     55.3434
   958.7500   2000.0000   2000.0000     40.1759     53.2171
   959.0000   2000.0000   2000.0000     40.5278     50.2456
   959.2500   2000.0000   2000.0000     41.2014     48.9030
   959.5000   2000.0000   2000.0000     42.1458     48.1139
   959.7500   2000.0000   2000.0000     43.1877     48.2438
   960.0000   2000.0000   2000.0000     44.0470     48.8757
   960.2500   2000.0000   2000.0000     44.4323     49.2677
   960.5000   2000.0000   2000.0000     44.1857     49.5400
   960.7500   2000.0000   2000.0000     43.3617     49.6202
   961.0000   2000.0000   2000.0000     42.1738     50.2023
   961.2500   2000.0000   2000.0000     40.8641     51.3134
   961.5000   2000.0000   2000.0000     39.5999     54.2949
   961.7500   2000.0000   2000.0000     38.4468     56.8097
   962.0000   2000.0000   2000.0000     37.4122     60.1990
   962.2500   2000.0000   2000.0000     36.5209     61.5591
   962.5000   2000.0000   2000.0000     35.8515     61.6754
   962.7500   2000.0000   2000.0000     35.4926     60.4342
   963.0000   2000.0000   2000.0000     35.4597     56.9424
   963.2500   2000.0000   2000.0000     35.6612     53.9918
   963.5000   2000.0000   2000.0000     35.9533     49.6780
   963.7500   2000.0000   2000.0000     36.2382     47.3195
   964.0000   2000.0000   2000.0000     36.5036     44.7173
   964.2500   2000.0000   2000.0000     36.7579     43.4875
   964.5000   2000.0000   2000.0000     36.9296     42.1405
   964.7500   2000.0000   2000.0000     36.8355     41.4501
   965.0000   2000.0000   2000.0000     36.2645     40.8484
   965.2500   2000.0000   2000.0000     35.1188     41.1659
   965.5000   2000.0000   2000.0000     33.4802     43.8559
   965.7500   2000.0000   2000.0000     31.5452     47.7345
   966.0000   2000.0000   2000.0000     29.5176     57.3583
   966.2500   2000.0000   2000.0000     27.5472     66.3645
   966.5000   2000.0000   2000.0000     25.7232     82.6459
   966.7500   2000.0000   2000.0000     24.0820     93.7925
   967.0000   2000.0000   2000.0000     22.6185    107.7374
   967.2500   2000.0000   2000.0000     21.3038    114.1063
   967.5000   2000.0000   2000.0000     20.1071    119.8116
   967.7500   2000.0000   2000.0000     19.0142    122.1570
   968.0000   2000.0000   2000.0000     18.0307    124.9243
   968.2500   2000.0000   2000.0000     17.1733    126.5241
   968.5000   2000.0000   2000.0000     16.4572    128.7405
   968.7500   2000.0000   2000.0000     15.8860    130.4914
   969.0000   2000.0000   2000.0000     15.4513    134.4628
   969.2500   2000.0000   2000.0000     15.1373    137.9809
   969.5000   2000.0000   2000.0000     14.9263    142.5965
   969.7500   2000.0000   2000.0000     14.7982    143.6975
   970.0000   2000.0000   2000.0000     14.7287    141.8708
   970.2500   2000.0000   2000.0000     14.6888    139.7010
   970.5000   2000.0000   2000.0000     14.6509    137.6388
   970.7500   2000.0000   2000.0000     14.5977    137.2207
   971.0000   2000.0000   2000.0000     14.5274    136.2846
   971.2500   2000.0000   2000.0000     14.4515    134.6580
   971.5000   2000.0000   2000.0000     14.3879    131.1472
   971.7500   2000.0000   2000.0000     14.3534    128.8661
   972.0000   2000.0000   2000.0000     14.3583    126.2506
   972.2500   2000.0000   2000.0000     14.4045    125.0087
   972.5000   2000.0000   2000.0000     14.4875    123.7851
   972.7500   2000.0000   2000.0000     14.5995    123.4617
   973.0000   2000.0000   2000.0000     14.7318    123.7657
   973.2500   2000.0000   2000.0000     14.8738    124.4110
   973.5000   2000.0000   2000.0000     15.0111    125.7991
   973.7500   2000.0000   2000.0000     15.1277    126.7623
   974.0000   2000.0000   2000.0000     15.2117    127.6807
   974.2500   2000.0000   2000.0000     15.2611    127.6794
   974.5000   2000.0000   2000.0000     15.2825    126.9572
   974.7500   2000.0000   2000.0000     15.2856    126.5013
   975.0000   2000.0000   2000.0000     15.2770    126.6978
   975.2500   2000.0000   2000.0000     15.2583    127.5903
   975.5000   2000.0000   2000.0000     15.2282    130.0436
   975.7500   2000.0000   2000.0000     15.1850    132.3782
   976.0000   2000.0000   2000.0000     15.1283    136.4989
   976.2500   2000.0000   2000.0000     15.0612    139.1293
   976.5000   2000.0000   2000.0000     14.9914    142.1059
   976.7500   2000.0000   2000.0000     14.9297    143.3092
   977.0000   2000.0000   2000.0000     14.8855    144.0936
   977.2500   2000.0000   2000.0000     14.8626    144.1375
   977.5000   2000.0000   2000.0000     14.8582    144.0750
   977.7500   2000.0000   2000.0000     14.8661    144.3265
   978.0000   2000.0000   2000.0000     14.8800    145.3243
   978.2500   2000.0000   2000.0000     14.8950    146.1875
   978.5000   2000.0000   2000.0000     14.9078    147.3201
   978.7500   2000.0000   2000.0000     14.9149    147.8042
   979.0000   2000.0000   2000.0000     14.9131    147.7477
   979.2500   2000.0000   2000.0000     14.8998    146.7610
   979.5000   2000.0000   2000.0000     14.8754    143.4207
   979.7500   2000.0000   2000.0000     14.8444    140.4612
   980.0000   2000.0000   2000.0000     14.8144    136.8927
   980.2500   2000.0000   2000.0000     14.7939    135.9096
   980.5000   2000.0000   2000.0000     14.7906    136.1783
   980.7500   2000.0000   2000.0000     14.8089    136.7088
