~Version Information
 VERS.                                  2.0 : CWLS LAS VERSION
 WRAP.                                   NO : WRAPING MODE
 SWARE .                 MController 2.5.0J : SOFTWARE VERSION
~Well Information
 WELL.                          Silva 6-22V : WELL
 COMP.                       Petrogulf Corp : COMPANY
 FLD.                      Purgatoire River : FIELD
 LOC.                 SE/NW Sec 6 T33S R67W : LOCATION
 DATE.                            11/7-9/04 : DATE(S) LOGGED
 SRVC.       Blanco Geological Services LLC : SERVICE COMPANY
 STAT.                                   CO : STATE
 CNTY.                           Las Animas : COUNTY
 CTRY.                                  USA : COUNTRY
 API.                       05-071-08143-00 : API NUMBER
 STRT.FT                              35.00 : START DEPTH
 STOP.FT                            2732.00 : STOP DEPTH
 STEP.FT                               1.00 : DEPTH INCREMENT
 NULL.                                -9999 : NULL VALUE
~Curve information
 DEPTH.FT                                   :
 ROP.MIN/FT                                 :
 GAS.UNITS                                  :
~ASCII Log data
# ...
       835.0         0.27         11.7 
       836.0         0.27         11.9 
       837.0         0.20         11.7 
       838.0         0.23         11.1 
       839.0         0.25         11.1 
       840.0         0.20         10.8 
       841.0         0.17          9.6 
       842.0         0.20          9.8 
       843.0         0.17         10.1 
       844.0         0.20         11.0 
       845.0         0.17         11.2 
       846.0         0.20         11.7 
       847.0         0.17         11.7 
       848.0         0.17         11.4 
       849.0         0.27         11.2 
       850.0         0.27         10.5 
       851.0         0.27         10.1 
       852.0         0.27         10.0 
       853.0         0.07         10.9 
       854.0         0.17         10.9 
       855.0         0.17         10.3 
       856.0         0.18         10.3 
       857.0         0.17         10.5 
       858.0         0.20         10.5 
       859.0         0.17         10.5 
       860.0         0.17         10.5 
       861.0         0.23         11.4 
       862.0         0.23         10.9 
       863.0         0.23         10.5 
       864.0         0.23         11.2 
       865.0         0.23         11.2 
       866.0         0.37         11.6 
       867.0         0.58         11.3 
       868.0         0.50         11.4 
       869.0         0.43         11.2 
       870.0         0.37         11.0 
       871.0         0.20         10.0 
       872.0         0.17         10.8 
       873.0         0.13         10.8 
       874.0         0.17         11.4 
       875.0         0.20         11.4 
       876.0         0.17         10.5 
       877.0         0.13         10.2 
       878.0         0.13         10.4 
       879.0         0.17         10.3 
       880.0         0.18         11.1 
       881.0         0.10         11.1 
       882.0         0.13         11.6 
       883.0         0.17         11.6 
       884.0         0.17         11.3 
       885.0         0.20         11.7 
       886.0         0.17         11.7 
       887.0         0.17         12.4 
       888.0         0.13         12.6 
       889.0         0.17         12.5 
       890.0         0.20         12.9 
       891.0         0.17         12.5 
       892.0         0.17         12.5 
       893.0         0.17         13.4 
       894.0         0.20         13.4 
       895.0         0.20         13.2 
       896.0         0.10         13.2 
       897.0         0.33         12.0 
       898.0         0.27         12.1 
       899.0         0.23         11.9 
       900.0         0.23         11.6 
       901.0         0.23         11.1 
       902.0         0.20         10.9 
       903.0         0.17         10.4 
       904.0         0.17         10.7 
       905.0         0.20         10.9 
       906.0         0.17         10.3 
       907.0         0.15         10.4 
       908.0         0.17         10.6 
       909.0         0.20         11.4 
       910.0         0.17         11.4 
       911.0         0.17         11.4 
       912.0         0.17         11.4 
       913.0         0.17         10.8 
       914.0         0.17         10.9 
       915.0         0.13         10.9 
       916.0         0.17         10.7 
       917.0         0.13         10.7 
       918.0         0.13         10.8 
       919.0         0.17         13.7 
       920.0         0.17         16.0 
       921.0         0.20         17.5 
       922.0         0.20         17.8 
       923.0         0.13         17.8 
       924.0         0.17         16.0 
       925.0         0.20         14.0 
       926.0         0.28         13.0 
       927.0         0.33         12.8 
       928.0         0.27         12.9 
       929.0         0.30         12.8 
       930.0         0.30         11.8 
       931.0         0.30         12.0 
       932.0         0.35         10.4 
       933.0         0.27         10.8 
       934.0         0.27         11.3 
       935.0         0.20         12.1 
       936.0         0.23         11.7 
       937.0         0.20         12.0 
       938.0         0.20         11.6 
       939.0         0.17         10.4 
       940.0         0.20         10.2 
       941.0         0.20         12.3 
       942.0         0.20         12.3 
       943.0         0.20         12.1 
       944.0         0.17         12.7 
       945.0         0.17         12.4 
       946.0         0.17         12.4 
       947.0         0.17         11.6 
       948.0         0.20         11.1 
       949.0         0.18         11.7 
       950.0         0.13         13.2 
       951.0         0.17         13.2 
       952.0         0.17         15.2 
       953.0         0.13         15.1 
       954.0         0.13         15.2 
       955.0         0.13         13.8 
       956.0         0.33         13.3 
       957.0         0.30         13.3 
       958.0         0.22         13.0 
       959.0         0.20         12.3 
       960.0         0.23         12.1 
       961.0         0.20         12.5 
       962.0         0.27         12.7 
       963.0         0.20         12.3 
       964.0         0.27         11.6 
       965.0         0.23         11.3 
       966.0         0.20         11.6 
       967.0         0.20         11.8 
       968.0         0.20         11.5 
       969.0         0.23         11.2 
       970.0         0.17         12.5 
       971.0         0.20         12.5 
       972.0         0.17         12.5 
       973.0         0.20         13.6 
       974.0         0.22         14.0 
       975.0         0.17         13.0 
       976.0         0.17         12.2 
       977.0         0.20         12.2 
       978.0         0.13         12.1 
       979.0         0.13         12.4 
       980.0         0.10         12.4 
       981.0         0.17         12.9 
       982.0         0.13         12.6 
       983.0         0.13         13.5 
       984.0         0.17         13.5 
       985.0         0.13         14.5 
       986.0         0.27         14.7 
       987.0         0.20         14.5 
       988.0         0.20         14.9 
       989.0         0.10         14.9 
       990.0         0.30         14.7 
       991.0         0.27         13.7 
       992.0         0.27         12.9 
       993.0         0.20         12.8 
       994.0         0.17         12.2 
       995.0         0.20         12.5 
       996.0         0.20         12.6 
       997.0         0.23         12.0 
       998.0         0.27         13.0 
       999.0         0.20         12.6 
      1000.0         0.22         12.8 
      1001.0         0.23         14.2 
      1002.0         0.27         14.5 
      1003.0         0.20         14.5 
      1004.0         0.27         16.1 
      1005.0         0.20         16.1 
      1006.0         0.17         16.2 
      1007.0         0.20         15.8 
      1008.0         0.17         14.7 
      1009.0         0.20         13.2 
      1010.0         0.13         13.0 
      1011.0         0.10         13.0 
      1012.0         0.10         13.0 
      1013.0         0.17         13.0 
      1014.0         0.17         13.6 
      1015.0         0.20         13.6 
      1016.0         0.13         14.0 
      1017.0         0.27         13.9 
      1018.0         0.23         13.4 
      1019.0         0.23         13.5 
      1020.0         0.23         12.5 
      1021.0         0.27         13.2 
      1022.0         0.20         12.5 
      1023.0         0.10         12.7 
      1024.0         0.27         13.5 
      1025.0         0.27         13.3 
      1026.0         0.27         13.6 
      1027.0         0.30         13.2 
      1028.0         0.32         13.3 
      1029.0         0.30         12.8 
      1030.0         0.27         14.7 
      1031.0         0.30         14.5 
      1032.0         0.33         13.8 
      1033.0         0.23         14.4 
      1034.0         0.23         12.9 
