~Version Information
VERS.                      2.0: CWLS Log ASCII Standard - VERSION 2.0
WRAP.                       NO: One line per depth step
~Well Information Block
STRT.FT               375.0000: 
STOP.FT              2795.7000: 
STEP.FT                 0.1000: 
NULL.                -999.2500: 
COMP.          Pioneer Natural Resources: COMPANY
WELL.              Getem 21-23: WELL
FLD.           Purgatoire River: FIELD
LOC.           2623' FWL & 790' FNL--: LOCATION
PROV.                 Colorado: PROVINCE
CNTY.               Las Animas: COUNTRY
SRVC.                Patterson: SERVICE COMPANY
DATE.          Mon Jun 20 07:26:21 2005: LOG DATE
UWI.           05 071 08411 00: UNIQUE WELL ID
~Curve Information Block
DEPT.FT            0 000 00 00: Depth
DCAL.in                       : CDL Caliper
RHOB.g/cc                     : CDL Bulk Density
RHOC.g/cc                     : CDL Density Correction
DPOR.pu                       : CDL Density Porosity
NPOR.pu                       : Neutron Porosity
GR.GAPI                       : Gamma Ray
~Parameter Information Block
~A  Depth       DCAL        RHOB        RHOC        DPOR        NPOR         GR     
# ...
   855.0000      8.2680      2.6505      0.1198     -0.0292     30.1352     97.6564
   855.1000      8.2680      2.6550      0.0702     -0.3014     30.7166    104.9992
   855.2000      8.2680      2.6536      0.0669     -0.2168     31.3641    111.7923
   855.3000      8.2667      2.6443      0.0679      0.3461     31.6461    113.9209
   855.4000      8.2667      2.6279      0.0559      1.3365     31.6238    110.1567
   855.5000      8.2656      2.6128      0.0007      2.2542     31.4981    105.4966
   855.6000      8.2656      2.6020      0.0126      2.9089     31.2868    106.5865
   855.7000      8.2656      2.5912      0.0125      3.5649     30.9977    110.5427
   855.8000      8.2661      2.5806     -0.0030      4.2036     30.7710    110.2713
   855.9000      8.2661      2.5767      0.0361      4.4428     30.8674    108.7104
   856.0000      8.2680      2.5817      0.0421      4.1404     30.9890    112.6354
   856.1000      8.2680      2.5923      0.0524      3.4986     30.5411    119.2866
   856.2000      8.2680      2.6002      0.0892      3.0164     29.7620    122.6806
   856.3000      8.2692      2.5980      0.1017      3.1533     29.4020    122.8154
   856.4000      8.2692      2.5901      0.0679      3.6280     29.7026    122.1927
   856.5000      8.2705      2.5882      0.0934      3.7450     30.2314    121.3987
   856.6000      8.2705      2.5893      0.0943      3.6789     30.6654    122.9457
   856.7000      8.2705      2.5838      0.0618      4.0149     31.0131    129.1946
   856.8000      8.2723      2.5750      0.0555      4.5481     31.3652    135.4684
   856.9000      8.2723      2.5800      0.0138      4.2453     31.6283    136.2855
   857.0000      8.2746      2.6052      0.0762      2.7159     31.5136    133.5320
   857.1000      8.2746      2.6241      0.0830      1.5682     30.8832    132.6652
   857.2000      8.2746      2.6153      0.0556      2.1031     29.8801    134.6435
   857.3000      8.2785      2.5975      0.0183      3.1819     28.8352    135.0568
   857.4000      8.2785      2.5925      0.0388      3.4839     28.0448    131.8446
   857.5000      8.2823      2.5943      0.0774      3.3743     27.4919    127.5532
   857.6000      8.2823      2.5913      0.0582      3.5554     26.9622    124.6535
   857.7000      8.2823      2.5832      0.0769      4.0462     26.5349    123.0430
   857.8000      8.2845      2.5751      0.0733      4.5364     26.4194    122.7003
   857.9000      8.2845      2.5683      0.0804      4.9496     26.6779    126.9901
   858.0000      8.2863      2.5568      0.0614      5.6503     27.2876    134.0307
   858.1000      8.2863      2.5403      0.0432      6.6479     27.7953    134.5874
   858.2000      8.2863      2.5300      0.0208      7.2713     27.8450    128.7992
   858.3000      8.2873      2.5258      0.0439      7.5284     27.7054    123.6147
   858.4000      8.2873      2.5155     -0.0045      8.1526     27.4188    120.7663
   858.5000      8.2880      2.5031     -0.0104      8.9030     27.0568    118.7003
   858.6000      8.2880      2.5040      0.0041      8.8486     26.9650    116.6838
   858.7000      8.2880      2.5149      0.0355      8.1855     27.1991    116.8379
   858.8000      8.2893      2.5194      0.0233      7.9122     27.5398    120.0775
   858.9000      8.2893      2.5186      0.0034      7.9632     27.8475    121.8393
   859.0000      8.2895      2.5232      0.0448      7.6857     28.1765    118.9752
   859.1000      8.2895      2.5345      0.0385      7.0003     28.2423    114.7877
   859.2000      8.2895      2.5508      0.0700      6.0117     27.7771    113.4184
   859.3000      8.2882      2.5700      0.0737      4.8480     27.3575    113.6743
   859.4000      8.2882      2.5933      0.0530      3.4392     27.6427    111.3172
   859.5000      8.2874      2.6184      0.1058      1.9162     28.4740    108.1731
   859.6000      8.2874      2.6285      0.1302      1.3053     29.3031    107.6856
   859.7000      8.2874      2.6234      0.0541      1.6104     29.7081    107.6149
   859.8000      8.2866      2.6242      0.0611      1.5653     29.5671    107.3651
   859.9000      8.2866      2.6311      0.0585      1.1458     29.3121    109.5927
   860.0000      8.2866      2.6314      0.0482      1.1254     29.4448    113.8531
   860.1000      8.2866      2.6195      0.0503      1.8459     29.8481    116.3652
   860.2000      8.2866      2.5992      0.0119      3.0774     30.1964    114.1928
   860.3000      8.2885      2.5810      0.0238      4.1837     30.2521    110.2700
   860.4000      8.2885      2.5700     -0.0103      4.8495     29.7979    109.2884
   860.5000      8.2905      2.5648      0.0248      5.1617     29.2458    112.1545
   860.6000      8.2905      2.5618     -0.0016      5.3429     29.3135    118.2367
   860.7000      8.2905      2.5620      0.0174      5.3315     29.8750    122.8603
   860.8000      8.2906      2.5665      0.0342      5.0605     30.3817    121.8105
   860.9000      8.2906      2.5682      0.0602      4.9562     30.5772    119.0700
   861.0000      8.2889      2.5605      0.0367      5.4222     30.2757    119.6152
   861.1000      8.2889      2.5537      0.0146      5.8379     29.6326    124.7515
   861.2000      8.2889      2.5566      0.0746      5.6617     29.2836    131.0413
   861.3000      8.2855      2.5594      0.0378      5.4932     29.5079    133.8224
   861.4000      8.2855      2.5567      0.0647      5.6535     30.0501    134.6643
   861.5000      8.2821      2.5538      0.0554      5.8292     30.6275    135.9580
   861.6000      8.2821      2.5550      0.0510      5.7551     31.0584    137.3043
   861.7000      8.2821      2.5585      0.0613      5.5428     31.1256    137.9899
   861.8000      8.2819      2.5567      0.0626      5.6541     30.8582    138.3618
   861.9000      8.2819      2.5480      0.0659      6.1817     30.4805    139.2008
   862.0000      8.2862      2.5344      0.0596      7.0077     30.0783    139.9301
   862.1000      8.2862      2.5164      0.0296      8.0991     29.9932    140.1764
   862.2000      8.2862      2.4988      0.0301      9.1624     30.3266    140.1679
   862.3000      8.2910      2.4895      0.0219      9.7284     30.5261    140.6828
   862.4000      8.2910      2.4928      0.0436      9.5286     30.3415    143.2672
   862.5000      8.2922      2.5011      0.0763      9.0268     29.8115    148.0214
   862.6000      8.2922      2.5000      0.0612      9.0926     29.2616    152.2374
   862.7000      8.2922      2.4858      0.0529      9.9537     29.0048    150.5437
   862.8000      8.2896      2.4691      0.0580     10.9627     28.8315    144.9321
   862.9000      8.2896      2.4685      0.0732     10.9984     28.3698    141.7217
   863.0000      8.2853      2.4919      0.1264      9.5790     27.6923    138.4234
   863.1000      8.2853      2.5339      0.1354      7.0344     27.2653    132.4492
   863.2000      8.2853      2.5861      0.1785      3.8736     27.2110    130.4957
   863.3000      8.2792      2.6314      0.1890      1.1277     27.5101    136.7091
   863.4000      8.2792      2.6547      0.1794     -0.2835     28.0049    144.2128
   863.5000      8.2741      2.6565      0.1809     -0.3937     28.3019    146.7099
   863.6000      8.2741      2.6478      0.1433      0.1313     28.4396    145.9229
   863.7000      8.2741      2.6400      0.1288      0.6066     28.9256    143.6398
   863.8000      8.2725      2.6324      0.1487      1.0684     29.6942    139.0623
   863.9000      8.2725      2.6196      0.1224      1.8414     30.0095    132.2698
   864.0000      8.2728      2.6108      0.0804      2.3788     29.7733    125.3849
   864.1000      8.2728      2.6190      0.0443      1.8811     29.6613    120.4050
   864.2000      8.2728      2.6366      0.0446      0.8111     29.8424    116.4274
   864.3000      8.2746      2.6496      0.0145      0.0238     30.0282    113.9947
   864.4000      8.2746      2.6571      0.0352     -0.4284     30.1417    113.6904
   864.5000      8.2752      2.6551      0.0457     -0.3069     30.2098    115.6659
