~Version Information
VERS.                      2.0: CWLS Log ASCII Standard - VERSION 2.0
WRAP.                       NO: One line per depth step
~Well Information Block
STRT.FT               491.0000: 
STOP.FT              1055.5000: 
STEP.FT                 0.1000: 
NULL.                -999.2500: 
COMP.          Evergreen Operating Corporation: COMPANY
WELL.              Sunset 24-3: WELL
FLD.           Purgatorie River: FIELD
LOC.           467' FSL & 2262' FWL: LOCATION
PROV.                 Colorado: PROVINCE
CNTY.               Las Animas: COUNTRY
SRVC.                         : SERVICE COMPANY
DATE.          Wed Sep 22 14:05:09 2004: LOG DATE
UWI.           05 071 08158 00: UNIQUE WELL ID
~Curve Information Block
DEPT.FT            0 000 00 00: Depth
DCAL.in                       : CDL Caliper
RHOB.g/cc                     : CDL Bulk Density
RHOC.g/cc                     : CDL Density Correction
DPOR.pu                       : CDL Density Porosity
GR.GAPI                       : Gamma Ray
NPOR.pu                       : Neutron Porosity
~Parameter Information Block
~A  Depth       DCAL        RHOB        RHOC        DPOR         GR         NPOR    
# ...
  1038.2000      7.8592      2.6139      0.1426      2.1886   -999.2500     21.5568
  1038.3000      7.8350      2.6167      0.1519      2.0185   -999.2500     21.4890
  1038.4000      7.8350      2.6124      0.1322      2.2771   -999.2500     21.5939
  1038.5000      7.8387      2.6147      0.1277      2.1421   -999.2500     22.2307
  1038.6000      7.8387      2.6218      0.1426      1.7116   -999.2500     23.0694
  1038.7000      7.8387      2.6224      0.1269      1.6738   -999.2500     23.2097
  1038.8000      7.8551      2.6242      0.0714      1.5652   -999.2500     22.6372
  1038.9000      7.8551      2.6363      0.1236      0.8296   -999.2500     22.0545
  1039.0000      7.8580      2.6456      0.1304      0.2657   -999.2500     21.7520
  1039.1000      7.8580      2.6370      0.1482      0.7860   -999.2500     21.5657
  1039.2000      7.8580      2.6082      0.1100      2.5315   -999.2500     21.2993
  1039.3000      7.8620      2.5761      0.0530      4.4803   -999.2500     21.2051
  1039.4000      7.8620      2.5644      0.0627      5.1897   -999.2500     21.6020
  1039.5000      7.8901      2.5737      0.0830      4.6261   -999.2500     21.9133
  1039.6000      7.8901      2.5881      0.1045      3.7495   -999.2500     21.6727
  1039.7000      7.8901      2.6015      0.0554      2.9394   -999.2500     21.2290
  1039.8000      7.8985      2.6152      0.0764      2.1092   -999.2500     20.8122
  1039.9000      7.8985      2.6223      0.1112      1.6814   -999.2500     20.5992
  1040.0000      7.8635      2.6196      0.0792      1.8450   -999.2500     20.4607
  1040.1000      7.8635      2.6162      0.0890      2.0460   -999.2500     19.9467
  1040.2000      7.8635      2.6149      0.0743      2.1274   -999.2500     19.5133
  1040.3000      7.8626      2.6122      0.0539      2.2925   -999.2500     19.8372
  1040.4000      7.8626      2.6119      0.0471      2.3063   -999.2500     20.3615
  1040.5000      7.8465      2.6120      0.0896      2.3031   -999.2500     20.2656
  1040.6000      7.8465      2.6053      0.0625      2.7115   -999.2500     19.6839
  1040.7000      7.8465      2.6002      0.0362      3.0195   -999.2500     19.1394
  1040.8000      7.8594      2.6049      0.0791      2.7358   -999.2500     18.7457
  1040.9000      7.8594      2.6097      0.0961      2.4439   -999.2500     18.6358
  1041.0000      7.8945      2.6061      0.0890      2.6585   -999.2500     19.1158
  1041.1000      7.8945      2.5977      0.0550      3.1701   -999.2500     19.7452
  1041.2000      7.8945      2.5916      0.0716      3.5420   -999.2500     19.8776
  1041.3000      7.8898      2.5897      0.0713      3.6534   -999.2500     19.8739
  1041.4000      7.8898      2.5907      0.0697      3.5915   -999.2500     20.4238
  1041.5000      7.8607      2.5987      0.0540      3.1064   -999.2500     21.4890
  1041.6000      7.8607      2.6132      0.1097      2.2286   -999.2500     22.8246
  1041.7000      7.8607      2.6172      0.0938      1.9885   -999.2500     25.8477
  1041.8000      7.8577      2.5990      0.0930      3.0932   -999.2500     33.6047
  1041.9000      7.8577      2.5704      0.0597      4.8254   -999.2500     44.5936
  1042.0000      7.8565      2.5559      0.0400      5.7035   -999.2500     51.9304
  1042.1000      7.8565      2.5609      0.0697      5.3979   -999.2500     54.4316
  1042.2000      7.8565      2.5681      0.0922      4.9618   -999.2500     54.9104
  1042.3000      7.8603      2.5692      0.0939      4.8993   -999.2500     54.9609
  1042.4000      7.8603      2.5702      0.0856      4.8357   -999.2500     54.9637
  1042.5000      7.8864      2.5714      0.1056      4.7619   -999.2500   -999.2500
  1042.6000      7.8864      2.5612      0.0784      5.3817   -999.2500   -999.2500
  1042.7000      7.8864      2.5378      0.0549      6.7980   -999.2500   -999.2500
  1042.8000      7.8782      2.5172      0.0379      8.0466   -999.2500   -999.2500
  1042.9000      7.8782      2.5101      0.0504      8.4790   -999.2500   -999.2500
  1043.0000      7.8740      2.5139      0.0439      8.2478   -999.2500   -999.2500
  1043.1000      7.8740      2.5276      0.0355      7.4212   -999.2500   -999.2500
  1043.2000      7.8740      2.5498      0.0344      6.0707   -999.2500   -999.2500
  1043.3000      7.8906      2.5640      0.0973      5.2100   -999.2500   -999.2500
  1043.4000      7.8906      2.5542      0.0667      5.8089   -999.2500   -999.2500
  1043.5000      7.8623      2.5353      0.0357      6.9522   -999.2500   -999.2500
  1043.6000      7.8623      2.5289      0.0674      7.3370   -999.2500   -999.2500
  1043.7000      7.8623      2.5380      0.0394      6.7867   -999.2500   -999.2500
  1043.8000      7.8590      2.5587      0.0769      5.5357   -999.2500   -999.2500
  1043.9000      7.8590      2.5821      0.0924      4.1161   -999.2500   -999.2500
  1044.0000      7.8629      2.6013      0.0893      2.9518   -999.2500   -999.2500
  1044.1000      7.8629      2.6155      0.1051      2.0916   -999.2500   -999.2500
  1044.2000      7.8629      2.6204      0.1241      1.7916   -999.2500   -999.2500
  1044.3000      7.8586      2.6123      0.0939      2.2841   -999.2500   -999.2500
  1044.4000      7.8586      2.5988      0.0734      3.1012   -999.2500   -999.2500
  1044.5000      7.8575      2.5888      0.0953      3.7109   -999.2500   -999.2500
  1044.6000      7.8575      2.5780      0.0920      4.3616   -999.2500   -999.2500
  1044.7000      7.8575      2.5636      0.0381      5.2367   -999.2500   -999.2500
  1044.8000      7.8568      2.5551      0.0355      5.7488   -999.2500   -999.2500
  1044.9000      7.8568      2.5598      0.0701      5.4684   -999.2500   -999.2500
  1045.0000      7.8567      2.5730      0.0701      4.6640   -999.2500   -999.2500
  1045.1000      7.8567      2.5834      0.0938      4.0375   -999.2500   -999.2500
  1045.2000      7.8567      2.5806      0.0769      4.2078   -999.2500   -999.2500
  1045.3000      7.8568      2.5697      0.0462      4.8689   -999.2500   -999.2500
  1045.4000      7.8568      2.5645      0.0498      5.1799   -999.2500   -999.2500
  1045.5000      7.8572      2.5680      0.0757      4.9726   -999.2500   -999.2500
  1045.6000      7.8572      2.5763      0.0474      4.4686   -999.2500   -999.2500
  1045.7000      7.8572      2.5867      0.0793      3.8354   -999.2500   -999.2500
  1045.8000      7.8558      2.5933      0.0681      3.4345   -999.2500   -999.2500
  1045.9000      7.8558      2.5933      0.0540      3.4391   -999.2500   -999.2500
  1046.0000      7.8572      2.5870      0.0779      3.8180   -999.2500   -999.2500
  1046.1000      7.8572      2.5773      0.0233      4.4088   -999.2500   -999.2500
  1046.2000      7.8572      2.5704      0.0519      4.8239   -999.2500   -999.2500
  1046.3000      7.8588      2.5681      0.0455      4.9645   -999.2500   -999.2500
  1046.4000      7.8588      2.5676      0.0518      4.9965   -999.2500   -999.2500
  1046.5000      7.8545      2.5671      0.0513      5.0252   -999.2500   -999.2500
  1046.6000      7.8545      2.5645      0.0619      5.1826   -999.2500   -999.2500
  1046.7000      7.8545      2.5590      0.0503      5.5155   -999.2500   -999.2500
  1046.8000      7.8355      2.5559      0.0555      5.7024   -999.2500   -999.2500
  1046.9000      7.8355      2.5597      0.0713      5.4708   -999.2500   -999.2500
  1047.0000      7.8502      2.5657      0.0860      5.1070   -999.2500   -999.2500
  1047.1000      7.8502      2.5649      0.1194      5.1570   -999.2500   -999.2500
  1047.2000      7.8502      2.5594      0.0618      5.4929   -999.2500   -999.2500
  1047.3000      7.8478      2.5591      0.0716      5.5103   -999.2500   -999.2500
  1047.4000      7.8478      2.5645      0.0537      5.1821   -999.2500   -999.2500
  1047.5000      7.8568      2.5749      0.0552      4.5495   -999.2500   -999.2500
  1047.6000      7.8568      2.5887      0.0981      3.7163   -999.2500   -999.2500
  1047.7000      7.8568      2.5920      0.1275      3.5179   -999.2500   -999.2500
