~Version Information
VERS.                      2.0: CWLS Log ASCII Standard - VERSION 2.0
WRAP.                       NO: One line per depth step
~Well Information Block
STRT.FT               811.0000: 
STOP.FT              2507.0000: 
STEP.FT                 0.1000: 
NULL.                -999.2500: 
COMP.          Petrogulf Corporation: COMPANY
WELL.               YWAM 7-32V: WELL
FLD.           Purgatoire River: FIELD
LOC.           2423' FNL & 2412' FEL: LOCATION
PROV.                 Colorado: PROVINCE
CNTY.               Las Animas: COUNTRY
SRVC.                Patterson: SERVICE COMPANY
DATE.          Mon Dec 15 07:18:47 2003: LOG DATE
UWI.                          : UNIQUE WELL ID
~Curve Information Block
DEPT.FT            0 000 00 00: Depth
DCAL.in                       : CDL Caliper
RHOB.g/cc                     : CDL Bulk Density
RHOC.g/cc                     : CDL Density Correction
DPOR.pu                       : CDL Density Porosity
NPOR.pu                       : Neutron Porosity
GR.GAPI                       : Gamma Ray
~Parameter Information Block
~A  Depth       DCAL        RHOB        RHOC        DPOR        NPOR         GR     
# ...
   935.8000      8.3925      2.5496      0.0634      6.0867     27.6184    121.0173
   935.9000      8.3925      2.5342      0.0512      7.0167     26.9867    125.9165
   936.0000      8.3929      2.5329      0.0385      7.0995     27.0337    130.7096
   936.1000      8.3929      2.5473      0.0771      6.2245     27.4248    136.8088
   936.2000      8.3929      2.5625      0.0544      5.3015     27.2112    142.1626
   936.3000      8.4206      2.5692      0.0757      4.8997     26.4003    140.0420
   936.4000      8.4206      2.5671      0.0706      5.0239     25.7129    132.8930
   936.5000      8.4339      2.5620      0.0388      5.3328     25.3300    125.1467
   936.6000      8.4339      2.5583      0.0710      5.5601     24.9611    118.7992
   936.7000      8.4339      2.5476      0.0757      6.2087     24.8070    116.5572
   936.8000      8.4336      2.5297      0.0216      7.2931     25.3060    118.1718
   936.9000      8.4336      2.5150      0.0199      8.1835     25.8613    123.1728
   937.0000      8.4299      2.4992      0.0387      9.1388     25.8559    132.7890
   937.1000      8.4299      2.4811     -0.0205     10.2352     25.6715    142.6662
   937.2000      8.4299      2.4811     -0.0028     10.2340     25.5856    140.9157
   937.3000      8.4213      2.5114      0.0050      8.4006     25.0763    126.7394
   937.4000      8.4213      2.5585      0.0475      5.5446     24.0314    117.8634
   937.5000      8.4311      2.5971      0.0947      3.2055     23.4816    122.2199
   937.6000      8.4311      2.6064      0.0857      2.6419     23.7179    125.9575
   937.7000      8.4311      2.5877      0.0384      3.7782     23.8949    122.0094
   937.8000      8.4315      2.5653      0.0327      5.1354     23.6322    116.5549
   937.9000      8.4315      2.5581      0.0430      5.5676     22.9940    115.0876
   938.0000      8.4338      2.5560      0.0512      5.6982     22.1910    118.5426
   938.1000      8.4338      2.5419      0.0109      6.5520     21.9154    122.7956
   938.2000      8.4338      2.5237      0.0321      7.6545     22.2585    125.0575
   938.3000      8.4317      2.5156      0.0190      8.1470     22.6274    123.9701
   938.4000      8.4317      2.5154      0.0360      8.1605     22.8095    116.7907
   938.5000      8.4337      2.5137      0.0281      8.2578     22.8172    106.6594
   938.6000      8.4337      2.5089      0.0213      8.5485     23.0117    102.7097
   938.7000      8.4337      2.5010      0.0297      9.0314     23.6722    108.2647
   938.8000      8.4306      2.4889      0.0195      9.7644     24.3854    116.5655
   938.9000      8.4306      2.4797      0.0036     10.3189     24.7750    121.5340
   939.0000      8.4304      2.4830      0.0499     10.1206     24.9128    126.1070
   939.1000      8.4304      2.5025      0.0342      8.9373     25.0537    129.0482
   939.2000      8.4304      2.5307      0.1144      7.2274     24.9286    123.2820
   939.3000      8.4334      2.5471      0.1105      6.2361     24.1944    112.8574
   939.4000      8.4334      2.5452      0.0747      6.3533     23.6329    107.3301
   939.5000      8.4417      2.5378      0.0931      6.8019     23.6880    106.1467
   939.6000      8.4417      2.5301      0.0974      7.2640     23.9322    103.0184
   939.7000      8.4417      2.5200      0.0495      7.8782     24.3946     98.8753
   939.8000      8.4571      2.5054      0.0629      8.7631     25.0905     98.2426
   939.9000      8.4571      2.4859      0.0169      9.9445     25.5276     99.9173
   940.0000      8.4689      2.4769     -0.0291     10.4906     25.7911    104.1784
   940.1000      8.4689      2.4851      0.0230      9.9922     26.1964    114.0188
   940.2000      8.4689      2.4842      0.0281     10.0499     26.7805    127.2144
   940.3000      8.4480      2.4593     -0.0289     11.5571     27.6254    136.2616
   940.4000      8.4480      2.4379     -0.0517     12.8574     28.6676    138.6669
   940.5000      8.4581      2.4474     -0.0495     12.2802     29.6296    137.3528
   940.6000      8.4581      2.4726      0.0314     10.7520     30.2367    132.7316
   940.7000      8.4581      2.4784      0.0009     10.3980     30.3878    131.2315
   940.8000      8.4523      2.4487      0.0351     12.2013     30.4888    138.2955
   940.9000      8.4523      2.3855     -0.0183     16.0319     30.9028    144.6056
   941.0000      8.4712      2.3131     -0.0402     20.4208     31.4793    140.2706
   941.1000      8.4712      2.2558     -0.0165     23.8939     32.2613    131.2903
   941.2000      8.4712      2.2067      0.0130     26.8675     33.1462    125.8878
   941.3000      8.4696      2.1579     -0.0331     29.8237     33.6219    121.1172
   941.4000      8.4696      2.1245     -0.0316     31.8498     33.5259    113.8170
   941.5000      8.4816      2.1205     -0.0038     32.0892     32.9478    106.1333
   941.6000      8.4816      2.1465      0.0180     30.5123     32.2237    102.3547
   941.7000      8.4816      2.1959      0.0554     27.5196     31.5239    105.6792
   941.8000      8.4731      2.2564      0.1470     23.8563     30.2760    112.3171
   941.9000      8.4731      2.3078      0.2184     20.7391     28.4546    114.4972
   942.0000      8.4680      2.3388      0.1586     18.8594     26.8451    113.8512
   942.1000      8.4680      2.3644      0.0704     17.3109     25.7806    118.6229
   942.2000      8.4680      2.4049      0.0593     14.8529     25.2660    125.8809
   942.3000      8.4653      2.4624      0.0487     11.3674     25.0212    128.8588
   942.4000      8.4653      2.5196      0.0617      7.9007     24.5348    128.6599
   942.5000      8.4646      2.5486      0.0962      6.1465     24.0750    124.6501
   942.6000      8.4646      2.5438      0.0334      6.4351     23.7974    114.7297
   942.7000      8.4646      2.5319      0.0339      7.1602     23.2399    105.6739
   942.8000      8.4661      2.5247      0.0668      7.5932     22.4836    104.9368
   942.9000      8.4661      2.5170      0.0276      8.0603     22.1438    109.4616
   943.0000      8.4631      2.5174      0.0342      8.0354     22.5013    113.3695
   943.1000      8.4631      2.5335      0.0230      7.0629     22.8418    114.8976
   943.2000      8.4631      2.5541      0.0787      5.8136     22.3964    111.6757
   943.3000      8.4640      2.5703      0.0465      4.8311     21.7142    107.0777
   943.4000      8.4640      2.5849      0.0819      3.9471     21.7677    106.8198
   943.5000      8.4657      2.5884      0.0972      3.7331     22.6679    107.8664
   943.6000      8.4657      2.5709      0.0619      4.7925     23.8593    108.2248
   943.7000      8.4657      2.5494      0.0320      6.0989     24.8615    111.7494
   943.8000      8.4824      2.5379      0.0493      6.7912     25.3323    118.0323
   943.9000      8.4824      2.5267      0.0259      7.4721     25.3028    121.5845
   944.0000      8.5297      2.5117      0.0008      8.3799     25.3527    123.8596
   944.1000      8.5297      2.5006      0.0193      9.0524     25.8487    131.1255
   944.2000      8.5297      2.4928      0.0223      9.5249     26.5333    137.8074
   944.3000      8.5813      2.4842      0.0274     10.0492     27.1093    136.8016
   944.4000      8.5813      2.4791      0.0205     10.3579     27.5952    134.5729
   944.5000      8.5847      2.4877      0.0046      9.8355     28.0880    136.0506
   944.6000      8.5847      2.5060      0.0440      8.7247     28.4175    136.5587
   944.7000      8.5847      2.5162      0.0643      8.1109     28.2704    136.9577
   944.8000      8.5841      2.5192      0.0080      7.9246     27.7863    141.7618
   944.9000      8.5841      2.5263      0.0413      7.4953     26.9815    145.3842
   945.0000      8.5871      2.5317      0.0179      7.1701     25.8075    139.1589
   945.1000      8.5871      2.5328      0.0278      7.1010     24.8897    129.7962
   945.2000      8.5871      2.5347      0.0341      6.9894     24.8258    129.5940
   945.3000      8.5849      2.5342      0.0287      7.0182     25.4510    133.4157
