~Version Information
VERS.                      2.0: CWLS Log ASCII Standard - VERSION 2.0
WRAP.                       NO: One line per depth step
~Well Information Block
STRT.FT               491.0000: 
STOP.FT              1056.0000: 
STEP.FT                 0.2500: 
NULL.                -999.2500: 
COMP.          Evergreen Operating Corporation: COMPANY
WELL.              Sunset 24-3: WELL
FLD.           Purgatorie River: FIELD
LOC.           467' FSL & 2262' FWL: LOCATION
PROV.                 Colorado: PROVINCE
CNTY.               Las Animas: COUNTRY
SRVC.                         : SERVICE COMPANY
DATE.          Wed Sep 22 11:23:45 2004: LOG DATE
UWI.           05 071 08158 00: UNIQUE WELL ID
~Curve Information Block
DEPT.FT            0 000 00 00: Depth
SN.Ohm-m                      : IEL Short Normal
SP.mV                         : IEL Spontaneous Potential
DIR.Ohm-m                     : IEL Induction Resistivity
GR.GAPI                       : Gamma Ray
~Parameter Information Block
~A  Depth        SN          SP         DIR          GR     
# ...
   960.0000     16.8525      6.3071     15.0787     98.3212
   960.2500     16.5498      6.4297     15.0191     99.4706
   960.5000     16.3313      6.5602     14.9030    100.2075
   960.7500     16.2176      6.7020     14.7329    100.3517
   961.0000     16.2050      6.8599     14.5251    100.5359
   961.2500     16.2699      7.0397     14.3042    100.6169
   961.5000     16.3803      7.2462     14.0957    100.3381
   961.7500     16.5057      7.4829     13.9179    100.0023
   962.0000     16.6201      7.7503     13.7770    100.4268
   962.2500     16.7042      8.0463     13.6675    102.0909
   962.5000     16.7449      8.3660     13.5755    107.1975
   962.7500     16.7355      8.7024     13.4852    112.2888
   963.0000     16.6726      9.0468     13.3832    121.9438
   963.2500     16.5534      9.3895     13.2617    128.7577
   963.5000     16.3790      9.7200     13.1210    136.5234
   963.7500     16.1596     10.0269     12.9695    138.5445
   964.0000     15.9167     10.2984     12.8221    136.6613
   964.2500     15.6799     10.5232     12.6949    133.2049
   964.5000     15.4786     10.6913     12.6008    126.6716
   964.7500     15.3361     10.7957     12.5454    122.1919
   965.0000     15.2676     10.8341     12.5272    116.4283
   965.2500     15.2809     10.8097     12.5397    113.8129
   965.5000     15.3767     10.7310     12.5766    111.9827
   965.7500     15.5509     10.6109     12.6367    111.6977
   966.0000     15.7970     10.4647     12.7264    111.3898
   966.2500     16.1098     10.3080     12.8582    110.7446
   966.5000     16.4877     10.1544     13.0448    109.2361
   966.7500     16.9314     10.0147     13.2945    108.4563
   967.0000     17.4406      9.8961     13.6097    108.7261
   967.2500     18.0106      9.8027     13.9917    110.1121
   967.5000     18.6305      9.7356     14.4454    113.4013
   967.7500     19.2879      9.6940     14.9760    115.5821
   968.0000     19.9784      9.6752     15.5768    117.1524
   968.2500     20.7137      9.6757     16.2188    116.2940
   968.5000     21.5156      9.6910     16.8555    111.9017
   968.7500     22.3936      9.7162     17.4475    107.4732
   969.0000     23.3188      9.7469     17.9883    100.2601
   969.2500     24.2173      9.7799     18.5101     96.1084
   969.5000     24.9937      9.8137     19.0611     92.3070
   969.7500     25.5704      9.8491     19.6711     91.8190
   970.0000     25.9170      9.8898     20.3276     93.8735
   970.2500     26.0538      9.9415     20.9759     96.5096
   970.5000     26.0342     10.0111     21.5454    101.4655
   970.7500     25.9225     10.1059     21.9845    105.2003
   971.0000     25.7774     10.2320     22.2798    110.8657
   971.2500     25.6440     10.3930     22.4466    113.8307
   971.5000     25.5478     10.5892     22.5082    115.3428
   971.7500     25.4910     10.8169     22.4853    114.0922
   972.0000     25.4554     11.0683     22.4001    110.1128
   972.2500     25.4133     11.3322     22.2832    107.2847
   972.5000     25.3421     11.5949     22.1680    104.3027
   972.7500     25.2345     11.8418     22.0751    103.4576
   973.0000     25.0989     12.0590     21.9998    103.7217
   973.2500     24.9512     12.2346     21.9140    104.5603
   973.5000     24.8053     12.3596     21.7838    105.9401
   973.7500     24.6659     12.4292     21.5915    106.4955
   974.0000     24.5268     12.4425     21.3486    106.6027
   974.2500     24.3746     12.4025     21.0930    106.4925
   974.5000     24.1948     12.3157     20.8736    106.9545
   974.7500     23.9798     12.1911     20.7314    108.1799
   975.0000     23.7367     12.0392     20.6857    111.7878
   975.2500     23.4908     11.8710     20.7301    115.2605
   975.5000     23.2815     11.6966     20.8391    121.6363
   975.7500     23.1510     11.5250     20.9796    126.5096
   976.0000     23.1321     11.3628     21.1240    134.5152
   976.2500     23.2395     11.2150     21.2602    139.7607
   976.5000     23.4723     11.0847     21.3959    145.3538
   976.7500     23.8230     10.9736     21.5561    146.0286
   977.0000     24.2846     10.8824     21.7760    140.9120
   977.2500     24.8501     10.8106     22.0901    133.8963
   977.5000     25.5040     10.7568     22.5248    121.5637
   977.7500     26.2155     10.7182     23.0959    115.1981
   978.0000     26.9411     10.6908     23.8080    112.4100
   978.2500     27.6371     10.6699     24.6529    115.1199
   978.5000     28.2748     10.6517     25.5997    122.3391
   978.7500     28.8498     10.6346     26.5842    126.4601
   979.0000     29.3795     10.6201     27.5092    128.5235
   979.2500     29.8902     10.6140     28.2752    126.6655
   979.5000     30.4000     10.6247     28.8364    119.5791
   979.7500     30.9052     10.6623     29.2398    112.8191
   980.0000     31.3781     10.7360     29.5963    101.8744
   980.2500     31.7760     10.8519     29.9946     95.6248
   980.5000     32.0584     11.0114     30.4300     89.9873
   980.7500     32.2023     11.2112     30.8068     89.1206
   981.0000     32.2088     11.4433     31.0201     91.1154
   981.2500     32.0995     11.6968     31.0462     93.4236
   981.5000     31.9070     11.9592     30.9570     96.4799
   981.7500     31.6648     12.2179     30.8484     97.7633
   982.0000     31.4004     12.4608     30.7638     98.7334
   982.2500     31.1338     12.6772     30.6791     99.0810
   982.5000     30.8786     12.8574     30.5445     99.5887
   982.7500     30.6433     12.9931     30.3322    100.0966
   983.0000     30.4327     13.0779     30.0508    101.5925
   983.2500     30.2489     13.1081     29.7270    103.3819
   983.5000     30.0919     13.0837     29.3821    107.1187
   983.7500     29.9600     13.0090     29.0216    109.6542
   984.0000     29.8503     12.8930     28.6419    111.9141
   984.2500     29.7580     12.7488     28.2425    111.6961
   984.5000     29.6753     12.5914     27.8344    108.8860
   984.7500     29.5919     12.4362     27.4383    106.3276
   985.0000     29.4954     12.2960     27.0765    103.8039
   985.2500     29.3733     12.1803     26.7637    103.8959
   985.5000     29.2144     12.0937     26.5021    106.5782
   985.7500     29.0101     12.0367     26.2782    109.3046
   986.0000     28.7555     12.0066     26.0644    113.3088
   986.2500     28.4510     11.9985     25.8265    115.1879
   986.5000     28.1028     12.0068     25.5389    115.8553
   986.7500     27.7207     12.0264     25.1961    114.7076
   987.0000     27.3145     12.0532     24.8133    111.6583
   987.2500     26.8910     12.0851     24.4148    110.0070
   987.5000     26.4559     12.1220     24.0203    110.0296
   987.7500     26.0181     12.1665     23.6381    112.0019
   988.0000     25.5933     12.2227     23.2661    116.8505
   988.2500     25.2003     12.2961     22.8990    120.2383
   988.5000     24.8525     12.3921     22.5378    123.6028
   988.7500     24.5512     12.5148     22.1931    123.8388
   989.0000     24.2864     12.6661     21.8828    120.6757
   989.2500     24.0445     12.8453     21.6259    116.6878
   989.5000     23.8175     13.0489     21.4379    109.7911
   989.7500     23.6074     13.2716     21.3295    105.9097
   990.0000     23.4242     13.5062     21.3034    103.0215
   990.2500     23.2790     13.7449     21.3493    103.6395
   990.5000     23.1778     13.9787     21.4398    107.9746
   990.7500     23.1203     14.1981     21.5338    111.8030
   991.0000     23.1024     14.3926     21.5884    115.4825
   991.2500     23.1197     14.5511     21.5734    114.9790
   991.5000     23.1667     14.6631     21.4804    109.5295
   991.7500     23.2340     14.7203     21.3236    103.9842
   992.0000     23.3063     14.7185     21.1337     95.7153
   992.2500     23.3662     14.6591     20.9480     91.5754
   992.5000     23.4000     14.5501     20.7976     88.3244
   992.7500     23.4002     14.4049     20.6946     87.9026
   993.0000     23.3636     14.2405     20.6264     88.8701
   993.2500     23.2844     14.0747     20.5598     90.0039
