~Version Information
VERS.                      2.0: CWLS Log ASCII Standard - VERSION 2.0
WRAP.                       NO: One line per depth step
~Well Information Block
STRT.FT                -4.2500: 
STOP.FT              2018.7500: 
STEP.FT                 0.2500: 
NULL.                -999.2500: 
COMP.          Petrogulf Corporation: COMPANY
WELL.             State 16-21R: WELL
FLD.           Purgatoire River: FIELD
LOC.           203' FNL & 1560' FWL----: LOCATION
PROV.                 Colorado: PROVINCE
CNTY.               Las Animas: COUNTRY
SRVC.                         : SERVICE COMPANY
DATE.          Thu Sep 29 11:32:19 2005: LOG DATE
API.           05-071-08313 : API Number
~Curve Information Block
DEPT.FT            0 000 00 00: Depth
GR.GAPI                       : Gamma Ray
CCL.                          : Casing Collar Locator
AMP3.mV                       : CBL 3' Amplitude
AMP5.mV                       : CBL 5' Amplitude
~Parameter Information Block
~A  Depth        GR         CCL         AMP3        AMP5    
# ...
   933.7500    122.1592      0.0000     27.7731      4.1679
   934.0000    126.9648      0.0000     29.2674      4.3557
   934.2500    131.0694      0.0000     29.8087      4.4809
   934.5000    133.8739      0.0000     29.2917      4.5578
   934.7500    134.8160      0.0000     27.8639      4.5831
   935.0000    133.6730      0.0000     25.8547      4.5504
   935.2500    131.2244      0.0000     23.5981      4.4632
   935.5000    128.9811      0.0000     21.3009      4.3215
   935.7500    127.7297      0.0000     19.0761      4.1112
   936.0000    126.4898      0.0000     17.0404      3.8196
   936.2500    123.3549      0.0000     15.3208      3.4568
   936.5000    117.4449      0.0000     13.9541      3.0579
   936.7500    109.8435      0.0000     12.8249      2.6671
   937.0000    102.5270      0.0000     11.7440      2.3211
   937.2500     96.6336      0.0000     10.6025      2.0413
   937.5000     92.1373      0.0000      9.4550      1.8330
   937.7500     89.0788      0.0000      8.4685      1.6897
   938.0000     88.4883      0.0000      7.8027      1.6021
   938.2500     91.7773      0.0000      7.5285      1.5678
   938.5000     99.3661      0.0000      7.6273      1.5946
   938.7500    109.9317      0.0000      8.0361      1.6899
   939.0000    120.8470      0.0000      8.6881      1.8434
   939.2500    129.4511      0.0000      9.5203      2.0190
   939.5000    134.2307      0.0000     10.4618      2.1693
   939.7500    135.2725      0.0000     11.4358      2.2615
   940.0000    133.9464      0.0000     12.3807      2.2871
   940.2500    132.0805      0.0000     13.2546      2.2498
   940.5000    131.0648      0.0000     14.0091      2.1547
   940.7500    131.5117      0.0000     14.5759      2.0139
   941.0000    133.5495      0.0000     14.8831      1.8530
   941.2500    136.9786      0.0000     14.8726      1.7022
   941.5000    140.9266      0.0000     14.5117      1.5772
   941.7500    143.8513      0.0000     13.8158      1.4757
   942.0000    144.4502      0.0000     12.8570      1.3907
   942.2500    142.5359      0.0000     11.7198      1.3197
   942.5000    138.8728      0.0000     10.4437      1.2591
   942.7500    134.2876      0.0000      9.0380      1.1977
   943.0000    129.0044      0.0000      7.5553      1.1219
   943.2500    122.7662      0.0000      6.1235      1.0245
   943.5000    115.5759      0.0000      4.8906      0.9075
   943.7500    108.2881      0.0000      3.9460      0.7783
   944.0000    102.3520      0.0000      3.2930      0.6483
   944.2500     98.8692      0.0000      2.8818      0.5323
   944.5000     97.8628      0.0000      2.6560      0.4447
   944.7500     98.3271      0.0000      2.5722      0.3919
   945.0000     98.7757      0.0000      2.5874      0.3664
   945.2500     97.9786      0.0000      2.6499      0.3531
   945.5000     95.7246      0.0000      2.7106      0.3415
   945.7500     92.8996      0.0000      2.7459      0.3308
   946.0000     90.4212      0.0000      2.7643      0.3241
   946.2500     88.1537      0.0000      2.7875      0.3228
   946.5000     85.2134      0.0000      2.8202      0.3266
   946.7500     81.1495      0.0000      2.8384      0.3373
   947.0000     76.4410      0.0000      2.8127      0.3581
   947.2500     71.9849      0.0000      2.7450      0.3878
   947.5000     68.5088      0.0000      2.6805      0.4200
   947.7500     66.6848      0.0000      2.6796      0.4480
   948.0000     67.5907      0.0000      2.7773      0.4700
   948.2500     72.2627      0.0000      2.9688      0.4887
   948.5000     80.2374      0.0000      3.2199      0.5079
   948.7500     88.9557      0.0000      3.4868      0.5303
   949.0000     95.2860      0.0000      3.7325      0.5549
   949.2500     97.6021      0.0000      3.9375      0.5772
   949.5000     96.3256      0.0000      4.0963      0.5933
   949.7500     93.2588      0.0000      4.2091      0.6041
   950.0000     91.0893      0.0000      4.2786      0.6117
   950.2500     92.5854      0.0000      4.3133      0.6126
   950.5000     98.6192      0.0000      4.3252      0.5970
   950.7500    106.8803      0.0000      4.3209      0.5604
   951.0000    113.6811      0.0000      4.2903      0.5124
   951.2500    117.3263      0.0000      4.2078      0.4683
   951.5000    119.0890      0.0000      4.0522      0.4353
   951.7500    121.0059      0.0000      3.8277      0.4096
   952.0000    123.5833      0.0000      3.5618      0.3876
   952.2500    125.7209      0.0000      3.2794      0.3726
   952.5000    126.0241      0.0000      2.9828      0.3683
   952.7500    123.6569      0.0000      2.6658      0.3697
   953.0000    118.3231      0.0000      2.3456      0.3662
   953.2500    110.2959      0.0000      2.0681      0.3544
   953.5000    100.9857      0.0000      1.8767      0.3429
   953.7500     93.1434      0.0000      1.7873      0.3454
   954.0000     89.6838      0.0000      1.7991      0.3691
   954.2500     91.7967      0.0000      1.9206      0.4119
   954.5000     98.1552      0.0000      2.1747      0.4692
   954.7500    105.9261      0.0000      2.5834      0.5391
   955.0000    112.5061      0.0000      3.1543      0.6200
   955.2500    116.7303      0.0000      3.8821      0.7095
   955.5000    119.1503      0.0000      4.7537      0.8099
   955.7500    121.2635      0.0000      5.7586      0.9316
   956.0000    124.0660      0.0000      6.9011      1.0869
   956.2500    127.2390      0.0000      8.2001      1.2809
   956.5000    129.8038      0.0000      9.6683      1.5116
   956.7500    131.1197      0.0000     11.2954      1.7758
   957.0000    130.8656      0.0000     13.0496      2.0710
   957.2500    128.6650      0.0000     14.8814      2.3916
   957.5000    124.5659      0.0000     16.7129      2.7274
   957.7500    119.6601      0.0000     18.4329      3.0695
   958.0000    115.5101      0.0000     19.9142      3.4128
   958.2500    112.9221      0.0000     21.0497      3.7534
   958.5000    111.6047      0.0000     21.7780      4.0836
   958.7500    110.8927      0.0000     22.0843      4.3922
   959.0000    110.4026      0.0000     21.9995      4.6678
   959.2500    110.1149      0.0000     21.6147      4.8960
   959.5000    110.3637      0.0000     21.0901      5.0528
   959.7500    111.7240      0.0000     20.6281      5.1097
   960.0000    114.4919      0.0000     20.4222      5.0519
   960.2500    118.1253      0.0000     20.5983      4.8945
   960.5000    121.2705      0.0000     21.1479      4.6771
   960.7500    122.3745      0.0000     21.8795      4.4407
   961.0000    120.5304      0.0000     22.4619      4.2151
   961.2500    116.0266      0.0000     22.5730      4.0196
   961.5000    110.0583      0.0000     22.0537      3.8622
   961.7500    103.9087      0.0000     20.9521      3.7344
   962.0000     98.5613      0.0000     19.4530      3.6115
   962.2500     94.7372      0.0000     17.7773      3.4606
   962.5000     92.6068      0.0000     16.1216      3.2544
   962.7500     91.3678      0.0000     14.6325      2.9913
   963.0000     89.6411      0.0000     13.3790      2.7067
   963.2500     86.6600      0.0000     12.3289      2.4507
   963.5000     83.0572      0.0000     11.3896      2.2558
   963.7500     80.4304      0.0000     10.5182      2.1264
   964.0000     80.2840      0.0000      9.7859      2.0480
   964.2500     83.3639      0.0000      9.3094      1.9992
   964.5000     89.4958      0.0000      9.1368      1.9634
   964.7500     97.5926      0.0000      9.2219      1.9343
   965.0000    105.9514     -1.4304      9.4845      1.9123
   965.2500    112.8616      0.0000      9.8816      1.9000
   965.5000    117.0404      0.0000     10.4347      1.9059
   965.7500    117.9939      0.0000     11.1822      1.9433
   966.0000    116.6451      0.0000     12.0867      2.0194
   966.2500    115.3305      0.0000     13.0132      2.1280
   966.5000    116.0875      0.0000     13.8256      2.2596
   966.7500    118.5984      0.0000     14.4593      2.4118
   967.0000    120.5878      0.0000     14.8823      2.5798
