~Version Information
VERS.                      2.0: CWLS Log ASCII Standard - VERSION 2.0
WRAP.                       NO: One line per depth step
~Well Information Block
STRT.FT               741.2000: 
STOP.FT              2461.0000: 
STEP.FT                 0.1000: 
NULL.                -999.2500: 
COMP.          Petrogulf Corporation: COMPANY
WELL.           Montoya 12-44V: WELL
FLD.           Purgatorie River: FIELD
LOC.           698' FSL & 599' FEL: LOCATION
CNTY.               Las Animas: COUNTY
SRVC.                         : SERVICE COMPANY
DATE.          Mon Aug 09 06:09:04 2004: LOG DATE
UWI.           05 071 08094 00: UNIQUE WELL ID
STAT.                 Colorado: STATE
~Curve Information Block
DEPT.FT            0 000 00 00: Depth
DCAL.in                       : CDL Caliper
RHOB.g/cc                     : CDL Bulk Density
RHOC.g/cc                     : CDL Density Correction
DPOR.pu                       : CDL Density Porosity
GR.GAPI                       : Gamma Ray
NPOR.pu                       : Neutron Porosity
~Parameter Information Block
~A  Depth       DCAL        RHOB        RHOC        DPOR         GR         NPOR    
# ...
  1211.6000      8.4454      2.0968      0.0383     33.5253    151.5484     28.9120
  1211.7000      8.4454      2.1796      0.1575     28.5102    151.3896     29.7510
  1211.8000      8.4813      2.2981      0.3485     21.3295    152.9178     30.6143
  1211.9000      8.4813      2.4059      0.4277     14.7956    158.2942     30.7547
  1212.0000      8.5801      2.4841      0.4497     10.0522    166.1461     30.2899
  1212.1000      8.5801      2.5403      0.4630      6.6459    169.7746     30.2218
  1212.2000      8.5801      2.5858      0.4226      3.8933    167.3295     30.6290
  1212.3000      8.5891      2.6180      0.4329      1.9407    161.5387     30.7173
  1212.4000      8.5891      2.6214      0.4193      1.7340    155.6273     30.5090
  1212.5000      8.6664      2.5995      0.3322      3.0600    152.5924     30.7327
  1212.6000      8.6664      2.5808      0.2573      4.1955    152.4284     31.2871
  1212.7000      8.6664      2.5825      0.2074      4.0922    150.7608     31.2631
  1212.8000      8.7763      2.6064      0.1647      2.6402    146.6992     30.4433
  1212.9000      8.7763      2.6486      0.2376      0.0877    145.6959     29.7173
  1213.0000      8.5506      2.6939      0.2705     -2.6627    150.4650     29.7805
  1213.1000      8.5506      2.7213      0.3293     -4.3233    156.7351     30.2158
  1213.2000      8.5506      2.7135      0.2880     -3.8481    157.7688     30.6778
  1213.3000      8.3263      2.6784      0.2143     -1.7192    152.6100     31.0749
  1213.4000      8.3263      2.6419      0.2108      0.4921    145.8193     30.9092
  1213.5000      8.2964      2.6138      0.1344      2.1941    144.5499     30.2732
  1213.6000      8.2964      2.5913      0.0974      3.5547    154.2827     29.9249
  1213.7000      8.2964      2.5761      0.0670      4.4783    167.2011     29.8431
  1213.8000      8.2946      2.5704      0.0778      4.8222    171.9096     29.4758
  1213.9000      8.2946      2.5721      0.1214      4.7235    168.5909     28.9737
  1214.0000      8.2958      2.5747      0.0757      4.5620    160.3689     28.8536
  1214.1000      8.2958      2.5732      0.0768      4.6522    151.8332     29.2382
  1214.2000      8.2958      2.5620      0.0730      5.3349    150.7032     29.8189
  1214.3000      8.2945      2.5406      0.0726      6.6305    154.8952     30.1584
  1214.4000      8.2945      2.5244      0.0221      7.6103    158.2728     30.1932
  1214.5000      8.2925      2.5319      0.0084      7.1562    161.3931     29.9780
  1214.6000      8.2925      2.5590      0.0711      5.5139    165.6605     29.7861
  1214.7000      8.2925      2.5835      0.1095      4.0312    164.6792     30.1009
  1214.8000      8.2946      2.5976      0.1009      3.1777    155.0590     30.7667
  1214.9000      8.2946      2.6119      0.0741      2.3093    149.6917     31.0055
  1215.0000      8.2931      2.6285      0.1197      1.3002    152.9079     30.3383
  1215.1000      8.2931      2.6345      0.0963      0.9365    157.1912     29.2881
  1215.2000      8.2931      2.6224      0.0696      1.6705    160.9953     28.7779
  1215.3000      8.2932      2.5981      0.0567      3.1459    163.5670     28.7742
  1215.4000      8.2932      2.5736      0.0371      4.6319    164.5594     28.5618
  1215.5000      8.2956      2.5650     -0.0063      5.1516    163.7975     28.4660
  1215.6000      8.2956      2.5793     -0.0181      4.2868    159.5863     28.9453
  1215.7000      8.2956      2.5973      0.0755      3.1944    155.0498     29.1878
  1215.8000      8.2947      2.5988      0.0058      3.1033    152.1914     28.5320
  1215.9000      8.2947      2.5929      0.0052      3.4613    147.5506     27.7177
  1216.0000      8.2940      2.5914      0.0214      3.5489    144.0466     27.6475
  1216.1000      8.2940      2.5924      0.0109      3.4886    147.0446     28.0039
  1216.2000      8.2940      2.5905      0.0382      3.6040    151.7480     28.0209
  1216.3000      8.2949      2.5862      0.0319      3.8681    151.4431     28.0560
  1216.4000      8.2949      2.5872      0.0201      3.8056    148.7437     28.7430
  1216.5000      8.2943      2.5912      0.0272      3.5650    150.8199     29.5081
  1216.6000      8.2943      2.5909      0.0596      3.5834    157.2961     29.8465
  1216.7000      8.2943      2.5900      0.0217      3.6343    163.2779     29.7007
  1216.8000      8.2942      2.5849      0.0777      3.9454    165.4355     28.8902
  1216.9000      8.2942      2.5626      0.0415      5.2976    160.7509     28.0107
  1217.0000      8.2941      2.5283      0.0282      7.3779    155.1622     27.8644
  1217.1000      8.2941      2.4996      0.0040      9.1139    159.3535     28.1132
  1217.2000      8.2941      2.4816      0.0206     10.2034    170.4228     28.2768
  1217.3000      8.2936      2.4688      0.0503     10.9810    177.0542     28.5845
  1217.4000      8.2936      2.4595      0.0414     11.5474    175.7248     28.9503
  1217.5000      8.2951      2.4583      0.0418     11.6209    169.6147     28.9856
  1217.6000      8.2951      2.4686      0.0535     10.9967    162.1778     28.8480
  1217.7000      8.2951      2.4879      0.0434      9.8241    154.6151     29.0106
  1217.8000      8.2962      2.5091      0.0934      8.5364    150.0373     29.4024
  1217.9000      8.2962      2.5293      0.0890      7.3170    150.4896     29.5995
  1218.0000      8.2945      2.5576      0.0574      5.6003    150.5555     29.6995
  1218.1000      8.2945      2.5931      0.0826      3.4484    147.6576     30.0877
  1218.2000      8.2945      2.6122      0.1142      2.2904    142.9772     30.6263
  1218.3000      8.2944      2.6057      0.0498      2.6868    135.2988     30.4620
  1218.4000      8.2944      2.5987     -0.0082      3.1115    128.8699     29.1931
  1218.5000      8.2926      2.6055      0.0547      2.6942    130.9109     27.8259
  1218.6000      8.2926      2.6100      0.0221      2.4248    136.3483     27.5009
  1218.7000      8.2926      2.6053      0.0284      2.7086    135.7608     27.9511
  1218.8000      8.2928      2.5989     -0.0048      3.0959    134.2978     28.2141
  1218.9000      8.2928      2.5929      0.0405      3.4635    138.5517     28.3503
  1219.0000      8.2935      2.5875     -0.0021      3.7866    143.0740     28.7765
  1219.1000      8.2935      2.5866      0.0469      3.8404    141.3134     29.3043
  1219.2000      8.2935      2.5839      0.0795      4.0090    139.1831     29.6114
  1219.3000      8.2980      2.5730      0.0343      4.6694    144.9034     29.4428
  1219.4000      8.2980      2.5585      0.0536      5.5443    155.1913     29.0703
  1219.5000      8.2967      2.5389      0.0688      6.7362    165.2429     29.1492
  1219.6000      8.2967      2.5152      0.0147      8.1691    174.9301     29.5017
  1219.7000      8.2967      2.5059      0.0391      8.7347    182.2141     29.0879
  1219.8000      8.2955      2.5226      0.0394      7.7225    179.1552     27.9719
  1219.9000      8.2955      2.5527      0.0826      5.8995    166.1884     27.2299
  1220.0000      8.2940      2.5720      0.0656      4.7270    154.9204     27.0789
  1220.1000      8.2940      2.5697      0.0656      4.8679    152.8569     27.4571
  1220.2000      8.2940      2.5527      0.0592      5.8990    156.5959     28.2982
  1220.3000      8.2940      2.5302      0.0609      7.2588    159.7610     28.8338
  1220.4000      8.2940      2.5112      0.0329      8.4097    160.3854     28.8001
  1220.5000      8.2926      2.5008      0.0716      9.0442    155.5177     28.9796
  1220.6000      8.2926      2.4907      0.0506      9.6535    146.5171     29.6620
  1220.7000      8.2926      2.4736      0.0262     10.6928    139.5680     30.3430
  1220.8000      8.2929      2.4404      0.0538     12.7053    137.2822     30.4960
  1220.9000      8.2929      2.3791      0.0072     16.4159    136.3428     29.8199
  1221.0000      8.2912      2.3014     -0.0062     21.1281    134.2709     29.2519
  1221.1000      8.2912      2.2267     -0.0216     25.6517    132.6103     29.9563
