~Version Information
VERS.                      2.0: CWLS Log ASCII Standard - VERSION 2.0
WRAP.                       NO: One line per depth step
~Well Information Block
STRT.FT               660.8000: 
STOP.FT              2375.1000: 
STEP.FT                 0.1000: 
NULL.                -999.2500: 
COMP.          Petrogulf Corporation: COMPANY
WELL.             State 16-34V: WELL
FLD.           Purgatorie River: FIELD
LOC.           1146' FSL & 1393' FEL: LOCATION
CNTY.               Las Animas: COUNTY
SRVC.                         : SERVICE COMPANY
DATE.          Sat Jun 07 20:51:20 2003: LOG DATE
UWI.           05 071 07724 00: UNIQUE WELL ID
STAT.                 Colorado: STATE
~Curve Information Block
DEPT.FT            0 000 00 00: Depth
DCAL.in                       : Caliper from Density Tool
RHOB.g/cc                     : Bulk Density
RHOC.g/cc                     : Density Correction
DPOR.pu                       : Density Porosity
GR.GAPI                       : Gamma Ray
NPOR.pu                       : Neutron Porosity
~Parameter Information Block
~A  Depth       DCAL        RHOB        RHOC        DPOR         GR         NPOR    
# ...
  1342.4000      7.8663      2.5233      0.0590      7.6804    122.4995     24.9428
  1342.5000      8.0115      2.5227      0.0612      7.7179    121.1707     24.9226
  1342.6000      8.0115      2.5227      0.0612      7.7179    119.9349     24.8917
  1342.7000      8.0115      2.5227      0.0612      7.7179    118.8484     24.8528
  1342.8000      8.1788      2.5184      0.0600      7.9765    117.9689     24.8088
  1342.9000      8.1788      2.5184      0.0600      7.9765    117.3522     24.7634
  1343.0000      8.1613      2.5139      0.0557      8.2501    117.0486     24.7203
  1343.1000      8.1613      2.5139      0.0557      8.2501    117.0938     24.6837
  1343.2000      8.1613      2.5139      0.0557      8.2501    117.5023     24.6575
  1343.3000      8.0005      2.5079      0.0460      8.6100    118.2627     24.6455
  1343.4000      8.0005      2.5079      0.0460      8.6100    119.3368     24.6508
  1343.5000      7.8944      2.5067      0.0396      8.6825    120.6597     24.6753
  1343.6000      7.8944      2.5067      0.0396      8.6825    122.1489     24.7196
  1343.7000      7.8944      2.5067      0.0396      8.6825    123.7092     24.7825
  1343.8000      7.9153      2.5109      0.0330      8.4311    125.2468     24.8609
  1343.9000      7.9153      2.5109      0.0330      8.4311    126.6782     24.9502
  1344.0000      7.9533      2.5170      0.0315      8.0619    127.9380     25.0447
  1344.1000      7.9533      2.5170      0.0315      8.0619    128.9812     25.1382
  1344.2000      7.9533      2.5170      0.0315      8.0619    129.7838     25.2250
  1344.3000      7.8992      2.5282      0.0337      7.3821    130.3444     25.2993
  1344.4000      7.8992      2.5282      0.0337      7.3821    130.6744     25.3568
  1344.5000      7.8181      2.5354      0.0376      6.9458    130.7965     25.3938
  1344.6000      7.8181      2.5354      0.0376      6.9458    130.7377     25.4070
  1344.7000      7.8181      2.5354      0.0376      6.9458    130.5253     25.3934
  1344.8000      7.8555      2.5443      0.0466      6.4061    130.1830     25.3503
  1344.9000      7.8555      2.5443      0.0466      6.4061    129.7296     25.2756
  1345.0000      7.9352      2.5489      0.0545      6.1245    129.1773     25.1678
  1345.1000      7.9352      2.5489      0.0545      6.1245    128.5328     25.0270
  1345.2000      7.9352      2.5489      0.0545      6.1245    127.7999     24.8556
  1345.3000      7.9149      2.5546      0.0691      5.7797    126.9833     24.6591
  1345.4000      7.9149      2.5546      0.0691      5.7797    126.0929     24.4455
  1345.5000      7.8936      2.5578      0.0797      5.5862    125.1471     24.2258
  1345.6000      7.8936      2.5578      0.0797      5.5862    124.1781     24.0129
  1345.7000      7.8936      2.5578      0.0797      5.5862    123.2313     23.8203
  1345.8000      7.9316      2.5612      0.0939      5.3841    122.3636     23.6613
  1345.9000      7.9316      2.5612      0.0939      5.3841    121.6388     23.5477
  1346.0000      7.9616      2.5616      0.0998      5.3582    121.1216     23.4889
  1346.1000      7.9616      2.5616      0.0998      5.3582    120.8679     23.4916
  1346.2000      7.9616      2.5616      0.0998      5.3582    120.9190     23.5592
  1346.3000      7.9539      2.5587      0.1008      5.5353    121.2922     23.6911
  1346.4000      7.9539      2.5587      0.1008      5.5353    121.9786     23.8836
  1346.5000      7.9071      2.5550      0.0965      5.7564    122.9418     24.1288
  1346.6000      7.9071      2.5550      0.0965      5.7564    124.1179     24.4152
  1346.7000      7.9071      2.5550      0.0965      5.7564    125.4226     24.7286
  1346.8000      7.8558      2.5500      0.0869      6.0605    126.7563     25.0519
  1346.9000      7.8558      2.5500      0.0869      6.0605    128.0148     25.3672
  1347.0000      7.8587      2.5484      0.0811      6.1577    129.0984     25.6570
  1347.1000      7.8587      2.5484      0.0811      6.1577    129.9208     25.9052
  1347.2000      7.8587      2.5484      0.0811      6.1577    130.4200     26.0991
  1347.3000      7.9122      2.5478      0.0756      6.1922    130.5620     26.2301
  1347.4000      7.9122      2.5478      0.0756      6.1922    130.3419     26.2939
  1347.5000      7.9324      2.5467      0.0734      6.2623    129.7815     26.2910
  1347.6000      7.9324      2.5467      0.0734      6.2623    128.9247     26.2264
  1347.7000      7.9324      2.5467      0.0734      6.2623    127.8268     26.1085
  1347.8000      7.9079      2.5416      0.0703      6.5711    126.5482     25.9485
  1347.9000      7.9079      2.5416      0.0703      6.5711    125.1479     25.7596
  1348.0000      7.9149      2.5368      0.0681      6.8576    123.6790     25.5560
  1348.1000      7.9149      2.5368      0.0681      6.8576    122.1919     25.3511
  1348.2000      7.9149      2.5368      0.0681      6.8576    120.7368     25.1579
  1348.3000      7.9666      2.5315      0.0657      7.1826    119.3688     24.9865
  1348.4000      7.9666      2.5315      0.0657      7.1826    118.1462     24.8449
  1348.5000      7.9543      2.5305      0.0649      7.2437    117.1340     24.7380
  1348.6000      7.9543      2.5305      0.0649      7.2437    116.3966     24.6678
  1348.7000      7.9543      2.5305      0.0649      7.2437    115.9882     24.6338
  1348.8000      7.8863      2.5325      0.0637      7.1232    115.9437     24.6336
  1348.9000      7.8863      2.5325      0.0637      7.1232    116.2703     24.6632
  1349.0000      7.8427      2.5353      0.0622      6.9541    116.9424     24.7177
  1349.1000      7.8427      2.5353      0.0622      6.9541    117.9025     24.7919
  1349.2000      7.8427      2.5353      0.0622      6.9541    119.0658     24.8802
  1349.3000      7.8293      2.5412      0.0596      6.5960    120.3324     24.9772
  1349.4000      7.8293      2.5412      0.0596      6.5960    121.5985     25.0775
  1349.5000      7.8357      2.5465      0.0584      6.2752    122.7680     25.1754
  1349.6000      7.8357      2.5465      0.0584      6.2752    123.7624     25.2653
  1349.7000      7.8357      2.5465      0.0584      6.2752    124.5257     25.3419
  1349.8000      7.9095      2.5556      0.0589      5.7204    125.0273     25.3996
  1349.9000      7.9095      2.5556      0.0589      5.7204    125.2629     25.4341
  1350.0000      7.9676      2.5608      0.0604      5.4039    125.2460     25.4419
  1350.1000      7.9676      2.5608      0.0604      5.4039    125.0072     25.4207
  1350.2000      7.9676      2.5608      0.0604      5.4039    124.5860     25.3703
  1350.3000      7.9191      2.5639      0.0625      5.2198    124.0269     25.2923
  1350.4000      7.9191      2.5639      0.0625      5.2198    123.3785     25.1898
  1350.5000      7.8610      2.5618      0.0629      5.3479    122.6863     25.0675
  1350.6000      7.8610      2.5618      0.0629      5.3479    121.9941     24.9310
  1350.7000      7.8610      2.5618      0.0629      5.3479    121.3418     24.7860
  1350.8000      7.9211      2.5539      0.0618      5.8272    120.7635     24.6379
  1350.9000      7.9211      2.5539      0.0618      5.8272    120.2862     24.4916
  1351.0000      8.0377      2.5476      0.0610      6.2071    119.9265     24.3503
  1351.1000      8.0377      2.5476      0.0610      6.2071    119.6885     24.2161
  1351.2000      8.0377      2.5476      0.0610      6.2071    119.5637     24.0899
  1351.3000      8.0716      2.5406      0.0620      6.6323    119.5320     23.9711
  1351.4000      8.0716      2.5406      0.0620      6.6323    119.5658     23.8583
  1351.5000      8.0518      2.5388      0.0653      6.7403    119.6340     23.7499
  1351.6000      8.0518      2.5388      0.0653      6.7403    119.7101     23.6441
  1351.7000      8.0518      2.5388      0.0653      6.7403    119.7718     23.5392
  1351.8000      8.0375      2.5401      0.0748      6.6602    119.8063     23.4339
  1351.9000      8.0375      2.5401      0.0748      6.6602    119.8070     23.3273
