~Version Information
VERS.                      2.0: CWLS Log ASCII Standard - VERSION 2.0
WRAP.                       NO: One line per depth step
~Well Information Block
STRT.FT               580.0000: 
STOP.FT              1756.7500: 
STEP.FT                 0.2500: 
NULL.                -999.2500: 
COMP.          Pioneer Natural Resources: COMPANY
WELL.          Lookout Point 31-23 Tr: WELL
FLD.           Purgatoire River: FIELD
LOC.           541' FNL & 1786' FEL: LOCATION
PROV.                 Colorado: PROVINCE
CNTY.               Las Animas: COUNTRY
SRVC.                Patterson: SERVICE COMPANY
DATE.          Sun Jan 23 04:14:25 2005: LOG DATE
UWI.           05 071 08260 00: UNIQUE WELL ID
~Curve Information Block
DEPT.FT            0 000 00 00: Depth
DIR.Ohm-m                     : IEL Induction Resistivity
GR.GAPI                       : Gamma Ray
SN.Ohm-m                      : IEL Short Normal
SP.mV                         : IEL Spontaneous Potential
~Parameter Information Block
~A  Depth       DIR          GR          SN          SP     
   580.0000      2.8286     86.8973   2000.0000   2000.0000
   580.2500      2.8110     89.8432   2000.0000   2000.0000
   580.5000      2.8004     95.0895   2000.0000   2000.0000
   580.7500      2.8006     99.0020   2000.0000   2000.0000
   581.0000      2.8116    105.1225   2000.0000   2000.0000
   581.2500      2.8304    109.1146   2000.0000   2000.0000
   581.5000      2.8520    114.3523   2000.0000   2000.0000
   581.7500      2.8722    116.9782   2000.0000   2000.0000
   582.0000      2.8883    119.4058   2000.0000   2000.0000
   582.2500      2.8997    120.2723   2000.0000   2000.0000
   582.5000      2.9058    121.2390   2000.0000   2000.0000
   582.7500      2.9045    122.0096   2000.0000   2000.0000
   583.0000      2.8930    123.5634   2000.0000   2000.0000
   583.2500      2.8697    124.9003   2000.0000   2000.0000
   583.5000      2.8377    127.3352   2000.0000   2000.0000
   583.7500      2.8064    129.0129   2000.0000   2000.0000
   584.0000      2.7869    130.5900   2000.0000   2000.0000
   584.2500      2.7857    130.0578   2000.0000   2000.0000
   584.5000      2.8004    124.9898   2000.0000   2000.0000
   584.7500      2.8203    118.0754   2000.0000   2000.0000
   585.0000      2.8334    103.1745   2000.0000   2000.0000
   585.2500      2.8339     91.8367   2000.0000   2000.0000
   585.5000      2.8260     76.0287   2000.0000   2000.0000
   585.7500      2.8200     67.7034   2000.0000   2000.0000
   586.0000      2.8243     59.6010   2000.0000   2000.0000
   586.2500      2.8412     57.0564   2000.0000   2000.0000
   586.5000      2.8667     56.4103   2000.0000   2000.0000
   586.7500      2.8948     47.5784   2000.0000   2000.0000
   587.0000      2.9200     48.7463   2000.0000   2000.0000
   587.2500      2.9380     49.7468   2000.0000   2000.0000
   587.5000      2.9440     52.5519   2000.0000   2000.0000
   587.7500      2.9313     55.8334   2000.0000   2000.0000
   588.0000      2.8930     62.8799   2000.0000   2000.0000
   588.2500      2.8260     68.4920   2000.0000   2000.0000
   588.5000      2.7368     77.2265   2000.0000   2000.0000
   588.7500      2.6454     82.8447   2000.0000   2000.0000
   589.0000      2.5872     90.5648   2000.0000   2000.0000
   589.2500      2.6150     94.8838   2000.0000   2000.0000
   589.5000      2.8097     98.9701   2000.0000   2000.0000
   589.7500      3.3153     99.4307   2000.0000   2000.0000
   590.0000      4.4520     96.6974   2000.0000   2000.0000
   590.2500      7.0991     93.4427   2000.0000   2000.0000
   590.5000     14.4187     88.5833   2000.0000   2000.0000
   590.7500     45.8805     86.4188   2000.0000   2000.0000
   591.0000 100000.0000     85.5171   2000.0000   2000.0000
   591.2500 100000.0000     86.2310   2000.0000   2000.0000
   591.5000 100000.0000     88.4737   2000.0000   2000.0000
   591.7500     44.9137     90.7701   2000.0000   2000.0000
   592.0000     13.9099     96.7358   2000.0000   2000.0000
   592.2500      6.2886    103.2550   2000.0000   2000.0000
   592.5000      3.5957    116.7006   2000.0000   2000.0000
   592.7500      2.5186    126.7100   2000.0000   2000.0000
   593.0000      2.1400    139.7353   2000.0000   2000.0000
   593.2500      2.2001    145.5116   2000.0000   2000.0000
   593.5000      2.7501    149.5466   2000.0000   2000.0000
   593.7500      4.3006    150.2726   2000.0000   2000.0000
   594.0000      9.4981    150.7571   2000.0000   2000.0000
   594.2500     85.3484    151.4445   2000.0000   2000.0000
   594.5000 100000.0000    153.1670   2000.0000   2000.0000
   594.7500 100000.0000    154.5622   2000.0000   2000.0000
   595.0000 100000.0000    156.5872   2000.0000   2000.0000
   595.2500 100000.0000    157.5921   2000.0000   2000.0000
   595.5000     24.9299    157.9450   2000.0000   2000.0000
   595.7500     13.1364    157.0124   2000.0000   2000.0000
   596.0000      9.8969    153.5420   2000.0000   2000.0000
   596.2500      8.7746    150.1724   2000.0000   2000.0000
   596.5000      8.5025    144.9105   2000.0000   2000.0000
   596.7500      8.6353    142.1453   2000.0000   2000.0000
   597.0000      8.9406    140.2517   2000.0000   2000.0000
   597.2500      9.2514    140.9187   2000.0000   2000.0000
   597.5000      9.4323    144.9593   2000.0000   2000.0000
   597.7500      9.4078    149.2429   2000.0000   2000.0000
   598.0000      9.2100    156.5162   2000.0000   2000.0000
   598.2500      8.9690    160.8319   2000.0000   2000.0000
   598.5000      8.8332    164.7781   2000.0000   2000.0000
   598.7500      8.8946    165.1859   2000.0000   2000.0000
   599.0000      9.1502    163.0243   2000.0000   2000.0000
   599.2500      9.4902    160.7325   2000.0000   2000.0000
   599.5000      9.7295    157.3131   2000.0000   2000.0000
   599.7500      9.7220    155.0167   2000.0000   2000.0000
   600.0000      9.4760    151.0357   2000.0000   2000.0000
   600.2500      9.1328    148.1757   2000.0000   2000.0000
   600.5000      8.8492    144.3119   2000.0000   2000.0000
   600.7500      8.7299    141.9713   2000.0000   2000.0000
   601.0000      8.8270    137.6881   2000.0000   2000.0000
   601.2500      9.1581    133.8172   2000.0000   2000.0000
   601.5000      9.7092    126.9865   2000.0000   2000.0000
   601.7500     10.4272    122.5756   2000.0000   2000.0000
   602.0000     11.2201    117.5079   2000.0000   2000.0000
   602.2500     11.9813    115.8470   2000.0000   2000.0000
   602.5000     12.6338    117.1380   2000.0000   2000.0000
   602.7500     13.1555    120.7801   2000.0000   2000.0000
   603.0000     13.5656    128.8755   2000.0000   2000.0000
   603.2500     13.8923    134.1718   2000.0000   2000.0000
   603.5000     14.1539    139.2431   2000.0000   2000.0000
   603.7500     14.3609    140.3443   2000.0000   2000.0000
   604.0000     14.5260    139.7850   2000.0000   2000.0000
   604.2500     14.6695    138.7458   2000.0000   2000.0000
   604.5000     14.8174    136.3579   2000.0000   2000.0000
   604.7500     14.9924    133.7299   2000.0000   2000.0000
   605.0000     15.2075    127.7337   2000.0000   2000.0000
   605.2500     15.4607    122.7149   2000.0000   2000.0000
   605.5000     15.7313    115.0929   2000.0000   2000.0000
   605.7500     15.9773    110.9144   2000.0000   2000.0000
   606.0000     16.1369    107.4251   2000.0000   2000.0000
   606.2500     16.1407    107.5153   2000.0000   2000.0000
   606.5000     15.9362    111.7084   2000.0000   2000.0000
   606.7500     15.5086    117.1491   2000.0000   2000.0000
   607.0000     14.8831    128.3594   2000.0000   2000.0000
   607.2500     14.1090    136.6354   2000.0000   2000.0000
   607.5000     13.2426    147.4734   2000.0000   2000.0000
   607.7500     12.3397    152.5879   2000.0000   2000.0000
   608.0000     11.4532    157.5665   2000.0000   2000.0000
   608.2500     10.6299    160.2384   2000.0000   2000.0000
   608.5000      9.9052    164.4961   2000.0000   2000.0000
   608.7500      9.2991    167.1554   2000.0000   2000.0000
   609.0000      8.8163    169.2732   2000.0000   2000.0000
   609.2500      8.4491    168.7366   2000.0000   2000.0000
   609.5000      8.1824    165.1741   2000.0000   2000.0000
   609.7500      7.9986    161.8489   2000.0000   2000.0000
   610.0000      7.8822    157.2720   2000.0000   2000.0000
   610.2500      7.8212    154.9444   2000.0000   2000.0000
   610.5000      7.8070    151.6702   2000.0000   2000.0000
   610.7500      7.8316    148.7256   2000.0000   2000.0000
   611.0000      7.8861    142.6517   2000.0000   2000.0000
   611.2500      7.9618    138.2605   2000.0000   2000.0000
   611.5000      8.0519    133.5493   2000.0000   2000.0000
   611.7500      8.1539    132.8463   2000.0000   2000.0000
   612.0000      8.2676    135.9818   2000.0000   2000.0000
   612.2500      8.3926    140.2453   2000.0000   2000.0000
   612.5000      8.5259    147.9425   2000.0000   2000.0000
   612.7500      8.6630    152.7034   2000.0000   2000.0000
   613.0000      8.8023    157.6316   2000.0000   2000.0000
   613.2500      8.9499    159.1125   2000.0000   2000.0000
