~Version Information
VERS.                      2.0: CWLS Log ASCII Standard - VERSION 2.0
WRAP.                       NO: One line per depth step
~Well Information Block
STRT.FT               630.0000: 
STOP.FT              1155.5000: 
STEP.FT                 0.1000: 
NULL.                -999.2500: 
COMP.          Pioneer Natural Resources: COMPANY
WELL.          Drewmeister 34-34: WELL
FLD.           Purgatoire River: FIELD
LOC.           958' FSL & 1857' FEL: LOCATION
STAT.                 Colorado: State
CNTY.               Las Animas: COUNTY
CTRY. USA : Country
SECT. 34 : Section
TOWN. 32S : Township
RANG. 65W : Range
SRVC.                Patterson: SERVICE COMPANY
DATE.          Tue Oct 04 08:23:16 2005: LOG DATE
API.           05 071 08131 00: UNIQUE WELL ID
~Curve Information Block
DEPT.FT            0 000 00 00: Depth
DCAL.in                       : CDL Caliper
RHOB.g/cc                     : CDL Bulk Density
RHOC.g/cc                     : CDL Density Correction
DPOR.pu                       : CDL Density Porosity
GR.GAPI                       : Gamma Ray
NPOR.pu                       : Neutron Porosity
~Parameter Information Block
~A  Depth       DCAL        RHOB        RHOC        DPOR         GR         NPOR    
# ...
  1033.2000      7.8892      2.4175      0.0319     14.0914     86.6434     21.1704
  1033.3000      7.8884      2.3998      0.0297     15.1651     81.0589     21.4756
  1033.4000      7.8884      2.3825     -0.0202     16.2109     86.5522     21.6252
  1033.5000      7.8886      2.3734     -0.0117     16.7646     93.8164     21.6891
  1033.6000      7.8886      2.3789      0.0154     16.4308     95.3964     21.7990
  1033.7000      7.8886      2.3953      0.0022     15.4390     94.4288     21.9163
  1033.8000      7.8891      2.4183      0.0325     14.0410     92.0553     21.8517
  1033.9000      7.8891      2.4443      0.0903     12.4663     89.5484     21.7897
  1034.0000      7.8890      2.4698      0.0733     10.9199     88.1658     21.7242
  1034.1000      7.8890      2.4970      0.1120      9.2735     87.0224     21.4032
  1034.2000      7.8890      2.5224      0.1425      7.7328     87.3813     20.9490
  1034.3000      7.8887      2.5374      0.1567      6.8220     90.1633     20.6031
  1034.4000      7.8887      2.5439      0.1330      6.4303     94.7081     20.3041
  1034.5000      7.8887      2.5468      0.1168      6.2516     99.4052     19.7831
  1034.6000      7.8887      2.5410      0.1260      6.6087    103.6215     19.1353
  1034.7000      7.8887      2.5233      0.0436      7.6764    105.0230     18.8766
  1034.8000      7.8888      2.5064      0.0565      8.7044    101.6012     19.3233
  1034.9000      7.8888      2.4989      0.0468      9.1592     97.9801     20.3297
  1035.0000      7.8890      2.4937      0.0593      9.4729     97.1474     21.2893
  1035.1000      7.8890      2.4845      0.0137     10.0290     96.2908     21.8647
  1035.2000      7.8890      2.4773      0.0387     10.4668     93.2325     22.0905
  1035.3000      7.8893      2.4771      0.0189     10.4793     92.0235     21.5432
  1035.4000      7.8893      2.4810      0.0301     10.2428     95.7061     20.5626
  1035.5000      7.8902      2.4811      0.0587     10.2378     98.2824     20.4622
  1035.6000      7.8902      2.4749      0.0178     10.6104     96.7263     21.3805
  1035.7000      7.8902      2.4702      0.0174     10.8969     94.2841     22.3105
  1035.8000      7.8900      2.4716      0.0209     10.8107     92.1670     22.7353
  1035.9000      7.8900      2.4769      0.0206     10.4923     88.1050     22.9424
  1036.0000      7.8885      2.4822      0.0235     10.1693     83.1412     23.0601
  1036.1000      7.8885      2.4840     -0.0121     10.0611     82.2146     23.0697
  1036.2000      7.8885      2.4827      0.0111     10.1379     86.9167     23.0843
  1036.3000      7.8885      2.4829      0.0308     10.1298     93.6185     22.8146
  1036.4000      7.8885      2.4879      0.0199      9.8270     97.1504     22.1121
  1036.5000      7.8895      2.4991      0.0165      9.1472     94.7658     21.7908
  1036.6000      7.8895      2.5186      0.0102      7.9647     90.6250     22.0697
  1036.7000      7.8895      2.5428      0.0620      6.4977     91.2266     22.4269
  1036.8000      7.8895      2.5550      0.0520      5.7602     93.3187     22.7972
  1036.9000      7.8895      2.5467      0.0118      6.2603     91.0359     23.2163
  1037.0000      7.8885      2.5362     -0.0144      6.8988     87.8251     23.5737
  1037.1000      7.8885      2.5399      0.0143      6.6729     86.3815     23.9913
  1037.2000      7.8885      2.5456      0.0501      6.3254     83.9969     24.3871
  1037.3000      7.8880      2.5378      0.0181      6.8007     81.5687     24.5238
  1037.4000      7.8880      2.5226      0.0165      7.7222     82.4147     24.5437
  1037.5000      7.8884      2.5145     -0.0199      8.2102     86.7779     24.4512
  1037.6000      7.8884      2.5202     -0.0160      7.8644     92.8736     24.0105
  1037.7000      7.8884      2.5289      0.0231      7.3382     97.9462     23.3833
  1037.8000      7.8883      2.5252      0.0206      7.5627     98.8796     22.8093
  1037.9000      7.8883      2.5073     -0.0034      8.6512     96.0735     22.3925
  1038.0000      7.8884      2.4805     -0.0078     10.2751     94.4515     22.2475
  1038.1000      7.8884      2.4548     -0.0640     11.8302     96.8367     22.4141
  1038.2000      7.8884      2.4448     -0.0374     12.4335    103.8618     22.6511
  1038.3000      7.8886      2.4558     -0.0226     11.7677    114.3461     22.6196
  1038.4000      7.8886      2.4757      0.0099     10.5620    119.2864     22.4612
  1038.5000      7.8884      2.4868      0.0051      9.8913    114.9926     22.6007
  1038.6000      7.8884      2.4887      0.0097      9.7775    109.3935     23.0445
  1038.7000      7.8884      2.4972     -0.0049      9.2619    106.4100     23.3960
  1038.8000      7.8883      2.5171      0.0030      8.0555    103.6316     23.5162
  1038.9000      7.8883      2.5313      0.0467      7.1965    101.0419     23.6700
  1039.0000      7.8886      2.5300     -0.0006      7.2707    102.1555     23.8872
  1039.1000      7.8886      2.5287     -0.0088      7.3511    106.0763     24.1038
  1039.2000      7.8886      2.5345      0.0362      7.0020    109.4509     24.0118
  1039.3000      7.8888      2.5337      0.0345      7.0478    110.4294     23.5102
  1039.4000      7.8888      2.5279     -0.0062      7.3977    107.0203     23.0550
  1039.5000      7.8885      2.5360      0.0369      6.9099    101.4574     22.7440
  1039.6000      7.8885      2.5609      0.0249      5.4029     99.5998     22.5900
  1039.7000      7.8885      2.5844      0.0798      3.9760    103.7004     22.6982
  1039.8000      7.8879      2.5888      0.0359      3.7086    106.0173     22.6432
  1039.9000      7.8879      2.5776      0.0147      4.3889     98.1639     21.9812
  1040.0000      7.8875      2.5622      0.0465      5.3229     85.1175     20.9811
  1040.1000      7.8875      2.5453      0.0226      6.3433     77.5009     19.9936
  1040.2000      7.8875      2.5298      0.0351      7.2835     79.5810     19.2044
  1040.3000      7.8875      2.5222      0.0319      7.7432     89.3422     18.9910
  1040.4000      7.8875      2.5266      0.0107      7.4784     97.7141     19.0643
  1040.5000      7.8877      2.5328      0.0633      7.1002     95.3141     18.6904
  1040.6000      7.8877      2.5283      0.0284      7.3731     86.7808     18.1760
  1040.7000      7.8877      2.5168      0.0318      8.0732     81.5805     18.3354
  1040.8000      7.8875      2.5065      0.0250      8.6957     78.0656     18.7294
  1040.9000      7.8875      2.5033      0.0013      8.8903     73.3250     18.8369
  1041.0000      7.8868      2.5104     -0.0266      8.4630     71.1381     19.2346
  1041.1000      7.8868      2.5240      0.0103      7.6389     72.1131     20.0957
  1041.2000      7.8868      2.5353      0.0319      6.9486     73.4061     20.9717
  1041.3000      7.8865      2.5386      0.0550      6.7522     75.0221     21.6958
  1041.4000      7.8865      2.5361      0.0400      6.9036     78.3503     21.9701
  1041.5000      7.8863      2.5335      0.0292      7.0597     80.7767     21.6411
  1041.6000      7.8863      2.5299      0.0219      7.2762     79.4247     21.4729
  1041.7000      7.8863      2.5227      0.0317      7.7175     77.2693     21.6622
  1041.8000      7.8860      2.5137      0.0349      8.2627     79.5397     21.7590
  1041.9000      7.8860      2.5069      0.0591      8.6713     86.5460     21.8325
  1042.0000      7.8873      2.5081      0.0409      8.6029     92.3013     21.8502
  1042.1000      7.8873      2.5216      0.0580      7.7847     93.9918     21.7920
  1042.2000      7.8873      2.5408      0.0739      6.6172     95.7588     21.9203
  1042.3000      7.8883      2.5542      0.0581      5.8046    100.3769     21.8556
  1042.4000      7.8883      2.5628      0.0260      5.2822    103.3124     21.2543
  1042.5000      7.8881      2.5776      0.0427      4.3873    101.0299     20.7300
  1042.6000      7.8881      2.5950      0.1013      3.3349     97.9347     20.6205
  1042.7000      7.8881      2.5978      0.0905      3.1641     96.3221     20.7088
