~Version Information
VERS.                      2.0: CWLS Log ASCII Standard - VERSION 2.0
WRAP.                       NO: One line per depth step
~Well Information Block
STRT.FT               510.0000: 
STOP.FT              1848.7500: 
STEP.FT                 0.2500: 
NULL.                -999.2500: 
COMP.          Pioneer Natural Resources: COMPANY
WELL.           Stampede 42-18: WELL
FLD.           Purgatoire River: FIELD
LOC.           2479' FNL & 160' FEL--: LOCATION
CNTY.               Las Animas: COUNTY
SRVC.          Superior Well Services: SERVICE COMPANY
DATE.          Sat Jun 09 02:07:27 2007: LOG DATE
UWI.           05 071 08237 00: UNIQUE WELL ID
STAT.                 Colorado: STATE
~Curve Information Block
DEPT.FT            0 000 00 00: Depth
SN.Ohm-m                      : IEL Short Normal
SP.mV                         : IEL Spontaneous Potential
DIR.Ohm-m                     : IEL Induction Resistivity
GR.GAPI                       : Gamma Ray
~Parameter Information Block
~A  Depth        SN          SP         DIR          GR     
# ...
   945.5000   2000.0000   2000.0000     26.3233     86.5205
   945.7500   2000.0000   2000.0000     26.7851     91.0800
   946.0000   2000.0000   2000.0000     27.0943     98.7224
   946.2500   2000.0000   2000.0000     27.1695    103.5716
   946.5000     31.7176     97.1002     26.9646    110.1185
   946.7500     30.7547     97.2320     26.4891    113.9305
   947.0000     29.5767     97.3561     25.8166    118.6587
   947.2500     28.3754     97.4755     25.0687    121.2106
   947.5000     27.3693     97.5904     24.3731    124.5971
   947.7500     26.7120     97.6936     23.8223    126.8522
   948.0000     26.4290     97.7691     23.4561    130.3240
   948.2500     26.4383     97.7942     23.2675    132.4292
   948.5000     26.6048     97.7467     23.2221    134.4074
   948.7500     26.7679     97.6131     23.2826    134.2665
   949.0000     26.7538     97.3978     23.4279    130.5295
   949.2500     26.4442     97.1235     23.6562    125.1598
   949.5000     25.8966     96.8253     23.9682    113.4465
   949.7500     25.3936     96.5422     24.3426    104.7312
   950.0000     25.3513     96.3085     24.7235     93.8096
   950.2500     26.1356     96.1454     25.0316     89.4619
   950.5000     27.7986     96.0567     25.1939     87.6788
   950.7500     29.8862     96.0303     25.1718     88.7737
   951.0000     31.6447     96.0460     24.9670     92.1045
   951.2500     32.5302     96.0809     24.6032     94.9595
   951.5000     32.4553     96.1146     24.1036    100.2205
   951.7500     31.6155     96.1330     23.4831    104.4859
   952.0000     30.2506     96.1353     22.7566    111.7370
   952.2500     28.5772     96.1390     21.9480    116.6311
   952.5000     26.8058     96.1738     21.0920    123.0531
   952.7500     25.1106     96.2598     20.2282    126.4415
   953.0000     23.5888     96.3869     19.3916    130.5063
   953.2500     22.2844     96.5151     18.6034    132.9043
   953.5000     21.2216     96.5923     17.8702    136.2972
   953.7500     20.3854     96.5702     17.1921    138.4335
   954.0000     19.7035     96.4109     16.5714    141.6441
   954.2500     19.0771     96.0967     16.0131    143.7571
   954.5000     18.4099     95.6477     15.5195    145.7043
   954.7500     17.6251     95.1339     15.0856    145.0742
   955.0000     16.7231     94.6686     14.7005    140.3030
   955.2500     15.8265     94.3868     14.3517    135.1308
   955.5000     15.1283     94.4089     14.0291    126.5898
   955.7500     14.8031     94.7951     13.7280    121.7119
   956.0000     14.9498     95.5106     13.4509    117.2260
   956.2500     15.5403     96.4346     13.2065    116.5041
   956.5000     16.3727     97.4183     13.0072    118.6680
   956.7500     17.1117     98.3473     12.8653    121.9654
   957.0000     17.4508     99.1668     12.7893    129.1375
   957.2500     17.2891     99.8674     12.7786    134.9541
   957.5000     16.7616    100.4639     12.8182    143.8756
   957.7500     16.1077    100.9821     12.8776    148.9457
   958.0000     15.5384    101.4495     12.9201    154.0066
   958.2500     15.1930    101.8830     12.9172    155.6197
   958.5000     15.1335    102.2802     12.8580    156.1527
   958.7500     15.3406    102.6224     12.7478    155.7555
   959.0000     15.7180    102.8871     12.5999    154.5523
   959.2500     16.1111    103.0587     12.4289    153.5005
   959.5000     16.3600    103.1322     12.2490    151.7121
   959.7500     16.3726    103.1126     12.0728    150.3897
   960.0000     16.1402    103.0153     11.9082    148.0184
   960.2500     15.6837    102.8688     11.7562    146.0662
   960.5000     15.0147    102.7126     11.6106    142.7237
   960.7500     14.1575    102.5850     11.4635    140.5319
   961.0000     13.2060    102.5061     11.3098    137.8602
   961.2500     12.3337    102.4671     11.1481    136.5647
   961.5000     11.7133    102.4382     10.9786    134.8521
   961.7500     11.4262    102.3885     10.8008    133.4848
   962.0000     11.4499    102.3040     10.6143    131.3345
   962.2500     11.6908    102.1926     10.4201    130.6421
   962.5000     12.0057    102.0791     10.2195    131.8805
   962.7500     12.2430    101.9968     10.0125    133.9997
   963.0000     12.3101    101.9743      9.7967    137.5710
   963.2500     12.1982    102.0212      9.5703    139.3465
   963.5000     11.9493    102.1243      9.3371    139.9827
   963.7500     11.6210    102.2555      9.1081    138.5173
   964.0000     11.2808    102.3859      8.8990    133.5197
   964.2500     11.0133    102.4899      8.7240    129.4259
   964.5000     10.8842    102.5405      8.5911    125.2168
   964.7500     10.8851    102.5080      8.5000    125.0404
   965.0000     10.9412    102.3729      8.4448    128.6901
   965.2500     10.9739    102.1406      8.4193    132.4563
   965.5000     10.9337    101.8429      8.4193    137.3198
   965.7500     10.8120    101.5234      8.4411    139.0052
   966.0000     10.6525    101.2184      8.4774    139.2521
   966.2500     10.5246    100.9471      8.5136    138.6887
   966.5000     10.4614    100.7184      8.5324    138.0294
   966.7500     10.4424    100.5449      8.5219    137.8962
   967.0000     10.4245    100.4519      8.4836    137.9310
   967.2500     10.3681    100.4751      8.4339    138.2932
   967.5000     10.2581    100.6455      8.3970    140.4128
   967.7500     10.1373    100.9666      8.3945    143.1846
   968.0000     10.0973    101.3967      8.4366    147.9835
   968.2500     10.2084    101.8551      8.5203    150.0720
   968.5000     10.4677    102.2572      8.6323    150.0637
   968.7500     10.8123    102.5515      8.7556    148.4115
   969.0000     11.1617    102.7310      8.8734    145.1106
   969.2500     11.4434    102.8184      8.9703    142.7891
   969.5000     11.6101    102.8444      9.0337    138.5495
   969.7500     11.6627    102.8319      9.0579    134.7671
   970.0000     11.6335    102.7861      9.0486    128.2860
   970.2500     11.5454    102.6992      9.0216    124.8310
   970.5000     11.4170    102.5655      8.9959    123.5123
   970.7500     11.2874    102.3915      8.9873    125.5791
   971.0000     11.1941    102.1918      9.0048    131.2940
   971.2500     11.1356    101.9808      9.0511    135.2255
   971.5000     11.0866    101.7673      9.1234    139.3674
   971.7500     11.0446    101.5536      9.2142    140.6485
   972.0000     11.0350    101.3378      9.3137    140.7443
   972.2500     11.0747    101.1180      9.4133    140.0378
   972.5000     11.1565    100.8957      9.5081    138.6776
   972.7500     11.2704    100.6761      9.5978    137.9963
   973.0000     11.4210    100.4682      9.6842    137.7477
   973.2500     11.6126    100.2878      9.7702    138.2216
   973.5000     11.8258    100.1581      9.8618    139.9968
   973.7500     12.0231    100.1002      9.9701    141.7947
   974.0000     12.1671    100.1163     10.1104    144.7953
   974.2500     12.2296    100.1813     10.2960    146.4452
   974.5000     12.2055    100.2543     10.5326    147.4583
   974.7500     12.1285    100.2990     10.8134    146.8232
   975.0000     12.0657    100.2965     11.1210    143.9631
   975.2500     12.0914    100.2415     11.4346    141.1854
   975.5000     12.2674    100.1314     11.7409    136.6715
   975.7500     12.6305     99.9616     12.0406    133.9418
   976.0000     13.1695     99.7286     12.3465    130.9007
   976.2500     13.8115     99.4358     12.6749    129.8235
   976.5000     14.4670     99.0957     13.0421    129.9253
   976.7500     15.0901     98.7268     13.4654    131.1106
   977.0000     15.6865     98.3465     13.9644    133.6568
   977.2500     16.2723     97.9674     14.5567    134.8450
   977.5000     16.8399     97.6019     15.2463    134.3242
   977.7500     17.3717     97.2663     16.0115    132.2247
   978.0000     17.8717     96.9750     16.8001    127.0512
   978.2500     18.3648     96.7312     17.5343    122.6819
   978.5000     18.8792     96.5280     18.1189    115.2924
   978.7500     19.4337     96.3576     18.4535    110.2585
