~Version Information
VERS.                      2.0: CWLS Log ASCII Standard - VERSION 2.0
WRAP.                       NO: One line per depth step
~Well Information Block
STRT.FT               928.1000: 
STOP.FT              2417.7000: 
STEP.FT                 0.1000: 
NULL.                -999.2500: 
COMP.          Pioneer Natural Resources: COMPANY
WELL.            Chevron 13-13: WELL
FLD.           Purgatoire River: FIELD
LOC.           1560' FSL & 711' FWL--: LOCATION
CNTY.               Las Animas: COUNTY
SRVC.          Superior Well Services: SERVICE COMPANY
DATE.          Mon Feb 12 14:51:53 2007: LOG DATE
UWI.           05 071 08319 00: UNIQUE WELL ID
STAT.                 Colorado: STATE
~Curve Information Block
DEPT.FT            0 000 00 00: Depth
DIR.Ohm-m                     : IEL Induction Resistivity
GR.GAPI                       : Gamma Ray
SN.Ohm-m                      : IEL Short Normal
SP.mV                         : IEL Spontaneous Potential
~Parameter Information Block
~A  Depth       DIR          GR          SN          SP     
# ...
   954.9000 100000.0000     64.4621   2000.0000   2026.0000
   955.0000 100000.0000     64.9644   2000.0000   2026.0000
   955.1000 100000.0000     65.5612   2000.0000   2026.0000
   955.2000 100000.0000     66.2271   2000.0000   2026.0000
   955.3000 100000.0000     66.9344   2000.0000   2026.0000
   955.4000 100000.0000     67.6553   2000.0000   2026.0000
   955.5000 100000.0000     68.3637   2000.0000   2026.0000
   955.6000 100000.0000     69.0340   2000.0000   2026.0000
   955.7000 100000.0000     69.6444   2000.0000   2026.0000
   955.8000 100000.0000     70.1777   2000.0000   2026.0000
   955.9000 100000.0000     70.6257   2000.0000   2026.0000
   956.0000 100000.0000     70.9877   2000.0000   2026.0000
   956.1000 100000.0000     71.2716   2000.0000   2026.0000
   956.2000 100000.0000     71.4930   2000.0000   2026.0000
   956.3000 100000.0000     71.6698   2000.0000   2026.0000
   956.4000 100000.0000     71.8189   2000.0000   2026.0000
   956.5000 100000.0000     71.9546   2000.0000   2026.0000
   956.6000 100000.0000     72.0813   2000.0000   2026.0000
   956.7000 100000.0000     72.1954   2000.0000   2026.0000
   956.8000 100000.0000     72.2849   2000.0000   2026.0000
   956.9000 100000.0000     72.3320   2000.0000   2026.0000
   957.0000 100000.0000     72.3151   2000.0000   2026.0000
   957.1000 100000.0000     72.2129   2000.0000   2026.0000
   957.2000 100000.0000     72.0085   2000.0000   2026.0000
   957.3000 100000.0000     71.6891   2000.0000   2026.0000
   957.4000 100000.0000     71.2504   2000.0000   2026.0000
   957.5000 100000.0000     70.6950   2000.0000   2026.0000
   957.6000 100000.0000     70.0353   2000.0000   2026.0000
   957.7000 100000.0000     69.2923   2000.0000   2026.0000
   957.8000 100000.0000     68.4955   2000.0000   2026.0000
   957.9000 100000.0000     67.6838   2000.0000   2026.0000
   958.0000 100000.0000     66.9026   2000.0000   2026.0000
   958.1000 100000.0000     66.1994   2000.0000   2026.0000
   958.2000 100000.0000     65.6178   2000.0000   2026.0000
   958.3000 100000.0000     65.1957   2000.0000   2026.0000
   958.4000 100000.0000     64.9583   2000.0000   2026.0000
   958.5000 100000.0000     64.9120   2000.0000   2026.0000
   958.6000 100000.0000     65.0456   2000.0000   2026.0000
   958.7000 100000.0000     65.3293   2000.0000   2026.0000
   958.8000 100000.0000     65.7180   2000.0000   2026.0000
   958.9000 100000.0000     66.1562   2000.0000   2026.0000
   959.0000 100000.0000     66.5846   2000.0000   2026.0000
   959.1000 100000.0000     66.9444   2000.0000   2026.0000
   959.2000 100000.0000     67.1843   2000.0000   2026.0000
   959.3000 100000.0000     67.2647   2000.0000   2026.0000
   959.4000 100000.0000     67.1584   2000.0000   2026.0000
   959.5000 100000.0000     66.8528   2000.0000   2026.0000
   959.6000 100000.0000     66.3474   2000.0000   2026.0000
   959.7000 100000.0000     65.6562   2000.0000   2026.0000
   959.8000 100000.0000     64.8026   2000.0000   2026.0000
   959.9000 100000.0000     63.8196   2000.0000   2026.0000
   960.0000 100000.0000     62.7471   2000.0000   2026.0000
   960.1000 100000.0000     61.6292   2000.0000   2026.0000
   960.2000 100000.0000     60.5095   2000.0000   2026.0000
   960.3000 100000.0000     59.4273   2000.0000   2026.0000
   960.4000 100000.0000     58.4128   2000.0000   2026.0000
   960.5000 100000.0000     57.4830   2000.0000   2026.0000
   960.6000 100000.0000     56.6407   2000.0000   2026.0000
   960.7000 100000.0000     55.8790   2000.0000   2026.0000
   960.8000 100000.0000     55.1822   2000.0000   2026.0000
   960.9000 100000.0000     54.5330   2000.0000   2026.0000
   961.0000 100000.0000     53.9192   2000.0000   2026.0000
   961.1000 100000.0000     53.3376   2000.0000   2026.0000
   961.2000 100000.0000     52.7976   2000.0000   2026.0000
   961.3000 100000.0000     52.3180   2000.0000   2026.0000
   961.4000 100000.0000     51.9268   2000.0000   2026.0000
   961.5000 100000.0000     51.6529   2000.0000   2026.0000
   961.6000 100000.0000     51.5244   2000.0000   2026.0000
   961.7000 100000.0000     51.5607   2000.0000   2026.0000
   961.8000 100000.0000     51.7718   2000.0000   2026.0000
   961.9000 100000.0000     52.1538   2000.0000   2026.0000
   962.0000 100000.0000     52.6897   2000.0000   2026.0000
   962.1000 100000.0000     53.3523   2000.0000   2026.0000
   962.2000 100000.0000     54.1076   2000.0000   2026.0000
   962.3000 100000.0000     54.9197   2000.0000   2026.0000
   962.4000 100000.0000     55.7527   2000.0000   2026.0000
   962.5000 100000.0000     56.5784   2000.0000   2026.0000
   962.6000 100000.0000     57.3781   2000.0000   2026.0000
   962.7000 100000.0000     58.1410   2000.0000   2026.0000
   962.8000 100000.0000     58.8646   2000.0000   2026.0000
   962.9000 100000.0000     59.5554   2000.0000   2026.0000
   963.0000 100000.0000     60.2256   2000.0000   2026.0000
   963.1000 100000.0000     60.8932   2000.0000   2026.0000
   963.2000 100000.0000     61.5824   2000.0000   2026.0000
   963.3000 100000.0000     62.3216   2000.0000   2026.0000
   963.4000 100000.0000     63.1422   2000.0000   2026.0000
   963.5000 100000.0000     64.0765   2000.0000   2026.0000
   963.6000 100000.0000     65.1512   2000.0000   2026.0000
   963.7000 100000.0000     66.3860   2000.0000   2026.0000
   963.8000 100000.0000     67.7862   2000.0000   2026.0000
   963.9000 100000.0000     69.3442   2000.0000   2026.0000
   964.0000 100000.0000     71.0379   2000.0000   2026.0000
   964.1000 100000.0000     72.8343   2000.0000   2026.0000
   964.2000 100000.0000     74.6940   2000.0000   2026.0000
   964.3000 100000.0000     76.5776   2000.0000   2026.0000
   964.4000 100000.0000     78.4459   2000.0000   2026.0000
   964.5000 100000.0000     80.2658   2000.0000   2026.0000
   964.6000 100000.0000     82.0075   2000.0000   2026.0000
   964.7000 100000.0000     83.6432   2000.0000   2026.0000
   964.8000 100000.0000     85.1447   2000.0000   2026.0000
   964.9000 100000.0000     86.4827   2000.0000   2026.0000
   965.0000 100000.0000     87.6256   2000.0000   2026.0000
   965.1000 100000.0000     88.5417   2000.0000   2026.0000
   965.2000 100000.0000     89.2057   2000.0000   2026.0000
   965.3000 100000.0000     89.6027   2000.0000   2026.0000
   965.4000 100000.0000     89.7353   2000.0000   2026.0000
   965.5000 100000.0000     89.6239   2000.0000   2026.0000
   965.6000 100000.0000     89.3098   2000.0000   2026.0000
   965.7000 100000.0000     88.8502   2000.0000   2026.0000
   965.8000 100000.0000     88.3156   2000.0000   2026.0000
   965.9000 100000.0000     87.7832   2000.0000   2026.0000
   966.0000 100000.0000     87.3296   2000.0000   2026.0000
   966.1000 100000.0000     87.0246   2000.0000   2026.0000
   966.2000 100000.0000     86.9266   2000.0000   2026.0000
   966.3000 100000.0000     87.0788   2000.0000   2026.0000
   966.4000 100000.0000     87.5053   2000.0000   2026.0000
   966.5000 100000.0000     88.2097   2000.0000   2026.0000
   966.6000 100000.0000     89.1764   2000.0000   2026.0000
   966.7000 100000.0000     90.3723   2000.0000   2026.0000
   966.8000 100000.0000     91.7542   2000.0000   2026.0000
   966.9000 100000.0000     93.2731   2000.0000   2026.0000
   967.0000 100000.0000     94.8814   2000.0000   2026.0000
   967.1000 100000.0000     96.5386   2000.0000   2026.0000
   967.2000 100000.0000     98.2111   2000.0000   2026.0000
   967.3000 100000.0000     99.8740   2000.0000   2026.0000
   967.4000 100000.0000    101.5017   2000.0000   2026.0000
   967.5000 100000.0000    103.0637   2000.0000   2026.0000
   967.6000 100000.0000    104.5221   2000.0000   2026.0000
   967.7000 100000.0000    105.8280   2000.0000   2026.0000
   967.8000 100000.0000    106.9248   2000.0000   2026.0000
   967.9000 100000.0000    107.7572   2000.0000   2026.0000
   968.0000 100000.0000    108.2783   2000.0000   2026.0000
   968.1000 100000.0000    108.4611   2000.0000   2026.0000
   968.2000 100000.0000    108.3063   2000.0000   2026.0000
