~Version Information
VERS.                      2.0: CWLS Log ASCII Standard - VERSION 2.0
WRAP.                       NO: One line per depth step
~Well Information Block
STRT.FT                -8.5000: 
STOP.FT              1597.7500: 
STEP.FT                 0.2500: 
NULL.                -999.2500: 
COMP.          Pioneer Natural Resources: COMPANY
WELL.          Dude Canyon 22-32 Tr: WELL
FLD.           Purgatorie River: FIELD
LOC.           1741' FnL & 2331' FWL--: LOCATION
PROV.                       CO: PROVINCE
CNTY.               Las Animas: COUNTRY
SRVC.          Patterson Wireline: SERVICE COMPANY
DATE.          Fri Jul 15 14:44:37 2005: LOG DATE
UWI.           05 071 08421 00: UNIQUE WELL ID
~Curve Information Block
DEPT.FT            0 000 00 00: Depth
CCL.                          : Casing Collar Locator
TT3.usec                      : CBL 3' Travel Time
AMP3.mV                       : CBL 3' Amplitude
GR.GAPI                       : Gamma Ray
~Parameter Information Block
~A  Depth       CCL         TT3         AMP3         GR     
# ...
   192.5000      0.0000    821.6144     12.4754     73.2136
   192.7500      0.0000    817.7805     12.4383     73.9493
   193.0000      0.0000    809.2919     12.3869     74.0183
   193.2500      0.0000    795.1171     12.3150     72.1843
   193.5000      0.0000    777.2153     12.2189     68.3762
   193.7500      0.0000    760.4125     12.1097     63.5654
   194.0000      0.0000    749.1222     12.0042     58.9949
   194.2500      0.0000    744.5082     11.9059     55.7746
   194.5000      0.0000    744.5427     11.8038     54.6655
   194.7500      0.0000    746.1953     11.6890     55.7126
   195.0000      0.0000    747.3005     11.5668     58.0450
   195.2500      0.0000    746.8196     11.4530     60.1969
   195.5000      0.0000    744.2072     11.3645     60.8425
   195.7500      0.0000    739.2321     11.3135     59.5974
   196.0000      0.0000    732.6191     11.3054     57.2682
   196.2500      0.0000    726.4957     11.3377     55.1758
   196.5000      0.0000    723.4112     11.3994     54.2464
   196.7500      0.0000    724.3463     11.4701     54.7689
   197.0000      0.0000    727.7332     11.5268     56.5968
   197.2500      0.0000    730.7258     11.5530     59.0801
   197.5000      0.0000    731.0816     11.5437     60.9136
   197.7500      0.0000    726.9991     11.5049     60.7133
   198.0000      0.0000    714.7416     11.4521     58.1627
   198.2500      0.0000    687.5329     11.4038     54.3889
   198.5000      0.0000    639.2786     11.3691     50.9273
   198.7500      0.0000    571.6016     11.3451     48.4161
   199.0000      0.0000    496.9610     11.3266     46.5155
   199.2500      0.0000    432.3932     11.3123     44.8338
   199.5000      0.0000    388.6939     11.2987     43.3992
   199.7500      0.0000    365.5982     11.2793     42.3042
   200.0000      0.0000    356.0028     11.2556     41.5045
   200.2500      0.0000    352.6328     11.2450     41.2227
   200.5000      0.0000    351.1133     11.2720     42.0290
   200.7500      0.0000    349.4409     11.3499     43.9866
   201.0000      0.0000    346.6448     11.4707     46.0352
   201.2500      0.0000    342.3791     11.6076     47.0149
   201.5000      0.0000    337.3449     11.7261     47.3393
   201.7500      0.0000    333.2852     11.8015     48.9406
   202.0000      0.0000    331.7127     11.8331     53.3109
   202.2500      0.0000    332.6327     11.8387     59.9605
   202.5000      0.0000    334.9413     11.8335     66.6965
   202.7500      0.0000    337.7909     11.8198     70.8979
   203.0000      0.0000    340.8788     11.8012     70.9018
   203.2500      0.0000    343.6716     11.7932     67.1179
   203.5000      0.0000    345.1463     11.8084     61.8954
   203.7500      0.0000    344.3873     11.8408     57.7782
   204.0000      0.0000    341.3151     11.8737     55.7078
   204.2500      0.0000    337.1534     11.8966     54.8194
   204.5000      0.0000    334.1850     11.9070     53.5094
   204.7500      0.0000    334.3393     11.9044     50.5371
   205.0000      0.0000    337.6081     11.8893     45.6693
   205.2500      0.0000    342.1185     11.8647     39.9059
   205.5000      0.0000    345.7966     11.8384     35.0324
   205.7500      0.0000    347.6221     11.8292     32.5770
   206.0000      0.0000    347.3974     11.8584     32.8777
   206.2500      0.0000    344.9359     11.9304     34.9963
   206.5000      0.0000    339.9365     12.0265     37.5769
   206.7500      0.0000    332.6681     12.1215     39.9621
   207.0000      0.0000    324.4835     12.1996     42.5169
   207.2500      0.0000    317.2846     12.2592     45.7796
   207.5000      0.0000    312.3733     12.3094     49.4530
   207.7500      0.0000    309.9335     12.3615     52.4913
   208.0000      0.0000    309.5668     12.4141     54.1176
   208.2500      0.0000    311.0137     12.4474     54.5498
   208.5000      0.0000    314.2319     12.4391     54.8749
   208.7500      0.0000    318.9923     12.3846     56.4094
   209.0000      0.0000    324.7133     12.2981     59.9799
   209.2500      0.0000    330.7154     12.1954     65.4608
   209.5000      0.0000    336.3883     12.0864     71.8495
   209.7500      0.0000    341.1230     11.9843     77.7569
   210.0000      0.0000    344.4156     11.9115     81.8859
   210.2500      0.0000    346.1479     11.8857     83.4136
   210.5000      0.0000    346.6126     11.9056     82.3512
   210.7500      0.0000    346.2591     11.9482     79.7033
   211.0000      0.0000    345.4814     11.9822     77.0573
   211.2500      0.0000    344.5534     11.9850     75.6441
   211.5000      0.0000    343.6467     11.9531     75.6530
   211.7500      0.0000    342.9183     11.9002     76.4437
   212.0000      0.0000    342.9405     11.8384     77.2323
   212.2500      0.0000    345.6594     11.7578     77.4653
   212.5000      0.0000    355.7118     11.6212     76.7708
   212.7500      0.0000    380.6339     11.3784     74.9226
   213.0000      0.0000    427.4001     10.9913     72.0200
   213.2500      0.0000    495.8209     10.4525     68.4725
   213.5000      0.0000    575.5751      9.7761     64.5938
   213.7500      0.0000    652.4152      8.9746     60.3553
   214.0000      0.0000    717.4154      8.0754     55.6793
   214.2500      0.0000    768.7307      7.1681     50.8188
   214.5000      0.0000    806.8575      6.3919     46.4485
   214.7500      0.0000    832.1171      5.8458     43.6696
   215.0000      0.0000    845.9473      5.5293     43.7075
   215.2500     -2.0000    851.2763      5.3787     47.2016
   215.5000     -2.0000    850.7861      5.3408     53.9066
   215.7500      0.0000    845.7289      5.4159     63.0590
   216.0000      0.0000    836.5801      5.6630     73.3921
   216.2500      0.0000    824.2404      6.1600     82.8644
   216.5000      0.0000    810.4340      6.9190     89.3626
   216.7500      0.0000    797.1077      7.8246     92.1322
   217.0000      0.0000    785.5887      8.6781     92.1168
   217.2500      0.0000    776.3253      9.3085     90.8158
   217.5000      0.0000    769.3610      9.6448     89.1512
   217.7500      0.0000    764.9084      9.7162     87.3318
   218.0000      0.0000    763.2529      9.6163     85.3489
   218.2500      0.0000    764.1302      9.4516     83.4499
   218.5000      0.0000    766.3731      9.2932     82.2732
   218.7500      0.0000    768.3312      9.1617     82.4604
   219.0000      0.0000    768.8411      9.0458     83.9967
   219.2500      0.0000    767.8378      8.9340     86.0268
   219.5000      0.0000    765.8933      8.8347     87.5064
   219.7500      0.0000    763.2677      8.7781     87.9225
   220.0000      0.0000    759.8896      8.7998     87.2833
   220.2500      0.0000    756.2528      8.9139     85.7410
   220.5000      0.0000    753.5751      9.0952     83.4210
   220.7500      0.0000    752.7806      9.2894     80.3995
   221.0000      0.0000    753.9908      9.4516     76.8019
   221.2500      0.0000    757.2463      9.5769     73.2157
   221.5000      0.0000    762.8737      9.6893     70.9127
   221.7500      0.0000    770.4423      9.8029     71.1300
   222.0000      0.0000    777.9313      9.9041     73.8712
   222.2500      0.0000    782.6483      9.9742     77.5857
   222.5000      0.0000    783.1804     10.0149     80.2397
   222.7500      0.0000    780.6364     10.0411     80.8127
   223.0000      0.0000    778.4401     10.0503     79.9352
   223.2500      0.0000    780.6765     10.0159     79.1726
   223.5000      0.0000    789.5338      9.9170     79.6469
   223.7500      0.0000    803.4658      9.7672     81.1264
   224.0000      0.0000    817.4454      9.6121     82.2869
   224.2500      0.0000    825.1236      9.5013     81.8380
   224.5000      0.0000    822.0712      9.4627     79.5520
   224.7500      0.0000    808.7731      9.4928     76.4572
   225.0000      0.0000    790.9498      9.5623     74.1798
   225.2500      0.0000    775.8314      9.6392     73.8586
   225.5000      0.0000    766.9991      9.7132     75.3744
   225.7500      0.0000    762.8945      9.8017     77.5109
