~Version Information
VERS.                      2.0: CWLS Log ASCII Standard - VERSION 2.0
WRAP.                       NO: One line per depth step
~Well Information Block
STRT.FT                 3.5000: 
STOP.FT              1971.5000: 
STEP.FT                 0.2500: 
NULL.                -999.2500: 
COMP.          Evergreen Operating Corporation: COMPANY
WELL.          McCullough 34-32 Tr: WELL
FLD.           Purgatorie River: FIELD
LOC.           394' FSL & 2077' FEL: LOCATION
PROV.                 Colorado: PROVINCE
CNTY.               Las Animas: COUNTRY
SRVC.                         : SERVICE COMPANY
DATE.          Fri Sep 24 11:00:22 2004: LOG DATE
UWI.           05 071 08157 00: UNIQUE WELL ID
~Curve Information Block
DEPT.FT            0 000 00 00: Depth
GR.GAPI                       : Gamma Ray
CCL.                          : Casing Collar Locator
TT3.usec                      : CBL 3' Travel Time
AMP3.mV                       : CBL 3' Amplitude
~Parameter Information Block
~A  Depth        GR         CCL         TT3         AMP3    
# ...
  1812.5000    142.5564      0.0000    762.3181      6.2210
  1812.7500    135.2217      0.0000    764.0967      6.1371
  1813.0000    129.6001      0.0000    765.9107      6.0426
  1813.2500    126.8231      0.0000    767.1290      5.9552
  1813.5000    126.7350      0.0000    767.7172      5.8870
  1813.7500    128.0859      0.0000    767.9285      5.8300
  1814.0000    129.2880      0.0000    767.9859      5.7674
  1814.2500    129.2614      0.0000    767.9979      5.6971
  1814.5000    127.9094      0.0000    768.0000      5.6408
  1814.7500    126.0567      0.0000    768.0000      5.6255
  1815.0000    124.9063      0.0000    768.0000      5.6538
  1815.2500    125.3627      0.0000    768.0000      5.6974
  1815.5000    127.4908      0.0000    768.0000      5.7215
  1815.7500    130.3078      0.0000    768.0000      5.7134
  1816.0000    132.1904      0.0000    768.0000      5.6862
  1816.2500    131.8591      0.0000    768.0000      5.6585
  1816.5000    129.1995      0.0000    768.0000      5.6376
  1816.7500    125.1897      0.0000    768.0000      5.6208
  1817.0000    121.0354      0.0000    768.0000      5.6083
  1817.2500    117.3894      0.0000    768.0000      5.6058
  1817.5000    114.2962      0.0000    767.9940      5.6142
  1817.7500    111.7582      0.0000    767.9551      5.6234
  1818.0000    110.2518      0.0000    767.7633      5.6270
  1818.2500    110.5392      0.0000    767.0195      5.6354
  1818.5000    112.9647      0.0000    764.7990      5.6658
  1818.7500    117.0527      0.0000    759.7577      5.7171
  1819.0000    121.5403      0.0000    751.1841      5.7680
  1819.2500    124.5707      0.0000    740.6278      5.8014
  1819.5000    124.4733      0.0000    731.9626      5.8215
  1819.7500    121.1595      0.0000    728.6043      5.8421
  1820.0000    116.6224      0.0000    730.6666      5.8625
  1820.2500    113.4743      0.0000    735.7925      5.8623
  1820.5000    112.9455      0.0000    742.1609      5.8202
  1820.7500    114.4758      0.0000    749.2264      5.7334
  1821.0000    116.7886      0.0000    756.1440      5.6219
  1821.2500    118.8717      0.0000    761.2471      5.5177
  1821.5000    120.2646      0.0000    763.0917      5.4509
  1821.7500    120.9510      0.0000    761.2636      5.4391
  1822.0000    120.9556      0.0000    756.6738      5.4776
  1822.2500    119.9974      0.0000    751.7662      5.5426
  1822.5000    117.7898      0.0000    749.6425      5.6087
  1822.7500    114.6481      0.0000    751.8047      5.6640
  1823.0000    111.4588      0.0000    756.8691      5.7099
  1823.2500    109.0617      0.0000    762.0361      5.7575
  1823.5000    107.6904      0.0000    765.4709      5.8262
  1823.7500    106.7561      0.0000    766.9477      5.9309
  1824.0000    105.1460      0.0000    766.7617      6.0553
  1824.2500    102.0724      0.0000    764.5120      6.1449
  1824.5000     97.8682      0.0000    758.8462      6.1436
  1824.7500     93.8942      0.0000    748.5863      6.0449
  1825.0000     91.5555      0.0000    734.8799      5.9034
  1825.2500     91.4231      0.0000    722.3777      5.7974
  1825.5000     93.1514      0.0000    717.0939      5.7838
  1825.7500     95.7361      0.0000    721.9184      5.8743
  1826.0000     97.6813      0.0000    734.1682      6.0315
  1826.2500     97.5581      0.0000    747.8881      6.1865
  1826.5000     95.0173      0.0000    758.3391      6.2741
  1826.7500     91.2201      0.0000    764.2551      6.2647
  1827.0000     88.1148      0.0000    766.8280      6.1652
  1827.2500     87.1872      0.0000    767.7029      6.0038
  1827.5000     88.5104      0.0000    767.9393      5.8160
  1827.7500     90.7232      0.0000    767.9904      5.6332
  1828.0000     92.1291      0.0000    767.9993      5.4733
  1828.2500     92.0181      0.0000    767.9999      5.3430
  1828.5000     90.8586      0.0000    768.0000      5.2509
  1828.7500     89.4302      0.0000    767.9999      5.2023
  1829.0000     88.2682      0.0000    767.9931      5.1763
  1829.2500     88.0217      0.0000    767.9562      5.1302
  1829.5000     89.9246      0.0000    767.7813      5.0449
  1829.7500     95.4162      0.0000    767.1438      4.9555
  1830.0000    104.7528      0.0000    765.3793      4.9242
  1830.2500    115.7801      0.0000    761.7374      4.9886
  1830.5000    124.5705      0.0000    756.3099      5.1406
  1830.7500    128.0051      0.0000    750.9065      5.3475
  1831.0000    125.9740      0.0000    748.0686      5.5783
  1831.2500    120.9986      0.0000    747.9531      5.8105
  1831.5000    116.0196      0.0000    745.8339      6.0204
  1831.7500    112.6370      0.0000    733.1789      6.1813
  1832.0000    110.7816      0.0000    702.4221      6.2735
  1832.2500    109.4125      0.0000    652.9397      6.2973
  1832.5000    107.6842      0.0000    593.7460      6.2708
  1832.7500    105.8344      0.0000    539.0615      6.2079
  1833.0000    105.0497      0.0000    499.4242      6.0987
  1833.2500    106.3243      0.0000    476.5744      5.9269
  1833.5000    109.2843      0.0000    465.9078      5.7109
  1833.7500    111.9822      0.0000    462.2334      5.5099
  1834.0000    111.9630      0.0000    463.4170      5.3736
  1834.2500    108.0657      0.0000    470.8556      5.2945
  1834.5000    101.4479      0.0000    487.9230      5.2210
  1834.7500     94.6796      0.0000    517.0766      5.1123
  1835.0000     89.8151      0.0000    556.6213      4.9791
  1835.2500     87.3296      0.0000    599.9108      4.8747
  1835.5000     86.4180      0.0000    638.6833      4.8483
  1835.7500     85.9593      0.0000    667.6028      4.9053
  1836.0000     85.6155      0.0000    685.3372      5.0025
  1836.2500     86.3677      0.0000    692.4891      5.0786
  1836.5000     89.7077      0.0000    690.1231      5.0860
  1836.7500     96.0186      0.0000    679.9401      5.0051
  1837.0000    103.8862      0.0000    664.8097      4.8435
  1837.2500    111.0456      0.0000    649.2891      4.6290
  1837.5000    116.0429      0.0000    639.2389      4.3961
  1837.7500    119.0885      0.0000    639.1967      4.1731
  1838.0000    121.2114      0.0000    649.3752      3.9813
  1838.2500    122.5247      0.0000    665.7590      3.8366
  1838.5000    121.7868      0.0000    682.9626      3.7393
  1838.7500    118.0210      0.0000    696.9094      3.6683
  1839.0000    112.0024      0.0000    705.9536      3.6018
  1839.2500    105.5557      0.0000    710.5309      3.5495
  1839.5000     99.8528      0.0000    711.6616      3.5541
  1839.7500     95.0675      0.0000    709.9811      3.6597
  1840.0000     91.4761      0.0000    706.7322      3.8839
  1840.2500     89.9948     -3.0000    704.8189      4.2140
  1840.5000     91.0740      0.0000    707.2904      4.6141
  1840.7500     93.3697      0.0000    714.5747      5.0450
  1841.0000     94.2331      0.0000    723.8099      5.4892
  1841.2500     91.8354      0.0000    730.9651      5.9418
  1841.5000     86.7400      0.0000    733.4074      6.3657
  1841.7500     81.4930      0.0000    730.9241      6.6837
  1842.0000     79.0094      0.0000    725.4633      6.8410
  1842.2500     81.0761      0.0000    720.5408      6.8571
  1842.5000     87.5373      0.0000    720.1026      6.7899
  1842.7500     96.4443      0.0000    726.2230      6.6754
  1843.0000    105.3632      0.0000    737.0762      6.5286
  1843.2500    113.0703      0.0000    747.7511      6.3784
  1843.5000    120.1241      0.0000    753.7572      6.2674
  1843.7500    127.6602      0.0000    754.0857      6.2175
  1844.0000    135.6571      0.0000    751.5114      6.2185
  1844.2500    142.5759      0.0000    750.1994      6.2574
  1844.5000    146.8094      0.0000    752.4554      6.3506
  1844.7500    148.2161      0.0000    757.3410      6.5319
  1845.0000    147.9879      0.0000    762.2978      6.8007
  1845.2500    147.3795      0.0000    765.6230      7.0819
  1845.5000    147.0098      0.0000    767.2283      7.2498
  1845.7500    147.1172      0.0000    767.8049      7.2093
