~Version Information
VERS.                      2.0: CWLS Log ASCII Standard - VERSION 2.0
WRAP.                       NO: One line per depth step
~Well Information Block
STRT.FT               -12.2500: 
STOP.FT              2183.0000: 
STEP.FT                 0.2500: 
NULL.                -999.2500: 
COMP.          Petrogulf Corporation: COMPANY
WELL.            Montoya 6-14R: WELL
FLD.           Purgatorie River: FIELD
LOC.           867' FSL & 751' FWL: LOCATION
CNTY.               Las Animas: COUNTY
SRVC.                         : SERVICE COMPANY
DATE.          Mon Nov 22 13:07:31 2004: LOG DATE
UWI.           05-071-08242-00: UNIQUE WELL ID
STAT.                 Colorado: STATE
~Curve Information Block
DEPT.FT            0 000 00 00: Depth
TT3.usec                      : CBL 3' Travel Time
AMP3.mV                       : CBL 3' Amplitude
GR.GAPI                       : Gamma Ray
CCL.                          : Casing Collar Locator
~Parameter Information Block
~A  Depth       TT3         AMP3         GR         CCL     
# ...
  1696.2500    285.0563     73.1910    179.8492      0.0000
  1696.5000    285.0562     73.1413    181.7869      0.0000
  1696.7500    285.0494     73.1356    184.7732      0.0000
  1697.0000    285.0375     73.1796    188.9391      0.0000
  1697.2500    285.0246     73.2713    193.1525      0.0000
  1697.5000    285.0152     73.3875    195.4913      0.0000
  1697.7500    285.0117     73.4817    194.7657      0.0000
  1698.0000    285.0147     73.5006    191.7403      0.0000
  1698.2500    285.0240     73.4139    188.7058      0.0000
  1698.5000    285.0386     73.2300    187.5522      0.0000
  1698.7500    285.0557     72.9856    188.4407      0.0000
  1699.0000    285.0716     72.7216    190.4533      0.0000
  1699.2500    285.0834     72.4735    192.7248      0.0000
  1699.5000    285.0897     72.2798    194.3714      0.0000
  1699.7500    285.0889     72.1849    194.0652      0.0000
  1700.0000    285.0796     72.2210    190.8022      0.0000
  1700.2500    285.0624     72.3819    185.2274      0.0000
  1700.5000    285.0419     72.6241    179.6778      0.0000
  1700.7500    285.0247     72.8931    176.5336      0.0000
  1701.0000    285.0150     73.1464    176.4347      0.0000
  1701.2500    285.0127     73.3525    177.9437      0.0000
  1701.5000    285.0149     73.4833    178.9323      0.0000
  1701.7500    285.0187     73.5161    178.4439      0.0000
  1702.0000    285.0227     73.4425    177.1658      0.0000
  1702.2500    285.0262     73.2747    176.1586      0.0000
  1702.5000    285.0294     73.0429    175.6514      0.0000
  1702.7500    285.0317     72.7847    175.3964      0.0000
  1703.0000    285.0326     72.5308    175.7605      0.0000
  1703.2500    285.0311     72.3035    177.7361      0.0000
  1703.5000    285.0262     72.1299    181.4430      0.0000
  1703.7500    285.0168     72.0512    184.8986      0.0000
  1704.0000    285.0027     72.1041    185.0050      0.0000
  1704.2500    284.9850     72.2864    180.1975      0.0000
  1704.5000    284.9662     72.5462    172.0746      0.0000
  1704.7500    284.9501     72.8085    164.3683      0.0000
  1705.0000    284.9399     73.0080    160.2587      0.0000
  1705.2500    284.9364     73.1004    160.2836      0.0000
  1705.5000    284.9388     73.0616    162.4230      0.0000
  1705.7500    284.9464     72.8964    164.0640      0.0000
  1706.0000    284.9596     72.6496    164.0625      0.0000
  1706.2500    284.9762     72.3977    163.3694      0.0000
  1706.5000    284.9904     72.2175    163.9889      0.0000
  1706.7500    284.9949     72.1534    167.2695      0.0000
  1707.0000    284.9860     72.2101    172.9105      0.0000
  1707.2500    284.9664     72.3674    179.1283      0.0000
  1707.5000    284.9438     72.5923    183.5519      0.0000
  1707.7500    284.9269     72.8337    184.3226      0.0000
  1708.0000    284.9222     73.0033    180.8049      0.0000
  1708.2500    284.9393     72.9410    173.5705      0.0000
  1708.5000    285.0061     72.3905    163.9726      0.0000
  1708.7500    285.2230     71.0320    153.7144      0.0000
  1709.0000    285.8510     68.6436    144.4869      0.0000
  1709.2500    287.3715     65.2812    137.7672      0.0000
  1709.5000    290.2976     61.2211    134.6042      0.0000
  1709.7500    294.5763     56.7135    135.0379      0.0000
  1710.0000    299.0250     52.0427    137.6732      0.0000
  1710.2500    301.7640     47.9134    140.2361      0.0000
  1710.5000    301.7014     45.3403    140.7438      0.0000
  1710.7500    299.4991     44.8170    138.4551      0.0000
  1711.0000    296.8647     45.7901    134.2069      0.0000
  1711.2500    295.1718     47.1014    129.7771      0.0000
  1711.5000    294.9651     47.7827    126.5182      2.4979
  1711.7500    296.2621     47.4841    124.6272      0.0000
  1712.0000    298.6200     46.5573    123.7033      0.0000
  1712.2500    300.8557     45.9836    123.3810      0.0000
  1712.5000    301.3559     46.9748    123.2187      0.0000
  1712.7500    299.2620     50.1668    122.6196      0.0000
  1713.0000    295.2755     55.0305    121.3892      0.0000
  1713.2500    291.0268     60.2226    120.2406      0.0000
  1713.5000    287.7731     64.5970    120.4771      0.0000
  1713.7500    285.8217     67.8123    123.0123      0.0000
  1714.0000    284.8556     70.0862    127.4692      0.0000
  1714.2500    284.4437     71.6718    132.1203      0.0000
  1714.5000    284.2862     72.6815    135.0110      0.0000
  1714.7500    284.2295     73.2093    135.5048      0.0000
  1715.0000    284.2092     73.4012    134.8951      0.0000
  1715.2500    284.1995     73.3957    135.7246      0.0000
  1715.5000    284.1927     73.2808    140.3798      0.0000
  1715.7500    284.1890     73.1205    149.5752      0.0000
  1716.0000    284.1899     72.9706    161.5642      0.0000
  1716.2500    284.1954     72.8474    173.0692      0.0000
  1716.5000    284.2039     72.7246    181.5060      0.0000
  1716.7500    284.2128     72.5841    186.4450      0.0000
  1717.0000    284.2189     72.4505    188.9914      0.0000
  1717.2500    284.2186     72.3610    190.2119      0.0000
  1717.5000    284.2103     72.3192    190.4283      0.0000
  1717.7500    284.1963     72.2965    189.5984      0.0000
  1718.0000    284.1819     72.2677    187.8732      0.0000
  1718.2500    284.1742     72.2310    185.7639      0.0000
  1718.5000    284.1801     72.1929    183.8244      0.0000
  1718.7500    284.2032     72.1479    182.2494      0.0000
  1719.0000    284.2401     72.0819    181.0544      0.0000
  1719.2500    284.2802     71.9912    180.6135      0.0000
  1719.5000    284.3123     71.8917    181.5262      0.0000
  1719.7500    284.3307     71.8056    183.7767      0.0000
  1720.0000    284.3359     71.7384    186.3809      0.0000
  1720.2500    284.3310     71.6675    188.2209      0.0000
  1720.5000    284.3215     71.5579    189.1641      0.0000
  1720.7500    284.3144     71.3975    190.1416      0.0000
  1721.0000    284.3138     71.2233    192.1680      0.0000
  1721.2500    284.3173     71.1027    195.4297      0.0000
  1721.5000    284.3186     71.0808    199.0724      0.0000
  1721.7500    284.3137     71.1525    201.4272      0.0000
  1722.0000    284.3023     71.2784    200.4315      0.0000
  1722.2500    284.2869     71.4093    194.4353      0.0000
  1722.5000    284.2718     71.4928    183.4031      0.0000
  1722.7500    284.2632     71.4814    169.5652      0.0000
  1723.0000    284.2665     71.3522    156.4238      0.0000
  1723.2500    284.2835     71.1181    146.6589      0.0000
  1723.5000    284.3135     70.8132    140.7827      0.0000
  1723.7500    284.3537     70.4796    137.5197      0.0000
  1724.0000    284.3977     70.1748    135.1139      0.0000
  1724.2500    284.4349     69.9714    132.2862      0.0000
  1724.5000    284.4540     69.9206    128.4909      0.0000
  1724.7500    284.4489     70.0091    123.8400      0.0000
  1725.0000    284.4218     70.1623    118.8282      0.0000
  1725.2500    284.3821     70.2960    113.8664      0.0000
  1725.5000    284.3434     70.3707    109.0347      0.0000
  1725.7500    284.3177     70.3979    104.2441      0.0000
  1726.0000    284.3110     70.4039     99.5040      0.0000
  1726.2500    284.3212     70.4029     95.0475      0.0000
  1726.5000    284.3399     70.4054     91.2727      0.0000
  1726.7500    284.3596     70.4313     88.5723      0.0000
  1727.0000    284.3782     70.4991     87.2465      0.0000
  1727.2500    284.3964     70.6058     87.4948      0.0000
  1727.5000    284.4100     70.7206     89.2042      0.0000
  1727.7500    284.4113     70.8018     91.7115      0.0000
  1728.0000    284.3975     70.8312     94.1073      0.0000
  1728.2500    284.3753     70.8300     95.7980      0.0000
  1728.5000    284.3549     70.8311     96.3885      0.0000
  1728.7500    284.3426     70.8433     95.1336      0.0000
  1729.0000    284.3383     70.8520     91.2098      0.0000
  1729.2500    284.3388     70.8480     84.8684      0.0000
  1729.5000    284.3423     70.8432     77.9965      0.0000
