~Version Information
VERS.                      2.0: CWLS Log ASCII Standard - VERSION 2.0
WRAP.                       NO: One line per depth step
~Well Information Block
STRT.FT               700.0000: 
STOP.FT              1869.5000: 
STEP.FT                 0.2500: 
NULL.                -999.2500: 
COMP.          Petrogulf Corporation: COMPANY
WELL.             State 16-24R: WELL
FLD.           Purgatorie River: FIELD
LOC.           541' FSL & 2371' FWL: LOCATION
PROV.                 Colorado: PROVINCE
CNTY.               Las Animas: COUNTRY
SRVC.                Patterson: SERVICE COMPANY
DATE.          Fri Aug 12 09:07:22 2005: LOG DATE
UWI.                071-08312 : UNIQUE WELL ID
~Curve Information Block
DEPT.FT            0 000 00 00: Depth
SP.mV                         : DIL Spontaneous Potential
RILD.Ohm-m                    : DIL Deep Resistivity
RILM.Ohm-m                    : DIL Medium Resistivity
RLL3.Ohm-m                    : DIL Shallow Resistivity
GR.GAPI                       : Gamma Ray
~Parameter Information Block
~A  Depth        SP         RILD        RILM        RLL3         GR     
# ...
  1316.0000    161.5253     12.1954     14.9712     12.1052    127.3121
  1316.2500    163.3193     12.6552     14.3971     11.4916    123.9357
  1316.5000    162.4258     12.4236     14.1329     11.5899    121.6888
  1316.7500    161.0558     12.5441     14.0680     12.2650    121.4635
  1317.0000    162.0107     12.3575     14.1841     12.7698    109.1017
  1317.2500    164.0460     12.1045     14.2828     14.6914    101.2081
  1317.5000    158.6485     11.9810     13.9757     16.3420    106.7131
  1317.7500    155.2050     12.0230     14.0977     15.2276    114.0871
  1318.0000    151.6922     12.6137     14.2106     13.7621    111.9715
  1318.2500    152.0582     12.9528     14.7559     12.7056     98.1903
  1318.5000    147.9063     13.0857     15.9349     13.5406     82.2323
  1318.7500    147.5311     13.1863     16.3909     16.9052     78.9332
  1319.0000    142.2947     13.8258     18.2434     23.0606     76.4112
  1319.2500    138.2802     14.2950     19.5938     26.0332     82.7402
  1319.5000    134.4445     14.9468     21.0249     24.7758     80.1951
  1319.7500    136.8886     15.6852     21.6562     23.2391     79.3982
  1320.0000    138.1079     16.1012     21.7443     21.6475     77.7510
  1320.2500    139.3875     16.6431     22.9789     23.1913     77.3846
  1320.5000    140.0889     16.5670     23.0908     28.9701     74.9658
  1320.7500    136.6443     16.5790     24.4151     31.6759     75.9948
  1321.0000    138.7208     16.3078     25.1098     33.0581     77.7918
  1321.2500    135.4927     17.4556     24.8011     32.5171     80.5593
  1321.5000    137.9738     17.3345     23.3965     29.7382     87.2474
  1321.7500    135.0401     16.7383     21.5862     23.6622     89.0623
  1322.0000    133.7792     16.6300     20.7221     17.9555    100.2523
  1322.2500    129.5863     17.3759     20.1368     15.7753     99.7302
  1322.5000    128.5379     17.3856     20.2096     15.4989    105.7647
  1322.7500    127.3033     17.6167     19.8121     15.2985    108.4644
  1323.0000    125.7388     17.3068     20.5837     14.5671    107.0458
  1323.2500    124.6705     17.8954     20.6691     14.5398    103.6853
  1323.5000    124.5020     18.3359     21.2919     17.2318     92.9554
  1323.7500    123.1113     17.8585     22.1238     26.9394     93.6864
  1324.0000    119.9223     17.4857     23.1497     33.1719     86.8655
  1324.2500    120.2482     17.1307     23.7122     35.7991     90.2923
  1324.5000    118.8531     17.4731     24.2579     34.3029     88.1096
  1324.7500    122.4257     17.0257     24.3329     31.7343     92.9013
  1325.0000    122.6342     18.2039     22.5062     28.6292     84.1058
  1325.2500    123.7230     18.3999     21.9454     24.1523     90.1026
  1325.5000    123.3588     19.1037     22.4683     21.4346     91.6356
  1325.7500    124.6355     18.6505     22.3556     19.7627     90.8332
  1326.0000    125.7617     19.5945     22.0168     17.8407     88.3930
  1326.2500    125.8160     21.1123     22.6899     17.4098     83.1752
  1326.5000    126.1837     19.9108     22.9977     16.9745     75.1107
  1326.7500    125.1016     19.9951     24.6001     17.7748     66.4403
  1327.0000    125.5299     20.7360     24.6395     26.9506     59.1384
  1327.2500    125.7109     21.1080     25.1518     43.4734     52.7363
  1327.5000    130.2679     20.0760     26.0597     49.5702     57.2854
  1327.7500    129.7131     19.6980     27.0433     35.5314     60.1147
  1328.0000    132.7957     20.4238     28.9668     26.8196     66.2154
  1328.2500    132.9929     19.5728     28.9399     28.7483     72.8425
  1328.5000    135.5441     19.0132     30.3235     33.5864     79.3072
  1328.7500    136.3611     19.5183     29.9537     36.4958     82.1720
  1329.0000    138.5131     17.8580     30.9474     40.8296     95.0237
  1329.2500    138.3418     17.3815     28.8933     50.6792    102.8913
  1329.5000    144.1940     16.6002     28.3781     51.6814    113.9431
  1329.7500    149.5337     15.7244     24.6645     32.6670    112.0653
  1330.0000    156.7794     15.0821     21.3555     23.3093    112.7852
  1330.2500    160.3858     14.3517     20.1190     14.9944    120.0667
  1330.5000    163.2366     13.7228     17.7479     13.0673    125.7661
  1330.7500    164.1096     13.3819     16.0149     12.4187    128.2227
  1331.0000    166.2660     12.7575     14.6602     12.0834    123.2745
  1331.2500    167.6719     12.3321     14.2065     11.6256    121.7529
  1331.5000    167.8885     12.1107     13.6223     11.4323    122.3163
  1331.7500    167.1479     11.7059     12.9595     11.3502    126.3521
  1332.0000    168.2747     11.1920     12.7602     11.4720    135.1543
  1332.2500    168.1860     10.8311     12.2060     11.7217    140.4292
  1332.5000    167.8251     10.6841     11.7551     11.9913    131.4444
  1332.7500    166.3755     10.8588     11.8182     11.7083    127.5289
  1333.0000    164.6192     10.6704     11.7696     11.1940    120.9642
  1333.2500    164.3752     10.3774     11.9979     11.3468    117.6215
  1333.5000    167.2267     10.8069     12.1443     12.1731    108.7249
  1333.7500    168.5115     11.1428     12.5346     12.8427    107.2382
  1334.0000    168.5483     11.3472     13.1162     13.6758    116.3965
  1334.2500    167.9807     11.6459     13.7091     13.7883    112.4128
  1334.5000    167.2104     11.9824     14.2577     13.7421    103.5506
  1334.7500    168.9762     11.8778     15.0174     14.7773    100.4324
  1335.0000    169.1050     12.1985     15.6435     16.1199    102.5540
  1335.2500    172.1227     12.4953     16.5308     16.1952     92.2970
  1335.5000    170.4165     12.7210     17.1690     17.1586     89.2884
  1335.7500    168.8295     12.6015     17.6015     19.9122     91.2865
  1336.0000    163.9389     12.4038     18.0192     20.1307     94.9740
  1336.2500    167.0688     11.6739     18.0810     18.1326     98.1827
  1336.5000    164.0388     11.3698     17.5531     18.1930     95.1311
  1336.7500    165.6568     10.9502     16.7545     19.7418     97.5822
  1337.0000    163.3262     10.2550     16.3082     18.8801    107.9499
  1337.2500    164.0138      9.7143     14.1831     16.4262    116.8912
  1337.5000    163.5133      9.3992     12.8925     14.2902    123.5457
  1337.7500    160.9525      9.1556     11.6737     11.8466    123.8448
  1338.0000    159.6460      8.5544     10.8095     10.1066    131.5662
  1338.2500    159.3562      8.1672      9.8745      9.7124    139.1875
  1338.5000    159.9725      7.8496      9.4887      9.6885    135.3106
  1338.7500    153.7658      7.6436      8.8524      9.4594    133.9137
  1339.0000    158.8278      7.3095      8.6103      9.2072    135.3083
  1339.2500    158.0370      7.1722      8.1941      9.1596    140.6518
  1339.5000    157.5516      7.0804      8.0597      9.1957    152.5355
  1339.7500    154.8450      6.9438      7.9200      9.3343    142.9340
  1340.0000    154.6246      6.9347      7.9638      9.6953    134.1579
  1340.2500    151.5888      6.9240      7.9230      9.9835    133.6026
  1340.5000    152.4998      7.0894      7.9519      9.9498    137.5738
  1340.7500    149.0175      7.4145      8.2480      9.8692    141.9809
  1341.0000    148.2137      7.6676      8.6120      9.8654    133.1826
  1341.2500    146.2146      7.8466      8.9847      9.9014    123.0837
  1341.5000    148.0896      8.3619      9.6091     10.3766     96.1740
  1341.7500    148.5647      8.6394     10.4646     11.9763     93.9478
  1342.0000    146.7878      9.0180     11.6333     18.1492     84.1526
  1342.2500    151.7011      9.2284     12.4991     32.0386     78.5258
  1342.5000    152.0657      9.5290     13.2856     63.4853     78.3745
  1342.7500    157.4226      9.9127     14.0281     60.0163     82.9873
  1343.0000    157.4524     10.5495     13.9191     26.7995     92.4119
  1343.2500    163.7724     11.0951     13.8697     17.1005    108.4969
  1343.5000    163.4359     12.1284     14.1338     13.1215    123.3152
  1343.7500    166.1385     12.9328     14.4200     12.4188    123.6366
