~Version Information
VERS.                      2.0: CWLS Log ASCII Standard - VERSION 2.0
WRAP.                       NO: One line per depth step
~Well Information Block
STRT.FT               700.0000: 
STOP.FT              1869.5000: 
STEP.FT                 0.2500: 
NULL.                -999.2500: 
COMP.          Petrogulf Corporation: COMPANY
WELL.             State 16-24R: WELL
FLD.           Purgatorie River: FIELD
LOC.           541' FSL & 2371' FWL: LOCATION
PROV.                 Colorado: PROVINCE
CNTY.               Las Animas: COUNTRY
SRVC.                Patterson: SERVICE COMPANY
DATE.          Fri Aug 12 09:07:22 2005: LOG DATE
UWI.                071-08312 : UNIQUE WELL ID
~Curve Information Block
DEPT.FT            0 000 00 00: Depth
SP.mV                         : DIL Spontaneous Potential
RILD.Ohm-m                    : DIL Deep Resistivity
RILM.Ohm-m                    : DIL Medium Resistivity
RLL3.Ohm-m                    : DIL Shallow Resistivity
GR.GAPI                       : Gamma Ray
~Parameter Information Block
~A  Depth        SP         RILD        RILM        RLL3         GR     
# ...
  1148.0000    141.5643      7.5890     10.1557     11.5606    109.6691
  1148.2500    140.3488      7.6417      9.8261     12.0002    118.1451
  1148.5000    137.4633      7.5976      9.5593     10.8436    123.0694
  1148.7500    140.5229      7.5301      9.2544      9.8017    122.5880
  1149.0000    140.5246      7.3979      9.0419      9.7226    115.3548
  1149.2500    137.8631      7.4411      9.1444     10.4124    117.5900
  1149.5000    134.1587      7.4140      9.1310     10.9726    111.7797
  1149.7500    137.2957      7.5796      9.0012     11.2583    115.6218
  1150.0000    128.4913      7.5846      9.0478     11.0949    123.5172
  1150.2500    129.5566      7.7368      9.1742     10.6393    124.7199
  1150.5000    125.2470      7.7393      9.2814     10.1607    114.7543
  1150.7500    126.5612      7.9834      9.6047     10.0761    106.6275
  1151.0000    125.3146      8.0569     10.2085     11.1611     78.7363
  1151.2500    125.2251      8.3544     11.0004     16.9014     66.1391
  1151.5000    123.1143      8.6031     11.8223     37.3429     57.3213
  1151.7500    120.6107      8.9732     12.5306     70.3482     58.5700
  1152.0000    121.1427      9.3353     12.8034     63.1628     64.5826
  1152.2500    118.9071     10.0075     13.0537     29.3687     70.9687
  1152.5000    119.9207     10.5997     13.4916     16.2153     97.6579
  1152.7500    116.3166     11.4641     13.8906     13.2410     98.0384
  1153.0000    117.1520     11.7597     14.3161     13.6459     98.8274
  1153.2500    113.5961     12.9550     15.2038     14.8180     97.3374
  1153.5000    112.1793     13.2569     16.1239     15.8116     95.1693
  1153.7500    112.0941     13.9580     17.8887     16.8637    103.6053
  1154.0000    112.3645     14.6685     18.6431     19.0851     97.7317
  1154.2500    109.0957     14.8438     19.7617     21.3239     90.5852
  1154.5000    104.6249     15.0866     20.4506     20.2087     86.9537
  1154.7500    105.9879     15.4139     21.5650     19.8655     84.6168
  1155.0000    105.4160     16.2198     21.8452     21.2949     82.6391
  1155.2500    105.4974     16.4268     23.4948     24.0750     77.6544
  1155.5000    102.3449     17.1594     25.3657     27.1352     77.9109
  1155.7500    102.4685     17.5889     25.6991     29.9394     87.5737
  1156.0000    100.4219     18.1368     26.3343     31.2187     94.4118
  1156.2500    100.9643     18.5992     26.5025     27.9471     90.5409
  1156.5000    102.3077     18.1898     27.1691     24.4022     95.2507
  1156.7500    102.1143     18.0089     28.9876     22.0460     83.7016
  1157.0000    101.5746     17.3672     29.5443     24.7915     75.7655
  1157.2500    101.6631     15.8250     32.4724     38.2745     65.1871
  1157.5000    109.3483     15.2531     30.8338     70.8310     58.6384
  1157.7500    114.0479     13.5816     27.4643    105.4849     58.4632
  1158.0000    117.4048     12.5070     24.4168     87.9003     72.3921
  1158.2500    121.5753     11.6352     20.0010     49.0932     75.5127
  1158.5000    131.5276     10.9976     17.7139     23.7771     96.9302
  1158.7500    138.2775     10.0350     14.3432     15.0400    103.3003
  1159.0000    149.0377      9.5672     12.9722     11.9733    116.0086
  1159.2500    153.9102      9.1256     11.1805     10.4855    114.3917
  1159.5000    153.5635      8.5573     10.4391      9.9846    120.9195
  1159.7500    154.0345      8.3622      9.6079     10.0873    128.8941
  1160.0000    153.9256      7.7318      8.9664     10.1589    126.6105
  1160.2500    157.1050      7.5328      8.6432     10.1591    122.1301
  1160.5000    158.0389      7.2477      8.1645     10.1602    122.0339
  1160.7500    157.9231      6.9666      7.9552     10.2606    124.8915
  1161.0000    156.5870      7.0313      7.7935     10.1503    119.1290
  1161.2500    157.4717      7.1999      7.7768      9.6547    113.7833
  1161.5000    156.0884      7.2698      7.9457      9.3954    102.5147
  1161.7500    153.8146      7.3980      8.2642      9.6527    109.0186
  1162.0000    158.2627      7.5387      8.8204     10.5334    101.7313
  1162.2500    156.6701      7.7689      9.4462     12.3945     93.4361
  1162.5000    160.9175      7.8489     10.3946     16.6863     81.1278
  1162.7500    159.1512      8.1418     11.1467     30.3597     87.7196
  1163.0000    164.0045      8.2673     11.7482     43.2461     85.8794
  1163.2500    164.2991      8.6141     12.3717     31.3785     98.2344
  1163.5000    169.5243      8.7187     12.4145     18.4184    104.8826
  1163.7500    172.7913      9.0422     12.7308     16.7466    106.7345
  1164.0000    178.2579      9.2870     12.6846     17.9403    105.8946
  1164.2500    180.6453      9.6120     12.8135     15.4588    109.0590
  1164.5000    180.6234      9.7899     13.0726     12.2479    117.4764
  1164.7500    179.5926      9.9856     12.9309     11.5278    126.4919
  1165.0000    180.6089     10.0198     12.5308     11.2061    135.0540
  1165.2500    183.4169      9.9931     12.5008     11.2988    125.4713
  1165.5000    182.4747      9.7407     12.3570     11.8253    107.3711
  1165.7500    182.5323      9.5285     12.2376     12.2245    112.1609
  1166.0000    181.5852      9.3137     12.0192     11.9820    113.1968
  1166.2500    180.5492      9.0089     11.9976     11.6779    107.9515
  1166.5000    178.9355      8.7675     11.8310     12.2886    117.4739
  1166.7500    176.1724      8.5527     11.4321     13.9429    114.1454
  1167.0000    176.2479      8.3888     11.0489     13.7548    114.2743
  1167.2500    177.4592      8.5675     10.8709     12.1641    116.5340
  1167.5000    179.7639      8.3689     10.5661     11.3921    117.5766
  1167.7500    179.5879      8.3990     10.5086     10.9945    108.2140
  1168.0000    179.1702      8.8183     10.4381     10.8360    112.4378
  1168.2500    175.2599      9.0348     10.5774     10.9092    110.6435
  1168.5000    175.7480      9.0585     10.5622     11.2005    107.3148
  1168.7500    172.4912      9.1945     10.9846     11.5118    110.2577
  1169.0000    173.8043      9.3433     11.2828     12.0764    102.3372
  1169.2500    171.9938      9.4035     11.5767     12.1343    101.2345
  1169.5000    169.5672      9.4961     11.8866     12.3215    101.8851
  1169.7500    168.0419      9.5145     12.3065     12.9932    100.2990
  1170.0000    163.1362      9.7866     12.6589     14.1105     88.5008
  1170.2500    158.0704     10.0762     12.9507     15.4223     85.9688
  1170.5000    151.3096     10.3581     13.4509     16.3970     92.7381
  1170.7500    156.9080     10.5088     13.9133     15.8278     97.9877
  1171.0000    155.7293     10.6976     13.7107     14.9020    100.7941
  1171.2500    154.5394     11.2216     14.3464     13.7638    100.1722
  1171.5000    153.3784     11.6446     14.9341     13.4733    108.2789
  1171.7500    152.9364     11.7391     14.7179     13.8132    104.9647
  1172.0000    149.8965     11.9354     15.0898     14.6319     96.7190
  1172.2500    147.1953     11.5603     15.7217     15.5275     94.1120
  1172.5000    141.8154     11.6744     16.1647     15.6594     99.5883
  1172.7500    141.7488     12.0248     16.2377     15.5692     96.5285
  1173.0000    140.3182     11.9507     16.0730     15.2834     89.4445
  1173.2500    141.4059     12.0622     16.0143     15.0990     98.3920
  1173.5000    140.5098     11.8831     15.9119     15.4432    107.9698
  1173.7500    136.7739     11.5941     15.4867     15.4391    112.7184
  1174.0000    137.1286     11.8678     15.4888     13.9013    101.8640
  1174.2500    137.6612     11.9463     15.5950     13.2288    107.4094
  1174.5000    136.0387     12.1531     15.5105     13.3822    106.4961
  1174.7500    134.5717     12.2042     15.7403     13.9909    100.4592
  1175.0000    131.6313     12.1370     15.3946     14.5756    103.5377
  1175.2500    128.7565     11.4862     15.5465     14.4297    108.3277
  1175.5000    130.0217     11.9931     15.2565     14.3373    112.9478
  1175.7500    129.4131     11.7254     15.3709     14.1605    104.4343
