~Version Information
 VERS.                                  2.0 : CWLS LAS VERSION
 WRAP.                                   NO : WRAPING MODE
 SWARE .                 MController 2.5.0J : SOFTWARE VERSION
~Well Information
 WELL.                        Harlee L 34-9 : WELL
 COMP.    Pioneer natural Resources USA Inc : COMPANY
 FLD.                      Purgatoire River : FIELD
 LOC.                 SW/SE Sec 9 T32S R65W : LOCATION
 DATE.                              1/25/05 : DATE(S) LOGGED
 SRVC.       Blanco Geological Services LLC : SERVICE COMPANY
 STAT.                                   CO : STATE
 CNTY.                           Las Animas : COUNTY
 CTRY.                                  USA : COUNTRY
 API.                       05-071-08009-00 : API NUMBER
 STRT.FT                             404.00 : START DEPTH
 STOP.FT                            1773.00 : STOP DEPTH
 STEP.FT                               1.00 : DEPTH INCREMENT
 NULL.                                -9999 : NULL VALUE
~Curve information
 DEPTH.FT                                   :
 ROP.MIN/FT                                 :
 GAS.UNITS                                  :
~ASCII Log data
# ...
      1604.0         0.40        115.9 
      1605.0         0.45        115.6 
      1606.0         0.40        115.2 
      1607.0         0.43        114.3 
      1608.0         0.43        114.6 
      1609.0         0.43        115.1 
      1610.0         0.43        116.3 
      1611.0         0.47        117.8 
      1612.0         0.47        163.1 
      1613.0         0.48        298.2 
      1614.0         0.47        423.6 
      1615.0         0.43        462.8 
      1616.0         0.47        467.4 
      1617.0         0.37        423.0 
      1618.0         0.47        347.1 
      1619.0         0.40        258.8 
      1620.0         0.40        188.7 
      1621.0         0.40        151.8 
      1622.0         0.40        137.0 
      1623.0         0.38        127.7 
      1624.0         0.37        122.3 
      1625.0         0.37        118.2 
      1626.0         0.37        115.5 
      1627.0         0.37        119.1 
      1628.0         0.37        126.5 
      1629.0         0.37        138.2 
      1630.0         0.37        152.6 
      1631.0         0.37        168.0 
      1632.0         0.38        185.4 
      1633.0         0.33        198.6 
      1634.0         0.37        205.9 
      1635.0         0.30        206.0 
      1636.0         0.33        205.7 
      1637.0         0.33        207.2 
      1638.0         0.33        211.2 
      1639.0         0.33       1568.9 
      1640.0         0.33       1681.1 
      1641.0         0.37       1688.2 
      1642.0         0.38       1398.8 
      1643.0         0.37       1157.1 
      1644.0         0.27        805.2 
      1645.0         0.27        738.1 
      1646.0         0.20        530.9 
      1647.0         0.27        483.9 
      1648.0         0.33        200.7 
      1649.0         0.27        191.5 
      1650.0         0.27        172.9 
      1651.0         0.27        174.0 
      1652.0         0.27        192.4 
      1653.0         0.27        201.0 
      1654.0         0.42        228.7 
      1655.0         0.33        260.8 
      1656.0         0.33        265.2 
      1657.0         0.33        268.4 
      1658.0         0.33        271.2 
      1659.0         0.27        267.4 
      1660.0         0.37        265.1 
      1661.0         0.33        241.5 
      1662.0         0.30        216.0 
      1663.0         0.27        193.5 
      1664.0         0.32        179.8 
      1665.0         0.27        173.5 
      1666.0         0.27        158.9 
      1667.0         0.33        155.9 
      1668.0         0.47        168.2 
      1669.0         0.50        181.0 
      1670.0         0.57        179.3 
      1671.0         0.50        168.2 
      1672.0         0.52        169.6 
      1673.0         0.47        204.8 
      1674.0         0.53        366.3 
      1675.0         0.53        467.1 
      1676.0         0.83        943.7 
      1677.0         0.60        693.7 
      1678.0         0.58        440.0 
      1679.0         0.77        161.7 
      1680.0         0.57        142.5 
      1681.0         0.63        128.5 
      1682.0         0.80        119.5 
      1683.0         0.62        108.1 
      1684.0         0.53        105.5 
      1685.0         0.50        106.8 
      1686.0         0.50        109.1 
      1687.0         0.47        109.6 
      1688.0         0.47        111.5 
      1689.0         0.43        118.2 
      1690.0         0.45        123.2 
      1691.0         0.47        119.9 
      1692.0         0.60        109.6 
      1693.0         0.60         79.1 
      1694.0         0.70         71.0 
      1695.0         0.82         72.8 
      1696.0         0.83         82.9 
      1697.0         0.73         93.0 
      1698.0         0.70        101.3 
      1699.0         0.70        104.8 
      1700.0         0.72        104.2 
      1701.0         0.60        103.0 
      1702.0         0.80       1215.4 
      1703.0         0.43         99.4 
      1704.0         0.43         61.1 
      1705.0         0.50         59.8 
      1706.0         0.62         80.9 
      1707.0         0.30         91.8 
      1708.0         0.30         98.5 
      1709.0         0.27        102.9 
      1710.0         0.23        111.0 
      1711.0         0.45        146.5 
      1712.0         0.30        160.2 
      1713.0         0.30        175.5 
      1714.0         0.47        179.7 
      1715.0         0.40        172.6 
      1716.0         0.47        150.8 
      1717.0         0.80        130.4 
      1718.0         0.68         97.0 
      1719.0         0.70        107.2 
      1720.0         0.53        118.3 
      1721.0         0.53        121.2 
      1722.0         0.50        121.6 
      1723.0         0.57        121.2 
      1724.0         0.62        120.4 
      1725.0         0.50        118.2 
      1726.0         0.37        113.6 
      1727.0         0.47        102.6 
      1728.0         0.63         99.9 
      1729.0         0.57        104.9 
      1730.0         0.52        108.7 
      1731.0         0.40        110.3 
      1732.0         0.43        107.4 
      1733.0         0.43         77.1 
      1734.0         0.43         67.7 
      1735.0         0.53         75.1 
      1736.0         8.55        146.3 
      1737.0         0.13        146.3 
      1738.0         0.10        146.3 
      1739.0         0.10        151.7 
      1740.0         0.50        155.2 
      1741.0         0.10        117.2 
      1742.0         0.10         93.9 
      1743.0         0.43         65.7 
      1744.0         0.10         44.7 
      1745.0         0.10         32.0 
      1746.0         0.40         27.2 
      1747.0         0.10         27.2 
      1748.0         0.10         33.0 
      1749.0         0.45         47.1 
      1750.0         0.10         62.4 
      1751.0         0.33         74.5 
      1752.0         0.10         74.5 
      1753.0         6.67         98.8 
      1754.0         3.32         90.7 
      1755.0         0.10         89.3 
      1756.0         0.33         89.8 
      1757.0         0.10         90.2 
      1758.0         0.10         91.1 
      1759.0         0.10         91.1 
      1760.0         0.40         91.5 
      1761.0         0.10         91.6 
      1762.0         0.10         91.6 
      1763.0         0.33         91.4 
      1764.0         0.10         91.0 
      1765.0         0.10         91.0 
      1766.0         0.40         90.8 
      1767.0         0.10         90.2 
      1768.0         0.45         89.9 
      1769.0         0.10         89.4 
      1770.0        10.58         94.5 
      1771.0        12.12         87.7 
      1772.0         0.38          2.4 
      1773.0         0.07          2.0 
