~Version Information
VERS.                      2.0: CWLS Log ASCII Standard - VERSION 2.0
WRAP.                       NO: One line per depth step
~Well Information Block
STRT.FT                39.7500: 
STOP.FT              1484.0000: 
STEP.FT                 0.2500: 
NULL.                -999.2500: 
COMP.          Evergreen Operating Corporation: COMPANY
WELL.              Chase 21-10: WELL
FLD.           Purgatoire River: FIELD
LOC.           1122' FNL & 1544' FWL: LOCATION
PROV.                       CO: PROVINCE
CNTY.               Las Animas: COUNTRY
SRVC.                         : SERVICE COMPANY
DATE.          Fri May 28 15:54:16 2004: LOG DATE
UWI.           05 071 08006 00: UNIQUE WELL ID
~Curve Information Block
DEPT.FT            0 000 00 00: Depth
TT3.usec                      : CBL 3' Travel Time
AMP3.mV                       : CBL 3' Amplitude
GR.GAPI                       : Gamma Ray
CCL.                          : Casing Collar Locator
~Parameter Information Block
~A  Depth       TT3         AMP3         GR         CCL     
# ...
   776.7500    762.1970     16.5860     57.2947      0.0000
   777.0000    757.4332     16.5360     53.6103      0.0000
   777.2500    751.5549     16.3263     51.3320      0.0000
   777.5000    746.0479     15.9988     51.2291      0.0000
   777.7500    740.5284     15.6396     53.3383      0.0000
   778.0000    732.3384     15.3506     57.4571      0.0000
   778.2500    719.5401     15.2107     63.8061      0.0000
   778.5000    703.8107     15.2531     72.9139      0.0000
   778.7500    687.4644     15.4707     84.6561      0.0000
   779.0000    666.4321     15.8368     97.5276      0.0000
   779.2500    629.9711     16.3182    108.9438      0.0000
   779.5000    571.6479     16.8872    116.2369      0.0000
   779.7500    499.4609     17.5389    117.6466      0.0000
   780.0000    431.5678     18.2876    113.0662      0.0000
   780.2500    382.2744     19.1233    104.2655      0.0000
   780.5000    353.7755     19.9780     94.0112      0.0000
   780.7500    339.3345     20.7571     84.3906      0.0000
   781.0000    330.9721     21.4117     75.9768      0.0000
   781.2500    324.2162     21.9747     68.6692      0.0000
   781.5000    318.2947     22.5307     62.9109      0.0000
   781.7500    313.8823     23.1493     59.6588      0.0000
   782.0000    311.2645     23.8287     59.2958      0.0000
   782.2500    310.0153     24.4893     60.9722      0.0000
   782.5000    309.5306     25.0278     63.0922      0.0000
   782.7500    309.3810     25.3914     64.3624      0.0000
   783.0000    309.3372     25.6029     64.5968      0.0000
   783.2500    309.3016     25.7167     64.8557      0.0000
   783.5000    309.2520     25.7687     66.8220      0.0000
   783.7500    309.1942     25.7768     71.7106      0.0000
   784.0000    309.1323     25.7610     79.5036      0.0000
   784.2500    309.0685     25.7380     89.0322      0.0000
   784.5000    309.0108     25.7081     98.5664      0.0000
   784.7500    308.9590     25.6647    106.3646      0.0000
   785.0000    308.8947     25.6041    111.1736      0.0000
   785.2500    308.7986     25.5095    112.7624      0.0000
   785.5000    308.6838     25.3369    112.0270      0.0000
   785.7500    308.6031     25.0356    110.3595      0.0000
   786.0000    308.6152     24.5941    108.8641      0.0000
   786.2500    308.7388     24.0596    108.1417      0.0000
   786.5000    308.9488     23.5027    108.3423      0.0000
   786.7500    309.2548     22.9547    108.8648      0.0000
   787.0000    309.8289     22.3831    108.2817      0.0000
   787.2500    311.0954     21.7386    105.3874      0.0000
   787.5000    313.6237     21.0254    100.5311      0.0000
   787.7500    317.6602     20.3217     95.4324      0.0000
   788.0000    322.5080     19.7346     91.7925      0.0000
   788.2500    326.6366     19.3394     90.5998      0.0000
   788.5000    328.9841     19.1470     92.2682      0.0000
   788.7500    330.0982     19.1093     96.4272      0.0000
   789.0000    331.2827     19.1608    101.7319      0.0000
   789.2500    332.5549     19.2689    106.5404      0.0000
   789.5000    332.2455     19.4485    109.5819      0.0000
   789.7500    328.9268     19.7326    109.7966      0.0000
   790.0000    323.1668     20.1349    106.3834      0.0000
   790.2500    317.0614     20.6318     99.7968      0.0000
   790.5000    312.4362     21.1584     92.3272      0.0000
   790.7500    309.8044     21.6200     86.9628      0.0000
   791.0000    308.6896     21.9246     85.5030      0.0000
   791.2500    308.4175     22.0244     87.7574      0.0000
   791.5000    308.5484     21.9349     92.2434      0.0000
   791.7500    308.8848     21.7294     97.4454      0.0000
   792.0000    309.3138     21.5305    102.6314      0.0000
   792.2500    309.6923     21.4885    107.5792      0.0000
   792.5000    309.8597     21.7193    111.5838      0.0000
   792.7500    309.7492     22.2297    113.2707      0.0000
   793.0000    309.4426     22.9101    111.7780      0.0000
   793.2500    309.0935     23.6102    107.8056      0.0000
   793.5000    308.8099     24.2204    103.1063      0.0000
   793.7500    308.6271     24.6930     99.0037      0.0000
   794.0000    308.5616     25.0191     95.5305      0.0000
   794.2500    308.6750     25.2031     91.9384      0.0000
   794.5000    309.1423     25.2435     87.9826      0.0000
   794.7500    310.3685     25.1107     84.6567      0.0000
   795.0000    313.0398     24.7427     83.4951      0.0000
   795.2500    317.8275     24.0831     84.9736      0.0000
   795.5000    324.7193     23.1527     87.7706      0.0000
   795.7500    332.5989     22.1090     89.9978      0.0000
   796.0000    339.7606     21.2217     91.0632      0.0000
   796.2500    344.9984     20.7462     91.8804      0.0000
   796.5000    348.1637     20.7760     93.3705      0.0000
   796.7500    349.8097     21.1988     95.3513      0.0000
   797.0000    350.5719     21.7804     96.9531      0.0000
   797.2500    350.8743     22.3007     97.7194      0.0000
   797.5000    350.9063     22.6489     98.1228      0.0000
   797.7500    350.5944     22.8412     99.1758      0.0000
   798.0000    349.4783     22.9823    101.6287      0.0000
   798.2500    346.7004     23.2114    105.4451      0.0000
   798.5000    341.4472     23.6446    109.8031      0.0000
   798.7500    333.8106     24.3075    113.4652      0.0000
   799.0000    325.2852     25.0920    115.4737      0.0000
   799.2500    318.1519     25.7892    115.8832      0.0000
   799.5000    314.5400     26.1895    115.6574      0.0000
   799.7500    316.8344     26.1687    115.5580      0.0000
   800.0000    329.6914     25.7101    115.4035      0.0000
   800.2500    360.9578     24.8873    114.6926      0.0000
   800.5000    417.7508     23.8400    113.4072      0.0000
   800.7500    498.3796     22.7270    111.6676      0.0000
   801.0000    588.1596     21.6501    109.0998      0.0000
   801.2500    666.4489     20.6170    105.3273      0.0000
   801.5000    719.7951     19.5953    100.9569      0.0000
   801.7500    748.1886     18.5997     97.5366      0.0000
   802.0000    760.1644     17.7085     96.4641      0.0000
   802.2500    764.5142     16.9934     98.0793      0.0000
   802.5000    766.2228     16.4493    101.8067      0.0000
   802.7500    766.9802     16.0071    107.0019      0.0000
   803.0000    766.7381     15.6205    113.3301      0.0000
   803.2500    764.2178     15.3331    120.1565      0.0000
   803.5000    756.6179     15.2561    125.9928      0.0000
   803.7500    740.5743     15.4769    129.0627      0.0000
   804.0000    716.0931     15.9775    128.3583      0.0000
   804.2500    690.4756     16.6163    124.0494      0.0000
   804.5000    675.4868     17.1733    117.3235      0.0000
   804.7500    677.7523     17.4350    110.0166      0.0000
   805.0000    693.3817     17.2786    103.9525      0.0000
   805.2500    713.2752     16.7129    100.3292      0.0000
   805.5000    730.8094     15.8691     99.6265      0.0000
   805.7500    743.3824     14.9573    101.8091      0.0000
   806.0000    750.4861     14.1931    106.4154      0.0000
   806.2500    752.9876     13.7061    112.6008      0.0000
   806.5000    752.9266     13.4834    119.2633      0.0000
   806.7500    752.3843     13.4033    125.1826      0.0000
   807.0000    752.3781     13.3345    129.3208      0.0000
   807.2500    752.8791     13.2173    131.3715      0.0000
   807.5000    753.4398     13.0713    132.0309      0.0000
   807.7500    753.7468     12.9515    132.3043      0.0000
   808.0000    753.7938     12.8978    132.4162      0.0000
   808.2500    753.7972     12.9086    131.8549      0.0000
   808.5000    754.0370     12.9473    130.6120      0.0000
   808.7500    754.6934     12.9733    129.7583      0.0000
   809.0000    755.7167     12.9702    130.4468      0.0000
   809.2500    756.8114     12.9432    132.5877      0.0000
   809.5000    757.6700     12.8941    134.6388      0.0000
   809.7500    758.3483     12.8070    134.6331      0.0000
   810.0000    759.3143     12.6588    131.6743      0.0000
