~Version Information
VERS.                      2.0: CWLS Log ASCII Standard - VERSION 2.0
WRAP.                       NO: One line per depth step
~Well Information Block
STRT.FT                39.7500: 
STOP.FT              1484.0000: 
STEP.FT                 0.2500: 
NULL.                -999.2500: 
COMP.          Evergreen Operating Corporation: COMPANY
WELL.              Chase 21-10: WELL
FLD.           Purgatoire River: FIELD
LOC.           1122' FNL & 1544' FWL: LOCATION
PROV.                       CO: PROVINCE
CNTY.               Las Animas: COUNTRY
SRVC.                         : SERVICE COMPANY
DATE.          Fri May 28 15:54:16 2004: LOG DATE
UWI.           05 071 08006 00: UNIQUE WELL ID
~Curve Information Block
DEPT.FT            0 000 00 00: Depth
TT3.usec                      : CBL 3' Travel Time
AMP3.mV                       : CBL 3' Amplitude
GR.GAPI                       : Gamma Ray
CCL.                          : Casing Collar Locator
~Parameter Information Block
~A  Depth       TT3         AMP3         GR         CCL     
# ...
   240.7500    768.0000      7.6312     57.0731      0.0000
   241.0000    768.0000      7.6438     57.0370      0.0000
   241.2500    768.0000      7.6530     57.2283      0.0000
   241.5000    768.0000      7.6582     57.5975      0.0000
   241.7500    768.0000      7.6651     57.6644      0.0000
   242.0000    768.0000      7.6821     56.9204      0.0000
   242.2500    768.0000      7.7113     55.3560      0.0000
   242.5000    768.0000      7.7443     53.4755      0.0000
   242.7500    768.0000      7.7684     51.8877      0.0000
   243.0000    768.0000      7.7772     51.0078      0.0000
   243.2500    768.0000      7.7738     50.9798      0.0000
   243.5000    768.0000      7.7660     51.5838      0.0000
   243.7500    768.0000      7.7595     52.2314      0.0000
   244.0000    768.0000      7.7563     52.3642      0.0000
   244.2500    768.0000      7.7574     52.1106      0.0000
   244.5000    768.0000      7.7626     52.3836      0.0000
   244.7500    768.0000      7.7698     53.9897      0.0000
   245.0000    768.0000      7.7763     56.5872      0.0000
   245.2500    768.0000      7.7802     58.7468      0.0000
   245.5000    768.0000      7.7798     59.1477      0.0000
   245.7500    768.0000      7.7732     57.6216      0.0000
   246.0000    768.0000      7.7597     55.0644      0.0000
   246.2500    768.0000      7.7418     52.6181      0.0000
   246.5000    768.0000      7.7235     51.0549      0.0000
   246.7500    768.0000      7.7064     50.6110      0.0000
   247.0000    768.0000      7.6914     51.0120      0.0000
   247.2500    768.0000      7.6818     51.6724      0.0000
   247.5000    768.0000      7.6796     52.1690      0.0000
   247.7500    768.0000      7.6794     52.6615      0.0000
   248.0000    768.0000      7.6706     53.8281      0.0000
   248.2500    768.0000      7.6478     56.4096      0.0000
   248.5000    768.0000      7.6160     60.6570      0.0000
   248.7500    768.0000      7.5855     65.9101      0.0000
   249.0000    768.0000      7.5631     70.7048      0.0000
   249.2500    768.0000      7.5498     73.6361      0.0000
   249.5000    768.0000      7.5428     74.3634      0.0000
   249.7500    768.0000      7.5391     73.8091      0.0000
   250.0000    768.0000      7.5378     73.4335      0.0000
   250.2500    768.0000      7.5403     74.2805      0.0000
   250.5000    768.0000      7.5475     76.4547      0.0000
   250.7500    768.0000      7.5552     79.2236      0.0000
   251.0000    768.0000      7.5558     81.5416      0.0000
   251.2500    768.0000      7.5442     82.6248      0.0000
   251.5000    768.0000      7.5226     82.2799      0.0000
   251.7500    768.0000      7.4977     80.9150      0.0000
   252.0000    768.0000      7.4760     79.2785      0.0000
   252.2500    768.0000      7.4608     77.9789      0.0000
   252.5000    768.0000      7.4519     77.1383      0.0000
   252.7500    768.0000      7.4474     76.5393      0.0000
   253.0000    768.0000      7.4444     76.0379      0.0000
   253.2500    768.0000      7.4395     75.8751      0.0000
   253.5000    768.0000      7.4301     76.7083      0.0000
   253.7500    767.9811      7.4169     79.1706      0.0000
   254.0000    767.8765      7.4034     83.0484      0.0000
   254.2500    767.3725      7.3924     86.9297      0.0000
   254.5000    765.5181      7.3825     89.0041      0.0000
   254.7500    760.3553      7.3699     88.4556      0.0000
   255.0000    749.6613      7.3520     86.1174      0.0000
   255.2500    733.7388      7.3294     83.7269      0.0000
   255.5000    718.1503      7.3050     82.4333      0.0000
   255.7500    711.5129      7.2812     82.0330      0.0000
   256.0000    718.1503      7.2587     81.6593      0.0000
   256.2500    733.7388      7.2367     81.0069      0.0000
   256.5000    749.6613      7.2146     80.6385      0.0000
   256.7500    760.3553      7.1939     81.1136      0.0000
   257.0000    765.5181      7.1774     82.0901      0.0000
   257.2500    767.3725      7.1667     82.4969      0.0000
   257.5000    767.8758      7.1606     81.5382      0.0000
   257.7500    767.9759      7.1563     79.4116      0.0000
   258.0000    767.9721      7.1530     77.0196      0.0000
   258.2500    767.8813      7.1539     75.1814      0.0000
   258.5000    767.5994      7.1631     74.2588      0.0000
   258.7500    766.9168      7.1828     74.2978      0.0000
   259.0000    765.6326      7.2105     75.2019      0.0000
   259.2500    763.7593      7.2419     76.7786      0.0000
   259.5000    761.6452      7.2734     78.8335      0.0000
   259.7500    759.7998      7.2988     81.1676      0.0000
   260.0000    758.4623      7.3014     83.2940      0.0000
   260.2500    757.2040      7.2512     84.3549      0.0000
   260.5000    754.7331      7.1243     83.7232      0.0000
   260.7500    749.1963      6.9346     81.7211      0.0000
   261.0000    739.6307      6.7394     79.3444      0.0000
   261.2500    728.1443      6.5886     77.0681      0.0000
   261.5000    720.0302      6.4771     74.3013      0.0000
   261.7500    719.8918      6.3683     70.3357      0.0000
   262.0000    727.3080      6.2532     65.5202      0.0000
   262.2500    737.4164      6.1589     61.1245      3.0000
   262.5000    745.6107      6.1076     58.3049      3.0000
   262.7500    750.6283      6.0954     57.5712     -3.0000
   263.0000    753.7272      6.1069     58.9877      0.0000
   263.2500    756.4777      6.1404     62.3029      0.0000
   263.5000    759.4715      6.2238     66.8673      0.0000
   263.7500    762.2255      6.4006     71.8141      0.0000
   264.0000    763.8935      6.6825     76.4187      0.0000
   264.2500    764.1395      7.0129     80.1430      0.0000
   264.5000    763.4285      7.2989     82.6025      0.0000
   264.7500    762.6487      7.4811     83.9168      0.0000
   265.0000    762.5147      7.5624     84.9633      0.0000
   265.2500    763.1711      7.5821     86.8340      0.0000
   265.5000    764.2073      7.5798     89.9062      0.0000
   265.7500    765.0751      7.5763     93.3429      0.0000
   266.0000    765.5655      7.5757     95.4250      0.0000
   266.2500    765.8835      7.5757     94.6981      0.0000
   266.5000    766.2837      7.5764     91.1704      0.0000
   266.7500    766.7241      7.5795     86.3060      0.0000
   267.0000    766.8932      7.5852     81.7837      0.0000
   267.2500    766.4866      7.5919     78.3709      0.0000
   267.5000    765.4725      7.5992     75.7879      0.0000
   267.7500    764.1852      7.6089     73.2466      0.0000
   268.0000    763.1340      7.6233     70.1273      0.0000
   268.2500    762.6281      7.6442     66.4975      0.0000
   268.5000    762.6055      7.6717     63.0767      0.0000
   268.7500    762.7506      7.7035     60.6261      0.0000
   269.0000    762.5857      7.7355     59.4200      0.0000
   269.2500    761.5958      7.7632     59.2771      0.0000
   269.5000    759.6416      7.7835     59.8969      0.0000
   269.7500    757.2049      7.7941     61.0713      0.0000
   270.0000    754.9050      7.7927     62.6021      0.0000
   270.2500    752.8332      7.7789     64.0789      0.0000
   270.5000    750.5933      7.7566     64.8880      0.0000
   270.7500    747.7857      7.7342     64.6414      0.0000
   271.0000    744.2012      7.7196     63.6630      0.0000
   271.2500    739.9650      7.7155     62.9955      0.0000
   271.5000    736.0442      7.7166     63.8046      0.0000
   271.7500    734.1944      7.7128     66.5434      0.0000
   272.0000    735.5550      7.6975     70.3811      0.0000
   272.2500    739.4258      7.6746     73.4585      0.0000
   272.5000    744.1874      7.6544     74.1009      0.0000
   272.7500    749.0990      7.6455     72.0092      0.0000
   273.0000    754.2916      7.6505     68.1335      0.0000
   273.2500    759.4527      7.6669     63.5897      0.0000
   273.5000    763.6296      7.6877     59.1312      0.0000
   273.7500    766.2161      7.7019     55.4446      0.0000
   274.0000    767.4269      7.6977     53.1675      0.0000
