~Version Information
VERS.                      2.0: CWLS Log ASCII Standard - VERSION 2.0
WRAP.                       NO: One line per depth step
~Well Information Block
STRT.FT                -8.0000: 
STOP.FT               973.2500: 
STEP.FT                 0.2500: 
NULL.                -999.2500: 
COMP.          Pioneer Natural Resources: COMPANY
WELL.              Oscar 41-31: WELL
FLD.           Purgatorie River: FIELD
LOC.           412' FNL & 1216' FEL--: LOCATION
PROV.                       CO: PROVINCE
CNTY.               Las Animas: COUNTRY
SRVC.          Patterson Wireline: SERVICE COMPANY
DATE.          Wed Mar 02 12:29:08 2005: LOG DATE
UWI.           05 071 08290 00: UNIQUE WELL ID
~Curve Information Block
DEPT.FT            0 000 00 00: Depth
CCL.                          : Casing Collar Locator
TT5.usec                      : CBL 5' Travel Time
AMP3.mV                       : CBL 3' Amplitude
GR.GAPI                       : Gamma Ray
~Parameter Information Block
~A  Depth       CCL         TT5         AMP3         GR     
# ...
   561.5000      0.0000   1200.0000      3.5075    113.0604
   561.7500      0.0000   1200.0000      3.4877    111.5599
   562.0000      0.0000   1200.0000      3.4161    108.9921
   562.2500      0.0000   1200.0000      3.3652    105.3527
   562.5000      0.0000   1200.0000      3.4011    101.6831
   562.7500      0.0000   1200.0000      3.5232     98.8935
   563.0000      0.0000   1200.0000      3.6555     96.7694
   563.2500      0.0000   1200.0000      3.7052     94.6691
   563.5000      0.0000   1200.0000      3.6430     92.9314
   563.7500      0.0000   1200.0000      3.5305     92.9469
   564.0000      0.0000   1200.0000      3.4620     95.8202
   564.2500      0.0000   1200.0000      3.4771    101.2828
   564.5000      0.0000   1200.0000      3.5304    107.8366
   564.7500      0.0000   1200.0000      3.5380    113.7750
   565.0000      0.0000   1200.0000      3.4537    118.1636
   565.2500      0.0000   1200.0000      3.3112    121.0621
   565.5000      0.0000   1200.0000      3.1982    122.9757
   565.7500      0.0000   1200.0000      3.1787    124.2196
   566.0000      0.0000   1200.0000      3.2343    124.8990
   566.2500      0.0000   1200.0000      3.2886    125.4995
   566.5000      0.0000   1200.0000      3.2943    127.1868
   566.7500      0.0000   1200.0000      3.2802    130.9466
   567.0000      0.0000   1200.0000      3.3000    136.2885
   567.2500      0.0000   1200.0000      3.3525    141.1571
   567.5000      0.0000   1200.0000      3.3802    143.3421
   567.7500      0.0000   1200.0000      3.3477    141.9371
   568.0000      0.0000   1200.0000      3.2923    137.5477
   568.2500      0.0000   1200.0000      3.2778    131.4819
   568.5000      0.0000   1200.0000      3.3137    125.0321
   568.7500      0.0000   1200.0000      3.3492    119.2456
   569.0000      0.0000   1200.0000      3.3437    114.7236
   569.2500      0.0000   1200.0000      3.3141    111.3938
   569.5000      0.0000   1199.2424      3.3016    108.7967
   569.7500      0.0000   1200.0000      3.3185    106.8258
   570.0000      0.0000   1200.0000      3.3486    106.0478
   570.2500      0.0000   1200.0000      3.3802    107.1696
   570.5000      0.0000   1200.0000      3.4112    110.2170
   570.7500      0.0000   1200.0000      3.4358    114.1674
   571.0000      0.0000   1200.0000      3.4452    117.3980
   571.2500      0.0000   1200.0000      3.4348    118.8554
   571.5000      0.0000   1200.0000      3.4046    119.1162
   571.7500      0.0000   1200.0000      3.3611    120.0814
   572.0000      0.0000   1200.0000      3.3165    123.3021
   572.2500      0.0000   1200.0000      3.2772    128.5699
   572.5000      0.0000   1200.0000      3.2407    134.0861
   572.7500      0.0000   1200.0000      3.2080    137.9855
   573.0000      0.0000   1200.0000      3.1919    139.8511
   573.2500      0.0000   1200.0000      3.2054    140.7885
   573.5000      0.0000   1200.0000      3.2461    141.8959
   573.7500      0.0000   1200.0000      3.3013    142.8933
   574.0000      0.0000   1200.0000      3.3627    142.5794
   574.2500      0.0000   1200.0000      3.4245    140.3151
   574.5000      0.0000   1200.0000      3.4707    136.6673
   574.7500      0.0000   1200.0000      3.4799    133.0581
   575.0000      0.0000   1200.0000      3.4482    131.3932
   575.2500      0.0000   1200.0000      3.3956    133.4339
   575.5000      0.0000   1200.0000      3.3455    139.3933
   575.7500      0.0000   1200.0000      3.3055    146.9446
   576.0000      0.0000   1200.0000      3.2693    152.3127
   576.2500      0.0000   1200.0000      3.2318    152.9224
   576.5000      0.0000   1200.0000      3.1983    149.2505
   576.7500      0.0000   1200.0000      3.1779    144.3321
   577.0000      0.0000   1200.0000      3.1745    141.4340
   577.2500      0.0000   1200.0000      3.1889    141.9504
   577.5000      0.0000   1200.0000      3.2252    145.0627
   577.7500      0.0000   1200.0000      3.2863    148.7198
   578.0000      0.0000   1200.0000      3.3627    150.7044
   578.2500      0.0000   1200.0000      3.4355    149.6261
   578.5000      0.0000   1200.0000      3.4888    145.8156
   578.7500      0.0000   1159.0500      3.5092    141.1424
   579.0000      0.0000   1200.0000      3.4853    137.6269
   579.2500      0.0000   1200.0000      3.4248    136.2299
   579.5000      0.0000   1155.5294      3.3673    136.6168
   579.7500      0.0000   1200.0000      3.3531    137.4751
   580.0000      0.0000   1154.7961      3.3743    137.2657
   580.2500      0.0000   1153.6711      3.3737    135.3808
   580.5000      0.0000   1155.2572      3.3019    132.7346
   580.7500      0.0000   1152.8143      3.1726    130.9531
   581.0000      0.0000   1153.3579      3.0589    130.8118
   581.2500      0.0000   1151.5000      3.0407    131.5023
   581.5000      0.0000   1150.7858      3.1482    131.3459
   581.7500      0.0000   1150.5652      3.3385    129.1897
   582.0000      0.0000   1152.3934      3.5198    125.3944
   582.2500      0.0000   1153.5000      3.6057    121.7197
   582.5000      0.0000   1153.9529      3.5644    119.9738
   582.7500      0.0000   1154.8019      3.4323    120.3805
   583.0000      0.0000   1199.8690      3.2895    121.4421
   583.2500      0.0000   1199.2617      3.2069    121.6939
   583.5000      0.0000   1158.2548      3.1947    121.2366
   583.7500      0.0000   1157.3485      3.1956    121.1430
   584.0000      0.0000   1200.0000      3.1398    121.7432
   584.2500      0.0000   1160.6829      3.0206    122.0344
   584.5000      0.0000   1155.2583      2.9114    120.7838
   584.7500      0.0000   1200.0000      2.8908    117.8753
   585.0000      0.0000   1200.0000      2.9482    114.2916
   585.2500      0.0000   1200.0000      2.9881    110.8903
   585.5000      0.0000   1200.0000      2.9381    107.5202
   585.7500      0.0000   1200.0000      2.8323    103.4332
   586.0000      0.0000   1200.0000      2.7689     98.3430
   586.2500     -2.0000   1200.0000      2.8052     93.0060
   586.5000     -2.0000   1200.0000      2.9141     88.8915
   586.7500      0.0000   1200.0000      3.0302     87.3453
   587.0000      0.0000   1200.0000      3.1188     88.9016
   587.2500      0.0000   1200.0000      3.2010     93.0711
   587.5000      0.0000   1200.0000      3.3197     98.5379
   587.7500      0.0000   1200.0000      3.4782    103.7327
   588.0000      0.0000   1200.0000      3.6163    107.6527
   588.2500      0.0000   1200.0000      3.6601    110.2585
   588.5000      0.0000   1165.7273      3.5909    111.9777
   588.7500      0.0000   1123.2391      3.4589    112.9107
   589.0000      0.0000   1089.8077      3.3378    112.6582
   589.2500      0.0000   1200.0000      3.2676    110.8198
   589.5000      0.0000   1200.0000      3.2302    107.5196
   589.7500      0.0000   1200.0000      3.1761    103.4291
   590.0000      0.0000   1200.0000      3.0845     99.4262
   590.2500      0.0000   1200.0000      2.9937     96.2945
   590.5000      0.0000   1200.0000      2.9693     94.3925
   590.7500      0.0000   1200.0000      3.0421     93.2498
   591.0000      0.0000   1200.0000      3.1747     91.8013
   591.2500      0.0000   1200.0000      3.2836     89.5558
   591.5000      0.0000   1200.0000      3.2980     87.4524
   591.7500      0.0000   1200.0000      3.2116     87.1748
   592.0000      0.0000   1200.0000      3.0860     89.5828
   592.2500      0.0000   1200.0000      2.9968     93.8975
   592.5000      0.0000   1200.0000      2.9684     98.3306
   592.7500      0.0000   1200.0000      2.9631    101.4357
   593.0000      0.0000   1200.0000      2.9368    102.8842
   593.2500      0.0000   1200.0000      2.8957    103.0889
   593.5000      0.0000   1200.0000      2.8869    102.3383
   593.7500      0.0000   1177.0844      2.9322    100.5073
   594.0000      0.0000   1178.8320      2.9923     97.5694
   594.2500      0.0000   1200.0000      3.0131     94.1711
   594.5000      0.0000   1200.0000      2.9941     91.6878
   594.7500      0.0000   1200.0000      2.9868     91.5755
