~Version Information
VERS.                      2.0: CWLS Log ASCII Standard - VERSION 2.0
WRAP.                       NO: One line per depth step
~Well Information Block
STRT.FT               -12.3000: 
STOP.FT              1768.7000: 
STEP.FT                 0.1000: 
NULL.                -999.2500: 
COMP.          Petrogulf Corporation: COMPANY
WELL.          Alexander 9-43R: WELL
FLD.           Purgatorie River: FIELD
LOC.           1652' FSL & 1049' FEL--: LOCATION
CNTY.               Las Animas: COUNTY
SRVC.                         : SERVICE COMPANY
DATE.          Tue Sep 28 14:27:54 2004: LOG DATE
UWI.                          : UNIQUE WELL ID
STAT.                       CO: STATE
~Curve Information Block
DEPT.FT            0 000 00 00: Depth
GR.GAPI                       : Gamma Ray
CCL.                          : Casing Collar Locator
TT3.usec                      : CBL 3' Travel Time
AMP3.mV                       : CBL 3' Amplitude
~Parameter Information Block
~A  Depth        GR         CCL         TT3         AMP3    
# ...
  1046.3000     90.8739      0.0000    740.9329      9.7520
  1046.4000     90.8739      0.0000    740.9329      9.7520
  1046.5000     84.1553      0.0000    743.7675      9.5131
  1046.6000     84.1553      0.0000    743.7675      9.5131
  1046.7000     84.1553      0.0000    743.7675      9.5131
  1046.8000     79.6792      0.0000    744.5272      9.3160
  1046.9000     79.6792      0.0000    744.5272      9.3160
  1047.0000     77.6122      0.0000    745.1151      9.1750
  1047.1000     77.6122      0.0000    745.1151      9.1750
  1047.2000     77.6122      0.0000    745.1151      9.1750
  1047.3000     77.0512      0.0000    746.7725      9.1349
  1047.4000     77.0512      0.0000    746.7725      9.1349
  1047.5000     77.1248      0.0000    749.3803      9.2185
  1047.6000     77.1248      0.0000    749.3803      9.2185
  1047.7000     77.1248      0.0000    749.3803      9.2185
  1047.8000     77.9443      0.0000    752.3108      9.3803
  1047.9000     77.9443      0.0000    752.3108      9.3803
  1048.0000     80.5077      0.0000    755.3978      9.5283
  1048.1000     80.5077      0.0000    755.3978      9.5283
  1048.2000     80.5077      0.0000    755.3978      9.5283
  1048.3000     86.0036      0.0000    758.8177      9.6029
  1048.4000     86.0036      0.0000    758.8177      9.6029
  1048.5000     94.9257      0.0000    762.4866      9.6192
  1048.6000     94.9257      0.0000    762.4866      9.6192
  1048.7000     94.9257      0.0000    762.4866      9.6192
  1048.8000    106.1433      0.0000    766.1840      9.6217
  1048.9000    106.1433      0.0000    766.1840      9.6217
  1049.0000    116.9892      0.0000    770.1180      9.6125
  1049.1000    116.9892      0.0000    770.1180      9.6125
  1049.2000    116.9892      0.0000    770.1180      9.6125
  1049.3000    124.9637      0.0000    774.5212      9.5420
  1049.4000    124.9637      0.0000    774.5212      9.5420
  1049.5000    129.3327      0.0000    778.2786      9.3715
  1049.6000    129.3327      0.0000    778.2786      9.3715
  1049.7000    129.3327      0.0000    778.2786      9.3715
  1049.8000    130.8911      0.0000    778.7551      9.1313
  1049.9000    130.8911      0.0000    778.7551      9.1313
  1050.0000    130.8002      0.0000    774.0176      8.9000
  1050.1000    130.8002      0.0000    774.0176      8.9000
  1050.2000    130.8002      0.0000    774.0176      8.9000
  1050.3000    130.2297      0.0000    765.3027      8.7309
  1050.4000    130.2297      0.0000    765.3027      8.7309
  1050.5000    130.4007      0.0000    756.3820      8.6124
  1050.6000    130.4007      0.0000    756.3820      8.6124
  1050.7000    130.4007      0.0000    756.3820      8.6124
  1050.8000    131.8359      0.0000    750.1122      8.5031
  1050.9000    131.8359      0.0000    750.1122      8.5031
  1051.0000    133.4312      0.0000    746.4053      8.3845
  1051.1000    133.4312      0.0000    746.4053      8.3845
  1051.2000    133.4312      0.0000    746.4053      8.3845
  1051.3000    132.9993      0.0000    743.9761      8.2684
  1051.4000    132.9993      0.0000    743.9761      8.2684
  1051.5000    129.1008      0.0000    742.7839      8.1685
  1051.6000    129.1008      0.0000    742.7839      8.1685
  1051.7000    129.1008      0.0000    742.7839      8.1685
  1051.8000    122.0770      0.0000    744.0089      8.0835
  1051.9000    122.0770      0.0000    744.0089      8.0835
  1052.0000    113.3378      0.0000    748.4091      8.0082
  1052.1000    113.3378      0.0000    748.4091      8.0082
  1052.2000    113.3378      0.0000    748.4091      8.0082
  1052.3000    104.3169      0.0000    755.0789      7.9481
  1052.4000    104.3169      0.0000    755.0789      7.9481
  1052.5000     96.5655      0.0000    761.3489      7.9169
  1052.6000     96.5655      0.0000    761.3489      7.9169
  1052.7000     96.5655      0.0000    761.3489      7.9169
  1052.8000     92.2595      0.0000    763.9257      7.9184
  1052.9000     92.2595      0.0000    763.9257      7.9184
  1053.0000     93.5232      0.0000    760.6016      7.9324
  1053.1000     93.5232      0.0000    760.6016      7.9324
  1053.2000     93.5232      0.0000    760.6016      7.9324
  1053.3000    100.8464      0.0000    751.4344      7.9218
  1053.4000    100.8464      0.0000    751.4344      7.9218
  1053.5000    112.4452      0.0000    738.7517      7.8576
  1053.6000    112.4452      0.0000    738.7517      7.8576
  1053.7000    112.4452      0.0000    738.7517      7.8576
  1053.8000    125.2948      0.0000    725.9857      7.7356
  1053.9000    125.2948      0.0000    725.9857      7.7356
  1054.0000    136.7473      0.0000    716.1664      7.5705
  1054.1000    136.7473      0.0000    716.1664      7.5705
  1054.2000    136.7473      0.0000    716.1664      7.5705
  1054.3000    145.3341      0.0000    711.2139      7.3800
  1054.4000    145.3341      0.0000    711.2139      7.3800
  1054.5000    150.6410      0.0000    711.8905      7.1810
  1054.6000    150.6410      0.0000    711.8905      7.1810
  1054.7000    150.6410      0.0000    711.8905      7.1810
  1054.8000    153.0673      0.0000    717.6715      6.9989
  1054.9000    153.0673      0.0000    717.6715      6.9989
  1055.0000    153.5890      0.0000    726.9412      6.8693
  1055.1000    153.5890      0.0000    726.9412      6.8693
  1055.2000    153.5890      0.0000    726.9412      6.8693
  1055.3000    153.1225      0.0000    738.2030      6.8271
  1055.4000    153.1225      0.0000    738.2030      6.8271
  1055.5000    152.0108      0.0000    750.8021      6.8866
  1055.6000    152.0108      0.0000    750.8021      6.8866
  1055.7000    152.0108      0.0000    750.8021      6.8866
  1055.8000    150.3729      0.0000    763.7720      7.0274
  1055.9000    150.3729      0.0000    763.7720      7.0274
  1056.0000    148.5663      0.0000    774.5754      7.1966
  1056.1000    148.5663      0.0000    774.5754      7.1966
  1056.2000    148.5663      0.0000    774.5754      7.1966
  1056.3000    146.7834      0.0000    781.0038      7.3392
  1056.4000    146.7834      0.0000    781.0038      7.3392
  1056.5000    144.5084      0.0000    784.8121      7.4430
  1056.6000    144.5084      0.0000    784.8121      7.4430
  1056.7000    144.5084      0.0000    784.8121      7.4430
  1056.8000    140.8759      0.0000    791.2590      7.5540
  1056.9000    140.8759      0.0000    791.2590      7.5540
  1057.0000    135.6237      0.0000    803.5478      7.7227
  1057.1000    135.6237      0.0000    803.5478      7.7227
  1057.2000    135.6237      0.0000    803.5478      7.7227
  1057.3000    129.7395      0.0000    819.5419      7.9317
  1057.4000    129.7395      0.0000    819.5419      7.9317
  1057.5000    125.1236     -2.0000    835.0182      8.0979
  1057.6000    125.1236      2.0000    835.0182      8.0979
  1057.7000    125.1236      0.0000    835.0182      8.0979
  1057.8000    123.1196     -2.0000    847.7972      8.1548
  1057.9000    123.1196      0.0000    847.7972      8.1548
  1058.0000    123.0652      0.0000    857.0408      8.1185
  1058.1000    123.0652      0.0000    857.0408      8.1185
  1058.2000    123.0652      0.0000    857.0408      8.1185
  1058.3000    122.6203      0.0000    860.5090      8.0834
  1058.4000    122.6203      0.0000    860.5090      8.0834
  1058.5000    119.9432      0.0000    854.5658      8.1696
  1058.6000    119.9432      0.0000    854.5658      8.1696
  1058.7000    119.9432      0.0000    854.5658      8.1696
  1058.8000    115.4367      0.0000    836.7119      8.4429
  1058.9000    115.4367      0.0000    836.7119      8.4429
  1059.0000    111.3826      0.0000    808.0125      8.8285
  1059.1000    111.3826      0.0000    808.0125      8.8285
  1059.2000    111.3826      0.0000    808.0125      8.8285
  1059.3000    110.2760      0.0000    774.6041      9.1260
  1059.4000    110.2760      0.0000    774.6041      9.1260
  1059.5000    113.3877      0.0000    746.3663      9.1768
  1059.6000    113.3877      0.0000    746.3663      9.1768
