~Version Information
VERS.                      2.0: CWLS Log ASCII Standard - VERSION 2.0
WRAP.                       NO: One line per depth step
~Well Information Block
STRT.FT               819.0000: 
STOP.FT              2497.0000: 
STEP.FT                 0.2500: 
NULL.                -999.2500: 
COMP.          Petrogulf Corporation: COMPANY
WELL.             State 16-21V: WELL
FLD.           Purgatorie River: FIELD
LOC.           1738' FWL & 332' FNL: LOCATION
PROV.                 Colorado: PROVINCE
CNTY.               Las Animas: COUNTRY
SRVC.          Patterson Wireline: SERVICE COMPANY
DATE.          Sun Jul 13 13:45:48 2003: LOG DATE
UWI.              05-071-07884: UNIQUE WELL ID 05 071 08829 00
~Curve Information Block
DEPT.FT            0 000 00 00: Depth
DCAL.in                       : CDL Caliper
RHOB.g/cc                     : CDL Bulk Density
RHOC.g/cc                     : CDL Density Correction
DPOR.pu                       : CDL Density Porosity
GR.GAPI                       : Gamma Ray
NPOR.pu                       : Neutron Porosity
~Parameter Information Block
~A  Depth       DCAL        RHOB        RHOC        DPOR         GR         NPOR    
# ...
   963.0000      8.2123      2.5966      0.0553      3.2367    126.2929     23.8105
   963.2500      8.2174      2.5937      0.0562      3.4123    127.2994     23.6374
   963.5000      8.2196      2.5898      0.0594      3.6507    129.1203     23.3340
   963.7500      8.2184      2.5882      0.0636      3.7426    130.2177     23.1927
   964.0000      8.2133      2.5880      0.0729      3.7601    130.7459     23.2373
   964.2500      8.2052      2.5887      0.0793      3.7159    130.2024     23.4668
   964.5000      8.1992      2.5902      0.0858      3.6236    128.9389     24.0032
   964.7500      8.1945      2.5913      0.0873      3.5599    128.5044     24.3881
   965.0000      8.1856      2.5933      0.0867      3.4389    128.8893     24.8689
   965.2500      8.1761      2.5953      0.0854      3.3140    129.6326     25.0790
   965.5000      8.1719      2.5999      0.0828      3.0353    131.0844     25.2153
   965.7500      8.1714      2.6037      0.0801      2.8064    132.1646     25.2320
   966.0000      8.1717      2.6090      0.0737      2.4831    133.6340     25.2526
   966.2500      8.1721      2.6113      0.0675      2.3431    134.2264     25.2599
   966.5000      8.1713      2.6116      0.0561      2.3252    134.2312     25.1015
   966.7500      8.1698      2.6096      0.0486      2.4511    133.7389     24.8034
   967.0000      8.1685      2.6038      0.0408      2.7983    132.8239     24.1518
   967.2500      8.1677      2.5991      0.0394      3.0858    132.4665     23.7244
   967.5000      8.1678      2.5918      0.0430      3.5246    132.5039     23.2577
   967.7500      8.1687      2.5873      0.0475      3.7999    132.6912     23.0524
   968.0000      8.1689      2.5809      0.0534      4.1854    132.7755     22.8201
   968.2500      8.1682      2.5769      0.0552      4.4295    132.6034     22.7099
   968.5000      8.1673      2.5713      0.0551      4.7669    131.7855     22.6841
   968.7500      8.1679      2.5683      0.0548      4.9510    130.6405     22.7993
   969.0000      8.1689      2.5656      0.0563      5.1146    128.2392     23.1549
   969.2500      8.1687      2.5655      0.0588      5.1222    126.9587     23.4516
   969.5000      8.1678      2.5682      0.0648      4.9606    127.1251     23.8569
   969.7500      8.1682      2.5717      0.0702      4.7437    128.9174     24.0616
   970.0000      8.1697      2.5791      0.0795      4.2962    133.0080     24.2788
   970.2500      8.1701      2.5848      0.0852      3.9518    135.5063     24.3657
   970.5000      8.1692      2.5934      0.0909      3.4315    137.2395     24.3744
   970.7500      8.1692      2.5986      0.0926      3.1178    136.6603     24.2951
   971.0000      8.1704      2.6046      0.0931      2.7530    133.6148     24.1004
   971.2500      8.1710      2.6069      0.0923      2.6094    130.8348     23.9399
   971.5000      8.1712      2.6076      0.0863      2.5710    126.9313     23.6413
   971.7500      8.1752      2.6062      0.0778      2.6523    125.1111     23.4125
   972.0000      8.1883      2.6028      0.0606      2.8589    123.7442     23.0878
   972.2500      8.2064      2.6007      0.0492      2.9892    123.3128     22.8995
   972.5000      8.2158      2.5991      0.0364      3.0848    122.3089     22.6248
   972.7500      8.2166      2.5994      0.0312      3.0665    121.0469     22.4391
   973.0000      8.2164      2.6012      0.0265      2.9597    118.4118     22.2089
   973.2500      8.2184      2.6024      0.0239      2.8831    116.5105     22.1176
   973.5000      8.2245      2.6033      0.0199      2.8315    114.1471     22.0479
   973.7500      8.2333      2.6029      0.0174      2.8566    113.2623     22.0000
   974.0000      8.2410      2.6010      0.0160      2.9710    113.3143     21.8954
   974.2500      8.2402      2.5992      0.0171      3.0796    114.2410     21.8462
   974.5000      8.2281      2.5961      0.0215      3.2661    116.6455     21.9002
   974.7500      8.2185      2.5939      0.0250      3.4022    118.6650     22.0237
   975.0000      8.2156      2.5902      0.0292      3.6224    122.0075     22.2465
   975.2500      8.2155      2.5878      0.0311      3.7709    124.4629     22.3828
   975.5000      8.2170      2.5847      0.0336      3.9594    128.7189     22.6225
   975.7500      8.2187      2.5834      0.0353      4.0376    131.8353     22.8677
   976.0000      8.2193      2.5829      0.0370      4.0662    135.9169     23.4089
   976.2500      8.2198      2.5833      0.0364      4.0418    137.4496     23.8650
   976.5000      8.2224      2.5839      0.0320      4.0041    137.2955     24.6232
   976.7500      8.2303      2.5837      0.0273      4.0187    135.8156     25.1370
   977.0000      8.2376      2.5819      0.0205      4.1290    132.7088     25.8734
   977.2500      8.2305      2.5800      0.0183      4.2397    130.8750     26.3365
   977.5000      8.2128      2.5779      0.0215      4.3682    129.7382     26.9977
   977.7500      8.1995      2.5779      0.0281      4.3677    130.4357     27.4091
   978.0000      8.1970      2.5810      0.0421      4.1828    133.2125     27.9476
   978.2500      8.1928      2.5848      0.0519      3.9530    135.3230     28.2308
   978.5000      8.1791      2.5914      0.0638      3.5522    137.2284     28.4726
   978.7500      8.1544      2.5951      0.0689      3.3298    137.3445     28.4300
   979.0000      8.1370      2.5975      0.0703      3.1838    136.5995     27.8912
   979.2500      8.1300      2.5965      0.0662      3.2444    136.1942     27.1885
   979.5000      8.1266      2.5915      0.0537      3.5437    136.2749     25.8520
   979.7500      8.1244      2.5869      0.0436      3.8213    136.6488     25.0348
   980.0000      8.1235      2.5805      0.0321      4.2104    137.0646     24.2918
   980.2500      8.1254      2.5779      0.0291      4.3692    136.8816     24.1587
   980.5000      8.1308      2.5782      0.0320      4.3544    135.4854     24.3073
   980.7500      8.1393      2.5815      0.0379      4.1515    133.6564     24.4894
   981.0000      8.1435      2.5909      0.0516      3.5845    129.5055     24.7075
   981.2500      8.1371      2.5990      0.0634      3.0887    125.9146     24.7398
   981.5000      8.1273      2.6116      0.0818      2.3262    119.6711     24.4745
   981.7500      8.1144      2.6184      0.0904      1.9134    115.1896     24.0064
   982.0000      8.1059      2.6238      0.0911      1.5892    108.4421     22.8016
   982.2500      8.1127      2.6235      0.0824      1.6053    104.1402     21.6986
   982.5000      8.1214      2.6184      0.0617      1.9149     98.1481     19.7854
   982.7500      8.1244      2.6134      0.0494      2.2175     94.5257     18.5007
   983.0000      8.1256      2.6066      0.0423      2.6290     89.8030     16.8372
   983.2500      8.1262      2.6039      0.0461      2.7964     87.0843     16.0022
   983.5000      8.1266      2.6029      0.0599      2.8541     83.1642     15.1778
   983.7500      8.1269      2.6038      0.0706      2.8020     80.3926     14.8861
   984.0000      8.1264      2.6053      0.0838      2.7111     76.3897     14.8517
   984.2500      8.1259      2.6052      0.0898      2.7181     74.6793     15.1502
   984.5000      8.1252      2.6017      0.0947      2.9276     75.4149     16.1517
   984.7500      8.1246      2.5968      0.0949      3.2244     78.8388     17.1665
   985.0000      8.1249      2.5860      0.0895      3.8814     88.2263     19.0064
   985.2500      8.1260      2.5772      0.0826      4.4103     96.2600     20.2393
   985.5000      8.1276      2.5640      0.0702      5.2136    107.8037     21.7389
   985.7500      8.1293      2.5563      0.0629      5.6804    113.2525     22.3974
   986.0000      8.1306      2.5479      0.0556      6.1880    116.8040     22.9351
   986.2500      8.1323      2.5447      0.0532      6.3816    117.1028     23.1254
   986.5000      8.1347      2.5431      0.0522      6.4771    117.6188     23.4027
   986.7500      8.1362      2.5439      0.0522      6.4333    119.2075     23.6720
