~Version Information
VERS.                      2.0: CWLS Log ASCII Standard - VERSION 2.0
WRAP.                       NO: One line per depth step
~Well Information Block
STRT.FT               830.0000: 
STOP.FT              3122.7000: 
STEP.FT                 0.1000: 
NULL.                -999.2500: 
COMP.          Pioneer Natural Resources: COMPANY
WELL.              Stones 24-8: WELL
FLD.           Purgatoire River: FIELD
LOC.           648' FSL & 2264' FWL: LOCATION
PROV.                 Colorado: PROVINCE
CNTY.               Las Animas: COUNTRY
SRVC.                Patterson: SERVICE COMPANY
DATE.          Wed Jan 19 15:33:00 2005: LOG DATE
UWI.           05 071 07945 00: UNIQUE WELL ID
~Curve Information Block
DEPT.FT            0 000 00 00: Depth
DCAL.in                       : CDL Caliper
RHOB.g/cc                     : CDL Bulk Density
RHOC.g/cc                     : CDL Density Correction
DPOR.pu                       : CDL Density Porosity
NPOR.pu                       : Neutron Porosity
GR.GAPI                       : Gamma Ray
~Parameter Information Block
~A  Depth       DCAL        RHOB        RHOC        DPOR        NPOR         GR     
# ...
  1886.0000      8.0328      2.5147      0.0409      8.1998     22.1571    109.2195
  1886.1000      8.0328      2.5405      0.0906      6.6347     21.4967    109.2749
  1886.2000      8.0328      2.5520      0.0687      5.9400     21.5566    107.1933
  1886.3000      8.0320      2.5504      0.0807      6.0382     21.4197    106.3118
  1886.4000      8.0320      2.5414      0.0739      6.5807     20.6671    108.8282
  1886.5000      8.0302      2.5296      0.0652      7.2957     19.9108    108.9137
  1886.6000      8.0302      2.5239      0.0415      7.6435     19.2888    103.5359
  1886.7000      8.0302      2.5333      0.0618      7.0727     18.4660     97.1416
  1886.8000      8.0293      2.5506      0.0669      6.0262     17.6129     92.2358
  1886.9000      8.0293      2.5618      0.0584      5.3430     17.4026     86.7952
  1887.0000      8.0296      2.5702      0.0543      4.8350     18.0638     81.1085
  1887.1000      8.0296      2.5838      0.0708      4.0116     18.7500     79.7051
  1887.2000      8.0296      2.5961      0.0735      3.2657     18.6874     81.9581
  1887.3000      8.0303      2.5968      0.0466      3.2220     18.4261     83.9375
  1887.4000      8.0303      2.5860      0.0460      3.8802     18.6924     85.6065
  1887.5000      8.0291      2.5739      0.0415      4.6117     19.6879     89.5422
  1887.6000      8.0291      2.5742      0.0149      4.5909     21.0131     94.2201
  1887.7000      8.0291      2.5851      0.0606      3.9342     22.0166     95.0811
  1887.8000      8.0280      2.5897      0.0564      3.6528     22.5824     94.7491
  1887.9000      8.0280      2.5810      0.0797      4.1811     23.1091     99.0460
  1888.0000      8.0294      2.5714      0.0018      4.7663     24.0945    105.3947
  1888.1000      8.0294      2.5819      0.0239      4.1297     25.1208    109.5973
  1888.2000      8.0294      2.6157      0.0729      2.0785     25.2844    114.9323
  1888.3000      8.0296      2.6557      0.1036     -0.3472     24.6826    120.6912
  1888.4000      8.0296      2.6879      0.0847     -2.2964     23.7448    118.7606
  1888.5000      8.0278      2.7136      0.0770     -3.8574     22.9840    109.9316
  1888.6000      8.0278      2.7418      0.0869     -5.5613     22.6564    106.2560
  1888.7000      8.0278      2.7771      0.0608     -7.7019     22.5156    109.5788
  1888.8000      8.0277      2.8114      0.1186     -9.7839     22.4197    110.9831
  1888.9000      8.0277      2.8264      0.1392    -10.6916     22.0732    107.9980
  1889.0000      8.0288      2.8165      0.0908    -10.0909     21.4892    103.2371
  1889.1000      8.0288      2.7890      0.0778     -8.4251     21.0829     98.8331
  1889.2000      8.0288      2.7485      0.0165     -5.9704     20.9753     98.4915
  1889.3000      8.0300      2.6955     -0.0062     -2.7590     21.3176    104.1810
  1889.4000      8.0300      2.6340     -0.0841      0.9700     21.7620    115.1360
  1889.5000      8.0297      2.5771     -0.1140      4.4204     21.5703    124.0314
  1889.6000      8.0297      2.5428     -0.1238      6.4967     21.2330    122.7986
  1889.7000      8.0297      2.5410     -0.0509      6.6086     21.3873    119.4217
  1889.8000      8.0287      2.5527      0.0432      5.8971     21.8948    122.7392
  1889.9000      8.0287      2.5501      0.0796      6.0517     22.8201    125.7090
  1890.0000      8.0291      2.5391      0.0048      6.7211     23.9891    126.2639
  1890.1000      8.0291      2.5449      0.0420      6.3727     24.6784    131.0412
  1890.2000      8.0291      2.5629      0.1028      5.2766     24.5417    135.5519
  1890.3000      8.0289      2.5794      0.0489      4.2816     23.8436    131.3273
  1890.4000      8.0289      2.6034      0.0659      2.8268     23.3137    123.2379
  1890.5000      8.0268      2.6256      0.1437      1.4801     23.6377    120.7118
  1890.6000      8.0268      2.6204      0.0792      1.7930     24.4564    122.5688
  1890.7000      8.0268      2.5951      0.1057      3.3244     24.6165    123.7352
  1890.8000      8.0228      2.5780      0.0366      4.3621     23.8754    123.7646
  1890.9000      8.0228      2.5834      0.0778      4.0386     23.0793    123.8076
  1891.0000      8.0206      2.5943      0.0898      3.3731     23.0386    124.0130
  1891.1000      8.0206      2.5952      0.0577      3.3197     23.8374    122.6936
  1891.2000      8.0206      2.5933      0.0547      3.4359     24.7054    118.6658
  1891.3000      8.0240      2.5961      0.0568      3.2650     25.2069    115.1573
  1891.4000      8.0240      2.6029      0.0689      2.8556     25.6012    114.7974
  1891.5000      8.0262      2.6130      0.0658      2.2404     25.5160    113.5123
  1891.6000      8.0262      2.6275      0.0943      1.3663     24.7863    110.6572
  1891.7000      8.0262      2.6440      0.0746      0.3624     24.3994    113.4818
  1891.8000      8.0266      2.6566      0.0914     -0.4010     24.9036    121.8435
  1891.9000      8.0266      2.6619      0.0476     -0.7186     25.3893    125.0948
  1892.0000      8.0296      2.6581      0.0683     -0.4912     25.0893    121.0138
  1892.1000      8.0296      2.6412      0.0362      0.5312     24.5179    116.8534
  1892.2000      8.0296      2.6205      0.0624      1.7876     24.5969    113.5324
  1892.3000      8.0359      2.6114      0.0517      2.3375     25.3321    111.2027
  1892.4000      8.0359      2.6206      0.0528      1.7842     25.7064    111.2157
  1892.5000      8.0416      2.6451      0.0816      0.2981     25.6782    110.6269
  1892.6000      8.0416      2.6725      0.1007     -1.3665     25.9739    109.4513
  1892.7000      8.0416      2.6981      0.0797     -2.9121     26.2790    111.4445
  1892.8000      8.0390      2.7321      0.0963     -4.9754     26.2355    116.0073
  1892.9000      8.0390      2.7688      0.1446     -7.2005     26.3521    118.7573
  1893.0000      8.0334      2.7790      0.1479     -7.8212     26.9690    118.6994
  1893.1000      8.0334      2.7683      0.0594     -7.1708     27.3330    115.1624
  1893.2000      8.0334      2.7800      0.0319     -7.8783     26.9715    107.5600
  1893.3000      8.0304      2.8148      0.1232     -9.9867     26.9152     99.8022
  1893.4000      8.0304      2.8231      0.1071    -10.4893     27.6962     95.5088
  1893.5000      8.0295      2.7827      0.0291     -8.0421     28.3193     91.3359
  1893.6000      8.0295      2.7228     -0.0241     -4.4103     28.1203     85.3329
  1893.7000      8.0295      2.6752     -0.0427     -1.5294     27.7432     83.3961
  1893.8000      8.0286      2.6422     -0.0317      0.4740     27.6514     88.7978
  1893.9000      8.0286      2.6102     -0.0658      2.4124     27.1627     97.1549
  1894.0000      8.0281      2.5819     -0.0605      4.1255     25.9943    103.5246
  1894.1000      8.0281      2.5743     -0.0265      4.5900     25.0939    107.7792
  1894.2000      8.0281      2.5914      0.0606      3.5509     25.1520    111.7264
  1894.3000      8.0292      2.6149      0.0930      2.1300     25.6356    112.5425
  1894.4000      8.0292      2.6307      0.0851      1.1684     25.8745    109.2772
  1894.5000      8.0307      2.6471      0.1175      0.1788     26.2278    106.4964
  1894.6000      8.0307      2.6694      0.1256     -1.1766     27.0416    106.0987
  1894.7000      8.0307      2.6871      0.1356     -2.2477     27.8382    105.9151
  1894.8000      8.0351      2.6957      0.0516     -2.7705     28.3155    106.3403
  1894.9000      8.0351      2.7035      0.0822     -3.2442     28.2777    107.1819
  1895.0000      8.0402      2.7074      0.1152     -3.4817     27.4081    106.1072
  1895.1000      8.0402      2.7078      0.0822     -3.5005     26.0022    103.5244
  1895.2000      8.0402      2.7097      0.1148     -3.6159     25.0700    100.2551
  1895.3000      8.0393      2.6997      0.0957     -3.0095     24.8108     98.4808
  1895.4000      8.0393      2.6733      0.0471     -1.4113     24.5726    104.7669
  1895.5000      8.0363      2.6506      0.0338     -0.0355     24.4580    117.2658
