~Version Information
VERS.                      2.0: CWLS Log ASCII Standard - VERSION 2.0
WRAP.                       NO: One line per depth step
~Well Information Block
STRT.FT               898.0000: 
STOP.FT              2359.2000: 
STEP.FT                 0.1000: 
NULL.                -999.2500: 
COMP.          Pioneer Natural Resources: COMPANY
WELL.             Trimax 44-23: WELL
FLD.           Purgatoire River: FIELD
LOC.           527' FSL & 1064' FEL: LOCATION
PROV.                 Colorado: PROVINCE
CNTY.               Las Animas: COUNTRY
SRVC.                Patterson: SERVICE COMPANY
DATE.          Mon Mar 14 07:28:19 2005: LOG DATE
UWI.           05 071 08326 00: UNIQUE WELL ID
~Curve Information Block
DEPT.FT            0 000 00 00: Depth
DCAL.in                       : CDL Caliper
RHOB.g/cc                     : CDL Bulk Density
RHOC.g/cc                     : CDL Density Correction
DPOR.pu                       : CDL Density Porosity
GR.GAPI                       : Gamma Ray
NPOR.pu                       : Neutron Porosity
~Parameter Information Block
~A  Depth       DCAL        RHOB        RHOC        DPOR         GR         NPOR    
   898.0000      8.1393      2.2355     -0.4358     25.1234    134.7199     24.7071
   898.1000      8.1393      2.2248     -0.4683     25.7683    138.4630     23.9139
   898.2000      8.1393      2.2138     -0.5115     26.4356    139.3485     23.1609
   898.3000      8.1402      2.2235     -0.5034     25.8486    135.9233     22.8575
   898.4000      8.1402      2.2533     -0.4915     24.0437    134.5516     22.8379
   898.5000      8.1403      2.2889     -0.4838     21.8841    138.5139     22.5490
   898.6000      8.1403      2.3196     -0.4078     20.0238    141.6170     22.5762
   898.7000      8.1403      2.3329     -0.4525     19.2162    142.8000     23.2483
   898.8000      8.1400      2.3190     -0.3953     20.0626    144.8831     23.4296
   898.9000      8.1400      2.2919     -0.4811     21.7009    141.8598     22.7186
   899.0000      8.1395      2.2786     -0.4619     22.5095    134.4247     22.4880
   899.1000      8.1395      2.2807     -0.4396     22.3819    129.2572     23.2109
   899.2000      8.1395      2.2888     -0.4323     21.8884    124.5652     23.8277
   899.3000      8.1389      2.2978     -0.4683     21.3458    122.5792     23.7890
   899.4000      8.1389      2.2964     -0.4226     21.4309    124.4843     23.3631
   899.5000      8.1375      2.2823     -0.4447     22.2854    122.1979     23.4230
   899.6000      8.1375      2.2741     -0.4665     22.7827    115.5468     24.2017
   899.7000      8.1375      2.2885     -0.4209     21.9119    112.7875     24.7644
   899.8000      8.1356      2.3251     -0.4510     19.6915    115.5089     24.6923
   899.9000      8.1356      2.3694     -0.3868     17.0083    117.5397     24.2693
   900.0000      8.1340      2.3988     -0.3806     15.2254    114.5099     23.7064
   900.1000      8.1340      2.4041     -0.4262     14.9042    110.7504     23.2733
   900.2000      8.1340      2.3890     -0.4468     15.8173    110.3475     23.2223
   900.3000      8.1323      2.3528     -0.4276     18.0091    110.3448     23.6302
   900.4000      8.1323      2.3172     -0.5184     20.1721    107.5986     23.9928
   900.5000      8.1316      2.3188     -0.4833     20.0752    104.9408     23.5779
   900.6000      8.1316      2.3442     -0.5063     18.5329    104.2304     22.5884
   900.7000      8.1316      2.3418     -0.4611     18.6785    103.0237     22.0876
   900.8000      8.1318      2.2864     -0.4841     22.0388    100.4954     22.7499
   900.9000      8.1318      2.2010     -0.5267     27.2132     97.9428     24.1024
   901.0000      8.1307      2.1300     -0.5654     31.5167     96.9720     25.2820
   901.1000      8.1307      2.0918     -0.5386     33.8310    100.0109     25.8897
   901.2000      8.1307      2.0631     -0.5086     35.5670    105.6107     25.8222
   901.3000      8.1296      2.0277     -0.6032     37.7164    106.9517     25.2830
   901.4000      8.1296      1.9992     -0.6250     39.4403    101.7944     24.5706
   901.5000      8.1296      1.9989     -0.6732     39.4577     93.0625     23.9191
   901.6000      8.1296      2.0401     -0.6120     36.9642     84.9648     23.6177
   901.7000      8.1296      2.1079     -0.5957     32.8564     80.9812     23.3788
   901.8000      8.1296      2.1760     -0.6194     28.7254     80.2981     22.7288
   901.9000      8.1296      2.2298     -0.5334     25.4679     78.9819     21.8926
   902.0000      8.1295      2.2716     -0.6074     22.9359     77.4357     21.3811
   902.1000      8.1295      2.3148     -0.5434     20.3177     79.9672     21.3155
   902.2000      8.1295      2.3559     -0.5673     17.8243     84.7549     21.3636
   902.3000      8.1297      2.3805     -0.4851     16.3331     86.2836     21.1255
   902.4000      8.1297      2.3855     -0.5141     16.0310     83.8644     20.4161
   902.5000      8.1304      2.3864     -0.5334     15.9754     82.7531     19.2625
   902.6000      8.1304      2.3909     -0.4155     15.7000     86.6983     18.0678
   902.7000      8.1304      2.3791     -0.4042     16.4184     91.0753     17.4465
   902.8000      8.1315      2.3455     -0.4830     18.4566     91.0483     17.4992
   902.9000      8.1315      2.3221     -0.5300     19.8749     90.4212     17.9244
   903.0000      8.1324      2.3395     -0.5119     18.8195     92.0147     18.5025
   903.1000      8.1324      2.3851     -0.4169     16.0565     93.7940     18.9856
   903.2000      8.1324      2.4137     -0.4366     14.3198     96.0993     19.2254
   903.3000      8.1329      2.4077     -0.4122     14.6822     99.2466     19.2992
   903.4000      8.1329      2.3852     -0.4465     16.0470     99.1940     19.3970
   903.5000      8.1335      2.3598     -0.4175     17.5905     96.0628     19.5112
   903.6000      8.1335      2.3369     -0.4958     18.9729     96.2450     19.4612
   903.7000      8.1335      2.3306     -0.4564     19.3589    100.9390     19.2859
   903.8000      8.1340      2.3451     -0.4296     18.4803    105.2788     19.1630
   903.9000      8.1340      2.3625     -0.4162     17.4245    105.7042     19.0786
   904.0000      8.1344      2.3569     -0.4159     17.7619    102.4235     18.9759
   904.1000      8.1344      2.3323     -0.4936     19.2529     99.0487     18.8785
   904.2000      8.1344      2.3250     -0.5214     19.6995     99.3041     18.9619
   904.3000      8.1347      2.3497     -0.4258     18.1984    100.0801     19.1582
   904.4000      8.1347      2.3852     -0.4246     16.0476     97.8242     19.4331
   904.5000      8.1346      2.4167     -0.4085     14.1387     98.7549     20.1241
   904.6000      8.1346      2.4462     -0.4318     12.3506    106.1424     20.8543
   904.7000      8.1346      2.4651     -0.3965     11.2045    113.1984     21.0169
   904.8000      8.1350      2.4556     -0.3808     11.7832    115.2248     20.6944
   904.9000      8.1350      2.4219     -0.4211     13.8224    113.6886     20.1340
   905.0000      8.1353      2.3884     -0.4976     15.8566    109.4602     19.6186
   905.1000      8.1353      2.3734     -0.4553     16.7666    102.2093     19.4529
   905.2000      8.1353      2.3761     -0.4367     16.6027     93.6433     19.7273
   905.3000      8.1336      2.3757     -0.4264     16.6217     87.1682     20.2393
   905.4000      8.1336      2.3554     -0.4329     17.8539     85.8628     20.5305
   905.5000      8.1318      2.3342     -0.4872     19.1417     90.8839     20.2072
   905.6000      8.1318      2.3342     -0.3896     19.1389    102.3072     19.5108
   905.7000      8.1318      2.3368     -0.4342     18.9801    116.0318     19.1257
   905.8000      8.1325      2.3268     -0.4677     19.5860    124.0866     19.2817
   905.9000      8.1325      2.3200     -0.4738     20.0021    124.5996     19.4558
   906.0000      8.1337      2.3279     -0.4571     19.5191    121.7538     19.2078
   906.1000      8.1337      2.3466     -0.4163     18.3867    115.7362     18.9329
   906.2000      8.1337      2.3667     -0.4521     17.1682    107.1650     18.9651
   906.3000      8.1349      2.3902     -0.4680     15.7460    101.1677     19.0603
   906.4000      8.1349      2.4262     -0.3974     13.5617    101.0289     19.4226
   906.5000      8.1357      2.4653     -0.4117     11.1945    107.1612     20.3448
   906.6000      8.1357      2.4895     -0.3894      9.7269    114.4458     21.0874
   906.7000      8.1357      2.4933     -0.3838      9.4980    113.7015     21.0441
   906.8000      8.1356      2.4824     -0.3807     10.1588    103.7339     20.5953
   906.9000      8.1356      2.4685     -0.4157     10.9971     92.2311     20.0568
   907.0000      8.1350      2.4565     -0.4054     11.7257     85.7710     19.4909
   907.1000      8.1350      2.4530     -0.4921     11.9418     87.9246     19.5215
   907.2000      8.1350      2.4608     -0.3954     11.4657     97.4336     20.5825
   907.3000      8.1332      2.4533     -0.4210     11.9187    109.6309     21.7217
   907.4000      8.1332      2.4196     -0.4594     13.9634    118.8136     21.8779
   907.5000      8.1306      2.3845     -0.4030     16.0932    118.6873     21.1073
