~Version Information
VERS.                      2.0: CWLS Log ASCII Standard - VERSION 2.0
WRAP.                       NO: One line per depth step
~Well Information Block
STRT.FT               950.0000: 
STOP.FT              2417.7000: 
STEP.FT                 0.1000: 
NULL.                -999.2500: 
COMP.          Pioneer Natural Resources: COMPANY
WELL.            Chevron 13-13: WELL
FLD.           Purgatoire River: FIELD
LOC.           1560' FSL & 711' FWL--: LOCATION
CNTY.               Las Animas: COUNTY
SRVC.          Superior Well Services: SERVICE COMPANY
DATE.          Mon Feb 12 14:55:24 2007: LOG DATE
UWI.           05 071 08319 00: UNIQUE WELL ID
STAT.                 Colorado: STATE
~Curve Information Block
DEPT.FT            0 000 00 00: Depth
DCAL.in                       : CDL Caliper
RHOB.g/cc                     : CDL Bulk Density
RHOC.g/cc                     : CDL Density Correction
DPOR.pu                       : CDL Density Porosity
GR.GAPI                       : Gamma Ray
~Parameter Information Block
~A  Depth       DCAL        RHOB        RHOC        DPOR         GR     
# ...
  1521.2000      7.9681      2.4963      0.0275      9.3134     54.1998
  1521.3000      7.9685      2.4904      0.0439      9.6743     51.3318
  1521.4000      7.9685      2.4791      0.0119     10.3579     54.3468
  1521.5000      7.9710      2.4751      0.0341     10.5999     62.6926
  1521.6000      7.9710      2.4840      0.0250     10.0578     68.4345
  1521.7000      7.9710      2.4972      0.0580      9.2624     67.3876
  1521.8000      7.9699      2.5010      0.0542      9.0278     63.2096
  1521.9000      7.9699      2.4860      0.0807      9.9413     59.7094
  1522.0000      7.9684      2.4631      0.0005     11.3253     57.9378
  1522.1000      7.9684      2.4623      0.0304     11.3767     59.9201
  1522.2000      7.9684      2.4812      0.0993     10.2276     63.9776
  1522.3000      7.9703      2.4894      0.0684      9.7339     64.2474
  1522.4000      7.9703      2.4749      0.0714     10.6143     61.1252
  1522.5000      7.9731      2.4516     -0.0012     12.0236     60.8123
  1522.6000      7.9731      2.4368      0.0334     12.9193     62.8545
  1522.7000      7.9731      2.4295      0.0666     13.3620     61.0698
  1522.8000      7.9736      2.4258      0.0350     13.5905     54.6528
  1522.9000      7.9736      2.4290      0.0239     13.3950     48.8268
  1523.0000      7.9732      2.4375      0.0386     12.8758     45.7366
  1523.1000      7.9732      2.4496      0.0570     12.1471     44.9849
  1523.2000      7.9732      2.4696      0.0549     10.9358     47.3103
  1523.3000      7.9717      2.4944      0.0831      9.4328     50.4430
  1523.4000      7.9717      2.5054      0.1312      8.7626     51.5714
  1523.5000      7.9695      2.4967      0.0702      9.2886     52.8942
  1523.6000      7.9695      2.4829      0.0922     10.1255     57.0110
  1523.7000      7.9695      2.4688      0.0941     10.9811     59.5482
  1523.8000      7.9695      2.4517      0.0605     12.0211     53.6878
  1523.9000      7.9695      2.4355      0.0252     13.0007     44.2818
  1524.0000      7.9716      2.4263      0.0291     13.5566     41.5570
  1524.1000      7.9716      2.4273      0.0437     13.4959     44.8415
  1524.2000      7.9716      2.4342      0.0282     13.0817     49.6049
  1524.3000      7.9719      2.4414      0.0125     12.6405     54.0348
  1524.4000      7.9719      2.4463      0.0323     12.3433     55.9664
  1524.5000      7.9698      2.4492      0.0494     12.1691     56.7560
  1524.6000      7.9698      2.4550      0.0642     11.8169     58.6891
  1524.7000      7.9698      2.4643      0.0597     11.2540     59.8771
  1524.8000      7.9678      2.4734      0.0852     10.7035     58.0043
  1524.9000      7.9678      2.4812      0.0564     10.2294     53.4028
  1525.0000      7.9688      2.4879      0.0663      9.8244     49.7049
  1525.1000      7.9688      2.4919      0.0812      9.5815     50.0888
  1525.2000      7.9688      2.4935      0.0761      9.4832     52.1605
  1525.3000      7.9695      2.4950      0.0899      9.3969     51.6603
  1525.4000      7.9695      2.4944      0.0677      9.4319     49.9503
  1525.5000      7.9702      2.4868      0.0849      9.8913     51.1384
  1525.6000      7.9702      2.4759      0.0299     10.5537     53.4624
  1525.7000      7.9702      2.4724      0.0259     10.7608     53.9065
  1525.8000      7.9713      2.4761      0.0386     10.5399     53.0453
  1525.9000      7.9713      2.4776      0.0390     10.4505     51.4638
  1526.0000      7.9712      2.4715      0.0642     10.8204     50.8784
  1526.1000      7.9712      2.4607      0.0403     11.4748     53.6391
  1526.2000      7.9712      2.4583      0.0447     11.6199     59.0928
  1526.3000      7.9694      2.4708      0.0459     10.8617     64.3155
  1526.4000      7.9694      2.4857      0.0428      9.9591     66.6311
  1526.5000      7.9673      2.4821      0.0690     10.1766     67.6170
  1526.6000      7.9673      2.4541      0.0285     11.8732     67.7429
  1526.7000      7.9673      2.4238     -0.0070     13.7078     65.5312
  1526.8000      7.9683      2.4169     -0.0034     14.1255     63.8728
  1526.9000      7.9683      2.4317      0.0463     13.2319     64.8350
  1527.0000      7.9714      2.4438      0.0852     12.4958     67.1840
  1527.1000      7.9714      2.4398      0.0441     12.7412     68.6579
  1527.2000      7.9714      2.4329      0.0185     13.1561     66.2471
  1527.3000      7.9726      2.4335      0.0820     13.1235     60.7078
  1527.4000      7.9726      2.4352      0.0428     13.0200     55.0666
  1527.5000      7.9723      2.4355      0.0718     12.9994     49.4960
  1527.6000      7.9723      2.4382      0.0476     12.8371     44.2259
  1527.7000      7.9723      2.4514     -0.0137     12.0379     41.5902
  1527.8000      7.9710      2.4720      0.1088     10.7892     42.5150
  1527.9000      7.9710      2.4787      0.0498     10.3847     45.1216
  1528.0000      7.9699      2.4661      0.0624     11.1430     47.6985
  1528.1000      7.9699      2.4544      0.0198     11.8560     49.1689
  1528.2000      7.9699      2.4670      0.0147     11.0931     49.6750
  1528.3000      7.9673      2.4994      0.1017      9.1252     50.3553
  1528.4000      7.9673      2.5196      0.1029      7.9037     51.7872
  1528.5000      7.9635      2.5117      0.0969      8.3806     55.5314
  1528.6000      7.9635      2.4911      0.0457      9.6282     59.7833
  1528.7000      7.9635      2.4790      0.0454     10.3662     58.6312
  1528.8000      7.9597      2.4770      0.0837     10.4869     53.3757
  1528.9000      7.9597      2.4769      0.0950     10.4906     49.5163
  1529.0000      7.9589      2.4812      0.0581     10.2327     50.0401
  1529.1000      7.9589      2.4957      0.0707      9.3492     53.3087
  1529.2000      7.9589      2.5123      0.1010      8.3475     54.9698
  1529.3000      7.9607      2.5144      0.1435      8.2205     55.3313
  1529.4000      7.9607      2.4987      0.0939      9.1690     56.4285
  1529.5000      7.9640      2.4742      0.0879     10.6563     57.4589
  1529.6000      7.9640      2.4528      0.0410     11.9534     56.5354
  1529.7000      7.9640      2.4457      0.0619     12.3796     53.5387
  1529.8000      7.9680      2.4510      0.0553     12.0598     50.8211
  1529.9000      7.9680      2.4592      0.0547     11.5636     49.6859
  1530.0000      7.9717      2.4567      0.0918     11.7130     49.3488
  1530.1000      7.9717      2.4372      0.0496     12.8997     49.3880
  1530.2000      7.9717      2.4202      0.0076     13.9255     50.5155
  1530.3000      7.9744      2.4269      0.0331     13.5225     52.5585
  1530.4000      7.9744      2.4508      0.0592     12.0708     52.7569
  1530.5000      7.9759      2.4655      0.1334     11.1810     49.7599
  1530.6000      7.9759      2.4541      0.0823     11.8753     46.3943
  1530.7000      7.9759      2.4307      0.0710     13.2879     45.4383
  1530.8000      7.9762      2.4174      0.0603     14.0990     46.6200
  1530.9000      7.9762      2.4189      0.0867     14.0085     48.5450
  1531.0000      7.9768      2.4305      0.0508     13.3019     49.2181
  1531.1000      7.9768      2.4449      0.1086     12.4279     46.5711
  1531.2000      7.9768      2.4513      0.0895     12.0435     42.5436
  1531.3000      7.9800      2.4557      0.0541     11.7741     40.1665
  1531.4000      7.9800      2.4716      0.0699     10.8129     40.3834
  1531.5000      7.9845      2.4905      0.0874      9.6657     43.6412
  1531.6000      7.9845      2.4974      0.0756      9.2514     48.6440
  1531.7000      7.9845      2.4915      0.0805      9.6062     52.5705
  1531.8000      7.9871      2.4775      0.0583     10.4565     53.1718
  1531.9000      7.9871      2.4595      0.0277     11.5443     52.8684
  1532.0000      7.9876      2.4433      0.0274     12.5296     54.2374
  1532.1000      7.9876      2.4342     -0.0183     13.0790     54.8978
  1532.2000      7.9876      2.4333      0.0512     13.1324     53.6008
  1532.3000      7.9870      2.4335      0.0149     13.1225     51.8896
