~Version Information
VERS.                      2.0: CWLS Log ASCII Standard - VERSION 2.0
WRAP.                       NO: One line per depth step
~Well Information Block
STRT.FT               710.0000: 
STOP.FT              2304.5000: 
STEP.FT                 0.2500: 
NULL.                -999.2500: 
COMP.          Pioneer Natural Resources: COMPANY
WELL.           Ogallela 44-12: WELL
FLD.           Purgatoire River: FIELD
LOC.           610' FSL & 671' FEL: LOCATION
PROV.                 Colorado: PROVINCE
CNTY.               Las Animas: COUNTRY
SRVC.                Patterson: SERVICE COMPANY
DATE.          Wed Feb 23 00:14:59 2005: LOG DATE
UWI.           05 071 08283 00: UNIQUE WELL ID
~Curve Information Block
DEPT.FT            0 000 00 00: Depth
SN.Ohm-m                      : IEL Short Normal
SP.mV                         : IEL Spontaneous Potential
DIR.Ohm-m                     : IEL Induction Resistivity
GR.GAPI                       : Gamma Ray
~Parameter Information Block
~A  Depth        SN          SP         DIR          GR     
# ...
  2184.0000     21.1073     24.4272     21.2727     78.6662
  2184.2500     20.9716     23.3088     20.9754     77.8512
  2184.5000     20.8902     22.2082     20.6817     75.6686
  2184.7500     20.8305     21.1795     20.4613     74.1167
  2185.0000     20.7830     20.2794     20.3552     72.3027
  2185.2500     20.7657     19.5635     20.3672     71.4775
  2185.5000     20.7968     19.0754     20.4698     70.3084
  2185.7500     20.8678     18.8379     20.6153     69.2247
  2186.0000     20.9375     18.8493     20.7471     67.1368
  2186.2500     20.9692     19.0867     20.8167     65.8398
  2186.5000     20.9645     19.5112     20.8005     64.7531
  2186.7500     20.9454     20.0770     20.7096     64.6711
  2187.0000     20.9293     20.7411     20.5815     65.0653
  2187.2500     20.9295     21.4694     20.4581     65.3284
  2187.5000     20.9646     22.2359     20.3659     65.2658
  2187.7500     21.0490     23.0178     20.3097     64.7962
  2188.0000     21.1600     23.7942     20.2803     63.6883
  2188.2500     21.2459     24.5480     20.2675     63.1182
  2188.5000     21.2801     25.2623     20.2660     63.3916
  2188.7500     21.2677     25.9141     20.2742     64.5620
  2189.0000     21.2070     26.4784     20.2881     67.3984
  2189.2500     21.0844     26.9469     20.2978     69.4214
  2189.5000     20.9073     27.3386     20.2896     71.5516
  2189.7500     20.7144     27.6902     20.2508     71.9463
  2190.0000     20.5515     28.0363     20.1748     70.9258
  2190.2500     20.4457     28.3963     20.0634     69.4764
  2190.5000     20.3795     28.7703     19.9269     67.0221
  2190.7500     20.2866     29.1430     19.7831     65.7697
  2191.0000     20.1176     29.4917     19.6537     65.3215
  2191.2500     19.8922     29.7963     19.5588     66.2406
  2191.5000     19.6557     30.0457     19.5123     69.2367
  2191.7500     19.4477     30.2362     19.5192     71.8034
  2192.0000     19.3208     30.3667     19.5765     75.3359
  2192.2500     19.3149     30.4359     19.6751     76.8927
  2192.5000     19.4132     30.4411     19.7989     77.5473
  2192.7500     19.5766     30.3797     19.9256     76.9401
  2193.0000     19.7940     30.2580     20.0286     74.9890
  2193.2500     20.0629     30.1016     20.0835     73.2813
  2193.5000     20.3593     29.9493     20.0779     70.2998
  2193.7500     20.6523     29.8270     20.0197     68.0554
  2194.0000     20.9323     29.7293     19.9387     64.5178
  2194.2500     21.2118     29.6317     19.8789     62.3155
  2194.5000     21.5052     29.5166     19.8829     59.7578
  2194.7500     21.8045     29.3882     19.9746     58.7144
  2195.0000     22.0544     29.2689     20.1469     58.0254
  2195.2500     22.1657     29.1837     20.3621     57.9518
  2195.5000     22.0885     29.1458     20.5655     58.2098
  2195.7500     21.8531     29.1493     20.7081     58.6326
  2196.0000     21.5322     29.1728     20.7676     59.6885
  2196.2500     21.1940     29.1872     20.7561     60.6133
  2196.5000     20.8894     29.1669     20.7152     62.0352
  2196.7500     20.6512     29.1003     20.6974     62.7687
  2197.0000     20.4877     28.9945     20.7421     63.2739
  2197.2500     20.3860     28.8699     20.8542     63.3040
  2197.5000     20.3357     28.7473     20.9979     63.5120
  2197.7500     20.3412     28.6394     21.1172     64.1435
  2198.0000     20.3996     28.5507     21.1732     65.8836
  2198.2500     20.4864     28.4831     21.1652     67.2016
  2198.5000     20.5745     28.4406     21.1169     68.7360
  2198.7500     20.6514     28.4245     21.0466     69.4133
  2199.0000     20.7329     28.4247     20.9585     70.3536
  2199.2500     20.8688     28.4156     20.8608     71.0977
  2199.5000     21.0870     28.3635     20.7805     72.0787
  2199.7500     21.3431     28.2444     20.7557     72.3603
  2200.0000     21.5795     28.0615     20.8151     72.3168
  2200.2500     21.8015     27.8484     20.9681     72.4025
  2200.5000     22.0651     27.6542     21.2128     73.3402
  2200.7500     22.4236     27.5209     21.5473     74.4831
  2201.0000     22.8965     27.4670     21.9687     76.3689
  2201.2500     23.4774     27.4850     22.4611     77.3602
  2201.5000     24.1574     27.5451     22.9855     78.1417
  2201.7500     24.9403     27.6055     23.4850     78.1628
  2202.0000     25.8518     27.6313     23.9056     77.3349
  2202.2500     26.9385     27.6169     24.2175     76.0588
  2202.5000     28.2197     27.5900     24.4247     72.8593
  2202.7500     29.6167     27.5927     24.5580     69.9072
  2203.0000     30.9478     27.6565     24.6595     64.6942
  2203.2500     32.0233     27.7921     24.7698     61.2407
  2203.5000     32.7628     27.9902     24.9224     57.4490
  2203.7500     33.2083     28.2254     25.1421     56.6132
  2204.0000     33.4222     28.4631     25.4415     58.5282
  2204.2500     33.3931     28.6731     25.8100     61.7100
  2204.5000     33.0463     28.8427     26.2017     68.0898
  2204.7500     32.3570     28.9758     26.5369     72.3850
  2205.0000     31.4390     29.0817     26.7293     77.2533
  2205.2500     30.4801     29.1661     26.7237     78.8624
  2205.5000     29.6107     29.2311     26.5196     78.6885
  2205.7500     28.8714     29.2805     26.1642     77.2983
  2206.0000     28.2733     29.3203     25.7266     74.7264
  2206.2500     27.8257     29.3560     25.2762     73.4594
  2206.5000     27.5055     29.3914     24.8711     72.6558
  2206.7500     27.2417     29.4294     24.5488     72.6490
  2207.0000     26.9623     29.4714     24.3192     73.1320
  2207.2500     26.6560     29.5156     24.1629     73.7890
  2207.5000     26.3659     29.5559     24.0459     75.1338
  2207.7500     26.1248     29.5844     23.9407     75.9921
  2208.0000     25.9314     29.5966     23.8370     76.8716
  2208.2500     25.7702     29.5944     23.7326     77.2363
  2208.5000     25.6222     29.5862     23.6166     77.8131
  2208.7500     25.4784     29.5790     23.4706     78.4572
  2209.0000     25.3571     29.5693     23.2940     80.1519
  2209.2500     25.2987     29.5401     23.1307     81.7281
  2209.5000     25.3419     29.4733     23.0615     83.9855
  2209.7500     25.5011     29.3667     23.1625     84.7992
  2210.0000     25.7575     29.2391     23.4564     84.6375
  2210.2500     26.0794     29.1205     23.8953     84.0738
  2210.5000     26.4537     29.0363     24.3904     83.7873
  2210.7500     26.8790     28.9951     24.8712     84.3555
  2211.0000     27.3197     28.9877     25.3245     86.0430
  2211.2500     27.6917     28.9940     25.7739     87.2764
  2211.5000     27.9148     28.9944     26.2220     88.8216
  2211.7500     27.9899     28.9783     26.6102     89.7445
  2212.0000     28.0055     28.9502     26.8355     91.6479
  2212.2500     28.0486     28.9293     26.8160     93.7218
  2212.5000     28.1107     28.9417     26.5536     98.3107
  2212.7500     28.0983     29.0067     26.1431    101.9333
  2213.0000     27.9364     29.1292     25.7236    106.4953
  2213.2500     27.6280     29.3005     25.4103    107.7593
  2213.5000     27.2155     29.5049     25.2478    105.6532
  2213.7500     26.7435     29.7264     25.2010    101.6283
  2214.0000     26.2567     29.9516     25.1813     93.1357
  2214.2500     25.8027     30.1655     25.0965     87.0713
  2214.5000     25.4167     30.3488     24.8994     79.1299
  2214.7500     25.1022     30.4787     24.6082     75.1495
  2215.0000     24.8438     30.5358     24.2842     71.3107
  2215.2500     24.6317     30.5164     23.9933     69.9320
  2215.5000     24.4612     30.4440     23.7771     68.9340
  2215.7500     24.3243     30.3731     23.6491     68.6565
  2216.0000     24.2061     30.3737     23.6046     68.7174
  2216.2500     24.0900     30.5036     23.6239     69.1532
  2216.5000     23.9720     30.7843     23.6704     70.2631
  2216.7500     23.8518     31.1935     23.6967     71.0441
  2217.0000     23.7106     31.6748     23.6653     71.9583
  2217.2500     23.5414     32.1574     23.5688     72.4046
