~Version Information
VERS.                      2.0: CWLS Log ASCII Standard - VERSION 2.0
WRAP.                       NO: One line per depth step
~Well Information Block
STRT.FT               647.0000: 
STOP.FT              1166.0000: 
STEP.FT                 0.1000: 
NULL.                -999.2500: 
COMP.          Pioneer Natural Resources: COMPANY
WELL.             Linda T 32-3: WELL
FLD.           Purgatoire River: FIELD
LOC.           1350' FNL & 2290' FEL: LOCATION
PROV.                 Colorado: PROVINCE
CNTY.               Las Animas: COUNTRY
SRVC.                Patterson: SERVICE COMPANY
DATE.          Sat Feb 05 08:06:50 2005: LOG DATE
UWI.           05 071 08215 00: UNIQUE WELL ID
~Curve Information Block
DEPT.FT            0 000 00 00: Depth
DCAL.in                       : CDL Caliper
RHOB.g/cc                     : CDL Bulk Density
RHOC.g/cc                     : CDL Density Correction
DPOR.pu                       : CDL Density Porosity
GR.GAPI                       : Gamma Ray
NPOR.pu                       : Neutron Porosity
~Parameter Information Block
~A  Depth       DCAL        RHOB        RHOC        DPOR         GR         NPOR    
# ...
   915.8000      8.2061      2.4514      0.1026     12.0339     78.4068     26.4299
   915.9000      8.2061      2.4662      0.0793     11.1419     82.6959     26.5163
   916.0000      8.1112      2.4853      0.1077      9.9838     83.8422     26.6828
   916.1000      8.1112      2.5084      0.0900      8.5820     83.3991     26.5445
   916.2000      8.1112      2.5246      0.1164      7.6011     86.4151     25.8050
   916.3000      8.0611      2.5213      0.0843      7.8014     93.9436     24.8707
   916.4000      8.0611      2.5033      0.0642      8.8906    102.1108     24.4420
   916.5000      8.0598      2.4812      0.0647     10.2321    108.3822     24.4396
   916.6000      8.0598      2.4605      0.0308     11.4873    113.6945     24.2180
   916.7000      8.0598      2.4604     -0.0005     11.4925    114.4060     23.3369
   916.8000      8.0736      2.4892      0.0768      9.7479    106.7227     22.2299
   916.9000      8.0736      2.5226      0.0957      7.7227     98.8342     22.0059
   917.0000      8.0702      2.5422      0.0892      6.5304     99.7953     22.9246
   917.1000      8.0702      2.5507      0.1415      6.0175    102.8285     24.1320
   917.2000      8.0702      2.5549      0.1326      5.7622     99.0499     24.9497
   917.3000      8.0478      2.5623      0.0958      5.3150     93.8188     25.2315
   917.4000      8.0478      2.5714      0.1300      4.7657     94.1021     25.0612
   917.5000      8.0245      2.5738      0.1194      4.6163     96.3391     24.8352
   917.6000      8.0245      2.5674      0.1033      5.0074     94.5953     25.1005
   917.7000      8.0245      2.5525      0.1058      5.9069     91.3498     25.6325
   917.8000      8.0256      2.5341      0.0935      7.0243     92.5697     25.7552
   917.9000      8.0256      2.5204      0.1105      7.8523     97.4263     25.6836
   918.0000      8.0369      2.5185      0.0510      7.9703    101.4571     25.8551
   918.1000      8.0369      2.5316      0.0693      7.1764    101.5994     26.0923
   918.2000      8.0369      2.5476      0.0794      6.2044    100.6135     26.1190
   918.3000      8.0681      2.5508      0.0599      6.0111    103.0990     26.0638
   918.4000      8.0681      2.5433      0.0577      6.4653    104.6413     26.0432
   918.5000      8.0757      2.5378      0.0451      6.7979    102.4501     25.6341
   918.6000      8.0757      2.5394      0.0693      6.7025    102.9625     24.8757
   918.7000      8.0757      2.5405      0.0718      6.6361    105.9341     24.4453
   918.8000      8.0540      2.5330      0.0479      7.0893    106.5433     24.4920
   918.9000      8.0540      2.5212      0.0272      7.8082    108.4121     24.7001
   919.0000      8.0630      2.5162      0.0346      8.1077    114.8298     25.1312
   919.1000      8.0630      2.5171      0.0592      8.0564    119.8710     25.9787
   919.2000      8.0630      2.5132      0.0520      8.2914    116.2994     26.8314
   919.3000      8.0590      2.5035      0.0530      8.8772    108.4765     27.1117
   919.4000      8.0590      2.4933      0.0391      9.4975    107.2206     27.0060
   919.5000      8.0637      2.4859      0.0235      9.9432    109.8373     26.8828
   919.6000      8.0637      2.4861      0.0312      9.9308    106.4204     26.7452
   919.7000      8.0637      2.4933      0.0812      9.4980     99.6550     26.6814
   919.8000      8.0660      2.5029      0.0388      8.9154     95.4269     26.7049
   919.9000      8.0660      2.5147      0.0645      8.2014     94.6189     26.6574
   920.0000      8.0781      2.5249      0.0578      7.5790     94.0182     26.4687
   920.1000      8.0781      2.5312      0.0775      7.2018     91.7212     26.1286
   920.2000      8.0781      2.5381      0.0862      6.7799     91.3236     25.9136
   920.3000      8.0663      2.5527      0.0555      5.8995     93.1830     26.0033
   920.4000      8.0663      2.5724      0.1049      4.7006     93.8878     26.0233
   920.5000      8.0558      2.5874      0.1192      3.7941     92.3989     25.3812
   920.6000      8.0558      2.5984      0.0686      3.1256     89.8483     24.5555
   920.7000      8.0558      2.6067      0.1152      2.6216     87.6494     24.8321
   920.8000      8.0477      2.6007      0.1087      2.9871     85.3930     25.8201
   920.9000      8.0477      2.5832      0.0491      4.0497     83.5821     26.0213
   921.0000      8.0497      2.5693      0.0571      4.8924     83.3520     25.2903
   921.1000      8.0497      2.5570      0.0521      5.6348     85.2081     24.3830
   921.2000      8.0497      2.5367      0.0606      6.8639     88.5114     23.9925
   921.3000      8.0715      2.5071      0.0261      8.6608     88.8702     24.6175
   921.4000      8.0715      2.4552      0.0616     11.8041     82.0723     26.1790
   921.5000      8.0582      2.3572      0.0265     17.7427     71.1774     27.8720
   921.6000      8.0582      2.2167     -0.0234     26.2624     62.6672     29.0058
   921.7000      8.0582      2.0556     -0.0539     36.0243     58.6499     29.6257
   921.8000      8.0602      1.8880     -0.1135     46.1797     58.0798     29.9892
   921.9000      8.0602      1.7389     -0.1417     55.2201     58.0613     30.0739
   922.0000      8.0558      1.6351     -0.1581     61.5112     52.3480     29.6327
   922.1000      8.0558      1.5710     -0.1110     65.3928     40.5685     29.2108
   922.2000      8.0558      1.5283     -0.0650     67.9830     32.1269     29.7774
   922.3000      8.0634      1.5041     -0.0314     69.4465     31.1274     31.4038
   922.4000      8.0634      1.4926      0.1058     70.1457     32.4894     33.2928
   922.5000      8.2994      1.4776      0.1149     71.0572     30.8690     34.2188
   922.6000      8.2994      1.4546      0.1021     72.4476     28.1089     33.5859
   922.7000      8.2994      1.4272      0.0892     74.1076     30.4181     32.1802
   922.8000      8.5361      1.4006      0.0106     75.7199     37.1918     31.2855
   922.9000      8.5361      1.3837     -0.0106     76.7443     41.9004     31.3061
   923.0000      8.5026      1.3746      0.0192     77.2979     42.4286     31.8204
   923.1000      8.5026      1.3633      0.0385     77.9789     41.3458     32.3817
   923.2000      8.5026      1.3511      0.0128     78.7185     40.3817     32.8189
   923.3000      8.3888      1.3439      0.0399     79.1570     40.3778     33.2715
   923.4000      8.3888      1.3408      0.0248     79.3467     41.3433     33.6921
   923.5000      8.3783      1.3472      0.0100     78.9573     43.3483     33.8075
   923.6000      8.3783      1.3795      0.0275     77.0018     48.5531     33.6764
   923.7000      8.3783      1.4479      0.0486     72.8536     58.0737     33.5657
   923.8000      8.3050      1.5435      0.1143     67.0591     68.2614     33.6057
   923.9000      8.3050      1.6510      0.1350     60.5427     73.9608     33.8093
   924.0000      8.2560      1.7737      0.1222     53.1096     75.2572     33.9942
   924.1000      8.2560      1.9177      0.2193     44.3842     76.2841     33.6601
   924.2000      8.2560      2.0655      0.2628     35.4244     79.4693     32.6867
   924.3000      8.1979      2.1910      0.3098     27.8168     83.7581     31.9654
   924.4000      8.1979      2.2837      0.2657     22.1989     88.5318     32.1750
   924.5000      8.1457      2.3500      0.2211     18.1806     94.2321     32.5582
   924.6000      8.1457      2.3995      0.1602     15.1838    100.2220     32.0058
   924.7000      8.1457      2.4335      0.1605     13.1231    103.0745     30.6951
   924.8000      8.0143      2.4504      0.1291     12.0961     98.6580     29.6355
   924.9000      8.0143      2.4614      0.1221     11.4287     90.3372     29.1816
   925.0000      7.9934      2.4816      0.1082     10.2065     86.0442     28.8047
   925.1000      7.9934      2.5083      0.1420      8.5866     84.7442     27.8647
   925.2000      7.9934      2.5255      0.1448      7.5480     82.5816     26.7044
   925.3000      8.0455      2.5319      0.0917      7.1585     82.0426     26.0953
