~Version Information
VERS.                      2.0: CWLS Log ASCII Standard - VERSION 2.0
WRAP.                       NO: One line per depth step
~Well Information Block
STRT.FT               819.0000: 
STOP.FT              2497.0000: 
STEP.FT                 0.2500: 
NULL.                -999.2500: 
COMP.          Petrogulf Corporation: COMPANY
WELL.             State 16-21V: WELL
FLD.           Purgatorie River: FIELD
LOC.           1738' FWL & 332' FNL: LOCATION
PROV.                 Colorado: PROVINCE
CNTY.               Las Animas: COUNTRY
SRVC.          Patterson Wireline: SERVICE COMPANY
DATE.          Sun Jul 13 13:45:48 2003: LOG DATE
UWI.              05-071-07884: UNIQUE WELL ID 05 071 08829 00
~Curve Information Block
DEPT.FT            0 000 00 00: Depth
DCAL.in                       : CDL Caliper
RHOB.g/cc                     : CDL Bulk Density
RHOC.g/cc                     : CDL Density Correction
DPOR.pu                       : CDL Density Porosity
GR.GAPI                       : Gamma Ray
NPOR.pu                       : Neutron Porosity
~Parameter Information Block
~A  Depth       DCAL        RHOB        RHOC        DPOR         GR         NPOR    
# ...
  1395.0000      8.4793      2.5464      0.0966      6.2783     80.7616     26.2382
  1395.2500      8.3709      2.5537      0.0858      5.8358     80.5688     24.8522
  1395.5000      8.2414      2.5597      0.0623      5.4740     78.1614     22.5242
  1395.7500      8.1629      2.5603      0.0483      5.4373     75.0654     21.0717
  1396.0000      8.1220      2.5567      0.0345      5.6540     69.4894     19.3231
  1396.2500      8.0963      2.5518      0.0295      5.9493     66.3671     18.5287
  1396.5000      8.0733      2.5419      0.0276      6.5509     64.1091     18.0437
  1396.7500      8.0540      2.5344      0.0306      7.0075     64.3444     18.2687
  1397.0000      8.0447      2.5233      0.0411      7.6785     66.5185     19.3645
  1397.2500      8.0392      2.5171      0.0500      8.0575     68.6600     20.4058
  1397.5000      8.0356      2.5111      0.0617      8.4182     72.3204     21.9847
  1397.7500      8.0369      2.5104      0.0672      8.4581     74.6493     22.8436
  1398.0000      8.0371      2.5157      0.0744      8.1398     76.9839     23.6428
  1398.2500      8.0348      2.5233      0.0803      7.6774     77.4215     23.7777
  1398.5000      8.0333      2.5389      0.0906      6.7347     76.7734     23.3074
  1398.7500      8.0320      2.5497      0.0952      6.0790     75.9120     22.5718
  1399.0000      8.0316      2.5622      0.0935      5.3224     74.2543     21.0872
  1399.2500      8.0328      2.5661      0.0864      5.0860     72.8900     20.0915
  1399.5000      8.0349      2.5643      0.0717      5.1922     70.7851     19.0072
  1399.7500      8.0354      2.5589      0.0632      5.5194     69.6865     18.7003
  1400.0000      8.0326      2.5476      0.0557      6.2091     68.6798     18.8906
  1400.2500      8.0300      2.5399      0.0542      6.6702     68.2847     19.3627
  1400.5000      8.0306      2.5320      0.0559      7.1523     67.9878     20.2952
  1400.7500      8.0342      2.5306      0.0591      7.2359     68.1063     20.8445
  1401.0000      8.0371      2.5362      0.0668      6.8997     68.9184     21.2704
  1401.2500      8.0353      2.5452      0.0739      6.3502     69.8378     21.2845
  1401.5000      8.0274      2.5661      0.0852      5.0869     71.5866     21.1711
  1401.7500      8.0141      2.5836      0.0906      4.0236     72.7977     21.1798
  1402.0000      8.0016      2.6124      0.0904      2.2783     74.0816     21.3606
  1402.2500      8.0021      2.6312      0.0836      1.1415     74.1810     21.4493
  1402.5000      8.0145      2.6550      0.0658     -0.3038     72.8336     21.2438
  1402.7500      8.0261      2.6663      0.0525     -0.9871     71.0884     20.8370
  1403.0000      8.0289      2.6746      0.0376     -1.4885     68.1428     19.9815
  1403.2500      8.0226      2.6743      0.0338     -1.4735     66.6961     19.3569
  1403.5000      8.0128      2.6669      0.0370     -1.0230     66.0128     18.3953
  1403.7500      8.0062      2.6588      0.0419     -0.5315     66.2787     17.7430
  1404.0000      8.0048      2.6449      0.0482      0.3100     66.6149     16.8669
  1404.2500      8.0108      2.6361      0.0508      0.8417     66.4458     16.4901
  1404.5000      8.0218      2.6258      0.0550      1.4689     66.2597     16.4636
  1404.7500      8.0306      2.6213      0.0600      1.7367     66.9340     16.8674
  1405.0000      8.0317      2.6183      0.0714      1.9223     69.8990     18.0345
  1405.2500      8.0187      2.6179      0.0796      1.9432     73.0850     19.0545
  1405.5000      8.0024      2.6184      0.0881      1.9163     78.9228     20.6818
  1405.7500      7.9970      2.6186      0.0896      1.9057     82.9052     21.7189
  1406.0000      7.9964      2.6181      0.0872      1.9348     87.9190     23.0507
  1406.2500      7.9991      2.6174      0.0845      1.9783     90.2425     23.6644
  1406.5000      8.0093      2.6162      0.0821      2.0488     92.2123     23.9248
  1406.7500      8.0219      2.6156      0.0823      2.0825     92.6263     23.5811
  1407.0000      8.0298      2.6154      0.0852      2.0974     91.7386     22.3719
  1407.2500      8.0353      2.6156      0.0884      2.0820     89.9518     21.2429
  1407.5000      8.0389      2.6165      0.0945      2.0328     85.4098     19.3439
  1407.7500      8.0372      2.6169      0.0993      2.0031     81.2713     18.0874
  1408.0000      8.0288      2.6166      0.1047      2.0265     73.8033     16.3940
  1408.2500      8.0121      2.6148      0.1046      2.1335     68.3365     15.4231
  1408.5000      8.0007      2.6089      0.0966      2.4903     60.1247     14.1331
  1408.7500      8.0065      2.6028      0.0870      2.8621     55.0098     13.3255
  1409.0000      8.0208      2.5913      0.0697      3.5559     48.3957     12.1766
  1409.2500      8.0307      2.5834      0.0583      4.0382     44.9760     11.5066
  1409.5000      8.0365      2.5733      0.0443      4.6495     41.6082     10.7974
  1409.7500      8.0418      2.5689      0.0387      4.9132     40.4411     10.6030
  1410.0000      8.0432      2.5669      0.0379      5.0339     39.8783     10.7567
  1410.2500      8.0368      2.5685      0.0420      4.9384     40.1718     11.0712
  1410.5000      8.0240      2.5741      0.0519      4.6011     41.7392     11.5886
  1410.7500      8.0159      2.5790      0.0586      4.3037     43.4749     11.8261
  1411.0000      8.0178      2.5866      0.0655      3.8425     46.2375     11.9854
  1411.2500      8.0188      2.5912      0.0675      3.5665     47.3837     12.0456
  1411.5000      8.0233      2.5965      0.0674      3.2448     47.1805     12.1837
  1411.7500      8.0306      2.5987      0.0669      3.1067     46.0000     12.2711
  1412.0000      8.0349      2.6000      0.0672      3.0284     44.2030     12.2410
  1412.2500      8.0374      2.5994      0.0677      3.0660     43.8445     12.0968
  1412.5000      8.0365      2.5964      0.0666      3.2510     44.7169     11.8586
  1412.7500      8.0345      2.5932      0.0643      3.4435     45.6926     11.7902
  1413.0000      8.0348      2.5876      0.0607      3.7829     47.0345     11.8357
  1413.2500      8.0360      2.5840      0.0593      4.0013     47.8919     11.8920
  1413.5000      8.0358      2.5801      0.0583      4.2385     49.3779     11.9260
  1413.7500      8.0375      2.5792      0.0576      4.2926     50.3580     11.9267
  1414.0000      8.0487      2.5814      0.0564      4.1584     51.0750     11.9342
  1414.2500      8.0644      2.5855      0.0560      3.9089     50.6164     11.9258
  1414.5000      8.0712      2.5953      0.0557      3.3144     48.3614     11.8081
  1414.7500      8.0654      2.6036      0.0550      2.8134     46.1792     11.6138
  1415.0000      8.0509      2.6167      0.0528      2.0165     42.9183     11.1245
  1415.2500      8.0417      2.6248      0.0511      1.5271     41.2169     10.7008
  1415.5000      8.0440      2.6341      0.0507      0.9615     39.6299     10.0625
  1415.7500      8.0453      2.6379      0.0526      0.7353     39.1793      9.7374
  1416.0000      8.0397      2.6394      0.0578      0.6416     39.2844      9.5239
  1416.2500      8.0339      2.6380      0.0613      0.7284     39.7203      9.5760
  1416.5000      8.0314      2.6330      0.0631      1.0287     40.4531      9.8583
  1416.7500      8.0309      2.6285      0.0615      1.3037     40.7395     10.0957
  1417.0000      8.0325      2.6209      0.0560      1.7650     40.7848     10.4043
  1417.2500      8.0400      2.6158      0.0517      2.0746     40.7123     10.5669
  1417.5000      8.0540      2.6086      0.0468      2.5093     40.7839     10.8179
  1417.7500      8.0682      2.6042      0.0456      2.7746     41.0822     11.0414
  1418.0000      8.0752      2.5979      0.0481      3.1605     41.9417     11.5096
  1418.2500      8.0745      2.5932      0.0518      3.4400     42.6871     11.9124
  1418.5000      8.0642      2.5849      0.0567      3.9476     43.7502     12.6077
  1418.7500      8.0519      2.5781      0.0575      4.3591     44.2831     13.0778
