~Version Information
VERS.                      2.0: CWLS Log ASCII Standard - VERSION 2.0
WRAP.                       NO: One line per depth step
~Well Information Block
STRT.FT               250.0000: 
STOP.FT               894.7500: 
STEP.FT                 0.2500: 
NULL.                -999.2500: 
COMP.          Pioneer Natural Resources: COMPANY
WELL.          Santisteven 13-22: WELL
FLD.           Purgatoire River: FIELD
LOC.           1861' FSL & 992' FWL----: LOCATION
PROV.                 Colorado: PROVINCE
CNTY.               Las Animas: COUNTRY
SRVC.                Patterson: SERVICE COMPANY
DATE.          Sat Apr 02 14:49:07 2005: LOG DATE
UWI.           05 071 08337 00: UNIQUE WELL ID
~Curve Information Block
DEPT.FT            0 000 00 00: Depth
SN.Ohm-m                      : IEL Short Normal
SP.mV                         : IEL Spontaneous Potential
DIR.Ohm-m                     : IEL Induction Resistivity
GR.GAPI                       : Gamma Ray
~Parameter Information Block
~A  Depth        SN          SP         DIR          GR     
# ...
   317.0000    652.7505     26.0854     15.6705    117.9868
   317.2500    652.7505     26.0888     15.9337    113.5648
   317.5000    652.7505     26.0922     16.1994    108.4771
   317.7500    652.7505     26.0957     16.4472    107.0494
   318.0000    652.7343     26.0994     16.6595    109.3985
   318.2500    652.6452     26.1035     16.8191    114.0788
   318.5000    652.2159     26.1078     16.9124    124.0230
   318.7500    650.6360     26.1121     16.9350    130.8855
   319.0000    646.2374     26.1163     16.8956    138.9088
   319.2500    637.1252     26.1200     16.8131    141.9216
   319.5000    623.5532     26.1231     16.7107    142.6237
   319.7500    610.2412     26.1252     16.6120    140.7024
   320.0000    604.4728     26.1266     16.5402    134.9770
   320.2500    609.8120     26.1274     16.5167    130.1307
   320.5000    622.4388     26.1278     16.5562    123.2913
   320.7500    635.0303     26.1280     16.6593    119.8864
   321.0000    643.1877     26.1280     16.8088    116.7381
   321.2500    647.1802     26.1278     16.9726    115.5887
   321.5000    649.1661     26.1274     17.1129    114.9868
   321.7500    650.5425     26.1267     17.1978    115.6357
   322.0000    651.5692     26.1259     17.2083    118.9031
   322.2500    652.0585     26.1254     17.1410    122.5863
   322.5000    651.6995     26.1258     17.0027    129.1267
   322.7500    649.8828     26.1277     16.8031    133.0370
   323.0000    645.7159     26.1315     16.5482    136.7074
   323.2500    638.8771     26.1376     16.2413    137.5130
   323.5000    630.7422     26.1457     15.8881    137.0860
   323.7500    624.2440     26.1553     15.5028    136.4012
   324.0000    621.8932     26.1654     15.1078    135.6057
   324.2500    623.7814     26.1750     14.7280    135.3581
   324.5000    627.5611     26.1831     14.3829    135.0128
   324.7500    629.8743     26.1892     14.0811    134.5134
   325.0000    627.2161     26.1929     13.8197    133.7664
   325.2500    616.0656     26.1945     13.5894    134.0103
   325.5000    594.8644     26.1945     13.3807    136.0785
   325.7500    568.2121     26.1937     13.1895    137.8778
   326.0000    547.4213     26.1925     13.0172    139.0785
   326.2500    542.9346     26.1915     12.8695    138.2429
   326.5000    555.5534     26.1907     12.7535    135.3456
   326.7500    577.2357     26.1902     12.6782    133.2977
   327.0000    599.5678     26.1897     12.6559    131.1300
   327.2500    618.6616     26.1891     12.7026    130.3278
   327.5000    633.4600     26.1881     12.8363    129.4051
   327.7500    643.5194     26.1867     13.0742    128.2798
   328.0000    649.1429     26.1848     13.4276    124.7185
   328.2500    651.6252     26.1823     13.9000    121.0263
   328.5000    652.4746     26.1793     14.4845    114.6619
   328.7500    652.6968     26.1756     15.1652    110.6994
   329.0000    652.7426     26.1712     15.9181    105.6262
   329.2500    652.7505     26.1662     16.7145    102.5992
   329.5000    652.7505     26.1607     17.5209     98.5265
   329.7500    652.7505     26.1551     18.2962     96.5397
   330.0000    652.7505     26.1497     18.9886     95.4879
   330.2500    652.7505     26.1450     19.5385     96.2231
   330.5000    652.7505     26.1415     19.8929     99.1069
   330.7500    652.7505     26.1393     20.0249    101.8149
   331.0000    652.7505     26.1385     19.9444    106.2494
   331.2500    652.7505     26.1387     19.6885    108.9619
   331.5000    652.7505     26.1394     19.3010    112.0205
   331.7500    652.7505     26.1398     18.8185    113.3075
   332.0000    652.7505     26.1395     18.2698    114.6565
   332.2500    652.7505     26.1379     17.6814    115.7927
   332.5000    652.7505     26.1350     17.0784    118.8417
   332.7500    652.7505     26.1311     16.4825    121.8498
   333.0000    652.7505     26.1266     15.9093    126.8623
   333.2500    652.7505     26.1222     15.3696    129.7658
   333.5000    652.7505     26.1183     14.8715    132.8662
   333.7500    652.7505     26.1155     14.4204    134.3062
   334.0000    652.7501     26.1139     14.0172    136.0614
   334.2500    652.7477     26.1136     13.6563    136.9367
   334.5000    652.7365     26.1143     13.3262    137.4140
   334.7500    652.6951     26.1159     13.0143    137.2959
   335.0000    652.5800     26.1180     12.7127    137.6073
   335.2500    652.3416     26.1203     12.4204    138.7930
   335.5000    651.9819     26.1225     12.1420    141.9499
   335.7500    651.6084     26.1244     11.8823    144.3098
   336.0000    651.3358     26.1257     11.6439    147.2187
   336.2500    651.0251     26.1261     11.4284    148.5744
   336.5000    650.0958     26.1255     11.2392    149.8236
   336.7500    647.8060     26.1238     11.0835    150.1796
   337.0000    644.1064     26.1212     10.9718    150.1521
   337.2500    640.3661     26.1182     10.9156    149.8961
   337.5000    638.7659     26.1153     10.9242    149.1623
   337.7500    640.4187     26.1131     11.0035    148.2424
   338.0000    644.2765     26.1123     11.1553    145.7006
   338.2500    648.2133     26.1134     11.3761    142.8627
   338.5000    650.8360     26.1163     11.6546    136.1947
   338.7500    651.9965     26.1211     11.9680    129.9742
   339.0000    651.9424     26.1272     12.2804    118.7785
   339.2500    650.3191     26.1341     12.5483    111.2440
   339.5000    645.7820     26.1411     12.7318    102.6202
   339.7500    636.8391     26.1475     12.8052    100.3217
   340.0000    624.1018     26.1528     12.7596    103.8315
   340.2500    611.9576     26.1564     12.5982    110.5049
   340.5000    606.1146     26.1576     12.3311    123.9530
   340.7500    607.7952     26.1560     11.9738    132.8419
   341.0000    611.3524     26.1515     11.5478    143.4549
   341.2500    609.3216     26.1444     11.0794    148.5871
   341.5000    599.5837     26.1352     10.5960    154.2439
   341.7500    586.6610     26.1250     10.1236    156.8185
   342.0000    576.3928     26.1153      9.6856    158.3975
   342.2500    570.1868     26.1073      9.3000    157.8759
   342.5000    565.0463     26.1021      8.9771    155.7044
   342.7500    558.5646     26.1001      8.7173    154.1271
   343.0000    551.7143     26.1013      8.5126    152.4933
   343.2500    545.2513     26.1051      8.3507    152.2336
   343.5000    535.3429     26.1106      8.2197    153.7155
   343.7500    516.8976     26.1169      8.1111    156.1230
   344.0000    492.3485     26.1231      8.0213    161.0584
   344.2500    473.4020     26.1287      7.9503    164.1442
   344.5000    470.6369     26.1332      7.9005    166.5868
   344.7500    481.8340     26.1364      7.8747    166.2451
   345.0000    492.2147     26.1382      7.8749    163.1697
   345.2500    487.5106     26.1386      7.9020    160.0377
   345.5000    467.3854     26.1379      7.9574    154.5765
   345.7500    445.2709     26.1366      8.0437    150.6897
   346.0000    435.2463     26.1351      8.1651    145.1416
   346.2500    440.8874     26.1340      8.3260    142.2447
   346.5000    456.8011     26.1339      8.5305    139.7280
   346.7500    477.6620     26.1348      8.7803    138.9261
   347.0000    503.0623     26.1370      9.0740    137.6127
   347.2500    533.7558     26.1401      9.4048    135.9455
   347.5000    565.2039     26.1438      9.7585    131.9130
   347.7500    587.6857     26.1477     10.1127    128.5551
   348.0000    594.5413     26.1512     10.4395    123.7212
   348.2500    589.1899     26.1538     10.7109    121.3684
   348.5000    581.6111     26.1552     10.9061    119.9670
   348.7500    577.6989     26.1549     11.0150    120.6652
   349.0000    574.3251     26.1527     11.0372    124.2672
   349.2500    565.4700     26.1486     10.9779    128.2424
   349.5000    550.5151     26.1428     10.8443    135.8542
   349.7500    535.5640     26.1358     10.6458    141.3357
   350.0000    528.2818     26.1282     10.3951    148.6546
   350.2500    531.6298     26.1210     10.1093    152.0789
