~Version Information
 VERS.                                  2.0 : CWLS LAS VERSION
 WRAP.                                   NO : WRAPING MODE
 SWARE .                 MController 2.5.0J : SOFTWARE VERSION
~Well Information
 WELL.                      Oink Oink 14-36 : WELL
 COMP.    Pioneer Natural Resources USA Ink : COMPANY
 FLD.                      Purgatoire River : FIELD
 LOC.                SW/SW Sec 36 T32S R37W : LOCATION
 DATE.                         6/07-08/2005 : DATE(S) LOGGED
 SRVC.       Blanco Geological Services LLC : SERVICE COMPANY
 STAT.                                   CO : STATE
 CNTY.                           Las Animas : COUNTY
 CTRY.                                  USA : COUNTRY
 API.                       05-071-08394-00 : API NUMBER
 STRT.FT                             514.00 : START DEPTH
 STOP.FT                            2457.00 : STOP DEPTH
 STEP.FT                               1.00 : DEPTH INCREMENT
 NULL.                                -9999 : NULL VALUE
~Curve information
 DEPTH.FT                                   :
 ROP.MIN/FT                                 :
 GAS.UNITS                                  :
~ASCII Log data
# ...
      1114.0         0.27       1688.9 
      1115.0         0.33       1323.1 
      1116.0         0.23       1128.8 
      1117.0         0.42       1164.5 
      1118.0         0.43       1164.8 
      1119.0         0.40       1075.8 
      1120.0         0.27        967.9 
      1121.0         0.23        963.3 
      1122.0         0.23        970.2 
      1123.0         0.20        955.1 
      1124.0         0.27        933.2 
      1125.0         0.27        883.1 
      1126.0         0.20        836.0 
      1127.0         0.23        811.8 
      1128.0         0.27        803.6 
      1129.0         0.28        806.3 
      1130.0         0.27        798.1 
      1131.0         0.27        806.3 
      1132.0         0.20        808.5 
      1133.0         0.13        807.9 
      1134.0         0.20        813.4 
      1135.0         0.30        825.2 
      1136.0         2.18        822.9 
      1137.0         0.30       1079.4 
      1138.0         0.20       1275.4 
      1139.0         0.10       1364.7 
      1140.0         0.23       1538.4 
      1141.0         0.30       1564.3 
      1142.0         0.20       1525.3 
      1143.0         0.17       1482.8 
      1144.0         0.23       1424.2 
      1145.0         0.27       1309.1 
      1146.0         0.30       1201.1 
      1147.0         0.30       1090.5 
      1148.0         0.27       1099.4 
      1149.0         0.32       1154.0 
      1150.0         0.27       1158.3 
      1151.0         0.27       1122.6 
      1152.0         0.27       1054.9 
      1153.0         0.27        978.7 
      1154.0         0.23        920.8 
      1155.0         0.20        891.6 
      1156.0         0.17        874.6 
      1157.0         0.17        869.4 
      1158.0         0.17        868.1 
      1159.0         0.23        861.9 
      1160.0         0.27        850.1 
      1161.0         0.17        832.1 
      1162.0         0.20        824.6 
      1163.0         0.17        816.7 
      1164.0         0.35        816.7 
      1165.0         0.30        829.2 
      1166.0         1.80        847.1 
      1167.0         0.30       1040.2 
      1168.0         0.27       1273.1 
      1169.0         0.30       1509.0 
      1170.0         0.38       1617.6 
      1171.0         0.23       1593.7 
      1172.0         0.23       1502.4 
      1173.0         0.27       1361.1 
      1174.0         0.30       1200.8 
      1175.0         0.23       1045.4 
      1176.0         0.23       1016.9 
      1177.0         0.23       1047.7 
      1178.0         0.17       1059.8 
      1179.0         0.23       1054.6 
      1180.0         0.23       1036.6 
      1181.0         0.27        974.4 
      1182.0         0.25        902.1 
      1183.0         0.23        870.0 
      1184.0         0.23        840.9 
      1185.0         0.23        817.7 
      1186.0         0.23        807.9 
      1187.0         0.20        806.6 
      1188.0         0.25        795.1 
      1189.0         0.27        776.8 
      1190.0         0.20        766.0 
      1191.0         0.28        767.0 
      1192.0         0.27        775.2 
      1193.0         0.27        791.9 
      1194.0         0.27        796.4 
      1195.0         0.33        816.4 
      1196.0         2.62       1852.8 
      1197.0         0.20       1908.4 
      1198.0         0.23       1924.4 
      1199.0         0.13       1914.0 
      1200.0         0.13       1849.5 
      1201.0         0.20       1731.4 
      1202.0         0.30       1587.8 
      1203.0         0.23       1399.4 
      1204.0         0.13       1269.8 
      1205.0         0.13       1269.8 
      1206.0         0.10       1303.8 
      1207.0         0.20       1322.2 
      1208.0         0.23       1348.3 
      1209.0         0.27       1358.8 
      1210.0         0.32       1300.6 
      1211.0         0.27       1129.5 
      1212.0         0.23       1081.1 
      1213.0         0.27       1091.2 
      1214.0         0.27       1126.5 
      1215.0         0.27       1148.8 
      1216.0         0.27       1152.4 
      1217.0         0.30       1137.3 
      1218.0         0.30       1098.7 
      1219.0         0.30       1077.8 
      1220.0         0.27       1066.3 
      1221.0         0.35       1061.1 
      1222.0         0.27       1033.6 
      1223.0         0.20       1011.0 
      1224.0         0.17       1002.2 
      1225.0         0.13        998.0 
      1226.0         3.58       2933.0 
      1227.0         0.80       3319.1 
      1228.0         0.33       2994.5 
      1229.0         0.20       2480.9 
      1230.0         0.17       1803.4 
      1231.0         0.27       1279.0 
      1232.0         0.27        824.2 
      1233.0         0.32        734.9 
      1234.0         0.33       1019.9 
      1235.0         0.23       1124.9 
      1236.0         0.27       1190.7 
      1237.0         0.30       1220.4 
      1238.0         0.27       1219.8 
      1239.0         0.20       1187.4 
      1240.0         0.13       1135.4 
      1241.0         0.17       1111.2 
      1242.0         0.17       1086.3 
      1243.0         0.33       1046.1 
      1244.0         0.33        967.5 
      1245.0         0.27        917.5 
      1246.0         0.25        912.2 
      1247.0         0.27        923.7 
      1248.0         0.27        927.3 
      1249.0         0.23        915.5 
      1250.0         0.27        887.1 
      1251.0         0.30        908.6 
      1252.0         0.30        938.4 
      1253.0         0.27        945.3 
      1254.0         0.23        938.4 
      1255.0         0.27        932.2 
      1256.0         3.02       2078.2 
      1257.0         0.37       2640.9 
      1258.0         0.37       2811.3 
      1259.0         0.25       2773.1 
      1260.0         0.27       2503.8 
      1261.0         0.27       2245.4 
      1262.0         0.23       2043.5 
      1263.0         0.20       1846.9 
      1264.0         0.10       1646.4 
      1265.0         0.23       1488.0 
      1266.0         0.27       1158.6 
      1267.0         0.23        980.0 
      1268.0         0.27        912.2 
      1269.0         0.23        951.8 
      1270.0         0.27       1031.7 
      1271.0         0.23       1088.9 
      1272.0         0.20       1121.6 
      1273.0         0.17       1127.2 
      1274.0         0.22       1124.6 
      1275.0         0.17       1097.7 
      1276.0         0.17       1069.0 
      1277.0         0.17       1035.3 
      1278.0         0.10       1001.2 
      1279.0         0.13        991.7 
      1280.0         0.20        970.2 
      1281.0         0.27        945.0 
      1282.0         0.30        910.9 
      1283.0         0.20        878.2 
      1284.0         0.23        861.2 
      1285.0         0.23        858.9 
      1286.0         1.98       1011.0 
      1287.0         0.30       1378.1 
      1288.0         0.23       1639.8 
      1289.0         0.27       1855.7 
      1290.0         0.27       1953.6 
      1291.0         0.23       1957.5 
      1292.0         0.23       1891.7 
      1293.0         0.27       1749.1 
      1294.0         0.20       1538.4 
      1295.0         0.20       1369.9 
      1296.0         0.07       1240.0 
      1297.0         0.15       1204.4 
      1298.0         0.13       1161.9 
      1299.0         0.23       1141.9 
      1300.0         0.27       1132.1 
      1301.0         0.30       1120.3 
      1302.0         0.33       1095.8 
      1303.0         0.27       1096.1 
      1304.0         0.27       1089.6 
      1305.0         0.30       1054.6 
      1306.0         0.27        991.4 
      1307.0         0.23        924.7 
      1308.0         0.30        893.3 
      1309.0         0.27        856.3 
      1310.0         0.25        834.7 
      1311.0         0.30        826.2 
      1312.0         0.27        828.2 
      1313.0         0.27        832.4 
