~Version Information
 VERS.                                  2.0 : CWLS LAS VERSION
 WRAP.                                   NO : WRAPING MODE
 SWARE .                 MController 2.5.0N : SOFTWARE VERSION
~Well Information
 WELL.                        Paradise 13-8 : WELL
 COMP.        Pioneer Natural Resources Inc : COMPANY
 FLD.                      Purgatoire River : FIELD
 LOC.                 NW/SW Sec 8 T32S R66W : LOCATION
 DATE.                           1/21-22/05 : DATE(S) LOGGED
 SRVC.       Blanco Geological Services LLC : SERVICE COMPANY
 STAT.                                   CO : STATE
 CNTY.                           Las Animas : COUNTY
 CTRY.                                  USA : COUNTRY
 API.                       05-071-07946-00 : API NUMBER
 STRT.FT                             855.00 : START DEPTH
 STOP.FT                            3151.00 : STOP DEPTH
 STEP.FT                               1.00 : DEPTH INCREMENT
 NULL.                                -9999 : NULL VALUE
~Curve information
 DEPTH.FT                                   :
 ROP.MIN/FT                                 :
 GAS.UNITS                                  :
~ASCII Log data
       855.0     -9999.00        235.3 
       856.0         0.20        232.5 
       857.0         0.32         89.6 
       858.0         0.33         75.3 
       859.0         0.30         13.4 
       860.0         0.40          7.2 
       861.0         0.30          3.8 
       862.0         0.30          3.6 
       863.0         0.33          3.1 
       864.0         0.40          3.3 
       865.0         0.40          3.0 
       866.0         0.33          3.2 
       867.0         0.68          3.7 
       868.0         0.10          3.3 
       869.0         0.10          3.5 
       870.0         0.13          3.5 
       871.0         2.58          3.7 
       872.0         0.50          4.3 
       873.0         0.60          4.1 
       874.0         0.13          3.7 
       875.0         3.38          4.0 
       876.0         0.23          3.6 
       877.0         0.33          4.0 
       878.0         0.30          4.0 
       879.0         0.33          3.9 
       880.0         0.33          3.8 
       881.0         0.35          4.0 
       882.0         0.27          3.7 
       883.0         0.33          3.9 
       884.0         0.23          3.8 
       885.0         0.23          4.3 
       886.0         0.30          3.8 
       887.0         0.23          3.5 
       888.0         0.30          3.6 
       889.0         0.23          3.7 
       890.0         0.27          3.4 
       891.0         0.23          3.6 
       892.0         0.23          3.8 
       893.0         0.23          3.9 
       894.0         0.35          3.7 
       895.0         0.33          4.0 
       896.0         0.37          3.7 
       897.0         0.37          3.8 
       898.0         0.27          3.9 
       899.0         0.37          3.9 
       900.0         0.40          3.8 
       901.0         0.30          3.8 
       902.0         0.30          3.8 
       903.0         0.37          3.6 
       904.0         8.12          4.4 
       905.0         0.30          3.8 
       906.0         0.30          3.9 
       907.0         0.30          3.8 
       908.0         0.33          3.8 
       909.0         0.37          3.7 
       910.0         0.33          3.6 
       911.0         0.38          4.0 
       912.0         0.37          4.3 
       913.0         0.40          3.8 
       914.0         0.33          3.7 
       915.0         0.37          3.5 
       916.0         0.37          3.7 
       917.0         0.23          3.7 
       918.0         0.23          3.9 
       919.0         0.23          3.5 
       920.0         0.33          3.6 
       921.0         0.42          3.9 
       922.0         0.30          4.0 
       923.0         0.23          3.7 
       924.0         0.43          3.9 
       925.0         0.30          4.0 
       926.0         0.30          3.7 
       927.0         0.37          3.9 
       928.0         0.37          3.5 
       929.0         0.27          3.5 
       930.0         0.23          3.4 
       931.0         0.23          3.5 
       932.0         0.28          3.7 
       933.0         0.50          4.0 
       934.0        10.45          5.1 
       935.0         0.33          4.2 
       936.0         0.43          3.7 
       937.0         0.30          3.9 
       938.0         0.33          4.0 
       939.0         0.30          3.8 
       940.0         0.33          3.7 
       941.0         0.38          3.6 
       942.0         0.33          3.7 
       943.0         0.40          3.6 
       944.0         0.47          4.1 
       945.0         0.37          4.4 
       946.0         0.43          6.5 
       947.0         0.33          6.4 
       948.0         0.33          6.2 
       949.0         0.30          5.1 
       950.0         0.32          4.4 
       951.0         0.27          3.9 
       952.0         0.37          3.3 
       953.0         0.40          3.5 
       954.0         0.40          3.6 
       955.0         0.37          3.6 
       956.0         0.40          3.8 
       957.0         0.37          3.6 
       958.0         0.33          3.6 
       959.0         0.35          3.8 
       960.0         0.33          3.5 
       961.0         0.33          3.4 
       962.0         0.53          3.8 
       963.0         0.57          3.6 
       964.0         7.70          5.3 
       965.0         0.62          3.3 
       966.0         0.67          3.5 
       967.0         0.77          3.5 
       968.0         0.70          3.5 
       969.0         0.47          3.0 
       970.0         0.40          3.1 
       971.0         0.35          3.0 
       972.0         0.33          3.3 
       973.0         0.33          3.3 
       974.0         0.33          3.0 
       975.0         0.40          3.3 
       976.0         0.37          3.1 
       977.0         0.30          3.1 
       978.0         0.33          3.2 
       979.0         0.30          2.9 
       980.0         0.30          3.1 
       981.0         0.32          2.9 
       982.0         0.30          2.9 
       983.0         0.33          3.0 
       984.0         0.33          3.3 
       985.0         0.30          3.2 
       986.0         0.47          3.5 
       987.0         0.40          3.5 
       988.0         0.47          3.8 
       989.0         0.60          3.3 
       990.0         0.52          3.6 
       991.0         0.33          3.8 
       992.0         0.53          3.9 
       993.0         0.57          3.5 
       994.0         9.32          4.0 
       995.0         0.83          3.4 
       996.0         0.30          3.5 
       997.0         0.27          3.8 
       998.0         0.27          3.7 
       999.0         0.33          3.6 
      1000.0         0.35          3.6 
      1001.0         0.40          3.3 
      1002.0         0.33          3.2 
      1003.0         0.37          3.4 
      1004.0         0.40          3.0 
      1005.0         0.37          3.0 
      1006.0         0.33          3.0 
      1007.0         0.30          3.2 
      1008.0         0.30          3.2 
      1009.0         0.33          3.1 
      1010.0         0.32          3.2 
      1011.0         0.37          3.1 
      1012.0         0.30          3.2 
      1013.0         0.27          2.8 
      1014.0         0.37          3.4 
      1015.0         0.33          3.4 
      1016.0         0.37          3.3 
      1017.0         0.37          3.3 
      1018.0         0.37          3.6 
      1019.0         0.33          3.7 
      1020.0         0.32          3.5 
      1021.0         0.30          3.6 
      1022.0         0.27          3.4 
      1023.0         0.50          3.4 
      1024.0        10.88          4.1 
      1025.0         0.77          3.1 
      1026.0         0.33          3.5 
      1027.0         0.48          3.0 
      1028.0         0.53          3.4 
      1029.0         0.67          3.2 
      1030.0         0.60          3.3 
      1031.0         0.43          3.5 
      1032.0         0.40          3.3 
      1033.0         0.48          3.3 
      1034.0         0.50          3.3 
      1035.0         0.73          3.5 
      1036.0         0.67          4.0 
      1037.0         0.60          4.3 
      1038.0         0.85          4.6 
      1039.0         0.83          3.7 
      1040.0         0.73          3.7 
      1041.0         0.77          4.0 
      1042.0         0.67          3.1 
      1043.0         0.75          3.0 
      1044.0         0.73          2.6 
      1045.0         1.20          2.4 
      1046.0         0.67          1.6 
      1047.0         0.65          0.7 
      1048.0         0.57          1.2 
      1049.0         0.67          4.0 
      1050.0         0.60          7.6 
      1051.0         0.60          9.7 
      1052.0         0.52         10.8 
      1053.0         0.50         12.9 
      1054.0        10.52         90.3 
