~Version Information
VERS.                      2.0: CWLS Log ASCII Standard - VERSION 2.0
WRAP.                       NO: One line per depth step
~Well Information Block
STRT.FT                 6.5000: 
STOP.FT              1054.0000: 
STEP.FT                 0.2500: 
NULL.                -999.2500: 
COMP.          Pioneer Natural Resources: COMPANY
WELL.            Galileo 21-11: WELL
FLD.           Purgatoire River: FIELD
LOC.           407' FNL & 2394' FWL: LOCATION
PROV.                 Colorado: PROVINCE
CNTY.               Las Animas: COUNTRY
SRVC.                Patterson: SERVICE COMPANY
DATE.          Sat Apr 16 10:31:00 2005: LOG DATE
UWI.           05 071 08353 00: UNIQUE WELL ID
~Curve Information Block
DEPT.FT            0 000 00 00: Depth
GR.GAPI                       : Gamma Ray
CCL.                          : Casing Collar Locator
TT3.usec                      : CBL 3' Travel Time
AMP3.mV                       : CBL 3' Amplitude
~Parameter Information Block
~A  Depth        GR         CCL         TT3         AMP3    
# ...
   676.5000     69.2930      0.0000    901.7779      9.1826
   676.7500     69.1427      0.0000    929.5466      9.1807
   677.0000     71.4472      0.0000    941.0816      9.1482
   677.2500     76.4441      0.0000    929.4915      9.1013
   677.5000     82.2761      0.0000    898.1384      9.0489
   677.7500     85.9392      0.0000    860.3283      8.9909
   678.0000     85.3395      0.0000    830.0657      8.9236
   678.2500     80.6666      0.0000    813.9641      8.8488
   678.5000     74.1191      0.0000    812.2106      8.7778
   678.7500     68.4890      0.0000    823.9059      8.7142
   679.0000     65.6445      0.0000    848.4187      8.6200
   679.2500     65.7428      0.0000    882.6833      8.4065
   679.5000     67.5364      0.0000    922.0721      7.9931
   679.7500     69.3987      0.0000    967.1383      7.4067
   680.0000     70.2056      0.0000   1025.7432      6.8065
   680.2500     69.5723      0.0000   1102.4332      6.3641
   680.5000     67.6477      0.0000   1187.2542      6.1199
   680.7500     64.8976      0.0000   1260.8486      6.0013
   681.0000     61.9286      0.0000   1310.1268      5.9510
   681.2500     59.3263      1.7639   1335.5875      5.9638
   681.5000     57.7141      3.0000   1345.6447      6.0244
   681.7500     57.8928      0.0000   1347.9803      6.0871
   682.0000     60.4093      0.0000   1345.5469      6.1332
   682.2500     64.7294      0.0000   1336.5062      6.2252
   682.5000     69.2801      0.0000   1316.4834      6.4996
   682.7500     72.5995      0.0000   1283.3199      7.0736
   683.0000     74.1410      0.0000   1241.9147      7.9059
   683.2500     74.0327      0.0000   1203.2810      8.7586
   683.5000     72.6882      0.0000   1177.4347      9.3618
   683.7500     70.8258      0.0000   1168.3763      9.6215
   684.0000     69.2754      0.0000   1174.5377      9.6421
   684.2500     68.4408      0.0000   1188.7026      9.5845
   684.5000     68.1592      0.0000   1197.5278      9.5490
   684.7500     68.1182      0.0000   1188.3715      9.5602
   685.0000     68.1301      0.0000   1160.2959      9.5996
   685.2500     68.1196      0.0000   1125.5569      9.6348
   685.5000     68.1048      0.0000   1098.6826      9.6437
   685.7500     67.9796      0.0000   1085.3625      9.6300
   686.0000     67.1814      0.0000   1080.7910      9.6172
   686.2500     65.0268      0.0000   1075.0579      9.6275
   686.5000     61.7574      0.0000   1059.9688      9.6692
   686.7500     58.9317      0.0000   1033.7307      9.7399
   687.0000     58.2348      0.0000   1000.6145      9.8328
   687.2500     59.8717      0.0000    965.2037      9.9356
   687.5000     62.4292      0.0000    928.1569     10.0292
   687.7500     64.3239      0.0000    889.5306     10.0925
   688.0000     65.1539      0.0000    853.6367     10.1105
   688.2500     65.8012      0.0000    827.1367     10.0822
   688.5000     67.5025      0.0000    813.8224     10.0220
   688.7500     70.8300      0.0000    813.9211      9.9549
   689.0000     75.2328      0.0000    826.4002      9.9062
   689.2500     79.4204      0.0000    847.9362      9.8896
   689.5000     82.3652      0.0000    869.5385      9.9027
   689.7500     84.1031      0.0000    878.9678      9.9305
   690.0000     85.5444      0.0000    870.6149      9.9585
   690.2500     87.4189      0.0000    851.7416      9.9829
   690.5000     89.4083      0.0000    836.6660     10.0100
   690.7500     90.4611      0.0000    835.3431     10.0452
   691.0000     89.9683      0.0000    847.0022     10.0815
   691.2500     88.3324      0.0000    861.4803     10.0995
   691.5000     86.2622      0.0000    866.5543     10.0796
   691.7500     83.8234      0.0000    857.2939     10.0183
   692.0000     80.4409      0.0000    839.6326      9.9311
   692.2500     75.6424      0.0000    824.8933      9.8396
   692.5000     69.6628      0.0000    822.5602      9.7564
   692.7500     63.5741      0.0000    838.2461      9.6801
   693.0000     58.9274      0.0000    873.8579      9.6034
   693.2500     56.9999      0.0000    925.3022      9.5209
   693.5000     58.0641      0.0000    980.9905      9.4315
   693.7500     61.3046      0.0000   1026.5531      9.3350
   694.0000     65.3166      0.0000   1053.9987      9.2324
   694.2500     68.5199      0.0000   1067.4849      9.1259
   694.5000     69.3394      0.0000   1080.4181      9.0140
   694.7500     66.6852      0.0000   1104.7781      8.8841
   695.0000     60.6860      0.0000   1140.3695      8.7124
   695.2500     52.8478      0.0000   1174.7513      8.4783
   695.5000     45.3089      0.0000   1194.3978      8.1841
   695.7500     39.7611      0.0000   1195.2411      7.8598
   696.0000     36.7053      0.0000   1183.8961      7.5487
   696.2500     35.4608      0.0000   1172.7349      7.2858
   696.5000     34.9584      0.0000   1173.5259      7.0873
   696.7500     34.5766      0.0000   1190.1698      6.9497
   697.0000     34.2911      0.0000   1214.5438      6.8563
   697.2500     34.3566      0.0000   1231.7290      6.7944
   697.5000     35.0157      0.0000   1232.1404      6.7832
   697.7500     36.3671      0.0000   1219.6929      6.8882
   698.0000     38.3916      0.0000   1208.8513      7.2008
   698.2500     41.1821      0.0000   1213.3361      7.7840
   698.5000     45.0992      0.0000   1236.1450      8.6203
   698.7500     50.5824      0.0000   1268.2223      9.6007
   699.0000     57.7963      0.0000   1295.8872     10.5660
   699.2500     66.6700      0.0000   1310.8893     11.3701
   699.5000     77.3573      0.0000   1314.9114     11.9260
   699.7500     90.1179      0.0000   1315.3193     12.2258
   700.0000    104.1503      0.0000   1316.4868     12.3356
   700.2500    116.8901      0.0000   1315.3517     12.3633
   700.5000    125.2979      0.0000   1305.3000     12.4056
   700.7500    128.1711      0.0000   1283.7278     12.5018
   701.0000    127.0415      0.0000   1255.4055     12.6179
   701.2500    124.7125      0.0000   1228.9974     12.6644
   701.5000    123.0509      0.0000   1211.0944     12.5439
   701.7500    122.3088      0.0000   1203.6127     12.2124
   702.0000    122.1902      0.0000   1205.1597     11.7097
   702.2500    122.8488      0.0000   1212.5670     11.1329
   702.5000    124.5194      0.0000   1220.9468     10.5756
   702.7500    126.6895      0.0000   1224.9670     10.0848
   703.0000    128.2570      0.0000   1222.7358      9.6624
   703.2500    128.5548      0.0000   1218.3721      9.2983
   703.5000    127.8081      0.0000   1219.5125      8.9977
   703.7500    126.4473      0.0000   1231.3435      8.7752
   704.0000    124.3911      0.0000   1251.2272      8.6280
   704.2500    121.3799      0.0000   1266.5685      8.5241
   704.5000    117.7591      0.0000   1258.2466      8.4220
   704.7500    114.4343      0.0000   1210.7533      8.3035
   705.0000    112.0915      0.0000   1124.9655      8.1864
   705.2500    110.7912      0.0000   1022.9606      8.1043
   705.5000    110.3248      0.0000    937.4472      8.0758
   705.7500    110.6766      0.0000    892.1788      8.0894
   706.0000    111.9249      0.0000    888.6808      8.1182
   706.2500    113.6873      0.0000    908.3843      8.1443
   706.5000    114.8606      0.0000    928.7307      8.1698
   706.7500    114.2142      0.0000    941.6094      8.2051
   707.0000    111.5524      0.0000    955.0339      8.2537
   707.2500    108.2595      0.0000    973.9135      8.3053
   707.5000    106.2207      0.0000    985.3434      8.3430
   707.7500    106.0099      0.0000    970.7917      8.3574
   708.0000    106.4013      0.0000    928.8820      8.3583
   708.2500    105.5922      0.0000    877.7687      8.3715
   708.5000    102.5481      0.0000    837.0104      8.4190
   708.7500     97.4307      0.0000    813.5393      8.5017
   709.0000     91.3634      0.0000    803.4835      8.6017
   709.2500     85.7409      0.0000    800.5355      8.7006
   709.5000     81.4499      0.0000    801.1289      8.7907
   709.7500     78.7477      0.0000    805.8134      8.8735
