~Version Information
VERS.                      2.0: CWLS Log ASCII Standard - VERSION 2.0
WRAP.                       NO: One line per depth step
~Well Information Block
STRT.FT               250.0000: 
STOP.FT              2600.7500: 
STEP.FT                 0.2500: 
NULL.                -999.2500: 
COMP.          Pioneer Natural Resources: COMPANY
WELL.              Quack 22-24: WELL
FLD.           Purgatoire River: FIELD
LOC.           2492' FNL & 2459' FWL--: LOCATION
PROV.                 Colorado: PROVINCE
CNTY.               Las Animas: COUNTRY
SRVC.                Patterson: SERVICE COMPANY
DATE.          Sun Jun 12 09:02:01 2005: LOG DATE
UWI.            05 071 0840200: UNIQUE WELL ID
~Curve Information Block
DEPT.FT            0 000 00 00: Depth
SN.Ohm-m                      : IEL Short Normal
SP.mV                         : IEL Spontaneous Potential
DIR.Ohm-m                     : IEL Induction Resistivity
GR.GAPI                       : Gamma Ray
~Parameter Information Block
~A  Depth        SN          SP         DIR          GR     
# ...
   719.0000   2000.0000   1983.0000     12.4243    137.7937
   719.2500   2000.0000   1983.0000     12.1869    139.4163
   719.5000   2000.0000   1983.0000     11.9667    141.6830
   719.7500   2000.0000   1983.0000     11.7642    142.4199
   720.0000   2000.0000   1983.0000     11.5836    142.2050
   720.2500   2000.0000   1983.0000     11.4344    141.4699
   720.5000   2000.0000   1983.0000     11.3290    139.7606
   720.7500   2000.0000   1983.0000     11.2768    138.0959
   721.0000   2000.0000   1983.0000     11.2788    134.6812
   721.2500   2000.0000   1983.0000     11.3273    132.1279
   721.5000   2000.0000   1983.0000     11.4095    129.0513
   721.7500   2000.0000   1983.0000     11.5132    128.0753
   722.0000   2000.0000   1983.0000     11.6315    128.3540
   722.2500   2000.0000   1983.0000     11.7629    129.3399
   722.5000   2000.0000   1983.0000     11.9097    131.0943
   722.7500   2000.0000   1983.0000     12.0726    131.8784
   723.0000   2000.0000   1983.0000     12.2477    131.5683
   723.2500   2000.0000   1983.0000     12.4240    130.0648
   723.5000   2000.0000   1983.0000     12.5867    126.2222
   723.7500   2000.0000   1983.0000     12.7212    123.4229
   724.0000   2000.0000   1983.0000     12.8184    120.7523
   724.2500   2000.0000   1983.0000     12.8781    120.7118
   724.5000   2000.0000   1983.0000     12.9108    122.9533
   724.7500   2000.0000   1983.0000     12.9340    125.0837
   725.0000   2000.0000   1983.0000     12.9657    127.7656
   725.2500   2000.0000   1983.0000     13.0184    128.9505
   725.5000   2000.0000   1983.0000     13.0965    130.2910
   725.7500   2000.0000   1983.0000     13.1979    131.2634
   726.0000   2000.0000   1983.0000     13.3169    132.9902
   726.2500   2000.0000   1983.0000     13.4458    134.0757
   726.5000   2000.0000   1983.0000     13.5755    135.0404
   726.7500   2000.0000   1983.0000     13.6942    135.0956
   727.0000   2000.0000   1983.0000     13.7888    134.4377
   727.2500   2000.0000   1983.0000     13.8467    133.6472
   727.5000   2000.0000   1983.0000     13.8610    132.1370
   727.7500   2000.0000   1983.0000     13.8341    131.0583
   728.0000   2000.0000   1983.0000     13.7784    129.6498
   728.2500   2000.0000   1983.0000     13.7118    128.9844
   728.5000   2000.0000   1983.0000     13.6513    128.4619
   728.7500   2000.0000   1983.0000     13.6093    128.4358
   729.0000   2000.0000   1983.0000     13.5931    128.8849
   729.2500   2000.0000   1983.0000     13.6082    129.4644
   729.5000   2000.0000   1983.0000     13.6579    130.6715
   729.7500   2000.0000   1983.0000     13.7417    131.6807
   730.0000   2000.0000   1983.0000     13.8523    133.2671
   730.2500   2000.0000   1983.0000     13.9771    134.0945
   730.5000   2000.0000   1983.0000     14.1050    134.8681
   730.7500   2000.0000   1983.0000     14.2334    135.4230
   731.0000   2000.0000   1983.0000     14.3682    136.9699
   731.2500   2000.0000   1983.0000     14.5167    138.3775
   731.5000   2000.0000   1983.0000     14.6793    140.0438
   731.7500   2000.0000   1983.0000     14.8472    140.2891
   732.0000   2000.0000   1983.0000     15.0070    139.2363
   732.2500   2000.0000   1983.0000     15.1490    137.9819
   732.5000   2000.0000   1983.0000     15.2717    136.0547
   732.7500   2000.0000   1983.0000     15.3812    134.9500
   733.0000   2000.0000   1983.0000     15.4892    133.6129
   733.2500   2000.0000   1983.0000     15.6103    133.0271
   733.5000   2000.0000   1983.0000     15.7611    132.8850
   733.7500   2000.0000   1983.0000     15.9586    133.2573
   734.0000   2000.0000   1983.0000     16.2178    133.9928
   734.2500   2000.0000   1983.0000     16.5479    134.2636
   734.5000   2000.0000   1983.0000     16.9488    134.1172
   734.7500   2000.0000   1983.0000     17.4087    133.6232
   735.0000   2000.0000   1983.0000     17.9014    132.0874
   735.2500   2000.0000   1983.0000     18.3859    130.3578
   735.5000   2000.0000   1983.0000     18.8122    126.7268
   735.7500   2000.0000   1983.0000     19.1328    123.9827
   736.0000   2000.0000   1983.0000     19.3169    120.3083
   736.2500   2000.0000   1983.0000     19.3568    118.5338
   736.5000   2000.0000   1983.0000     19.2612    117.0297
   736.7500   2000.0000   1983.0000     19.0432    116.8051
   737.0000   2000.0000   1983.0000     18.7133    117.8624
   737.2500   2000.0000   1983.0000     18.2841    119.5925
   737.5000   2000.0000   1983.0000     17.7778    123.1820
   737.7500   2000.0000   1983.0000     17.2299    125.4880
   738.0000   2000.0000   1983.0000     16.6846    127.6441
   738.2500   2000.0000   1983.0000     16.1880    128.0279
   738.5000   2000.0000   1983.0000     15.7806    127.5003
   738.7500   2000.0000   1983.0000     15.4932    126.8759
   739.0000   2000.0000   1983.0000     15.3417    126.2123
   739.2500   2000.0000   1983.0000     15.3264    126.0765
   739.5000   2000.0000   1983.0000     15.4338    125.9392
   739.7500   2000.0000   1983.0000     15.6423    125.5979
   740.0000   2000.0000   1983.0000     15.9300    124.7754
   740.2500   2000.0000   1983.0000     16.2784    124.2879
   740.5000   2000.0000   1983.0000     16.6718    123.8645
   740.7500   2000.0000   1983.0000     17.0932    123.7050
   741.0000   2000.0000   1983.0000     17.5227    123.4471
   741.2500   2000.0000   1983.0000     17.9402    123.1498
   741.5000   2000.0000   1983.0000     18.3323    122.3163
   741.7500   2000.0000   1983.0000     18.6968    121.4898
   742.0000   2000.0000   1983.0000     19.0434    120.1122
   742.2500   2000.0000   1983.0000     19.3891    119.3026
   742.5000   2000.0000   1983.0000     19.7527    118.3132
   742.7500   2000.0000   1983.0000     20.1524    117.5985
   743.0000   2000.0000   1983.0000     20.6068    115.8315
   743.2500   2000.0000   1983.0000     21.1375    113.8391
   743.5000   2000.0000   1983.0000     21.7681    109.3345
   743.7500   2000.0000   1983.0000     22.5171    105.4801
   744.0000   2000.0000   1983.0000     23.3906     99.2235
   744.2500   2000.0000   1983.0000     24.3803     95.1961
   744.5000   2000.0000   1983.0000     25.4688     89.4855
   744.7500   2000.0000   1983.0000     26.6361     85.5867
   745.0000   2000.0000   1983.0000     27.8540     79.1419
   745.2500   2000.0000   1983.0000     29.0621     74.6052
   745.5000   2000.0000   1983.0000     30.1362     68.5500
   745.7500   2000.0000   1983.0000     30.8795     65.8896
   746.0000   2000.0000   1983.0000     31.0709     65.1161
   746.2500   2000.0000   1983.0000     30.5671     66.9350
   746.5000   2000.0000   1983.0000     29.3904     72.6968
   746.7500   2000.0000   1983.0000     27.7218     78.0948
   747.0000   2000.0000   1983.0000     25.8076     87.7977
   747.2500   2000.0000   1983.0000     23.8623     94.9196
   747.5000   2000.0000   1983.0000     22.0293    105.6801
   747.7500   2000.0000   1983.0000     20.3882    112.3922
   748.0000   2000.0000   1983.0000     18.9756    121.3078
   748.2500   2000.0000   1983.0000     17.7995    126.3555
   748.5000   2000.0000   1983.0000     16.8470    131.9736
   748.7500   2000.0000   1983.0000     16.0946    133.8461
   749.0000   2000.0000   1983.0000     15.5183    133.4147
   749.2500   2000.0000   1983.0000     15.1023    131.4296
   749.5000   2000.0000   1983.0000     14.8427    127.6240
   749.7500   2000.0000   1983.0000     14.7461    125.4988
   750.0000   2000.0000   1983.0000     14.8254    123.4778
   750.2500   2000.0000   1983.0000     15.0951    122.5115
   750.5000   2000.0000   1983.0000     15.5661    120.7632
   750.7500   2000.0000   1983.0000     16.2417    119.3821
   751.0000   2000.0000   1983.0000     17.1133    117.5338
   751.2500   2000.0000   1983.0000     18.1582    116.4202
   751.5000   2000.0000   1983.0000     19.3432    113.9312
   751.7500   2000.0000   1983.0000     20.6365    111.2163
   752.0000   2000.0000   1983.0000     22.0239    105.8783
   752.2500   2000.0000   1983.0000     23.5166    102.1048
