~Version Information
VERS.                      2.0: CWLS Log ASCII Standard - VERSION 2.0
WRAP.                       NO: One line per depth step
~Well Information Block
STRT.FT               745.0000: 
STOP.FT              2945.7000: 
STEP.FT                 0.1000: 
NULL.                -999.2500: 
COMP.          Pioneer Natural Resources: COMPANY
WELL.          Old Yeller 31-32: WELL
FLD.           Purgatoire River: FIELD
LOC.           1832' FEL & 793' FNL--: LOCATION
STAT.                 Colorado: State
CNTY.               Las Animas: COUNTY
CTRY. USA : Country
SECT. 32 : Section
TOWN. 32S : Township
RANG. 67W : Range
SRVC.                Patterson: SERVICE COMPANY
DATE.          Mon Aug 29 11:12:35 2005: LOG DATE
API.           05 071 08356 00: UNIQUE WELL ID
~Curve Information Block
DEPT.FT            0 000 00 00: Depth
DCAL.in                       : CDL Caliper
RHOB.g/cc                     : CDL Bulk Density
RHOC.g/cc                     : CDL Density Correction
DPOR.pu                       : CDL Density Porosity
NPOR.pu                       : Neutron Porosity
GR.GAPI                       : Gamma Ray
~Parameter Information Block
~A  Depth       DCAL        RHOB        RHOC        DPOR        NPOR         GR     
# ...
   889.0000      8.0292      2.6275      0.3040      1.3609     15.1049    111.5792
   889.1000      8.0292      2.6560      0.2887     -0.3644     14.6924    103.4311
   889.2000      8.0292      2.6809      0.2343     -1.8734     14.1555     95.8811
   889.3000      8.0148      2.6921      0.2354     -2.5494     13.6919     88.9679
   889.4000      8.0148      2.6729      0.1917     -1.3865     13.1374     85.0273
   889.5000      8.0119      2.6225      0.0894      1.6697     12.3493     84.1766
   889.6000      8.0119      2.5751      0.0068      4.5385     11.4273     82.5168
   889.7000      8.0119      2.5642     -0.0257      5.1984     10.5250     79.7142
   889.8000      8.0125      2.5787      0.0583      4.3216      9.8198     77.1821
   889.9000      8.0125      2.5835      0.0316      4.0285      9.5054     74.6049
   890.0000      8.0134      2.5747      0.0266      4.5641      9.6565     72.2885
   890.1000      8.0134      2.5684      0.0312      4.9475      9.8241     70.8058
   890.2000      8.0134      2.5654      0.0253      5.1297      9.4208     70.0498
   890.3000      8.0155      2.5554      0.0432      5.7316      8.7537     66.7337
   890.4000      8.0155      2.5388     -0.0172      6.7395      8.5581     58.7017
   890.5000      8.0191      2.5299     -0.0091      7.2770      8.9647     51.2144
   890.6000      8.0191      2.5411     -0.0140      6.6002      9.2712     47.8088
   890.7000      8.0191      2.5726      0.0329      4.6885      8.8162     46.0172
   890.8000      8.0238      2.6095      0.0515      2.4570      8.0933     45.2470
   890.9000      8.0238      2.6344      0.0765      0.9433      7.8517     47.0817
   891.0000      8.0270      2.6401      0.0837      0.5973      7.9598     49.1830
   891.1000      8.0270      2.6240      0.1078      1.5786      8.0349     50.3863
   891.2000      8.0270      2.5939      0.0305      3.3991      8.2648     54.2488
   891.3000      8.0282      2.5749      0.0479      4.5517      8.7508     58.8483
   891.4000      8.0282      2.5821      0.0681      4.1171      9.1654     59.9939
   891.5000      8.0292      2.6013      0.0777      2.9542      9.4743     60.5110
   891.6000      8.0292      2.6088      0.0958      2.4965     10.0115     61.9337
   891.7000      8.0292      2.5989      0.0604      3.0971     10.8152     62.0880
   891.8000      8.0291      2.5871      0.0089      3.8129     11.5495     61.5447
   891.9000      8.0291      2.5793      0.0759      4.2860     12.0333     62.3042
   892.0000      8.0283      2.5590      0.0443      5.5160     12.4744     65.4915
   892.1000      8.0283      2.5297      0.0068      7.2936     13.3331     70.6225
   892.2000      8.0283      2.5141     -0.0004      8.2392     14.8738     74.8475
   892.3000      8.0268      2.5118      0.0529      8.3745     16.7994     78.8492
   892.4000      8.0268      2.5057      0.0525      8.7478     18.4725     84.5213
   892.5000      8.0271      2.4962      0.0042      9.3215     20.2030     89.1211
   892.6000      8.0271      2.4954      0.0079      9.3708     22.5236     94.7286
   892.7000      8.0271      2.4886      0.0743      9.7845     24.6589    109.5559
   892.8000      8.0331      2.4465      0.0282     12.3309     25.9326    132.8396
   892.9000      8.0331      2.3809     -0.0223     16.3086     26.5118    156.3249
   893.0000      8.0533      2.3375     -0.0442     18.9406     26.7263    175.1232
   893.1000      8.0533      2.3300      0.0618     19.3969     26.6182    186.7146
   893.2000      8.0533      2.3270      0.0784     19.5773     25.7558    190.0793
   893.3000      8.0901      2.3069      0.0337     20.7956     24.4686    190.0345
   893.4000      8.0901      2.2816     -0.0176     22.3270     23.7147    189.7474
   893.5000      8.1020      2.2684      0.0094     23.1301     23.7070    185.7544
   893.6000      8.1020      2.2702      0.0060     23.0160     24.2757    178.1277
   893.7000      8.1020      2.2858      0.0319     22.0715     24.8983    172.5447
   893.8000      8.0709      2.3072      0.0644     20.7775     24.8253    173.7609
   893.9000      8.0709      2.3124      0.0624     20.4585     24.3502    177.8647
   894.0000      8.0649      2.2823      0.0614     22.2869     24.0613    178.1284
   894.1000      8.0649      2.2318      0.0309     25.3468     23.7662    175.8413
   894.2000      8.0649      2.1969      0.0855     27.4634     23.2631    172.3411
   894.3000      8.1103      2.1766      0.1682     28.6907     22.8193    168.2133
   894.4000      8.1103      2.1494      0.1323     30.3370     22.6242    168.5588
   894.5000      8.1606      2.1278      0.1182     31.6481     22.8342    171.1899
   894.6000      8.1606      2.1387      0.1210     30.9855     23.7697    168.8230
   894.7000      8.1606      2.1851      0.2073     28.1729     25.3986    164.1806
   894.8000      8.1699      2.2494      0.2452     24.2763     26.8370    164.3054
   894.9000      8.1699      2.3082      0.3561     20.7126     27.1822    167.5001
   895.0000      8.1348      2.3382      0.3717     18.8942     26.9380    170.1919
   895.1000      8.1348      2.3367      0.3116     18.9849     27.2987    171.3002
   895.2000      8.1348      2.3218      0.2579     19.8894     28.1447    168.2592
   895.3000      8.0877      2.3066      0.2116     20.8101     28.5891    162.8474
   895.4000      8.0877      2.2985      0.1522     21.3027     28.7370    163.4982
   895.5000      8.0653      2.3098      0.1196     20.6191     29.0491    171.9309
   895.6000      8.0653      2.3414      0.1242     18.7024     29.2454    179.0287
   895.7000      8.0653      2.3728      0.1562     16.7990     28.9892    180.5132
   895.8000      8.0671      2.3900      0.1349     15.7552     28.3708    179.7024
   895.9000      8.0671      2.3985      0.1735     15.2444     27.6602    178.1062
   896.0000      8.0780      2.3996      0.1991     15.1756     27.0218    176.9354
   896.1000      8.0780      2.3939      0.1810     15.5240     26.5346    176.8046
   896.2000      8.0780      2.3850      0.1737     16.0615     26.4233    174.1798
   896.3000      8.0980      2.3672      0.1267     17.1391     26.5888    169.6541
   896.4000      8.0980      2.3415      0.1075     18.6957     26.7515    169.1293
   896.5000      8.1467      2.3201      0.1336     19.9922     26.8682    169.3913
   896.6000      8.1467      2.3016      0.1803     21.1176     26.9093    164.4791
   896.7000      8.1467      2.2743      0.1287     22.7669     26.9062    159.9873
   896.8000      8.2715      2.2394      0.1139     24.8869     26.9424    161.5813
   896.9000      8.2715      2.2064      0.1105     26.8870     26.9012    162.8945
   897.0000      8.5180      2.1825      0.1298     28.3342     26.6646    156.1400
   897.1000      8.5180      2.1744      0.1121     28.8250     26.3529    144.0628
   897.2000      8.5180      2.1892      0.1434     27.9260     26.1118    137.8462
   897.3000      8.8130      2.2311      0.1746     25.3880     26.0732    139.0005
   897.4000      8.8130      2.2927      0.2706     21.6530     26.3659    138.2505
   897.5000      9.0457      2.3507      0.2965     18.1412     26.6619    132.8821
   897.6000      9.0457      2.3929      0.2714     15.5846     26.7150    129.3233
   897.7000      9.0457      2.4273      0.2548     13.4975     26.7725    132.9189
   897.8000      9.2331      2.4523      0.3026     11.9835     26.7520    139.5802
   897.9000      9.2331      2.4580      0.2618     11.6372     26.3447    143.1298
   898.0000      9.4052      2.4478      0.2358     12.2522     25.7266    141.5345
   898.1000      9.4052      2.4275      0.2346     13.4834     25.2974    137.2542
   898.2000      9.4052      2.3998      0.1758     15.1609     25.2506    135.7174
   898.3000      9.6016      2.3778      0.1380     16.4960     25.7949    137.5045
   898.4000      9.6016      2.3707      0.1626     16.9271     26.5258    139.8290
   898.5000      9.8254      2.3643      0.2151     17.3129     26.3670    144.0812
