~Version Information
 VERS.                                  2.0 : CWLS LAS VERSION
 WRAP.                                   NO : WRAPING MODE
 SWARE .                 MController 2.5.0E : SOFTWARE VERSION
~Well Information
 WELL.                                  N/A : WELL
 COMP.                                  N/A : COMPANY
 FLD.                                   N/A : FIELD
 LOC.                                   N/A : LOCATION
 DATE.                                  N/A : DATE(S) LOGGED
 SRVC.                                  N/A : SERVICE COMPANY
 STAT.                                  N/A : STATE
 CNTY.                                  N/A : COUNTY
 CTRY.                                  N/A : COUNTRY
 API.                                   N/A : API NUMBER
 STRT.FT                              94.00 : START DEPTH
 STOP.FT                            1931.00 : STOP DEPTH
 STEP.FT                               1.00 : DEPTH INCREMENT
 NULL.                                -9999 : NULL VALUE
~Curve information
 DEPTH.FT                                   :
 ROP.MIN/FT                                 :
 GAS.UNITS                                  :
~ASCII Log data
# ...
      894.00        0.233        167.8 
      895.00        0.200        169.6 
      896.00        0.200        165.4 
      897.00        2.050       1243.2 
      898.00        0.233       1150.3 
      899.00        0.300        979.2 
      900.00        0.267        676.2 
      901.00        0.267        631.8 
      902.00        0.233        595.4 
      903.00        0.233        549.2 
      904.00        0.250        531.3 
      905.00        0.267        478.0 
      906.00        0.333        451.1 
      907.00        0.400        440.0 
      908.00        0.367        161.9 
      909.00        0.300        157.9 
      910.00        0.267        154.5 
      911.00        0.267        151.7 
      912.00        0.300        148.5 
      913.00        0.300        146.7 
      914.00        0.300        146.1 
      915.00        0.317        144.4 
      916.00        0.300        142.9 
      917.00        0.433        137.8 
      918.00        0.367         41.4 
      919.00        0.333          5.2 
      920.00        0.300          3.6 
      921.00        0.333          3.7 
      922.00        0.400        106.6 
      923.00        0.333        137.9 
      924.00        0.417        140.1 
      925.00        0.367        141.3 
      926.00        0.300        140.9 
      927.00        2.850        813.9 
      928.00        0.367        724.8 
      929.00        0.367        622.9 
      930.00        0.200        506.9 
      931.00        0.167        440.0 
      932.00        0.167        440.0 
      933.00        0.167        217.3 
      934.00        0.200        191.5 
      935.00        0.233        188.5 
      936.00        0.267        169.0 
      937.00        0.367        152.0 
      938.00        0.400        146.5 
      939.00        0.167        148.0 
      940.00        0.250        148.4 
      941.00        0.267        147.6 
      942.00        0.200        145.8 
      943.00        0.233        144.0 
      944.00        0.233        143.1 
      945.00        0.333        144.2 
      946.00        0.367        148.3 
      947.00        0.200        148.4 
      948.00        0.167        148.4 
      949.00        0.233        147.3 
      950.00        0.267        146.5 
      951.00        0.233        145.4 
      952.00        0.233        143.2 
      953.00        0.200        140.1 
      954.00        0.250        137.3 
      955.00        0.267        136.7 
      956.00        0.267        133.1 
      957.00        2.617        885.2 
      958.00        0.333        802.2 
      959.00        0.400        791.2 
      960.00        0.367        581.6 
      961.00        0.300        508.9 
      962.00        0.400        449.1 
      963.00        0.233        215.3 
      964.00        0.267        200.2 
      965.00        0.267        181.4 
      966.00        0.267        166.2 
      967.00        0.233        162.7 
      968.00        0.283        155.7 
      969.00        0.233        152.9 
      970.00        0.233        150.5 
      971.00        0.267        148.8 
      972.00        0.267        147.7 
      973.00        0.233        148.0 
      974.00        0.267        150.2 
      975.00        0.267        152.3 
      976.00        0.267        153.9 
      977.00        0.233        154.7 
      978.00        0.267        154.2 
      979.00        0.233        152.7 
      980.00        0.267        151.4 
      981.00        0.267        150.9 
      982.00        0.283        150.5 
      983.00        0.300        150.4 
      984.00        0.267        151.0 
      985.00        0.233        151.4 
      986.00        0.267        147.7 
      987.00        2.383        965.1 
      988.00        0.267        859.4 
      989.00        0.367        771.9 
      990.00        0.333        623.6 
      991.00        0.300        534.1 
      992.00        0.267        465.2 
      993.00        0.300        222.4 
      994.00        0.400        216.7 
      995.00        0.267        183.2 
      996.00        0.267        179.1 
      997.00        0.283        164.5 
      998.00        0.267        163.5 
      999.00        0.300        152.6 
     1000.00        0.300        152.3 
     1001.00        0.300        149.4 
     1002.00        0.300        147.5 
     1003.00        0.300        146.2 
     1004.00        0.300        144.8 
     1005.00        0.300        143.6 
     1006.00        0.300        142.1 
     1007.00        0.300        141.1 
     1008.00      894.150        280.9 
     1009.00        0.167        108.9 
     1010.00        0.167        115.0 
     1011.00        0.167        115.0 
     1012.00        0.167        118.7 
     1013.00        0.133        113.2 
     1014.00        0.200        113.2 
     1015.00        0.167         98.6 
     1016.00        2.750        311.9 
     1017.00        0.267        270.8 
     1018.00        0.267        214.2 
     1019.00        0.333        210.9 
     1020.00        0.233        185.6 
     1021.00        0.200        163.5 
     1022.00        0.200        151.0 
     1023.00        0.200        143.9 
     1024.00        0.200        131.5 
     1025.00        0.300        128.1 
     1026.00        0.233        117.2 
     1027.00        0.250        119.5 
     1028.00        0.200        119.5 
     1029.00        0.167        119.5 
     1030.00        0.167        121.9 
     1031.00        0.133        129.0 
     1032.00        0.133        133.6 
     1033.00        0.133        139.0 
     1034.00        0.100        139.0 
     1035.00        0.167        138.7 
     1036.00        0.133        138.7 
     1037.00        0.200        134.1 
     1038.00        0.200        133.8 
     1039.00        0.200        133.8 
     1040.00        0.200        132.7 
     1041.00        0.167        131.0 
     1042.00        0.200        130.6 
     1043.00        0.167        127.4 
     1044.00        0.200        118.1 
     1045.00        0.267        117.9 
     1046.00        1.117        267.5 
     1047.00        0.167        285.8 
     1048.00        0.300        294.5 
     1049.00        0.467        269.4 
     1050.00        0.300        235.6 
     1051.00        0.267        209.0 
     1052.00        0.233        200.1 
     1053.00        0.200        208.6 
     1054.00        0.167        214.1 
     1055.00        0.100        214.1 
     1056.00        0.167        215.5 
     1057.00        0.217        214.6 
     1058.00        0.200        209.8 
     1059.00        0.200        205.1 
     1060.00        0.167        200.8 
     1061.00        0.200        197.9 
     1062.00        0.233        195.2 
     1063.00        0.233        187.4 
     1064.00        0.233        186.7 
     1065.00        0.167        179.6 
     1066.00        0.200        178.4 
     1067.00        0.267        177.1 
     1068.00        0.200        176.1 
     1069.00        0.167        178.2 
     1070.00        0.133        180.2 
     1071.00        0.133        180.2 
     1072.00        0.133        180.7 
     1073.00        0.267        176.5 
     1074.00        0.250        167.1 
     1075.00        0.167        167.1 
     1076.00        1.800        419.1 
     1077.00        0.367        427.9 
     1078.00        0.333        408.3 
     1079.00        0.300        370.6 
     1080.00        0.350        334.4 
     1081.00        0.300        264.1 
     1082.00        0.233        237.4 
     1083.00        0.200        237.0 
     1084.00        0.100        251.6 
     1085.00        0.133        251.6 
     1086.00        0.100        251.6 
     1087.00        0.167        259.8 
     1088.00        0.200        260.2 
     1089.00        0.200        255.4 
     1090.00        0.200        249.8 
     1091.00        0.200        244.4 
     1092.00        0.167        239.5 
     1093.00        0.200        234.8 
