~Version Information
VERS.                      2.0: CWLS Log ASCII Standard - VERSION 2.0
WRAP.                       NO: One line per depth step
~Well Information Block
STRT.FT              1684.7500: 
STOP.FT              2367.7500: 
STEP.FT                 0.2500: 
NULL.                -999.2500: 
COMP.          Petrogulf Corporation: COMPANY
WELL.             Norton 9-14V: WELL
FLD.           Purgatorie River: FIELD
LOC.           250' FSL & 225' FWL--: LOCATION
CNTY.               Las Animas: COUNTY
SRVC.                         : SERVICE COMPANY
DATE.          Mon Jan 10 10:00:10 2005: LOG DATE
UWI.                          : UNIQUE WELL ID
STAT.                       CO: STATE
~Curve Information Block
DEPT.FT            0 000 00 00: Depth
CCL.                          : Casing Collar Locator
TT3.usec                      : CBL 3' Travel Time
AMP3.mV                       : CBL 3' Amplitude
GR.GAPI                       : Gamma Ray
~Parameter Information Block
~A  Depth       CCL         TT3         AMP3         GR     
# ...
  2153.7500      0.0000    415.6798     10.3216     64.1084
  2154.0000      0.0000    460.5358     10.1302     59.4061
  2154.2500      0.0000    502.8073      9.9341     56.9487
  2154.5000      0.0000    524.6321      9.7507     56.5815
  2154.7500      0.0000    530.7904      9.5338     57.8164
  2155.0000      0.0000    539.9802      9.1982     59.9191
  2155.2500      0.0000    561.8911      8.7313     61.9027
  2155.5000      0.0000    589.3192      8.2182     62.6804
  2155.7500      0.0000    611.0316      7.7358     61.4711
  2156.0000      0.0000    624.2174      7.2871     58.2545
  2156.2500      0.0000    633.6103      6.8606     54.0346
  2156.5000      0.0000    643.9529      6.4885     50.5381
  2156.7500      0.0000    655.4787      6.2056     49.2505
  2157.0000      0.0000    665.1826      5.9963     50.5523
  2157.2500      0.0000    671.0889      5.8189     53.7940
  2157.5000      0.0000    674.4545      5.6612     57.9632
  2157.7500      0.0000    678.0986      5.5348     62.0164
  2158.0000      0.0000    683.7491      5.4362     64.8857
  2158.2500      0.0000    691.2527      5.3498     65.8767
  2158.5000      0.0000    699.4462      5.2861     65.3451
  2158.7500      0.0000    707.3405      5.2766     64.6797
  2159.0000      0.0000    714.5894      5.3250     65.4138
  2159.2500      0.0000    720.5261      5.4043     68.3228
  2159.5000      0.0000    722.9505      5.5046     73.0545
  2159.7500      0.0000    719.2563      5.6377     78.2802
  2160.0000      0.0000    709.4651      5.7815     82.3976
  2160.2500      0.0000    697.1162      5.8720     84.5034
  2160.5000      0.0000    686.5434      5.8820     84.7701
  2160.7500      0.0000    680.0983      5.8588     83.9491
  2161.0000      0.0000    678.1560      5.8479     82.6181
  2161.2500      0.0000    680.4241      5.8178     80.7696
  2161.5000      0.0000    686.2431      5.7078     78.0440
  2161.7500      0.0000    694.1748      5.5200     74.4663
  2162.0000      0.0000    702.3107      5.3156     70.7226
  2162.2500      0.0000    709.2802      5.1293     67.5811
  2162.5000      0.0000    714.6887      4.9378     65.5437
  2162.7500      0.0000    718.5499      4.7183     65.2079
  2163.0000      0.0000    720.4434      4.4915     67.1501
  2163.2500      0.0000    719.2643      4.2830     71.0281
  2163.5000      0.0000    713.8942      4.0820     75.4291
  2163.7500      0.0000    704.4196      3.8774     79.0191
  2164.0000      0.0000    692.7813      3.7092     81.5246
  2164.2500      0.0000    681.9014      3.6384     83.4708
  2164.5000      0.0000    673.8371      3.6606     85.2431
  2164.7500      0.0000    668.4389      3.6926     86.4201
  2165.0000      0.0000    663.4337      3.6657     86.0308
  2165.2500      0.0000    656.1335      3.6022     83.6118
  2165.5000      0.0000    646.1326      3.5706     79.7703
  2165.7500      0.0000    636.2095      3.5828     75.4605
  2166.0000      0.0000    629.5059      3.5808     71.0966
  2166.2500      0.0000    626.7130      3.5266     66.7569
  2166.5000      0.0000    627.8831      3.4731     62.9320
  2166.7500      0.0000    635.0648      3.5236     60.6012
  2167.0000      0.0000    649.4719      3.7353     60.5035
  2167.2500      0.0000    667.0592      4.0776     62.5102
  2167.5000      0.0000    680.3731      4.4876     65.7243
  2167.7500      0.0000    684.8949      4.9498     68.9263
  2168.0000      0.0000    681.8088      5.5043     70.7932
  2168.2500      0.0000    674.9131      6.1753     70.1741
  2168.5000      0.0000    665.7344      6.9014     66.9130
  2168.7500      0.0000    651.7888      7.5471     62.4639
  2169.0000      0.0000    629.6080      7.9834     59.1336
  2169.2500      0.0000    599.6252      8.1795     58.2829
  2169.5000      0.0000    567.4163      8.2493     59.2338
  2169.7500      0.0000    540.2323      8.4029     59.9544
  2170.0000      0.0000    523.9877      8.7839     58.7607
  2170.2500      0.0000    521.7743      9.3267     55.4258
  2170.5000      0.0000    530.1656      9.8167     51.0265
  2170.7500      2.0000    536.7927     10.1065     47.0488
  2171.0000     -2.0000    527.5510     10.2261     44.4941
  2171.2500      0.0000    498.6834     10.2813     43.4650
  2171.5000      0.0000    459.5966     10.3025     43.4342
  2171.7500      0.0000    424.3321     10.2265     43.8438
  2172.0000      0.0000    402.3006      9.9991     44.4386
  2172.2500      0.0000    395.7221      9.6708     45.2634
  2172.5000      0.0000    403.4554      9.3827     46.5215
  2172.7500      0.0000    426.2552      9.2491     48.2289
  2173.0000      0.0000    465.9632      9.2629     49.8633
  2173.2500      0.0000    518.8184      9.3425     50.5348
  2173.5000      0.0000    573.1014      9.4460     49.7243
  2173.7500      0.0000    616.0551      9.5927     47.8250
  2174.0000      0.0000    641.5859      9.7865     45.6904
  2174.2500      0.0000    651.0738      9.9641     43.6104
  2174.5000      0.0000    650.2094     10.0297     41.1728
  2174.7500      0.0000    646.2732      9.9395     38.4001
  2175.0000      0.0000    645.4946      9.7612     36.5348
  2175.2500      0.0000    650.1415      9.6463     37.0437
  2175.5000      0.0000    658.1352      9.7127     39.8692
  2175.7500      0.0000    666.0117      9.9251     43.1846
  2176.0000      0.0000    671.6118     10.0914     45.0851
  2176.2500      0.0000    673.4103      9.9963     45.2325
  2176.5000      0.0000    667.6920      9.5700     44.6726
  2176.7500      0.0000    647.8847      8.9476     44.4320
  2177.0000      0.0000    609.4414      8.3616     44.7538
  2177.2500      0.0000    558.2373      7.9603     45.5821
  2177.5000      0.0000    513.6306      7.7084     47.2797
  2177.7500      0.0000    498.3484      7.4501     50.5700
  2178.0000      0.0000    520.5872      7.0586     55.8785
  2178.2500      0.0000    564.8954      6.5412     62.9507
  2178.5000      0.0000    601.7335      6.0268     71.0153
  2178.7500      0.0000    607.6381      5.6615     79.0071
  2179.0000      0.0000    579.3762      5.4986     85.6811
  2179.2500      0.0000    533.0211      5.4661     90.0464
  2179.5000      0.0000    491.7281      5.4286     92.0239
  2179.7500      0.0000    472.2878      5.2806     92.5516
  2180.0000      0.0000    477.4554      5.0024     92.8660
  2180.2500      0.0000    495.5356      4.6568     93.5843
  2180.5000      0.0000    507.5130      4.3447     94.3963
  2180.7500      0.0000    500.0833      4.1510     94.5721
  2181.0000      0.0000    475.3821      4.1056     93.6525
  2181.2500      0.0000    448.1593      4.1767     91.6145
  2181.5000      0.0000    434.5617      4.2878     88.6012
  2181.7500      0.0000    444.3361      4.3453     84.8726
  2182.0000      0.0000    479.5557      4.2736     80.9485
  2182.2500      0.0000    534.5773      4.0566     77.3571
  2182.5000      0.0000    596.3671      3.7595     74.2396
  2182.7500      0.0000    649.2767      3.4988     71.5979
  2183.0000      0.0000    682.8896      3.3737     69.8683
  2183.2500      0.0000    695.4271      3.4086     69.8461
  2183.5000      0.0000    689.7963      3.5455     72.0026
  2183.7500      0.0000    667.9243      3.6811     75.9241
  2184.0000      0.0000    629.9398      3.7222     80.1960
  2184.2500      0.0000    578.3402      3.6273     83.0216
  2184.5000      0.0000    521.5625      3.4169     83.5982
  2184.7500      0.0000    472.1284      3.1541     82.9693
  2185.0000      0.0000    440.9919      2.9153     82.9408
  2185.2500      0.0000    432.9025      2.7669     83.8727
  2185.5000      0.0000    444.1015      2.7508     83.9225
  2185.7500      0.0000    462.1564      2.8776     80.8103
  2186.0000      0.0000    471.2207      3.1222     74.0551
  2186.2500      0.0000    463.4169      3.4157     65.2740
  2186.5000      0.0000    446.2019      3.6434     56.7836
  2186.7500      0.0000    435.8398      3.6718     50.3675
  2187.0000      0.0000    443.2043      3.4187     46.8697
