~Version Information
VERS.                      2.0: CWLS Log ASCII Standard - VERSION 2.0
WRAP.                       NO: One line per depth step
~Well Information Block
STRT.FT                -2.7500: 
STOP.FT              2139.2500: 
STEP.FT                 0.2500: 
NULL.                -999.2500: 
COMP.          Petrogulf Corporation: COMPANY
WELL.             State 16-34V: WELL
FLD.           Purgatorie River: FIELD
LOC.           1146' FSL & 1393' FEL: LOCATION
PROV.                 Colorado: PROVINCE
CNTY.               Las Animas: COUNTRY
SRVC.          Patterson Wireline: SERVICE COMPANY
DATE.          Wed Jun 25 13:16:42 2003: LOG DATE
UWI.           05 071 07724 00: UNIQUE WELL ID
~Curve Information Block
DEPT.FT            0 000 00 00: Depth
CCL.                          : Casing Collar Locator
TT3.usec                      : CBL 3' Travel Time
AMP3.mV                       : CBL 3' Amplitude
GR.GAPI                       : Gamma Ray
~Parameter Information Block
~A  Depth       CCL         TT3         AMP3         GR     
# ...
  1839.7500      0.0000    782.5687      1.7859     54.6945
  1840.0000      0.0000    785.4784      1.8257     53.1876
  1840.2500      0.0000    781.8085      1.8010     52.3872
  1840.5000      0.0000    771.9614      1.7186     52.0551
  1840.7500      0.0000    757.6911      1.6401     51.8027
  1841.0000      0.0000    742.0593      1.6527     51.4599
  1841.2500      0.0000    727.9841      1.7775     51.3519
  1841.5000      0.0000    716.4161      1.9226     52.0672
  1841.7500      0.0000    706.1647      1.9588     53.8368
  1842.0000      0.0000    695.6362      1.8433     56.1499
  1842.2500      0.0000    684.5928      1.6580     57.9439
  1842.5000      0.0000    674.2646      1.5213     58.2044
  1842.7500      0.0000    666.1411      1.4766     56.5801
  1843.0000      0.0000    660.9291      1.4819     53.6030
  1843.2500      0.0000    658.4886      1.4919     50.4037
  1843.5000      0.0000    658.3500      1.5134     48.1415
  1843.7500      0.0000    659.9764      1.5795     47.4320
  1844.0000      0.0000    662.4205      1.7008     48.0558
  1844.2500      0.0000    663.9670      1.8431     49.2495
  1844.5000      0.0000    662.6978      1.9470     50.3929
  1844.7500      0.0000    657.9404      1.9748     51.4059
  1845.0000      0.0000    651.1942      1.9341     52.5273
  1845.2500      0.0000    645.3969      1.8471     53.8115
  1845.5000      0.0000    643.1793      1.7245     54.8671
  1845.7500      0.0000    645.5920      1.5891     55.0340
  1846.0000      0.0000    651.8446      1.4893     53.7710
  1846.2500      0.0000    659.7979      1.4649     50.9187
  1846.5000      0.0000    667.0656      1.5218     46.8153
  1846.7500      0.0000    672.2593      1.6410     42.3504
  1847.0000      0.0000    675.4433      1.7879     38.8439
  1847.2500      0.0000    677.4211      1.9247     37.6075
  1847.5000      0.0000    678.5233      2.0282     39.2680
  1847.7500      0.0000    678.0228      2.0804     43.2478
  1848.0000      0.0000    674.8815      2.0514     48.0275
  1848.2500      0.0000    669.2354      1.9225     52.1628
  1848.5000      0.0000    662.8364      1.7233     55.0759
  1848.7500      0.0000    657.7503      1.5282     56.9392
  1849.0000      0.0000    654.8558      1.4190     58.1853
  1849.2500      0.0000    653.7123      1.4331     59.1778
  1849.5000      0.0000    653.4293      1.5292     59.8657
  1849.7500      0.0000    653.3643      1.6230     59.6039
  1850.0000      0.0000    653.2485      1.6725     57.7272
  1850.2500      0.0000    653.0322      1.7118     54.4008
  1850.5000      0.0000    652.7539      1.7895     50.6030
  1850.7500      0.0000    652.4761      1.8974     47.2843
  1851.0000      0.0000    652.2571      1.9727     44.8208
  1851.2500      0.0000    652.1268      1.9727     43.2020
  1851.5000      0.0000    652.0912      1.9319     42.3822
  1851.7500      0.0000    652.1565      1.9338     42.3640
  1852.0000      0.0000    652.3423      2.0319     43.1054
  1852.2500      0.0000    652.6662      2.1989     44.3954
  1852.5000      0.0000    653.1144      2.3494     45.8137
  1852.7500      0.0000    653.6356      2.4048     46.8557
  1853.0000      0.0000    654.1647      2.3365     47.1707
  1853.2500      0.0000    654.6440      2.1658     46.6837
  1853.5000      0.0000    655.0239      1.9514     45.5458
  1853.7500      0.0000    655.2707      1.7753     44.0813
  1854.0000      0.0000    655.4038      1.7032     42.8078
  1854.2500      0.0000    655.6011      1.7372     42.3337
  1854.5000      0.0000    656.3550      1.8081     42.9277
  1854.7500      0.0000    658.6149      1.8251     44.1178
  1855.0000      0.0000    663.5233      1.7444     45.0431
  1855.2500      0.0000    671.3434      1.6033     45.5320
  1855.5000      0.0000    680.2385      1.4890     46.7475
  1855.7500      0.0000    687.0248      1.4633     50.4427
  1856.0000      0.0000    690.2690      1.5086     57.3709
  1856.2500      0.0000    692.1284      1.5648     66.4173
  1856.5000      0.0000    695.9362      1.6136     75.2939
  1856.7500     -2.0000    702.4142      1.6962     82.1018
  1857.0000      0.0000    709.3535      1.8400     86.3251
  1857.2500     -2.0000    714.5759      2.0001     88.6184
  1857.5000      2.0000    717.8777      2.0933     90.0863
  1857.7500      0.0000    719.5567      2.0873     91.8824
  1858.0000      0.0000    718.0240      2.0343     94.9452
  1858.2500      0.0000    710.8705      2.0054     99.5125
  1858.5000      0.0000    698.7175      2.0082    104.8493
  1858.7500      0.0000    686.2546      1.9938    109.6151
  1859.0000      0.0000    678.5206      1.9441    112.4963
  1859.2500      0.0000    677.1221      1.9233    112.6555
  1859.5000      0.0000    680.2440      2.0213    110.0190
  1859.7500      0.0000    685.1951      2.2591    105.4165
  1860.0000      0.0000    690.2369      2.5639    100.4685
  1860.2500      0.0000    694.6168      2.8311     97.1271
  1860.5000      0.0000    698.1006      3.0013     96.8391
  1860.7500      0.0000    700.8984      3.0824     99.7052
  1861.0000      0.0000    702.9988      3.1010    104.3771
  1861.2500      0.0000    702.8851      3.0514    108.9870
  1861.5000      0.0000    698.1927      2.9088    112.3260
  1861.7500      0.0000    688.8840      2.6755    114.3621
  1862.0000      0.0000    678.8553      2.3914    115.9300
  1862.2500      0.0000    673.2335      2.1132    118.0000
  1862.5000      0.0000    674.2662      1.8899    121.1254
  1862.7500      0.0000    679.8284      1.7427    125.4775
  1863.0000      0.0000    685.1006      1.6652    131.0417
  1863.2500      0.0000    685.7861      1.6409    137.2807
  1863.5000      0.0000    680.7593      1.6484    142.7278
  1863.7500      0.0000    672.3419      1.6516    145.4359
  1864.0000      0.0000    664.1020      1.6159    144.1987
  1864.2500      0.0000    658.3045      1.5429    139.4636
  1864.5000      0.0000    655.1437      1.4726    133.0490
  1864.7500      0.0000    653.6819      1.4402    126.9929
  1865.0000      0.0000    653.0056      1.4398    122.7703
  1865.2500      0.0000    652.6465      1.4424    121.2105
  1865.5000      0.0000    652.4487      1.4472    122.3991
  1865.7500      0.0000    652.3734      1.5046    125.4610
  1866.0000      0.0000    652.4236      1.6597    128.9225
  1866.2500      0.0000    652.6073      1.8746    131.6130
  1866.5000      0.0000    652.8995      2.0468    133.0711
  1866.7500      0.0000    653.2328      2.1235    133.1112
  1867.0000      0.0000    653.5466      2.1501    131.5477
  1867.2500      0.0000    653.8358      2.1823    128.6114
  1867.5000      0.0000    654.1375      2.1978    125.0212
  1867.7500      0.0000    654.4678      2.1290    121.0812
  1868.0000      0.0000    654.7865      1.9517    116.3329
  1868.2500      0.0000    655.0149      1.7124    110.6548
  1868.5000      0.0000    655.1010      1.4898    105.1604
  1868.7500      0.0000    655.1234      1.3501    101.5477
  1869.0000      0.0000    655.3914      1.3183    100.8305
  1869.2500      0.0000    656.4006      1.3693    102.7433
  1869.5000      0.0000    658.5258      1.4514    106.1116
  1869.7500      0.0000    661.5281      1.5296    109.6675
  1870.0000      0.0000    664.3165      1.6040    112.7188
  1870.2500      0.0000    665.4554      1.6838    115.4018
  1870.5000      0.0000    664.2145      1.7564    118.4835
  1870.7500      0.0000    661.1793      1.7902    122.5719
  1871.0000      0.0000    657.7620      1.7747    127.1515
  1871.2500      0.0000    655.1406      1.7500    130.5648
  1871.5000      0.0000    653.6758      1.7778    131.1667
  1871.7500      0.0000    653.1199      1.8752    128.5027
  1872.0000      0.0000    653.0956      1.9796    123.4748
  1872.2500      0.0000    653.3319      1.9920    117.5387
  1872.5000      0.0000    653.6476      1.8611    111.8810
  1872.7500      0.0000    653.9058      1.6249    107.3544
  1873.0000      0.0000    654.0398      1.3738    104.8163
