~Version Information
VERS.                      2.0: CWLS Log ASCII Standard - VERSION 2.0
WRAP.                       NO: One line per depth step
~Well Information Block
STRT.FT               423.0000: 
STOP.FT              2306.0000: 
STEP.FT                 0.1000: 
NULL.                -999.2500: 
COMP.          Pioneer Natural Resources: COMPANY
WELL.             Culver 14-12: WELL
FLD.           Purgatoire River: FIELD
LOC.           913' FSL & 1140' FWL: LOCATION
PROV.                 Colorado: PROVINCE
CNTY.               Las Animas: COUNTRY
SRVC.                Patterson: SERVICE COMPANY
DATE.          Tue Jun 07 09:21:05 2005: LOG DATE
UWI.           05 071 08386 00: UNIQUE WELL ID
~Curve Information Block
DEPT.FT            0 000 00 00: Depth
DCAL.in                       : CDL Caliper
RHOB.g/cc                     : CDL Bulk Density
RHOC.g/cc                     : CDL Density Correction
DPOR.pu                       : CDL Density Porosity
GR.GAPI                       : Gamma Ray
NPOR.pu                       : Neutron Porosity
~Parameter Information Block
~A  Depth       DCAL        RHOB        RHOC        DPOR         GR         NPOR    
# ...
  2295.0000      7.7309      2.5977      0.0863      3.1670   -999.2500   -999.2500
  2295.1000      7.7309      2.6329      0.0754      1.0377   -999.2500   -999.2500
  2295.2000      7.7309      2.6755      0.1750     -1.5440   -999.2500   -999.2500
  2295.3000      7.7606      2.7136      0.2367     -3.8553   -999.2500   -999.2500
  2295.4000      7.7606      2.7260      0.2392     -4.6091   -999.2500   -999.2500
  2295.5000      7.8668      2.6973      0.1841     -2.8690   -999.2500   -999.2500
  2295.6000      7.8668      2.6420      0.0610      0.4864   -999.2500   -999.2500
  2295.7000      7.8668      2.5939      0.1063      3.4016   -999.2500   -999.2500
  2295.8000      7.8234      2.5640      0.1561      5.2100   -999.2500   -999.2500
  2295.9000      7.8234      2.5453      0.1206      6.3440   -999.2500   -999.2500
  2296.0000      7.7905      2.5429      0.1291      6.4895   -999.2500   -999.2500
  2296.1000      7.7905      2.5629      0.1303      5.2807   -999.2500   -999.2500
  2296.2000      7.7905      2.5920      0.1338      3.5171   -999.2500   -999.2500
  2296.3000      7.7407      2.6221      0.0846      1.6913   -999.2500   -999.2500
  2296.4000      7.7407      2.6566      0.2011     -0.4015   -999.2500   -999.2500
  2296.5000      7.7812      2.6785      0.1863     -1.7254   -999.2500   -999.2500
  2296.6000      7.7812      2.6733      0.2064     -1.4101   -999.2500   -999.2500
  2296.7000      7.7812      2.6545      0.1663     -0.2738   -999.2500   -999.2500
  2296.8000      7.8267      2.6373      0.1356      0.7706   -999.2500   -999.2500
  2296.9000      7.8267      2.6245      0.1374      1.5484   -999.2500   -999.2500
  2297.0000      7.8172      2.6224      0.1167      1.6722   -999.2500   -999.2500
  2297.1000      7.8172      2.6297      0.1310      1.2333   -999.2500   -999.2500
  2297.2000      7.8172      2.6292      0.1711      1.2628   -999.2500   -999.2500
  2297.3000      7.7706      2.6210      0.0986      1.7565   -999.2500   -999.2500
  2297.4000      7.7706      2.6263      0.0689      1.4384   -999.2500   -999.2500
  2297.5000      7.8145      2.6490      0.1007      0.0588   -999.2500   -999.2500
  2297.6000      7.8145      2.6634      0.1525     -0.8099   -999.2500   -999.2500
  2297.7000      7.8145      2.6492      0.1337      0.0508   -999.2500   -999.2500
  2297.8000      7.8427      2.6211      0.0791      1.7496   -999.2500   -999.2500
  2297.9000      7.8427      2.5997      0.1022      3.0490   -999.2500   -999.2500
  2298.0000      7.8631      2.5786      0.1453      4.3280   -999.2500   -999.2500
  2298.1000      7.8631      2.5559      0.0566      5.7035   -999.2500   -999.2500
  2298.2000      7.8631      2.5493      0.0749      6.1033   -999.2500   -999.2500
  2298.3000      7.8607      2.5541      0.0996      5.8093   -999.2500   -999.2500
  2298.4000      7.8607      2.5559      0.0287      5.7057   -999.2500   -999.2500
  2298.5000      7.8557      2.5608      0.0391      5.4081   -999.2500   -999.2500
  2298.6000      7.8557      2.5711      0.0800      4.7793   -999.2500   -999.2500
  2298.7000      7.8557      2.5747      0.0514      4.5652   -999.2500   -999.2500
  2298.8000      7.8565      2.5633      0.0620      5.2573   -999.2500   -999.2500
  2298.9000      7.8565      2.5485      0.0259      6.1539   -999.2500   -999.2500
  2299.0000      7.8554      2.5492      0.0325      6.1079   -999.2500   -999.2500
  2299.1000      7.8554      2.5561      0.0997      5.6916   -999.2500   -999.2500
  2299.2000      7.8554      2.5430      0.0622      6.4822   -999.2500   -999.2500
  2299.3000      7.8651      2.5161      0.0032      8.1128   -999.2500   -999.2500
  2299.4000      7.8651      2.5023      0.0064      8.9490   -999.2500   -999.2500
  2299.5000      7.8645      2.5071      0.0671      8.6632   -999.2500   -999.2500
  2299.6000      7.8645      2.5167      0.0488      8.0813   -999.2500   -999.2500
  2299.7000      7.8645      2.5261      0.0156      7.5084   -999.2500   -999.2500
  2299.8000      7.8599      2.5375      0.0656      6.8210   -999.2500   -999.2500
  2299.9000      7.8599      2.5477      0.0442      6.1996   -999.2500   -999.2500
  2300.0000      7.8611      2.5535      0.0995      5.8491   -999.2500   -999.2500
  2300.1000      7.8611      2.5546      0.0722      5.7809   -999.2500   -999.2500
  2300.2000      7.8611      2.5564      0.0755      5.6705   -999.2500   -999.2500
  2300.3000      7.8611      2.5599      0.0633      5.4628   -999.2500   -999.2500
  2300.4000      7.8611      2.5587      0.0577      5.5309   -999.2500   -999.2500
  2300.5000      7.8601      2.5520      0.0575      5.9423   -999.2500   -999.2500
  2300.6000      7.8601      2.5436      0.0737      6.4506   -999.2500   -999.2500
  2300.7000      7.8601      2.5357      0.0595      6.9249   -999.2500   -999.2500
  2300.8000      7.8652      2.5266      0.0669      7.4795   -999.2500   -999.2500
  2300.9000      7.8652      2.5194      0.0447      7.9161   -999.2500   -999.2500
  2301.0000      7.8570      2.5273      0.0539      7.4348   -999.2500   -999.2500
  2301.1000      7.8570      2.5484      0.0938      6.1556   -999.2500   -999.2500
  2301.2000      7.8570      2.5614      0.0869      5.3692   -999.2500   -999.2500
  2301.3000      7.8545      2.5633      0.0320      5.2532   -999.2500   -999.2500
  2301.4000      7.8545      2.5649      0.0390      5.1585   -999.2500   -999.2500
  2301.5000      7.8538      2.5600      0.0527      5.4541   -999.2500   -999.2500
  2301.6000      7.8538      2.5398      0.0693      6.6778   -999.2500   -999.2500
  2301.7000      7.8538      2.5047      0.0375      8.8090   -999.2500   -999.2500
  2301.8000      7.8467      2.4671      0.0097     11.0867   -999.2500   -999.2500
  2301.9000      7.8467      2.4548     -0.0153     11.8303   -999.2500   -999.2500
  2302.0000      7.8405      2.4769      0.0604     10.4923   -999.2500   -999.2500
  2302.1000      7.8405      2.5107      0.0755      8.4422   -999.2500   -999.2500
  2302.2000      7.8405      2.5496      0.0636      6.0842   -999.2500   -999.2500
  2302.3000      7.8008      2.6244      0.0703      1.5519   -999.2500   -999.2500
  2302.4000      7.8008      2.7640      0.1273     -6.9114   -999.2500   -999.2500
  2302.5000      7.7646      2.8212      0.2021    -10.3732   -999.2500   -999.2500
  2302.6000      7.7646      2.3596      0.6467     17.5980   -999.2500   -999.2500
  2302.7000      7.7646      1.3363      0.0200     79.6157   -999.2500   -999.2500
  2302.8000      7.6988      0.4522      0.0200    133.2006   -999.2500   -999.2500
  2302.9000      7.6988      0.0858   -999.2500    155.4087   -999.2500   -999.2500
  2303.0000      7.1249      0.0088   -999.2500    160.0707   -999.2500   -999.2500
  2303.1000      7.1249      0.0005   -999.2500    160.5770   -999.2500   -999.2500
  2303.2000      7.1249      0.0000   -999.2500    160.6061   -999.2500   -999.2500
  2303.3000      5.3304      0.0000   -999.2500    160.6061   -999.2500   -999.2500
  2303.4000      5.3304   -999.2500   -999.2500   -999.2500   -999.2500   -999.2500
  2303.5000      5.0936   -999.2500   -999.2500   -999.2500   -999.2500   -999.2500
  2303.6000      5.0936   -999.2500   -999.2500   -999.2500   -999.2500   -999.2500
  2303.7000      5.0936   -999.2500   -999.2500   -999.2500   -999.2500   -999.2500
  2303.8000   -999.2500   -999.2500   -999.2500   -999.2500   -999.2500   -999.2500
  2303.9000   -999.2500   -999.2500   -999.2500   -999.2500   -999.2500   -999.2500
  2304.0000   -999.2500   -999.2500   -999.2500   -999.2500   -999.2500   -999.2500
  2304.1000   -999.2500   -999.2500   -999.2500   -999.2500   -999.2500   -999.2500
  2304.2000   -999.2500   -999.2500   -999.2500   -999.2500   -999.2500   -999.2500
  2304.3000   -999.2500   -999.2500   -999.2500   -999.2500   -999.2500   -999.2500
  2304.4000   -999.2500   -999.2500   -999.2500   -999.2500   -999.2500   -999.2500
  2304.5000   -999.2500   -999.2500   -999.2500   -999.2500   -999.2500   -999.2500
