~Version Information
VERS.                      2.0: CWLS Log ASCII Standard - VERSION 2.0
WRAP.                       NO: One line per depth step
~Well Information Block
STRT.FT                -9.0000: 
STOP.FT              2518.0000: 
STEP.FT                 0.2500: 
NULL.                -999.2500: 
COMP.          Petrogulf Corporation: COMPANY
WELL.            Montoya 7-12V: WELL
FLD.           Purgatorie River: FIELD
LOC.           1764' FNL & 728' FWL: LOCATION
CNTY.               Las Animas: COUNTY
SRVC.                         : SERVICE COMPANY
DATE.          Mon Mar 08 16:11:04 2004: LOG DATE
UWI.           05-071-07887-00: UNIQUE WELL ID
STAT.                 Colorado: STATE
~Curve Information Block
DEPT.FT            0 000 00 00: Depth
GR.GAPI                       : Gamma Ray
CCL.                          : Casing Collar Locator
TT3.usec                      : CBL 3' Travel Time
AMP3.mV                       : CBL 3' Amplitude
~Parameter Information Block
~A  Depth        GR         CCL         TT3         AMP3    
# ...
   493.5000    103.7676     -5.0000    277.3101     60.4256
   493.7500    104.7285      0.0000    277.5705     60.5994
   494.0000    104.3726      0.0000    277.6437     60.4443
   494.2500    101.3976      0.0000    277.4154     60.2295
   494.5000     96.1487      0.0000    276.8909     60.3591
   494.7500     90.2710      0.0000    276.1497     61.4827
   495.0000     85.1025      0.0000    275.2212     64.3650
   495.2500     80.8054      0.0000    274.1123     68.9400
   495.5000     77.1774      0.0000    272.9509     73.9064
   495.7500     74.7774      0.0000    271.9786     77.7659
   496.0000     74.7831      0.0000    271.3692     79.9460
   496.2500     77.8978      0.0000    271.0916     80.8272
   496.5000     83.7060      0.0000    270.9740     81.0134
   496.7500     91.0547      0.0000    270.8483     80.8852
   497.0000     98.8439      0.0000    270.6331     80.6950
   497.2500    106.4096      0.0000    270.3670     80.6057
   497.5000    113.4580      0.0000    270.1541     80.6094
   497.7500    119.9627      0.0000    270.0458     80.6192
   498.0000    126.0359      0.0000    270.0174     80.6197
   498.2500    131.6297      0.0000    270.0458     80.6696
   498.5000    136.3968      0.0000    270.1541     80.7834
   498.7500    139.9356      0.0000    270.3669     80.8982
   499.0000    141.9714      0.0000    270.6320     80.9399
   499.2500    142.2324      0.0000    270.8383     80.8699
   499.5000    140.3712      0.0000    270.9182     80.7699
   499.7500    136.1330      0.0000    270.8732     80.7856
   500.0000    129.5983      0.0000    270.7412     80.8842
   500.2500    121.3989      0.0000    270.5799     80.8958
   500.5000    112.8851      0.0000    270.4200     80.7902
   500.7500    105.8505      0.0000    270.2578     80.6891
   501.0000    101.6193      0.0000    270.1192     80.6671
   501.2500    100.1904      0.0000    270.0458     80.7050
   501.5000    100.4125      0.0000    270.0524     80.7964
   501.7500    101.1056      0.0000    270.1551     80.9527
   502.0000    102.0426      0.0000    270.3671     81.1208
   502.2500    103.8574      0.0000    270.6329     81.2127
   502.5000    106.9177      0.0000    270.8448     81.2275
   502.7500    110.2344      0.0000    270.9466     81.2451
   503.0000    111.8166      0.0000    270.9466     81.2888
   503.2500    110.5258      0.0000    270.8448     81.3257
   503.5000    107.4021      0.0000    270.6329     81.3677
   503.7500    104.6917      0.0000    270.3670     81.4251
   504.0000    103.6014      0.0000    270.1541     81.4514
   504.2500    103.3940      0.0000    270.0447     81.4187
   504.5000    102.6430      0.0000    270.0088     81.3467
   504.7500    100.7610      0.0000    270.0022     81.2564
   505.0000     98.0473      0.0000    270.0088     81.1531
   505.2500     94.8102      0.0000    270.0447     81.0601
   505.5000     91.1590      0.0000    270.1540     81.0446
   505.7500     87.6333      0.0000    270.3659     81.1804
   506.0000     85.4469      0.0000    270.6243     81.4489
   506.2500     85.7779      0.0000    270.8012     81.6867
   506.5000     88.9128      0.0000    270.8012     81.7237
   506.7500     94.1403      0.0000    270.6244     81.5821
   507.0000    100.3528      0.0000    270.3670     81.4566
   507.2500    106.7775      0.0000    270.1627     81.4518
   507.5000    113.2577      0.0000    270.0893     81.4576
   507.7500    119.9040      0.0000    270.1617     81.3668
   508.0000    126.5155      0.0000    270.3594     81.2355
   508.2500    132.3539      0.0000    270.5883     81.1861
   508.5000    136.4251      0.0000    270.6920     81.2855
   508.7500    138.0687      0.0000    270.5894     81.4388
   509.0000    137.6890      0.0000    270.3670     81.4126
   509.2500    137.0231      0.0000    270.1976     81.1306
   509.5000    138.0600      0.0000    270.1986     80.8003
   509.7500    141.0984      0.0000    270.3746     80.5998
   510.0000    144.0795      0.0000    270.6254     80.5195
   510.2500    144.3992      0.0000    270.8014     80.5115
   510.5000    141.4368      0.0000    270.8024     80.4950
   510.7500    137.0462      0.0000    270.6330     80.3902
   511.0000    133.6253      0.0000    270.4105     80.2602
   511.2500    132.0757      0.0000    270.3069     80.2553
   511.5000    131.5144      0.0000    270.4030     80.4527
   511.7500    130.4282      0.0000    270.5970     80.7978
   512.0000    127.9488      0.0000    270.6930     81.1508
   512.2500    124.3792      0.0000    270.5884     81.3843
   512.5000    120.7219      0.0000    270.3594     81.4771
   512.7500    117.6854      0.0000    270.1617     81.5036
   513.0000    115.2059      0.0000    270.0892     81.5040
   513.2500    112.8756      0.0000    270.1617     81.4667
   513.5000    110.4871      0.0000    270.3595     81.4462
   513.7500    108.0314      0.0000    270.5895     81.4951
   514.0000    105.4950      0.0000    270.7005     81.5190
   514.2500    102.7530      0.0000    270.6319     81.4107
   514.5000     99.4047      0.0000    270.5036     81.2274
   514.7500     94.9115      0.0000    270.4753     81.0830
   515.0000     89.3840      0.0000    270.5247     80.9744
   515.2500     84.1194      0.0000    270.4964     80.8224
   515.5000     80.8318      0.0000    270.3680     80.6676
   515.7500     80.2951      0.0000    270.2984     80.6838
   516.0000     81.9405      0.0000    270.4020     80.8922
   516.2500     84.5756      0.0000    270.5979     81.0703
   516.5000     87.1625      0.0000    270.7006     81.0512
   516.7500     89.0354      0.0000    270.6248     80.8645
   517.0000     89.8125      0.0000    270.4733     80.5208
   517.2500     89.4727      0.0000    270.4106     79.6603
   517.5000     88.6896      0.0000    270.5430     77.2140
   517.7500     88.7382      0.0000    271.0388     72.1553
   518.0000     90.3609      0.0000    272.1159     65.7886
   518.2500     92.5576      0.0000    273.6487     61.4157
   518.5000     93.0348      0.0000    275.1337     59.9085
   518.7500     90.2803      0.0000    276.2034     59.2264
   519.0000     85.0633      0.0000    276.8108     58.5403
   519.2500     79.7372      0.0000    277.0445     58.4035
   519.5000     76.2451      5.0000    277.0619     58.7017
   519.7500     74.9189      4.7217    277.0173     58.9701
   520.0000     74.8807      0.0000    276.9518     59.1643
   520.2500     75.2584      0.0000    276.7910     59.5208
   520.5000     76.0866      0.0000    276.4146     60.2769
   520.7500     78.2157      0.0000    275.7391     61.9125
   521.0000     82.5163      0.0000    274.7566     64.8991
   521.2500     89.3197      0.0000    273.5247     68.3946
   521.5000     98.4953      0.0000    272.2151     71.0986
   521.7500    109.6810      0.0000    271.1327     73.2396
   522.0000    122.3909      0.0000    270.5168     75.2813
   522.2500    136.1250      0.0000    270.3210     76.7176
   522.5000    150.2726      0.0000    270.2857     77.2408
   522.7500    163.5701      0.0000    270.2154     77.1950
   523.0000    173.8108      0.0000    270.1095     76.9726
   523.2500    178.9546      0.0000    270.0361     76.7819
   523.5000    179.0179      0.0000    270.0086     76.7899
   523.7500    176.3897      0.0000    270.0086     77.0669
   524.0000    173.6601      0.0000    270.0361     77.4407
   524.2500    171.4423      0.0000    270.1093     77.6909
   524.5000    168.8340      0.0000    270.2130     77.7741
   524.7500    165.3266      0.0000    270.2660     77.7600
   525.0000    161.2036      0.0000    270.2130     77.7166
   525.2500    156.4184      0.0000    270.1093     77.6681
   525.5000    150.3077      0.0000    270.0360     77.6137
   525.7500    142.7888      0.0000    270.0076     77.6184
   526.0000    135.3362      0.0000    270.0010     77.7446
   526.2500    130.3563      0.0000    270.0001     77.8682
   526.5000    129.4822      0.0000    270.0000     77.8230
   526.7500    132.2810      0.0000    270.0000     77.6615
