~Version Information
 VERS.                                  2.0 : CWLS LAS VERSION
 WRAP.                                   NO : WRAPING MODE
 SWARE .                  MController 2.6.3 : SOFTWARE VERSION
~Well Information
 WELL.                       Stampede 42-18 : WELL
 COMP.    Pioneer Natural Resources USA Inc : COMPANY
 FLD.                      Purgatoire River : FIELD
 LOC.                SE/NE Sec 18 T32S R65W : LOCATION
 DATE.                           6/8-9/2007 : DATE(S) LOGGED
 SRVC.       Blanco Geological Services LLC : SERVICE COMPANY
 STAT.                                   CO : STATE
 CNTY.                           Las Animas : COUNTY
 CTRY.                                  USA : COUNTRY
 API.                       05-071-08237-00 : API NUMBER
 STRT.FT                             561.00 : START DEPTH
 STOP.FT                            1934.00 : STOP DEPTH
 STEP.FT                               1.00 : DEPTH INCREMENT
 NULL.                                -9999 : NULL VALUE
~Curve information
 DEPTH.FT                                   :
 ROP.MIN/FT                                 :
 GAS.UNITS                                  :
~ASCII Log data
# ...
      761.00         0.30       3265.6 
      762.00         0.30       3303.3 
      763.00         0.27       3387.0 
      764.00         0.30       3421.2 
      765.00         0.25       3419.8 
      766.00         0.27       3417.7 
      767.00         0.23       3414.3 
      768.00         0.27       3415.7 
      769.00         0.27       3404.9 
      770.00         0.23       3383.2 
      771.00         0.37       3412.2 
      772.00         3.08       5897.0 
      773.00         0.23       5545.0 
      774.00         0.53       4208.8 
      775.00         0.33       3747.6 
      776.00         0.30       4246.1 
      777.00         0.33       4383.0 
      778.00         0.32       4387.2 
      779.00         0.20       4243.7 
      780.00         0.07       4124.1 
      781.00         0.23       4055.6 
      782.00         0.33       3918.4 
      783.00         0.33       3784.2 
      784.00         0.33       3589.9 
      785.00         0.33       3554.6 
      786.00         0.30       3574.7 
      787.00         0.33       3591.3 
      788.00         0.33       3588.5 
      789.00         0.30       3546.3 
      790.00         0.25       3501.7 
      791.00         0.20       3471.0 
      792.00         0.27       3438.8 
      793.00         0.20       3407.7 
      794.00         0.13       3401.5 
      795.00         0.07       3401.5 
      796.00         0.27       3398.4 
      797.00         0.17       3388.7 
      798.00         0.17       3386.3 
      799.00         0.30       3378.0 
      800.00         0.30       3269.4 
      801.00         0.33       3389.0 
      802.00         3.38       5499.4 
      803.00         0.43       6047.7 
      804.00         0.45       4816.9 
      805.00         0.33       3400.1 
      806.00         0.30       3864.8 
      807.00         0.37       4201.2 
      808.00         0.30       4308.3 
      809.00         0.30       4288.3 
      810.00         0.27       4127.9 
      811.00         0.30       3981.6 
      812.00         0.23       3864.8 
      813.00         0.30       3787.0 
      814.00         0.30       3705.0 
      815.00         0.32       3588.2 
      816.00         0.30       3514.5 
      817.00         0.23       3460.3 
      818.00         0.17       3448.9 
      819.00         0.23       3446.4 
      820.00         0.27       3443.0 
      821.00         0.27       3440.6 
      822.00         0.23       3437.8 
      823.00         0.17       3431.2 
      824.00         0.27       3424.3 
      825.00         0.30       3430.2 
      826.00         0.27       3424.0 
      827.00         0.27       3355.8 
      828.00         0.32       3410.8 
      829.00         0.30       3443.3 
      830.00         0.30       3441.9 
      831.00         0.27       3420.5 
      832.00         2.82       3379.4 
      833.00         0.27       2051.4 
      834.00         0.40       4966.6 
      835.00         0.27       6140.4 
      836.00         0.30       6203.0 
      837.00         0.37       5267.8 
      838.00         0.30       3290.2 
      839.00         0.33       3390.1 
      840.00         0.37       3997.5 
      841.00         0.35       4269.3 
      842.00         0.33       4338.8 
      843.00         0.37       4271.4 
      844.00         0.33       4032.8 
      845.00         0.33       3876.9 
      846.00         0.30       3834.0 
      847.00         0.33       3785.9 
      848.00         0.27       3665.3 
      849.00         0.30       3538.4 
      850.00         0.30       3478.9 
      851.00         0.30       3443.7 
      852.00         0.35       3369.3 
      853.00         0.30       3263.9 
      854.00         0.27       3283.6 
      855.00         0.33       3379.7 
      856.00         0.37       3443.3 
      857.00         0.37       3455.4 
      858.00         0.40       3449.9 
      859.00         0.27       3447.8 
      860.00         0.17       3460.6 
      861.00         0.37       3617.6 
      862.00         2.65       3706.1 
      863.00         0.33       3597.9 
      864.00         0.37       5806.2 
      865.00         0.35       6010.3 
      866.00         0.37       5584.7 
      867.00         0.30       5064.3 
      868.00         0.27       4632.8 
      869.00         0.27       4291.9 
      870.00         0.33       3827.4 
      871.00         0.37       3276.8 
      872.00         0.33       3162.6 
      873.00         0.27       3229.3 
      874.00         0.30       3256.7 
      875.00         0.30       3247.3 
      876.00         0.32       3176.5 
      877.00         0.13       3100.1 
      878.00         0.13       3076.5 
      879.00         0.23       3096.0 
      880.00         0.30       3165.7 
      881.00         0.30       3140.7 
      882.00         0.27       2845.7 
      883.00         0.33       3137.3 
      884.00         0.37       3325.4 
      885.00         0.23       3374.0 
      886.00         0.20       3433.0 
      887.00         0.30       3504.9 
      888.00         0.23       3564.6 
      889.00         0.32       3575.7 
      890.00         0.37       3500.7 
      891.00         0.33       3309.5 
      892.00         4.75       6727.7 
      893.00         0.40       6385.6 
      894.00         0.40       2282.3 
      895.00         0.45        692.8 
      896.00         0.27       1454.0 
      897.00         0.20       2141.3 
      898.00         0.13       2554.6 
      899.00         0.27       3177.0 
      900.00         0.37       3540.2 
      901.00         0.37       3539.9 
      902.00         0.33       3447.5 
      903.00         0.30       3470.4 
      904.00         0.13       3470.1 
      905.00         0.10       3464.9 
      906.00         0.07       3446.5 
      907.00         0.27       3407.9 
      908.00         0.33       3313.4 
      909.00         0.32       3222.5 
      910.00         0.30       2988.4 
      911.00         0.23       3031.8 
      912.00         0.27       3148.1 
      913.00         0.27       3236.0 
      914.00         0.27       3360.3 
      915.00         0.40       3596.1 
      916.00         0.33       3607.9 
      917.00         0.30       3417.6 
      918.00         0.37       3266.2 
      919.00         0.40       3132.2 
      920.00         0.25       3070.7 
      921.00         0.23       3123.1 
      922.00         4.18       5101.8 
      923.00         0.43       5658.0 
      924.00         0.30       4746.4 
      925.00         0.27       3357.1 
      926.00         0.27       2921.0 
      927.00         0.33       3208.0 
      928.00         0.37       3312.7 
      929.00         0.32       3405.6 
      930.00         0.23       3454.8 
      931.00         0.23       3411.9 
      932.00         0.17       3284.8 
      933.00         0.10       3174.8 
      934.00         0.30       3134.6 
      935.00         0.37       3181.4 
      936.00         0.40       3167.8 
      937.00         0.37       3006.5 
      938.00         0.37       3195.4 
      939.00         0.30       3319.0 
      940.00         0.27       3401.4 
      941.00         0.38       3397.6 
      942.00         0.33       3198.5 
      943.00         0.20       2986.6 
      944.00         0.23       2933.9 
      945.00         0.27       2932.1 
      946.00         0.23       2954.5 
      947.00         0.10       2955.9 
      948.00         0.23       2949.9 
      949.00         0.23       2917.8 
      950.00         0.27       2868.2 
      951.00         0.20       2829.5 
      952.00         4.63       6630.6 
      953.00         0.37       6344.4 
      954.00         0.33       3760.2 
      955.00         0.27       1570.5 
      956.00         0.33        568.8 
      957.00         0.30       1343.4 
      958.00         0.40       2525.7 
      959.00         0.30       3191.8 
      960.00         0.23       3475.7 
