~Version Information
VERS.                      2.0: CWLS Log ASCII Standard - VERSION 2.0
WRAP.                       NO: One line per depth step
~Well Information Block
STRT.FT               952.6000: 
STOP.FT              2511.5000: 
STEP.FT                 0.1000: 
NULL.                -999.2500: 
COMP.          Petrogulf Corporation: COMPANY
WELL.             Royal 8-33 V: WELL
FLD.           Purgatoire River: FIELD
LOC.           2365' FSL & 2336' FEL: LOCATION
PROV.                 Colorado: PROVINCE
CNTY.               Las Animas: COUNTRY
SRVC.                Patterson: SERVICE COMPANY
DATE.          Fri Dec 05 09:15:49 2003: LOG DATE
UWI.                          : UNIQUE WELL ID
~Curve Information Block
DEPT.FT            0 000 00 00: Depth
DCAL.in                       : CDL Caliper
RHOB.g/cc                     : CDL Bulk Density
RHOC.g/cc                     : CDL Density Correction
DPOR.pu                       : CDL Density Porosity
GR.GAPI                       : Gamma Ray
NPOR.pu                       : Neutron Porosity
~Parameter Information Block
~A  Depth       DCAL        RHOB        RHOC        DPOR         GR         NPOR    
# ...
  1480.6000      8.1305      2.6357      0.1830      0.8670    115.1440     18.6245
  1480.7000      8.1305      2.6336      0.0788      0.9966    109.9528     19.1781
  1480.8000      8.1269      2.6411      0.1556      0.5372    104.8623     19.2708
  1480.9000      8.1269      2.6520      0.1918     -0.1232    103.0610     19.1558
  1481.0000      8.1016      2.6554      0.1503     -0.3243    105.9131     19.2087
  1481.1000      8.1016      2.6538      0.1340     -0.2302    109.8027     19.3803
  1481.2000      8.1016      2.6515      0.1542     -0.0916    115.2627     19.4141
  1481.3000      8.0848      2.6589      0.1742     -0.5406    120.8766     19.5804
  1481.4000      8.0848      2.6743      0.1761     -1.4705    120.6609     20.2328
  1481.5000      8.0824      2.6690      0.1894     -1.1524    119.1903     21.2694
  1481.6000      8.0824      2.6346      0.0651      0.9350    122.7784     22.2629
  1481.7000      8.0824      2.6040      0.0752      2.7874    126.3087     22.7738
  1481.8000      8.1044      2.6011      0.0615      2.9649    125.0062     22.6507
  1481.9000      8.1044      2.6120      0.0831      2.3024    123.0010     22.3906
  1482.0000      8.1209      2.6140      0.0899      2.1822    123.9464     22.4417
  1482.1000      8.1209      2.6076      0.0648      2.5712    127.2171     22.5341
  1482.2000      8.1209      2.5976      0.1383      3.1768    132.4551     22.3151
  1482.3000      8.1417      2.5796      0.0755      4.2671    138.1756     21.8491
  1482.4000      8.1417      2.5629      0.0838      5.2796    140.5968     21.3674
  1482.5000      8.1627      2.5574      0.0522      5.6112    139.2269     21.1052
  1482.6000      8.1627      2.5594      0.0727      5.4882    137.5728     21.1656
  1482.7000      8.1627      2.5597      0.1080      5.4756    137.3313     21.4158
  1482.8000      8.1568      2.5575      0.0659      5.6066    139.1049     21.3207
  1482.9000      8.1568      2.5620      0.0921      5.3350    139.7356     20.5584
  1483.0000      8.1767      2.5771      0.0699      4.4202    135.3164     19.7255
  1483.1000      8.1767      2.5980      0.0573      3.1522    128.6649     19.1505
  1483.2000      8.1767      2.6001      0.1467      3.0227    124.4219     18.3855
  1483.3000      8.2341      2.5714      0.0217      4.7633    125.8467     17.2211
  1483.4000      8.2341      2.5507      0.0354      6.0171    127.7187     16.1916
  1483.5000      8.2516      2.5741      0.0065      4.6012    122.7655     15.8188
  1483.6000      8.2516      2.6290      0.1097      1.2754    116.1558     15.8039
  1483.7000      8.2516      2.6802      0.1053     -1.8280    116.3932     15.6593
  1483.8000      8.2571      2.7095      0.1558     -3.6048    122.1120     15.5523
  1483.9000      8.2571      2.7170      0.1106     -4.0586    123.9770     15.7819
  1484.0000      8.2579      2.7125      0.0948     -3.7883    119.8576     16.2913
  1484.1000      8.2579      2.7053      0.0986     -3.3496    118.0303     16.7185
  1484.2000      8.2579      2.6831      0.1270     -2.0069    117.4261     16.8011
  1484.3000      8.2745      2.6249      0.0670      1.5223    112.1995     16.7570
  1484.4000      8.2745      2.5488     -0.0469      6.1355    106.7936     16.9853
  1484.5000      8.2921      2.5114     -0.0857      8.3993    105.8024     17.4042
  1484.6000      8.2921      2.5309      0.0171      7.2165    106.3492     17.7453
  1484.7000      8.2921      2.5626      0.0805      5.2995    104.7890     17.8839
  1484.8000      8.3068      2.5744      0.0243      4.5800    100.5773     17.6509
  1484.9000      8.3068      2.5788      0.0155      4.3135     97.6170     17.4124
  1485.0000      8.3150      2.5805      0.0953      4.2120    101.2347     17.4906
  1485.1000      8.3150      2.5662      0.0712      5.0814    108.3878     17.4171
  1485.2000      8.3150      2.5444     -0.0173      6.3990    108.5946     17.1907
  1485.3000      8.3239      2.5382     -0.0192      6.7744    101.5755     17.1923
  1485.4000      8.3239      2.5406      0.0704      6.6314     99.5048     17.2586
  1485.5000      8.2634      2.5296      0.0377      7.2951    106.7977     17.3730
  1485.6000      8.2634      2.5206     -0.0243      7.8413    112.8449     17.6458
  1485.7000      8.2634      2.5406      0.0149      6.6324    109.9393     17.8147
  1485.8000      8.1897      2.5729      0.0524      4.6739    105.1279     17.6495
  1485.9000      8.1897      2.5824      0.0874      4.0988    106.7410     17.3581
  1486.0000      8.1578      2.5687      0.0387      4.9255    109.0113     17.3577
  1486.1000      8.1578      2.5683      0.0356      4.9509    103.5758     17.6683
  1486.2000      8.1578      2.6049      0.1165      2.7347     95.9805     18.0255
  1486.3000      8.1649      2.6576      0.1838     -0.4627     95.9129     18.1776
  1486.4000      8.1649      2.6899      0.2281     -2.4210    105.1499     17.8849
  1486.5000      8.1307      2.6981      0.1384     -2.9174    115.4224     17.3632
  1486.6000      8.1307      2.7038      0.1615     -3.2602    117.1668     16.6160
  1486.7000      8.1307      2.7138      0.1480     -3.8670    114.3378     15.4871
  1486.8000      8.1002      2.7232      0.1748     -4.4351    112.8326     14.5326
  1486.9000      8.1002      2.7288      0.1453     -4.7766    108.3623     14.3694
  1487.0000      8.1101      2.7300      0.1509     -4.8468    100.7913     14.7806
  1487.1000      8.1101      2.7170      0.1288     -4.0589     94.7344     15.1501
  1487.2000      8.1101      2.6788      0.1107     -1.7424     90.8543     15.1449
  1487.3000      8.1165      2.6307      0.0493      1.1677     88.1571     14.7491
  1487.4000      8.1165      2.5970      0.0642      3.2092     87.6850     14.4930
  1487.5000      8.1212      2.5766      0.0237      4.4464     90.1949     15.0080
  1487.6000      8.1212      2.5564     -0.0122      5.6747     93.5433     16.0306
  1487.7000      8.1212      2.5438     -0.0429      6.4353     96.5475     16.8393
  1487.8000      8.1379      2.5507      0.0362      6.0195    101.0090     17.1044
  1487.9000      8.1379      2.5671      0.0580      5.0270    105.8995     16.7130
  1488.0000      8.1316      2.5820      0.0835      4.1212    105.9236     15.8165
  1488.1000      8.1316      2.5972      0.0912      3.2004    101.3539     15.0252
  1488.2000      8.1316      2.6063      0.1385      2.6490     99.9838     14.9755
  1488.3000      8.1143      2.5878      0.0961      3.7685    104.6567     15.5036
  1488.4000      8.1143      2.5431      0.0399      6.4790    109.9017     15.8501
  1488.5000      8.0872      2.5095      0.0162      8.5153    112.3507     15.6582
  1488.6000      8.0872      2.5221      0.0076      7.7538    110.7683     15.3115
  1488.7000      8.0872      2.5731      0.0579      4.6585    103.9042     15.2930
  1488.8000      8.1279      2.6203      0.0956      1.7974     98.5058     15.5250
  1488.9000      8.1279      2.6424      0.0619      0.4618    102.4034     15.6776
  1489.0000      8.1886      2.6457      0.0967      0.2584    111.6591     15.8217
  1489.1000      8.1886      2.6347      0.1023      0.9259    117.9401     16.0411
  1489.2000      8.1886      2.6187      0.0625      1.8988    118.6305     16.1126
  1489.3000      8.2161      2.6136      0.0897      2.2033    115.9365     15.9887
  1489.4000      8.2161      2.6246      0.0633      1.5418    111.3970     16.0742
  1489.5000      8.2301      2.6367      0.1308      0.8046    105.1277     16.6882
  1489.6000      8.2301      2.6351      0.0884      0.9052    100.0726     17.2461
  1489.7000      8.2301      2.6266      0.1276      1.4187     96.9856     17.1331
  1489.8000      8.1631      2.6252      0.0819      1.5037     94.5008     16.7968
  1489.9000      8.1631      2.6335      0.1283      1.0030     93.5286     16.7068
  1490.0000      8.1461      2.6385      0.0996      0.6983     92.6852     16.5867
  1490.1000      8.1461      2.6244      0.1127      1.5499     91.3692     16.2130
