~Version Information
VERS.                      2.0: CWLS Log ASCII Standard - VERSION 2.0
WRAP.                       NO: One line per depth step
~Well Information Block
STRT.FT               250.0000: 
STOP.FT               894.7500: 
STEP.FT                 0.2500: 
NULL.                -999.2500: 
COMP.          Pioneer Natural Resources: COMPANY
WELL.          Santisteven 13-22: WELL
FLD.           Purgatoire River: FIELD
LOC.           1861' FSL & 992' FWL----: LOCATION
PROV.                 Colorado: PROVINCE
CNTY.               Las Animas: COUNTRY
SRVC.                Patterson: SERVICE COMPANY
DATE.          Sat Apr 02 14:49:07 2005: LOG DATE
UWI.           05 071 08337 00: UNIQUE WELL ID
~Curve Information Block
DEPT.FT            0 000 00 00: Depth
SN.Ohm-m                      : IEL Short Normal
SP.mV                         : IEL Spontaneous Potential
DIR.Ohm-m                     : IEL Induction Resistivity
GR.GAPI                       : Gamma Ray
~Parameter Information Block
~A  Depth        SN          SP         DIR          GR     
# ...
   484.5000    652.7505     26.0694     17.2717    123.1545
   484.7500    652.7505     26.0686     17.8742    123.1382
   485.0000    652.7505     26.0679     18.4829    126.6024
   485.2500    652.7505     26.0675     19.0741    129.9927
   485.5000    652.7505     26.0680     19.6232    133.7846
   485.7500    652.7505     26.0697     20.1061    134.4007
   486.0000    652.7505     26.0733     20.5053    132.3869
   486.2500    652.7505     26.0791     20.8164    129.8067
   486.5000    652.7505     26.0872     21.0543    126.0417
   486.7500    652.7505     26.0975     21.2514    124.7471
   487.0000    652.7505     26.1093     21.4486    125.2357
   487.2500    652.7505     26.1218     21.6820    126.2239
   487.5000    652.7505     26.1342     21.9709    125.6831
   487.7500    652.7505     26.1457     22.3127    122.6823
   488.0000    652.7505     26.1560     22.6871    114.4553
   488.2500    652.7505     26.1647     23.0681    107.8684
   488.5000    652.7505     26.1720     23.4411     99.2673
   488.7500    652.7505     26.1781     23.8135     95.6310
   489.0000    652.7505     26.1831     24.2114     93.8990
   489.2500    652.7505     26.1871     24.6652     94.7616
   489.5000    652.7505     26.1904     25.1879     97.6822
   489.7500    652.7505     26.1928     25.7616     99.9098
   490.0000    652.7505     26.1946     26.3388    102.6544
   490.2500    652.7505     26.1960     26.8587    103.8262
   490.5000    652.7505     26.1971     27.2698    104.6861
   490.7500    652.7505     26.1985     27.5478    104.7877
   491.0000    652.7505     26.2004     27.7016    104.2866
   491.2500    652.7505     26.2029     27.7674    103.5504
   491.5000    652.7505     26.2059     27.7914    102.1559
   491.7500    652.7505     26.2091     27.8060    101.3305
   492.0000    652.7505     26.2120     27.8108    100.6659
   492.2500    652.7505     26.2142     27.7694    100.6165
   492.5000    652.7505     26.2154     27.6254    100.7493
   492.7500    652.7505     26.2158     27.3287    100.7921
   493.0000    652.7505     26.2156     26.8564    101.2200
   493.2500    652.7505     26.2152     26.2173    102.4314
   493.5000    652.7505     26.2149     25.4446    106.6711
   493.7500    652.7505     26.2149     24.5850    111.0608
   494.0000    652.7505     26.2151     23.6863    118.5125
   494.2500    652.7505     26.2151     22.7856    122.8210
   494.5000    652.7505     26.2147     21.9002    126.8064
   494.7500    652.7505     26.2135     21.0300    127.7407
   495.0000    652.7505     26.2112     20.1718    127.6019
   495.2500    652.7505     26.2079     19.3364    127.2159
   495.5000    652.7505     26.2035     18.5544    126.6834
   495.7500    652.7505     26.1983     17.8641    126.2142
   496.0000    652.7505     26.1924     17.2929    125.3509
   496.2500    652.7505     26.1860     16.8462    125.0741
   496.5000    652.7505     26.1794     16.5095    125.6202
   496.7500    652.7505     26.1729     16.2591    126.3342
   497.0000    652.7505     26.1668     16.0726    126.7456
   497.2500    652.7505     26.1615     15.9334    126.0322
   497.5000    652.7505     26.1571     15.8287    123.3189
   497.7500    652.7505     26.1540     15.7456    120.7395
   498.0000    652.7505     26.1522     15.6704    116.6145
   498.2500    652.7505     26.1515     15.5940    114.1544
   498.5000    652.7505     26.1518     15.5170    111.2077
   498.7500    652.7505     26.1529     15.4508    109.6263
   499.0000    652.7505     26.1546     15.4128    107.3943
   499.2500    652.7505     26.1568     15.4188    105.7509
   499.5000    652.7505     26.1595     15.4757    102.9121
   499.7500    652.7505     26.1624     15.5766    101.0379
   500.0000    652.7505     26.1655     15.7018     99.3439
   500.2500    652.7505     26.1686     15.8272     99.5954
   500.5000    652.7505     26.1716     15.9371    102.1647
   500.7500    652.7505     26.1742     16.0319    104.6672
   501.0000    652.7505     26.1764     16.1262    107.8259
   501.2500    652.7505     26.1783     16.2389    108.7168
   501.5000    652.7505     26.1799     16.3835    107.9207
   501.7500    652.7505     26.1815     16.5613    106.4036
   502.0000    652.7505     26.1834     16.7608    103.7779
   502.2500    652.7505     26.1857     16.9634    102.2644
   502.5000    652.7505     26.1886     17.1526    100.5043
   502.7500    652.7505     26.1921     17.3258     99.4987
   503.0000    652.7505     26.1962     17.4976     97.9464
   503.2500    652.7505     26.2007     17.6915     96.8295
   503.5000    652.7505     26.2053     17.9243     94.8654
   503.7500    652.7505     26.2097     18.1948     93.0884
   504.0000    652.7505     26.2139     18.4867     89.4516
   504.2500    652.7505     26.2177     18.7824     86.7214
   504.5000    652.7505     26.2212     19.0755     83.3117
   504.7500    652.7505     26.2245     19.3668     81.9407
   505.0000    652.7505     26.2278     19.6526     81.1395
   505.2500    652.7505     26.2313     19.9172     81.0607
   505.5000    652.7505     26.2351     20.1415     81.1090
   505.7500    652.7505     26.2395     20.3172     81.2929
   506.0000    652.7505     26.2445     20.4539     82.2667
   506.2500    652.7505     26.2500     20.5720     83.4915
   506.5000    652.7505     26.2558     20.6888     85.6898
   506.7500    652.7505     26.2615     20.8088     86.8962
   507.0000    652.7505     26.2669     20.9192     87.8201
   507.2500    652.7505     26.2716     20.9915     87.9775
   507.5000    652.7505     26.2754     20.9911     88.2179
   507.7500    652.7505     26.2785     20.8936     88.7421
   508.0000    652.7505     26.2809     20.7029     90.3295
   508.2500    652.7505     26.2829     20.4564     91.9623
   508.5000    652.7505     26.2849     20.2076     95.2696
   508.7500    652.7505     26.2871     19.9993     97.8267
   509.0000    652.7505     26.2897     19.8442    101.1294
   509.2500    652.7505     26.2927     19.7270    102.2168
   509.5000    652.7505     26.2961     19.6250    101.5276
   509.7500    652.7505     26.2999     19.5315     99.6448
   510.0000    652.7505     26.3039     19.4636     95.3154
   510.2500    652.7505     26.3081     19.4505     91.9318
   510.5000    652.7505     26.3122     19.5138     87.2949
   510.7500    652.7505     26.3160     19.6564     85.1799
   511.0000    652.7505     26.3193     19.8644     83.8735
   511.2500    652.7505     26.3218     20.1164     83.7957
   511.5000    652.7505     26.3232     20.3887     83.4395
   511.7500    652.7505     26.3233     20.6556     82.5531
   512.0000    652.7505     26.3219     20.8903     81.0534
   512.2500    652.7505     26.3189     21.0711     81.0124
   512.5000    652.7505     26.3143     21.1913     83.2259
   512.7500    652.7505     26.3081     21.2654     85.4821
   513.0000    652.7505     26.3008     21.3234     87.7807
   513.2500    652.7505     26.2925     21.3979     87.7650
   513.5000    652.7505     26.2838     21.5128     85.6374
   513.7500    652.7505     26.2752     21.6819     83.5265
   514.0000    652.7505     26.2672     21.9159     80.5356
   514.2500    652.7505     26.2604     22.2232     79.0876
   514.5000    652.7505     26.2548     22.5975     77.9942
   514.7500    652.7505     26.2505     22.9989     77.9468
   515.0000    652.7505     26.2471     23.3473     78.4812
   515.2500    652.7505     26.2442     23.5417     78.7901
   515.5000    652.7505     26.2411     23.5002     78.5480
   515.7500    652.7505     26.2374     23.1943     78.0546
   516.0000    652.7505     26.2330     22.6562     78.1104
   516.2500    652.7505     26.2278     21.9589     79.6859
   516.5000    652.7505     26.2222     21.1903     85.7400
   516.7500    652.7505     26.2171     20.4310     92.5703
   517.0000    652.7505     26.2133     19.7417    106.2797
   517.2500    652.7505     26.2116     19.1563    116.3722
   517.5000    652.7505     26.2126     18.6841    129.5605
   517.7500    652.7505     26.2165     18.3205    135.2796
