~Version Information
 VERS.                                  2.0 : CWLS LAS VERSION
 WRAP.                                   NO : WRAPING MODE
 SWARE .                 MController 2.5.0J : SOFTWARE VERSION
~Well Information
 WELL.                          Quack 22-24 : WELL
 COMP.    PIONEER NATURAL RESOURCES USA INC : COMPANY
 FLD.                      PURGATOIRE RIVER : FIELD
 LOC.                 SE/NW Sec 24 32S  67W : LOCATION
 DATE.                                  N/A : DATE(S) LOGGED
 SRVC.       Blanco Geological Services LLC : SERVICE COMPANY
 STAT.                                   CO : STATE
 CNTY.                           LAS ANIMAS : COUNTY
 CTRY.                                  USA : COUNTRY
 API.                       05-071-08402-00 : API NUMBER
 STRT.FT                             201.00 : START DEPTH
 STOP.FT                            2610.00 : STOP DEPTH
 STEP.FT                               1.00 : DEPTH INCREMENT
 NULL.                                -9999 : NULL VALUE
~Curve information
 DEPTH.FT                                   :
 ROP.MIN/FT                                 :
 GAS.UNITS                                  :
~ASCII Log data
# ...
      1401.0         0.47        493.7 
      1402.0         0.43        481.3 
      1403.0         0.43        440.0 
      1404.0         0.37        102.1 
      1405.0         0.38         78.1 
      1406.0         2.93         65.4 
      1407.0         0.58          4.8 
      1408.0         0.43          4.7 
      1409.0         0.40          5.7 
      1410.0         0.30          6.9 
      1411.0         0.27         11.7 
      1412.0         0.50         14.6 
      1413.0         0.53         12.7 
      1414.0         0.55         48.8 
      1415.0         0.60         31.3 
      1416.0         0.30          4.2 
      1417.0         0.20          2.2 
      1418.0         0.20          1.5 
      1419.0         0.27          1.3 
      1420.0         0.27          0.9 
      1421.0         0.30          0.7 
      1422.0         0.33          1.5 
      1423.0         0.33          1.6 
      1424.0         0.33         21.5 
      1425.0         0.32        116.9 
      1426.0         0.27        155.1 
      1427.0         0.27        168.9 
      1428.0         0.30        174.1 
      1429.0         0.27        174.4 
      1430.0         0.23        158.6 
      1431.0         0.33        119.1 
      1432.0         0.33        122.5 
      1433.0         0.30        203.4 
      1434.0         0.30        318.7 
      1435.0         0.37        480.3 
      1436.0         2.55       1792.2 
      1437.0         0.67        603.6 
      1438.0         0.58        546.3 
      1439.0         0.57        544.6 
      1440.0         0.40        527.8 
      1441.0         0.40        510.9 
      1442.0         0.37        492.7 
      1443.0         0.37        497.4 
      1444.0         0.37        496.1 
      1445.0         0.33        496.8 
      1446.0         0.38        489.0 
      1447.0         0.33        474.9 
      1448.0         0.23        468.5 
      1449.0         0.33        467.8 
      1450.0         0.33        462.1 
      1451.0         0.20        476.9 
      1452.0         0.23        477.9 
      1453.0         0.20        472.5 
      1454.0         0.20        478.2 
      1455.0         0.23        483.0 
      1456.0         0.13        472.9 
      1457.0         0.13        440.0 
      1458.0         0.17        440.0 
      1459.0         0.23        122.0 
      1460.0         0.22        113.0 
      1461.0         0.17        144.9 
      1462.0         0.17        198.6 
      1463.0         0.20        265.9 
      1464.0         0.27        377.7 
      1465.0         0.17        452.7 
      1466.0         2.28       2388.9 
      1467.0         0.53        784.5 
      1468.0         0.43        600.9 
      1469.0         0.33        562.1 
      1470.0         0.20        576.6 
      1471.0         0.20        580.0 
      1472.0         0.23        576.6 
      1473.0         0.37        603.9 
      1474.0         0.37        640.3 
      1475.0         0.40        642.0 
      1476.0         0.35        630.2 
      1477.0         0.37        609.6 
      1478.0         0.33        597.2 
      1479.0         0.33        596.2 
      1480.0         0.23        612.7 
      1481.0         0.27        621.4 
      1482.0         0.27        620.4 
      1483.0         0.27        600.5 
      1484.0         0.23        587.7 
      1485.0         0.20        599.5 
      1486.0         0.23        616.0 
      1487.0         0.30        617.1 
      1488.0         0.35        603.2 
      1489.0         0.30        572.9 
      1490.0         0.27        571.2 
      1491.0         0.30        542.6 
      1492.0         0.43        443.9 
      1493.0         0.53        255.3 
      1494.0         0.57       1301.0 
      1495.0         0.57       2024.0 
      1496.0         1.55       2086.7 
      1497.0         0.50        988.7 
      1498.0         0.40        769.7 
      1499.0         0.40        709.4 
      1500.0         0.40        711.4 
      1501.0         0.38        696.9 
      1502.0         0.37        660.2 
      1503.0         0.33        642.7 
      1504.0         0.27        633.6 
      1505.0         0.27        613.7 
      1506.0         0.20        593.1 
      1507.0         0.17        599.9 
      1508.0         0.23        610.6 
      1509.0         0.20        617.1 
      1510.0         0.23        617.7 
      1511.0         0.20        613.7 
      1512.0         0.20        612.0 
      1513.0         0.17        611.0 
      1514.0         0.23        606.9 
      1515.0         0.28        600.2 
      1516.0         0.27        596.8 
      1517.0         0.37        605.3 
      1518.0         0.27        603.6 
      1519.0         0.23        527.4 
      1520.0         0.23        444.2 
      1521.0         0.23        440.0 
      1522.0         0.30        197.2 
      1523.0         0.27        312.0 
      1524.0         0.27        464.6 
      1525.0         0.40       1604.2 
      1526.0         1.52       2730.5 
      1527.0         0.30       1628.8 
      1528.0         0.43       1275.4 
      1529.0         0.47        976.2 
      1530.0         0.43        780.1 
      1531.0         0.47        708.0 
      1532.0         0.52        720.1 
      1533.0         0.37        680.1 
      1534.0         0.43        637.3 
      1535.0         0.50        617.1 
      1536.0         0.33        614.0 
      1537.0         0.37        609.3 
      1538.0         0.40        608.6 
      1539.0         0.37        612.3 
      1540.0         0.35        610.0 
      1541.0         0.27        602.2 
      1542.0         0.27        596.8 
      1543.0         0.27        595.5 
      1544.0         0.23        586.7 
      1545.0         0.27        592.1 
      1546.0         0.23        593.8 
      1547.0         0.23        597.2 
      1548.0         0.27        600.5 
      1549.0         0.20        600.5 
      1550.0         0.23        580.7 
      1551.0         0.27        484.3 
      1552.0         0.27        440.0 
      1553.0         0.28        167.8 
      1554.0         0.27        266.6 
      1555.0         0.27        388.7 
      1556.0         2.00       2831.9 
      1557.0         0.72       1724.8 
      1558.0         0.50       1012.3 
      1559.0         0.43        791.6 
      1560.0         0.37        692.9 
      1561.0         0.37        689.2 
      1562.0         0.20        690.2 
      1563.0         0.17        688.1 
      1564.0         0.20        684.8 
      1565.0         0.20        679.0 
      1566.0         0.23        669.9 
      1567.0         0.27        654.1 
      1568.0         0.20        640.3 
      1569.0         0.32        632.9 
      1570.0         0.30        620.4 
      1571.0         0.40        609.3 
      1572.0         0.23        599.9 
      1573.0         0.23        601.9 
      1574.0         0.20        603.6 
      1575.0         0.23        605.3 
      1576.0         0.37        604.9 
      1577.0         0.37        602.6 
      1578.0         0.33        603.9 
      1579.0         0.30        606.6 
      1580.0         0.35        606.3 
      1581.0         0.30        538.6 
      1582.0         0.30        440.0 
      1583.0         0.30        143.6 
      1584.0         0.30        221.6 
      1585.0         0.27        331.0 
      1586.0         2.95       2922.6 
      1587.0         0.73       1005.2 
      1588.0         0.57        726.2 
      1589.0         0.60        654.1 
      1590.0         0.48        665.9 
      1591.0         0.47        665.9 
      1592.0         0.57        649.1 
      1593.0         0.47        597.8 
      1594.0         0.30        590.1 
      1595.0         0.23        606.9 
      1596.0         0.20        620.8 
      1597.0         0.13        625.8 
      1598.0         0.23        628.2 
      1599.0         0.17        628.5 
      1600.0         0.25        632.5 
