~Version Information
 VERS.                                  2.0 : CWLS LAS VERSION
 WRAP.                                   NO : WRAPING MODE
 SWARE .                 MController 2.5.0J : SOFTWARE VERSION
~Well Information
 WELL.                          GETEM 21-21 : WELL
 COMP.    PIONEER NATURAL RESOURCES USA INC : COMPANY
 FLD.                      PURGATOIRE RIVER : FIELD
 LOC.                NE/NW SEC 23 T32S R67W : LOCATION
 DATE.                             06/18/05 : DATE(S) LOGGED
 SRVC.       BLANCO GEOLOGICAL SERVICES LLC : SERVICE COMPANY
 STAT.                             COLORADO : STATE
 CNTY.                           LAS ANIMAS : COUNTY
 CTRY.                                  USA : COUNTRY
 API.                       05-071-08411-00 : API NUMBER
 STRT.FT                             321.00 : START DEPTH
 STOP.FT                            2815.00 : STOP DEPTH
 STEP.FT                               1.00 : DEPTH INCREMENT
 NULL.                                -9999 : NULL VALUE
~Curve information
 DEPTH.FT                                   :
 ROP.MIN/FT                                 :
 GAS.UNITS                                  :
~ASCII Log data
# ...
      1721.0         0.27        576.9 
      1722.0         0.20        565.5 
      1723.0         0.20        562.5 
      1724.0         0.23        575.0 
      1725.0         0.23        569.7 
      1726.0         0.40        568.4 
      1727.0         0.30        563.5 
      1728.0         0.37        539.3 
      1729.0         0.38        524.6 
      1730.0         0.40        504.9 
      1731.0         0.33        484.7 
      1732.0         0.47        494.8 
      1733.0         0.23        487.6 
      1734.0         0.27        476.8 
      1735.0         0.27        462.7 
      1736.0         2.05        440.0 
      1737.0         0.50        150.1 
      1738.0         0.37        167.8 
      1739.0         0.33        194.5 
      1740.0         0.30        229.9 
      1741.0         0.30        281.3 
      1742.0         0.30        364.4 
      1743.0         0.23        415.2 
      1744.0         0.25        441.1 
      1745.0         0.23        443.0 
      1746.0         0.23        418.7 
      1747.0         0.27        371.8 
      1748.0         0.30        321.6 
      1749.0         0.30        282.4 
      1750.0         0.27        257.3 
      1751.0         0.20        242.6 
      1752.0         0.23        231.5 
      1753.0         0.23        227.6 
      1754.0         0.23        228.0 
      1755.0         0.27        229.4 
      1756.0         0.23        229.1 
      1757.0         0.25        225.4 
      1758.0         0.20        220.0 
      1759.0         0.17        215.5 
      1760.0         0.23        209.9 
      1761.0         0.27        204.9 
      1762.0         0.23        202.1 
      1763.0         0.23        199.1 
      1764.0         0.23        195.7 
      1765.0         0.20        191.9 
      1766.0         2.05        120.6 
      1767.0         0.63        132.1 
      1768.0         0.67        177.7 
      1769.0         0.47        228.5 
      1770.0         0.27        283.5 
      1771.0         0.17        326.0 
      1772.0         0.20        366.5 
      1773.0         0.20        395.4 
      1774.0         0.25        406.9 
      1775.0         0.33        383.0 
      1776.0         0.30        335.6 
      1777.0         0.30        284.0 
      1778.0         0.43        227.8 
      1779.0         0.30        210.7 
      1780.0         0.50        214.1 
      1781.0         0.30        216.8 
      1782.0         0.37        211.7 
      1783.0         0.27        204.9 
      1784.0         0.62        157.3 
      1785.0         0.23        148.0 
      1786.0         0.23        151.2 
      1787.0         0.30        159.0 
      1788.0         0.37        170.7 
      1789.0         0.33        172.1 
      1790.0         0.23        166.0 
      1791.0         0.20        161.7 
      1792.0         0.20        161.1 
      1793.0         0.17        161.7 
      1794.0         0.17        163.3 
      1795.0         0.37        168.3 
      1796.0         3.60        162.0 
      1797.0         0.47        206.6 
      1798.0         0.33        257.2 
      1799.0         0.23        307.1 
      1800.0         0.27        383.1 
      1801.0         0.40        469.1 
      1802.0         0.47       1002.9 
      1803.0         0.33        957.7 
      1804.0         0.33        848.1 
      1805.0         0.17        782.4 
      1806.0         0.13        736.2 
      1807.0         0.18        694.0 
      1808.0         0.20        640.7 
      1809.0         0.27        593.3 
      1810.0         0.33        547.5 
      1811.0         0.33        504.9 
      1812.0         0.27        504.3 
      1813.0         0.30        497.1 
      1814.0         0.27        500.7 
      1815.0         0.33        502.7 
      1816.0         0.33        502.3 
      1817.0         0.33        493.2 
      1818.0         0.35        475.8 
      1819.0         0.23        473.2 
      1820.0         0.23        451.6 
      1821.0         0.23        461.1 
      1822.0         0.37        441.2 
      1823.0         0.30        495.8 
      1824.0         0.30        440.0 
      1825.0         0.27        465.0 
      1826.0         2.08        103.9 
      1827.0         0.47        108.2 
      1828.0         0.30        119.0 
      1829.0         0.33        139.6 
      1830.0         0.27        163.3 
      1831.0         0.27        193.7 
      1832.0         0.27        235.6 
      1833.0         0.23        281.9 
      1834.0         0.20        315.4 
      1835.0         0.23        338.2 
      1836.0         0.18        345.3 
      1837.0         0.17        345.6 
      1838.0         0.13        340.4 
      1839.0         0.30        313.6 
      1840.0         0.37        266.5 
      1841.0         0.47        215.2 
      1842.0         0.23        195.7 
      1843.0         0.23        177.7 
      1844.0         0.30        167.8 
      1845.0         0.30        173.9 
      1846.0         0.30        178.4 
      1847.0         0.27        174.3 
      1848.0         0.28        165.7 
      1849.0         0.17        161.3 
      1850.0         0.17        159.7 
      1851.0         0.17        158.6 
      1852.0         0.27        158.8 
      1853.0         0.23        157.9 
      1854.0         0.30        155.7 
      1855.0         0.27        150.3 
      1856.0         2.25         93.1 
      1857.0         0.47        103.8 
      1858.0         0.27        115.9 
      1859.0         0.30        134.0 
      1860.0         0.30        158.2 
      1861.0         0.33        198.4 
      1862.0         0.37        276.6 
      1863.0         0.33        327.4 
      1864.0         0.37        328.5 
      1865.0         0.42        289.4 
      1866.0         0.37        244.1 
      1867.0         0.30        213.6 
      1868.0         0.33        188.8 
      1869.0         0.33        171.6 
      1870.0         0.30        165.7 
      1871.0         0.33        164.4 
      1872.0         0.30        160.4 
      1873.0         0.30        157.2 
      1874.0         0.27        153.7 
      1875.0         0.32        149.6 
      1876.0         0.23        146.0 
      1877.0         0.30        140.4 
      1878.0         0.37        135.6 
      1879.0         0.27        133.6 
      1880.0         0.30        132.5 
      1881.0         0.27        131.8 
      1882.0         0.27        130.1 
      1883.0         0.33        128.7 
      1884.0         0.27        127.1 
      1885.0         0.27        125.7 
      1886.0         3.70        162.4 
      1887.0         0.40        201.5 
      1888.0         0.33        252.9 
      1889.0         0.33        326.7 
      1890.0         0.30        373.8 
      1891.0         0.27        384.2 
      1892.0         0.33        358.6 
      1893.0         0.37        298.8 
      1894.0         0.37        244.9 
      1895.0         0.30        212.8 
      1896.0         0.35        189.1 
      1897.0         0.30        173.8 
      1898.0         0.37        166.9 
      1899.0         0.33        168.0 
      1900.0         0.23        166.1 
      1901.0         0.27        160.8 
      1902.0         0.23        155.0 
      1903.0         0.30        147.4 
      1904.0         0.30        139.7 
      1905.0         0.33        129.5 
      1906.0         0.23        123.0 
      1907.0         0.27        118.6 
      1908.0         0.28        117.8 
      1909.0         0.23        118.3 
      1910.0         0.23        119.6 
      1911.0         0.20        120.6 
      1912.0         0.27        119.9 
      1913.0         0.30        118.5 
      1914.0         0.27        118.3 
      1915.0         0.23        117.2 
      1916.0         3.08        101.1 
      1917.0         0.33        114.9 
      1918.0         0.33        133.9 
      1919.0         0.37        163.3 
      1920.0         0.33        199.8 
