~Version Information
VERS.                      2.0: CWLS Log ASCII Standard - VERSION 2.0
WRAP.                       NO: One line per depth step
~Well Information Block
STRT.FT                -5.7500: 
STOP.FT              1965.7500: 
STEP.FT                 0.2500: 
NULL.                -999.2500: 
COMP.          Pioneer Natural Resources: COMPANY
WELL.          Easton 12-30 Tr: WELL
FLD.           Purgatorie River: FIELD
LOC.           549' FWL & 2416' FNL--: LOCATION
PROV.                       CO: PROVINCE
CNTY.               Las Animas: COUNTRY
SRVC.          Patterson Wireline: SERVICE COMPANY
DATE.          Mon Jun 06 16:13:03 2005: LOG DATE
UWI.           05 071 08379 00: UNIQUE WELL ID
~Curve Information Block
DEPT.FT            0 000 00 00: Depth
CCL.                          : Casing Collar Locator
TT3.usec                      : CBL 3' Travel Time
AMP3.mV                       : CBL 3' Amplitude
GR.GAPI                       : Gamma Ray
~Parameter Information Block
~A  Depth       CCL         TT3         AMP3         GR     
# ...
   262.2500      0.0000    820.0327      9.9151     95.4370
   262.5000      0.0000    778.7365      9.6985     98.2930
   262.7500      0.0000    753.2395      9.4312    101.9247
   263.0000      0.0000    759.3061      9.1223    105.2867
   263.2500      0.0000    793.2867      8.7467    106.8716
   263.5000      0.0000    834.4183      8.3072    105.5418
   263.7500      0.0000    862.5193      7.8792    101.4639
   264.0000      0.0000    869.7306      7.5540     96.1452
   264.2500      0.0000    859.2787      7.3636     91.5677
   264.5000      0.0000    840.3034      7.2965     89.1649
   264.7500      2.0000    823.3603      7.3719     89.2273
   265.0000      0.0000    813.8573      7.6631     90.9005
   265.2500      0.0000    806.7263      8.2225     92.8098
   265.5000      0.0000    790.8632      8.9610     93.9821
   265.7500      0.0000    762.4793      9.6255     94.2542
   266.0000      0.0000    733.3077      9.9572     93.8564
   266.2500      0.0000    722.8771      9.8943     92.8981
   266.5000      0.0000    742.0679      9.5865     91.5029
   266.7500      0.0000    783.8782      9.2294     90.2448
   267.0000      0.0000    829.2252      8.9293     89.8881
   267.2500      0.0000    861.3990      8.7031     90.3287
   267.5000      0.0000    875.5369      8.5329     90.2206
   267.7500      0.0000    876.5764      8.3998     88.3077
   268.0000      0.0000    872.0592      8.2986     85.0439
   268.2500      0.0000    867.5831      8.2376     82.3030
   268.5000      0.0000    865.7230      8.2269     81.4902
   268.7500      0.0000    866.4296      8.2656     82.3516
   269.0000      0.0000    868.0804      8.3410     83.6163
   269.2500      0.0000    869.1799      8.4345     84.3338
   269.5000      0.0000    869.5369      8.5259     84.5263
   269.7500      0.0000    870.1544      8.5976     84.9472
   270.0000      0.0000    871.7881      8.6382     86.2662
   270.2500      0.0000    873.3021      8.6448     88.1966
   270.5000      0.0000    871.4692      8.6230     89.5146
   270.7500      0.0000    862.8748      8.5863     89.1653
   271.0000      0.0000    846.6125      8.5531     87.2982
   271.2500      0.0000    825.3636      8.5368     85.1542
   271.5000      0.0000    803.7526      8.5337     83.9625
   271.7500      0.0000    785.7613      8.5230     83.8698
   272.0000      0.0000    773.6791      8.4827     83.9716
   272.2500      0.0000    768.3660      8.4060     83.4637
   272.5000      0.0000    769.1074      8.3017     82.5412
   272.7500      0.0000    773.1797      8.1810     81.9410
   273.0000      0.0000    776.6491      8.0496     81.9532
   273.2500      0.0000    776.4684      7.9143     82.2828
   273.5000      0.0000    772.2313      7.7952     82.7366
   273.7500      0.0000    766.2133      7.7237     83.7531
   274.0000      0.0000    761.7101      7.7241     86.0981
   274.2500      0.0000    760.7444      7.7937     90.0746
   274.5000      0.0000    762.6543      7.9010     95.2192
   274.7500      0.0000    764.6469      8.0029    100.6582
   275.0000      0.0000    764.0646      8.0671    105.4346
   275.2500      0.0000    760.4736      8.0829    108.6160
   275.5000      0.0000    755.6212      8.0621    109.6305
   275.7500      0.0000    751.5911      8.0300    108.6808
   276.0000      0.0000    749.3059      8.0104    106.5594
   276.2500      0.0000    748.5397      8.0115    103.8789
   276.5000      0.0000    748.8437      8.0256    100.8468
   276.7500      0.0000    750.5013      8.0415     97.9842
   277.0000      0.0000    755.2296      8.0538     96.4230
   277.2500      0.0000    766.0994      8.0582     96.8273
   277.5000      0.0000    785.5041      8.0455     98.2971
   277.7500      0.0000    811.5496      8.0054     98.9654
   278.0000      0.0000    836.6399      7.9356     97.6082
   278.2500      0.0000    851.9140      7.8444     94.3193
   278.5000      0.0000    854.7263      7.7472     89.8458
   278.7500      0.0000    851.2900      7.6655     84.8927
   279.0000      0.0000    851.1015      7.6235     80.2668
   279.2500      0.0000    858.5205      7.6392     77.1005
   279.5000      0.0000    869.6359      7.7159     76.1779
   279.7500      0.0000    876.5222      7.8419     76.9991
   280.0000      0.0000    873.9590      7.9914     78.0917
   280.2500      0.0000    862.8531      8.1307     78.4025
   280.5000      0.0000    849.0565      8.2288     78.0597
   280.7500      0.0000    839.4216      8.2724     77.7841
   281.0000      0.0000    837.7350      8.2717     78.1452
   281.2500      0.0000    842.6655      8.2528     79.5184
   281.5000      0.0000    848.7052      8.2420     82.1574
   281.7500      0.0000    850.1601      8.2537     85.8179
   282.0000      0.0000    846.2112      8.2866     89.4712
   282.2500      0.0000    841.9642      8.3266     91.8071
   282.5000      0.0000    842.3417      8.3528     92.0453
   282.7500      0.0000    844.8492      8.3441     90.0728
   283.0000      0.0000    841.1046      8.2867     86.1838
   283.2500      0.0000    826.4207      8.1845     81.2791
   283.5000      0.0000    805.9882      8.0613     77.0905
   283.7500      0.0000    790.9650      7.9483     75.2864
   284.0000      0.0000    789.9021      7.8645     76.0620
   284.2500      0.0000    803.5133      7.8111     78.0337
   284.5000      0.0000    825.3501      7.7805     79.5813
   284.7500      0.0000    846.4333      7.7624     79.9456
   285.0000      0.0000    860.4621      7.7409     79.3144
   285.2500      0.0000    866.1138      7.6934     78.3874
   285.5000      0.0000    865.6163      7.6069     77.8454
   285.7500      0.0000    862.0808      7.4972     78.0243
   286.0000      0.0000    857.9540      7.4119     78.9863
   286.2500      0.0000    854.6700      7.4033     80.6934
   286.5000      0.0000    852.7426      7.4916     82.7518
   286.7500      0.0000    851.9117      7.6529     84.0259
   287.0000      0.0000    851.2346      7.8394     83.1255
   287.2500      0.0000    849.3964      8.0079     79.5961
   287.5000      0.0000    845.4856      8.1341     74.4811
   287.7500      0.0000    839.5391      8.2142     69.7663
   288.0000      0.0000    832.1700      8.2583     67.2416
   288.2500      0.0000    824.2593      8.2787     67.2671
   288.5000      0.0000    817.3655      8.2858     68.3044
   288.7500      0.0000    813.1870      8.2948     68.1209
   289.0000      0.0000    811.5559      8.3252     65.8767
   289.2500      0.0000    809.9553      8.3893     62.7012
   289.5000      0.0000    806.2280      8.4828     60.0409
   289.7500      0.0000    801.2163      8.5884     58.0176
   290.0000      0.0000    798.1052      8.6853     55.8811
   290.2500      0.0000    799.7988      8.7587     53.6024
   290.5000      0.0000    806.9668      8.8051     52.1628
   290.7500      0.0000    817.3994      8.8310     52.2361
   291.0000      0.0000    826.8592      8.8459     53.3309
   291.2500      0.0000    831.4644      8.8568     54.5692
   291.5000      0.0000    829.7685      8.8665     55.7556
   291.7500      0.0000    822.8052      8.8733     57.2528
   292.0000      0.0000    813.0702      8.8715     59.1534
   292.2500      0.0000    803.7258      8.8528     61.0127
   292.5000      0.0000    797.6540      8.8122     62.3204
   292.7500      0.0000    796.3970      8.7565     63.1401
   293.0000      0.0000    799.8433      8.7037     64.2177
   293.2500      0.0000    806.7068      8.6721     66.2543
   293.5000      0.0000    815.2972      8.6695     69.1277
   293.7500      0.0000    824.1230      8.6936     72.1070
   294.0000      0.0000    831.8768      8.7338     74.6757
   294.2500      0.0000    836.9891      8.7723     76.6994
   294.5000      0.0000    837.6819      8.7916     77.8405
   294.7500      0.0000    832.8879      8.7847     77.3139
   295.0000      0.0000    823.2811      8.7587     74.5747
   295.2500      0.0000    811.4238      8.7295     70.0520
   295.5000      0.0000    800.5125      8.7148     64.8674
