~Version Information
VERS.                      2.0: CWLS Log ASCII Standard - VERSION 2.0
WRAP.                       NO: One line per depth step
~Well Information Block
STRT.FT               554.0000: 
STOP.FT              1002.0000: 
STEP.FT                 0.1000: 
NULL.                -999.2500: 
COMP.          Pioneer Natural Resources: COMPANY
WELL.          Rising Star 22-11: WELL
FLD.           Purgatoire River: FIELD
LOC.           2152' FNL & 2105' FWL: LOCATION
PROV.                 Colorado: PROVINCE
CNTY.               Las Animas: COUNTRY
SRVC.                Patterson: SERVICE COMPANY
DATE.          Mon Apr 11 16:46:53 2005: LOG DATE
UWI.           05 071 08354 00: UNIQUE WELL ID
~Curve Information Block
DEPT.FT            0 000 00 00: Depth
DCAL.in                       : CDL Caliper
RHOB.g/cc                     : CDL Bulk Density
RHOC.g/cc                     : CDL Density Correction
DPOR.pu                       : CDL Density Porosity
GR.GAPI                       : Gamma Ray
NPOR.pu                       : Neutron Porosity
~Parameter Information Block
~A  Depth       DCAL        RHOB        RHOC        DPOR         GR         NPOR    
# ...
   813.2000      7.9058      2.5575      0.1677      5.6033     81.8541     22.6236
   813.3000      7.9005      2.5712      0.1162      4.7753     78.1451     22.1984
   813.4000      7.9005      2.5974      0.1465      3.1895     76.0045     21.7420
   813.5000      7.8723      2.6286      0.1801      1.2973     76.6946     21.2164
   813.6000      7.8723      2.6429      0.1806      0.4325     78.9297     20.5985
   813.7000      7.8723      2.6390      0.1521      0.6648     81.8461     20.0863
   813.8000      7.8651      2.6288      0.1735      1.2862     82.0872     20.1655
   813.9000      7.8651      2.6140      0.1747      2.1808     76.7669     20.7717
   814.0000      7.8391      2.5918      0.1405      3.5256     68.8910     21.2149
   814.1000      7.8391      2.5655      0.1458      5.1183     65.0557     21.1813
   814.2000      7.8391      2.5359      0.1303      6.9149     67.6879     21.0163
   814.3000      7.8528      2.4992      0.0929      9.1397     72.5791     20.9587
   814.4000      7.8528      2.4699     -0.0236     10.9164     75.7224     20.8428
   814.5000      7.8292      2.4705     -0.0023     10.8793     77.0668     20.6752
   814.6000      7.8292      2.4950      0.0395      9.3934     78.5103     20.5877
   814.7000      7.8292      2.5223      0.0854      7.7381     79.5849     20.6124
   814.8000      7.8698      2.5375      0.1330      6.8211     80.2023     20.8105
   814.9000      7.8698      2.5341      0.1012      7.0227     82.5400     21.1020
   815.0000      7.8890      2.5234      0.1380      7.6702     87.9641     21.3098
   815.1000      7.8890      2.5234      0.0978      7.6736     95.8510     21.4485
   815.2000      7.8890      2.5378      0.1460      6.8010    104.4907     21.5250
   815.3000      7.8610      2.5586      0.1194      5.5367    109.5552     21.5905
   815.4000      7.8610      2.5782      0.1198      4.3513    107.1078     21.7636
   815.5000      7.8552      2.5813      0.1490      4.1665    101.4311     21.9850
   815.6000      7.8552      2.5645      0.0919      5.1795     99.3472     22.1638
   815.7000      7.8552      2.5563      0.0339      5.6795    101.7180     22.2444
   815.8000      7.8871      2.5743      0.1197      4.5872    106.6358     22.2565
   815.9000      7.8871      2.6043      0.1310      2.7706    109.6225     22.4221
   816.0000      7.8942      2.6283      0.1457      1.3138    108.8924     22.8563
   816.1000      7.8942      2.6388      0.1498      0.6768    107.7565     23.3481
   816.2000      7.8942      2.6427      0.1152      0.4419    107.1079     23.5972
   816.3000      7.8713      2.6534      0.1349     -0.2073    105.1484     23.5106
   816.4000      7.8713      2.6716      0.1429     -1.3089    101.1952     23.3460
   816.5000      7.8969      2.6806      0.1411     -1.8546     95.5516     23.4384
   816.6000      7.8969      2.6663      0.0893     -0.9904     87.4019     23.6421
   816.7000      7.8969      2.6347      0.0608      0.9256     78.0311     23.7632
   816.8000      7.8853      2.6025      0.0610      2.8816     69.6848     23.8602
   816.9000      7.8853      2.5848      0.0556      3.9486     63.2645     23.6993
   817.0000      7.9016      2.5919      0.0520      3.5212     61.4822     23.0552
   817.1000      7.9016      2.6271      0.0423      1.3856     64.3051     22.1885
   817.2000      7.9016      2.6719      0.1237     -1.3255     67.1387     21.5776
   817.3000      7.9089      2.6891      0.1144     -2.3673     66.2363     21.4021
   817.4000      7.9089      2.6613      0.1061     -0.6836     61.8259     21.4771
   817.5000      7.8996      2.6089      0.0351      2.4895     56.8808     21.4602
   817.6000      7.8996      2.5729      0.0506      4.6700     53.7545     21.2715
   817.7000      7.8996      2.5654      0.0675      5.1246     53.9538     21.0380
   817.8000      7.9083      2.5657      0.0761      5.1116     56.5415     20.6310
   817.9000      7.9083      2.5627      0.0526      5.2934     57.8070     19.8829
   818.0000      7.8794      2.5616     -0.0025      5.3575     56.5084     18.9819
   818.1000      7.8794      2.5619      0.0029      5.3415     55.4876     18.4301
   818.2000      7.8794      2.5557      0.0213      5.7153     56.7841     18.2068
   818.3000      7.9029      2.5438      0.0650      6.4344     59.0019     18.0122
   818.4000      7.9029      2.5310      0.0821      7.2151     60.6263     17.8891
   818.5000      7.9098      2.5050      0.1055      8.7854     62.6541     17.8357
   818.6000      7.9098      2.4575      0.0598     11.6678     66.3998     17.8606
   818.7000      7.9098      2.4165     -0.0053     14.1512     69.2631     18.0612
   818.8000      7.9006      2.4140      0.0369     14.3044     68.3938     18.3354
   818.9000      7.9006      2.4411      0.0934     12.6587     67.2681     18.6628
   819.0000      7.8584      2.4697      0.1243     10.9254     69.2494     19.1589
   819.1000      7.8584      2.4890      0.1815      9.7551     71.8351     19.8241
   819.2000      7.8584      2.5105      0.1701      8.4574     72.3900     20.5407
   819.3000      7.8434      2.5394      0.2227      6.7010     73.1714     21.1086
   819.4000      7.8434      2.5622      0.1888      5.3191     75.2529     21.4011
   819.5000      7.8413      2.5731      0.2035      4.6635     74.5111     21.4987
   819.6000      7.8413      2.5791      0.1242      4.2957     70.5682     21.5935
   819.7000      7.8413      2.5873      0.1428      3.7999     69.3553     21.9551
   819.8000      7.8473      2.5903      0.1547      3.6156     73.5511     22.4657
   819.9000      7.8473      2.5770      0.1447      4.4261     79.9315     22.7150
   820.0000      7.8923      2.5547      0.1204      5.7728     84.9553     22.8145
   820.1000      7.8923      2.5459      0.0600      6.3112     86.9438     22.8334
   820.2000      7.8923      2.5605      0.0842      5.4258     88.0023     22.5231
   820.3000      7.9053      2.5826      0.1029      4.0853     90.8238     22.1931
   820.4000      7.9053      2.5907      0.0465      3.5927     92.7896     22.2797
   820.5000      7.8258      2.5915      0.0221      3.5452     94.3338     22.3403
   820.6000      7.8258      2.6095      0.0744      2.4560     99.0201     21.6785
   820.7000      7.8258      2.6363      0.1883      0.8301    105.1187     20.5550
   820.8000      7.8797      2.6273      0.1625      1.3780    108.4716     19.6582
   820.9000      7.8797      2.5603      0.0853      5.4365    106.2990     18.9385
   821.0000      7.8767      2.4603     -0.0248     11.4989    100.7550     17.8414
   821.1000      7.8767      2.3514     -0.0389     18.0997     98.8254     16.3178
   821.2000      7.8767      2.2298     -0.0556     25.4662    103.1505     15.0046
   821.3000      7.9148      2.0892     -0.0634     33.9893    106.1226     14.1815
   821.4000      7.9148      1.9371     -0.1187     43.2058    101.3784     13.6968
   821.5000      7.9902      1.7847     -0.1349     52.4449     92.6162     13.3335
   821.6000      7.9902      1.6396     -0.2050     61.2362     86.6249     12.9219
   821.7000      7.9902      1.5172     -0.2130     68.6515     84.0057     12.7217
   821.8000      7.9933      1.4443     -0.1935     73.0755     79.4148     13.1244
   821.9000      7.9933      1.4364     -0.0700     73.5541     72.1022     14.0484
   822.0000      8.0319      1.4747      0.1011     71.2291     66.5823     15.2506
   822.1000      8.0319      1.5314      0.1342     67.7965     64.9417     16.7147
   822.2000      8.0319      1.5986      0.1969     63.7223     65.9839     18.3238
   822.3000      8.1144      1.6770      0.1993     58.9672     68.0916     19.7561
   822.4000      8.1144      1.7735      0.1944     53.1225     70.8004     20.9553
   822.5000      8.1206      1.8986      0.2344     45.5404     73.3228     22.0747
   822.6000      8.1206      2.0455      0.2714     36.6384     74.7581     23.1880
   822.7000      8.1206      2.1962      0.2848     27.5056     75.6365     24.2340
