~Version Information
VERS.                      2.0: CWLS Log ASCII Standard - VERSION 2.0
WRAP.                       NO: One line per depth step
~Well Information Block
STRT.FT                -3.0000: 
STOP.FT              1679.2500: 
STEP.FT                 0.2500: 
NULL.                -999.2500: 
COMP.          Evergreen Operating Corp.: COMPANY
WELL.            Rimrock 14-29: WELL
FLD.           Purgatorie River: FIELD
LOC.           945' FSL & 604' FWL--: LOCATION
PROV.                       CO: PROVINCE
CNTY.               Las Animas: COUNTRY
SRVC.                         : SERVICE COMPANY
DATE.          Mon Oct 04 13:02:21 2004: LOG DATE
UWI.           05 071 08136 00: UNIQUE WELL ID
~Curve Information Block
DEPT.FT            0 000 00 00: Depth
GR.GAPI                       : Gamma Ray
CCL.                          : Casing Collar Locator
TT3.usec                      : CBL 3' Travel Time
AMP3.mV                       : CBL 3' Amplitude
~Parameter Information Block
~A  Depth        GR         CCL         TT3         AMP3    
# ...
  1538.0000     77.3412      0.0000    796.1591      9.8943
  1538.2500     80.2637      0.0000    798.1304      9.9554
  1538.5000     80.8572      0.0000    799.6926      9.9700
  1538.7500     79.3077      0.0000    796.9368      9.9236
  1539.0000     77.1378      0.0000    788.7192      9.8038
  1539.2500     75.7441      0.0000    777.3724      9.6034
  1539.5000     75.5808      0.0000    766.6636      9.3278
  1539.7500     76.2804      0.0000    759.0544      9.0070
  1540.0000     77.0781      0.0000    754.7838      8.6935
  1540.2500     77.1049      0.0000    752.9412      8.4389
  1540.5000     75.7547      0.0000    752.8973      8.2682
  1540.7500     73.2385      0.0000    755.1020      8.1686
  1541.0000     70.6530      0.0000    761.0834      8.0945
  1541.2500     69.0129      0.0000    772.3994      7.9903
  1541.5000     68.1852      0.0000    788.6443      7.8238
  1541.7500     67.1556      0.0000    806.0201      7.6046
  1542.0000     65.3395      0.0000    818.4941      7.3691
  1542.2500     63.2755      0.0000    821.1849      7.1485
  1542.5000     61.9271      0.0000    812.8445      6.9508
  1542.7500     61.6308      0.0000    795.3680      6.7632
  1543.0000     62.1008      0.0000    772.2225      6.5633
  1543.2500     63.3118      0.0000    748.4034      6.3357
  1543.5000     65.6969      0.0000    730.7899      6.0901
  1543.7500     69.1331      0.0000    726.3699      5.8619
  1544.0000     72.2244      0.0000    739.2504      5.6900
  1544.2500     73.2107      0.0000    768.7261      5.5965
  1544.5000     71.5420      0.0000    807.8726      5.5891
  1544.7500     68.2968      0.0000    843.1636      5.6733
  1545.0000     65.3191      0.0000    859.3536      5.8488
  1545.2500     64.1699      0.0000    849.5526      6.0967
  1545.5000     65.5168      0.0000    821.0770      6.3927
  1545.7500     68.9113      0.0000    789.5809      6.7431
  1546.0000     72.8931      0.0000    767.0331      7.1983
  1546.2500     75.5340      0.0000    755.2965      7.8196
  1546.5000     75.4437      0.0000    749.7124      8.6415
  1546.7500     72.7139      0.0000    747.0347      9.6701
  1547.0000     68.9477      0.0000    748.7192     10.8846
  1547.2500     66.2492      0.0000    756.1265     12.2099
  1547.5000     65.9027      0.0000    764.7158     13.5014
  1547.7500     67.6251      0.0000    765.4188     14.5890
  1548.0000     69.8832      2.0000    751.0377     15.3447
  1548.2500     71.2537      2.0000    720.4103     15.7188
  1548.5000     71.8457      0.0000    679.7186     15.7356
  1548.7500     73.1533      0.0000    642.1362     15.4849
  1549.0000     76.1688      0.0000    622.0740     15.1229
  1549.2500     80.0975      0.0000    625.3845     14.8543
  1549.5000     83.4441      0.0000    646.4928     14.8622
  1549.7500     85.7574      0.0000    677.5258     15.1730
  1550.0000     87.6175      0.0000    716.7625     15.5595
  1550.2500     89.3437      0.0000    763.0780     15.6592
  1550.5000     90.4867      0.0000    806.3118     15.2634
  1550.7500     90.5692      0.0000    831.5875     14.4803
  1551.0000     89.8459      0.0000    832.6501     13.6188
  1551.2500     89.1844      0.0000    816.0989     12.9529
  1551.5000     89.3838      0.0000    793.9637     12.5795
  1551.7500     90.5938      0.0000    775.4445     12.4401
  1552.0000     92.0883      0.0000    764.1708     12.4263
  1552.2500     92.6016      0.0000    759.2565     12.4603
  1552.5000     91.3427      0.0000    757.7556     12.5063
  1552.7500     88.8135      0.0000    757.2700     12.5517
  1553.0000     86.2940      0.0000    757.1640     12.5951
  1553.2500     84.4891      0.0000    757.7397     12.6404
  1553.5000     82.9001      0.0000    758.8124     12.6856
  1553.7500     80.2962      0.0000    759.7801     12.7152
  1554.0000     75.6999      0.0000    761.1244     12.7045
  1554.2500     69.3492      0.0000    764.9310     12.6294
  1554.5000     63.0934      0.0000    772.7708     12.4688
  1554.7500     59.6835      0.0000    782.6379     12.2071
  1555.0000     61.1836      0.0000    788.8317     11.8509
  1555.2500     67.4762      0.0000    786.2454     11.4452
  1555.5000     75.8681      0.0000    775.1644     11.0573
  1555.7500     82.3929      0.0000    761.2429     10.7381
  1556.0000     84.3453      0.0000    750.7367     10.4971
  1556.2500     82.1625      0.0000    746.1713     10.3092
  1556.5000     78.8381      0.0000    746.0884     10.1408
  1556.7500     77.3832      0.0000    747.6904      9.9733
  1557.0000     78.7546      0.0000    749.1474      9.8116
  1557.2500     81.8554      0.0000    750.0214      9.6732
  1557.5000     84.9931      0.0000    750.5330      9.5679
  1557.7500     87.0613      0.0000    750.8918      9.4867
  1558.0000     87.6320      0.0000    751.1366      9.4089
  1558.2500     86.5601      0.0000    751.2419      9.3192
  1558.5000     83.9704      0.0000    751.1645      9.2244
  1558.7500     80.6202      0.0000    750.8275      9.1554
  1559.0000     77.9118      0.0000    750.1772      9.1484
  1559.2500     77.1199      0.0000    749.4836      9.2149
  1559.5000     78.4032      0.0000    749.7603      9.3278
  1559.7500     80.6554      0.0000    752.6538      9.4400
  1560.0000     82.4553      0.0000    759.1478      9.5208
  1560.2500     83.1759      0.0000    767.8694      9.5788
  1560.5000     83.1687      0.0000    775.1526      9.6503
  1560.7500     83.0324      0.0000    777.4695      9.7695
  1561.0000     82.8080      0.0000    773.9379      9.9490
  1561.2500     81.7614      0.0000    766.4854     10.1865
  1561.5000     78.9021      0.0000    757.9896     10.4783
  1561.7500     74.0168      0.0000    750.6013     10.8180
  1562.0000     68.3881      0.0000    745.5294     11.1836
  1562.2500     64.1510      0.0000    743.4126     11.5375
  1562.5000     62.6627      0.0000    744.1122     11.8429
  1562.7500     63.7161      0.0000    746.4558     12.0767
  1563.0000     66.3415      0.0000    748.8720     12.2258
  1563.2500     69.8309      0.0000    750.3926     12.2769
  1563.5000     73.7440      0.0000    750.9218     12.2120
  1563.7500     77.4273      0.0000    750.7932     12.0203
  1564.0000     80.0710      0.0000    750.3334     11.7209
  1564.2500     81.2788      0.0000    749.7456     11.3728
  1564.5000     81.3608      0.0000    749.1777     11.0562
  1564.7500     80.9428      0.0000    748.7724     10.8400
  1565.0000     80.4578      0.0000    748.6428     10.7610
  1565.2500     80.2862      0.0000    748.8049     10.8206
  1565.5000     81.2150      0.0000    749.1686     10.9923
  1565.7500     84.1786      0.0000    749.6052     11.2397
  1566.0000     89.1769      0.0000    750.0242     11.5409
  1566.2500     94.6074      0.0000    750.3513     11.8976
  1566.5000     98.1521      0.0000    750.3899     12.3198
  1566.7500     98.7282      0.0000    749.6140     12.8020
  1567.0000     97.4342      0.0000    747.0772     13.3136
  1567.2500     96.2160      0.0000    741.7557     13.8073
  1567.5000     95.7867      0.0000    733.3937     14.2368
  1567.7500     95.3924      0.0000    723.1946     14.5769
  1568.0000     94.3330      0.0000    713.3578     14.8301
  1568.2500     92.7222      0.0000    705.4974     15.0121
  1568.5000     90.6971      0.0000    699.3042     15.1295
  1568.7500     87.9753      0.0000    692.6321     15.1792
  1569.0000     84.6992      0.0000    682.5298     15.1684
  1569.2500     81.9693      0.0000    666.4298     15.1202
  1569.5000     80.9659      0.0000    644.4684     15.0537
  1569.7500     81.8973      0.0000    622.8054     14.9659
  1570.0000     84.0752      0.0000    612.8485     14.8425
  1570.2500     86.6371      0.0000    622.5369     14.6834
  1570.5000     88.9595      0.0000    647.3116     14.5102
  1570.7500     90.7303      0.0000    672.5747     14.3504
  1571.0000     91.9444      0.0000    685.6978     14.2166
  1571.2500     92.6786      0.0000    683.5912     14.1031
