~Version Information
VERS.                      2.0: CWLS Log ASCII Standard - VERSION 2.0
WRAP.                       NO: One line per depth step
~Well Information Block
STRT.FT               840.0000: 
STOP.FT              2019.0000: 
STEP.FT                 0.2500: 
NULL.                -999.2500: 
COMP.          Petrogulf Corporation: COMPANY
WELL.           Lavedure 7-44R: WELL
FLD.           Purgatorie River: FIELD
LOC.           946' FSL & 521' FEL: LOCATION
PROV.                 Colorado: PROVINCE
CNTY.               Las Animas: COUNTRY
SRVC.                Patterson: SERVICE COMPANY
DATE.          Mon Sep 26 08:35:42 2005: LOG DATE
UWI.                          : UNIQUE WELL ID
~Curve Information Block
DEPT.FT            0 000 00 00: Depth
SP.mV                         : DIL Spontaneous Potential
RILD.Ohm-m                    : DIL Deep Resistivity
RILM.Ohm-m                    : DIL Medium Resistivity
RLL3.Ohm-m                    : DIL Shallow Resistivity
GR.GAPI                       : Gamma Ray
~Parameter Information Block
~A  Depth        SP         RILD        RILM        RLL3         GR     
# ...
  1904.0000    236.8429     14.0128     14.6071     12.3357     98.8389
  1904.2500    238.2964     13.4096     13.4636     11.3134    123.8050
  1904.5000    239.2597     12.7645     12.4624     10.7503    130.1686
  1904.7500    239.7688     12.1790     11.5458     10.4851    148.9647
  1905.0000    239.9543     11.5920     10.7454     10.3280    145.6563
  1905.2500    239.9906     11.0587     10.1625     10.1190    128.3010
  1905.5000    239.9729     10.5250      9.6894      9.4805    148.3820
  1905.7500    239.9743     10.3084      9.3751      9.0309    169.7441
  1906.0000    239.9635     10.1368      9.1069      8.8127    164.8794
  1906.2500    240.0551     10.0348      8.9755      8.9612    174.6899
  1906.5000    240.2538      9.8713      8.9712      9.1980    157.3612
  1906.7500    240.4657      9.8123      8.9250      9.7162    149.5382
  1907.0000    240.6272      9.7812      8.9970     10.0839    152.8412
  1907.2500    240.7737      9.8351      9.1502     10.3944    136.2681
  1907.5000    240.9091      9.9786      9.2600     10.4746    158.0163
  1907.7500    241.0031     10.0996      9.5196     10.5496    166.3074
  1908.0000    240.9009     10.1730      9.7891     10.8322    152.2851
  1908.2500    240.3371     10.2599     10.1079     11.2819    153.7941
  1908.5000    239.5020     10.4087     10.3580     11.9029    176.0499
  1908.7500    238.3978     10.3750     10.6303     12.2499    174.3702
  1909.0000    236.9098     10.2436     10.7723     12.3560    150.3117
  1909.2500    235.0322     10.1169     10.7224     12.5812    171.8201
  1909.5000    233.0816     10.1259     10.4533     12.4677    178.1335
  1909.7500    231.0270      9.9693     10.0930     11.8331    186.7135
  1910.0000    228.8649      9.8037      9.8303     10.7554    175.0226
  1910.2500    226.8351      9.7522      9.4501      9.9621    172.4693
  1910.5000    224.8302      9.5023      9.1152      9.8048    174.5241
  1910.7500    222.6828      9.6865      8.7441     10.0822    160.6674
  1911.0000    220.7221      9.8389      8.4343      9.5470    165.0857
  1911.2500    218.8999      9.9648      8.2714      7.8904    194.0018
  1911.5000    217.0756     10.1243      8.2839      6.7063    215.9409
  1911.7500    215.2939     10.0893      8.4582      7.4475    216.7748
  1912.0000    213.6375     10.2048      8.8311      9.4303    221.3538
  1912.2500    211.9993     10.4698      9.2998     10.9611    220.1100
  1912.5000    210.4142     10.8401      9.8183     11.6744    227.4862
  1912.7500    208.7548     11.0267     10.3684     12.2135    215.4686
  1913.0000    207.0647     11.3876     11.0444     13.4637    177.0303
  1913.2500    205.4510     11.9484     12.0298     16.0019    173.6858
  1913.5000    203.9654     12.5992     13.1656     19.3846    138.6838
  1913.7500    202.5534     13.4914     14.4727     25.1085    141.2958
  1914.0000    201.3691     14.6303     15.8867     32.5239    130.9357
  1914.2500    200.2630     15.6670     17.6828     32.6625    137.5577
  1914.5000    199.1028     17.2344     18.5711     30.2387    110.4559
  1914.7500    197.9643     18.2875     20.1475     30.8682     98.0170
  1915.0000    196.8837     19.8502     21.7970     33.2655    109.7176
  1915.2500    195.7526     21.3146     24.1633     36.1092    118.0019
  1915.5000    194.7231     22.7094     26.2701     38.8702     95.5020
  1915.7500    193.8562     23.8644     29.3238     40.7898     82.2923
  1916.0000    193.1680     25.4511     31.6034     42.9747     62.4394
  1916.2500    192.5928     25.4038     35.0637     45.6781     46.8188
  1916.5000    192.1785     26.0907     35.7146     47.6564     55.9282
  1916.7500    191.7837     25.9847     37.0662     48.6851     46.0173
  1917.0000    191.3468     26.6601     37.7210     46.7856     41.8575
  1917.2500    190.6828     26.5331     36.5598     40.5982     42.4113
  1917.5000    190.2353     26.8726     35.6019     35.1905     42.5640
  1917.7500    189.8646     27.2171     34.0152     34.9631     42.6568
  1918.0000    189.4689     26.9729     33.5398     38.1201     68.8699
  1918.2500    189.2257     26.5584     33.6493     41.7631     66.0279
  1918.5000    189.1969     27.1266     33.6469     43.0279     73.1421
  1918.7500    189.4333     27.5710     32.4837     42.1638     75.9278
  1919.0000    189.8557     27.5154     31.6934     38.8680     63.0900
  1919.2500    190.3900     27.4575     31.7094     34.8991     48.8464
  1919.5000    190.9880     27.0083     31.5278     32.1395     49.9964
  1919.7500    191.6586     27.5542     31.3276     30.7667     61.4612
  1920.0000    192.3554     27.9898     32.1405     31.7658     55.6765
  1920.2500    193.0856     28.2125     32.8626     34.8559     74.0806
  1920.5000    193.9288     27.8128     34.0306     38.2230     55.9438
  1920.7500    195.1056     28.0662     34.2931     40.9285     53.0664
  1921.0000    196.6332     28.4347     34.5394     42.7575     46.6562
  1921.2500    198.1468     28.3476     34.3519     42.1286     46.3816
  1921.5000    199.4496     28.4078     33.7150     41.7628     45.8968
  1921.7500    200.7200     27.5686     33.7036     42.3787     52.0078
  1922.0000    201.8497     28.2766     32.4540     42.4129     53.1407
  1922.2500    202.9156     28.2706     31.5494     41.0882     49.2609
  1922.5000    203.9290     28.2352     30.3514     37.8543     40.0828
  1922.7500    204.6900     27.8514     29.8249     34.6342     41.7660
  1923.0000    205.3087     28.0462     29.5218     31.3785     50.0243
  1923.2500    205.7659     27.6416     28.8743     28.2400     43.4322
  1923.5000    205.9983     27.8260     28.8277     26.0772     44.2364
  1923.7500    206.0909     27.5212     29.0035     26.5585     50.6598
  1924.0000    206.0899     28.1642     28.2977     28.8582     61.5117
  1924.2500    206.1877     27.3359     28.2487     30.4854     52.8042
  1924.5000    206.3676     26.7189     27.3881     29.3064     55.6453
  1924.7500    206.4702     26.6517     26.2164     26.7395     69.4378
  1925.0000    206.4826     26.6377     25.9615     25.3482     66.7321
  1925.2500    206.3715     25.7598     25.8872     25.8105     65.7501
  1925.5000    206.2069     27.4509     26.4529     26.8232     79.2167
  1925.7500    206.1171     25.0050     26.9324     27.3259     80.1201
  1926.0000    205.9990     26.0484     27.1703     26.8441     59.9688
  1926.2500    205.8395     27.1644     27.6020     27.1533     64.4401
  1926.5000    205.6253     27.9966     28.7646     28.6023     66.2961
  1926.7500    205.4518     27.5648     29.4963     31.0191     57.5225
  1927.0000    205.2990     27.9539     29.7407     33.7356     43.3312
  1927.2500    205.3609     28.2017     30.8708     35.6571     35.5185
  1927.5000    205.5164     28.0823     32.1327     35.2968     36.6144
  1927.7500    205.7453     27.4230     31.4671     32.3848     31.7608
  1928.0000    206.0210     26.1823     32.0616     30.2436     32.0127
  1928.2500    206.1736     25.6845     30.8977     32.1550     32.8681
  1928.5000    206.3676     24.8407     30.5811     37.8273     41.7000
  1928.7500    206.7210     23.5683     29.2269     44.0310     36.9462
  1929.0000    207.3332     22.8222     27.1287     47.3146     33.3979
  1929.2500    208.0757     22.5723     23.2882     45.0792     37.9116
  1929.5000    208.9332     22.4348     22.6219     33.9111     31.3915
  1929.7500    209.8481     21.9867     19.7637     19.8989     40.6395
  1930.0000    210.5036     22.1099     18.5767     14.3133     55.7291
  1930.2500    210.5628     22.2801     18.0711     14.0957     67.0591
  1930.5000    209.9877     22.2730     18.4051     15.0494     94.3677
  1930.7500    209.0832     22.1735     19.7092     14.9765    120.4420
  1931.0000    208.0823     22.1027     20.9300     15.7639    132.5254
  1931.2500    206.9181     21.5898     21.5891     21.4070    131.0289
  1931.5000    206.0214     21.4283     22.4533     29.4655    110.8792
  1931.7500    205.3808     21.1781     23.1942     30.1208    106.0061
