~Version Information
VERS.                      2.0: CWLS Log ASCII Standard - VERSION 2.0
WRAP.                       NO: One line per depth step
~Well Information Block
STRT.FT                15.0000: 
STOP.FT              2620.5000: 
STEP.FT                 0.2500: 
NULL.                -999.2500: 
COMP.          Pioneer Natural Resources: COMPANY
WELL.               Zink 44-10: WELL
FLD.           Purgatoire River: FIELD
LOC.           548' FSL & 473' FEL: LOCATION
PROV.                 Colorado: PROVINCE
CNTY.               Las Animas: COUNTRY
SRVC.                Patterson: SERVICE COMPANY
DATE.          Tue Jun 21 13:36:23 2005: LOG DATE
UWI.           05 071 08380 00: UNIQUE WELL ID
~Curve Information Block
DEPT.FT            0 000 00 00: Depth
GR.GAPI                       : Gamma Ray
CCL.                          : Casing Collar Locator
TT3.usec                      : CBL 3' Travel Time
AMP3.mV                       : CBL 3' Amplitude
~Parameter Information Block
~A  Depth        GR         CCL         TT3         AMP3    
# ...
   350.0000     81.7902      0.0000    905.3787     14.2214
   350.2500     86.4979      0.0000    932.3011     14.1532
   350.5000     92.6631      0.0000    950.6852     14.1361
   350.7500     99.2233      0.0000    954.0780     14.1587
   351.0000    104.6575      0.0000    941.1106     14.2192
   351.2500    107.8300      0.0000    914.1945     14.3142
   351.5000    108.3937      0.0000    877.8520     14.4296
   351.7500    106.5776      0.0000    839.0988     14.5465
   352.0000    102.8595      0.0000    808.1691     14.6525
   352.2500     98.0152      0.0000    795.0146     14.7427
   352.5000     93.3478      0.0000    801.4903     14.8149
   352.7500     90.3989      0.0000    817.3326     14.8684
   353.0000     89.9442      0.0000    826.5386     14.9067
   353.2500     91.1820      0.0000    819.1945     14.9374
   353.5000     92.2146      0.0000    798.1707     14.9675
   353.7500     91.5663      0.0000    774.1523     14.9991
   354.0000     89.2270      0.0000    752.9872     15.0261
   354.2500     86.4281      0.0000    730.9686     15.0365
   354.5000     84.7640      0.0000    706.2453     15.0214
   354.7500     85.3679      0.0000    689.6948     14.9791
   355.0000     88.1582      0.0000    696.1071     14.9130
   355.2500     91.5814      0.0000    726.1783     14.8310
   355.5000     93.6404      0.0000    764.6942     14.7485
   355.7500     93.6260      0.0000    795.6475     14.6890
   356.0000     92.6681      0.0000    812.4880     14.6757
   356.2500     92.4063      0.0000    814.9551     14.7149
   356.5000     93.3773      0.0000    805.1157     14.7810
   356.7500     94.9297      0.0000    789.9948     14.8203
   357.0000     96.3376      0.0000    781.3954     14.7847
   357.2500     97.2532      0.0000    786.4212     14.6775
   357.5000     97.0547      0.0000    800.3292     14.5602
   357.7500     94.8036      0.0000    812.9930     14.5040
   358.0000     90.6535      0.0000    820.3534     14.5376
   358.2500     86.7493      0.0000    826.1985     14.6431
   358.5000     85.7263      0.0000    834.7916     14.7851
   358.7500     88.2103      0.0000    845.5779     14.9339
   359.0000     92.3270      0.0000    855.1907     15.0701
   359.2500     95.6219      0.0000    862.0389     15.1804
   359.5000     96.7873      0.0000    867.2451     15.2530
   359.7500     95.6124      0.0000    871.9174     15.2798
   360.0000     92.4600      0.0000    874.6454     15.2656
   360.2500     88.3993      0.0000    871.2612     15.2313
   360.5000     85.0520      0.0000    855.6932     15.2055
   360.7500     83.4575      0.0000    822.4368     15.2119
   361.0000     83.1857      0.0000    772.2939     15.2582
   361.2500     82.9547      0.0000    717.9458     15.3284
   361.5000     82.0954      0.0000    680.7324     15.3895
   361.7500     81.0421      0.0000    677.1817     15.4164
   362.0000     80.3628      0.0000    707.2477     15.4136
   362.2500     79.8418      0.0000    755.4324     15.4036
   362.5000     78.8893      0.0000    801.6520     15.3962
   362.7500     77.5061      0.0000    831.9296     15.3748
   363.0000     76.3512      0.0000    843.2065     15.3163
   363.2500     75.9143      0.0000    840.4898     15.2169
   363.5000     75.9775      0.0000    829.1854     15.0804
   363.7500     75.8556      0.0000    810.7888     14.8703
   364.0000     74.8837      0.0000    785.5287     14.4784
   364.2500     72.7309      0.0000    754.6127     13.7852
   364.5000     69.5863      0.0000    717.4888     12.7991
   364.7500     66.0941      0.0000    673.2392     11.7147
   365.0000     62.9740      0.0000    630.5865     10.7649
   365.2500     60.6533      0.0000    611.7509     10.0255
   365.5000     59.1469      0.0000    638.1453      9.4337
   365.7500     58.1501      0.0000    711.9147      8.9527
   366.0000     57.3832      0.0000    813.6046      8.6125
   366.2500     56.9762      0.0000    914.5067      8.4133
   366.5000     57.3633      2.5000    988.3024      8.2909
   366.7500     58.7567      2.5000   1016.9570      8.1872
   367.0000     60.9155      0.0000    994.9410      8.1313
   367.2500     63.3738      0.0000    931.9553      8.2625
   367.5000     65.6209      0.0000    851.2737      8.7689
   367.7500     67.1435      0.0000    782.5114      9.7400
   368.0000     67.6008      0.0000    748.9357     11.0405
   368.2500     67.0289      0.0000    755.5418     12.3566
   368.5000     65.8691      0.0000    789.5033     13.3907
   368.7500     64.7775      0.0000    832.8431     14.0163
   369.0000     64.2375      0.0000    872.0637     14.2808
   369.2500     64.2402      0.0000    897.9374     14.3114
   369.5000     64.3667      0.0000    904.6713     14.2204
   369.7500     64.1129      0.0000    893.5840     14.0732
   370.0000     63.1563      0.0000    874.7710     13.9121
   370.2500     61.6555      0.0000    861.7280     13.7847
   370.5000     60.4001      0.0000    862.2380     13.7346
   370.7500     60.2015      0.0000    873.9067     13.7682
   371.0000     60.9115      0.0000    888.2300     13.8428
   371.2500     61.4281      0.0000    897.9202     13.8907
   371.5000     60.8843      0.0000    899.9363     13.8636
   371.7500     59.6304      0.0000    894.3106     13.7592
   372.0000     58.8776      0.0000    883.4027     13.6105
   372.2500     59.3855      0.0000    872.0850     13.4541
   372.5000     60.6594      0.0000    865.9738     13.3145
   372.7500     61.6280      0.0000    868.0743     13.2119
   373.0000     61.8825      0.0000    876.7918     13.1691
   373.2500     61.8602      0.0000    886.8676     13.2006
   373.5000     62.0204      0.0000    892.9559     13.2977
   373.7500     62.3197      0.0000    893.5378     13.4291
   374.0000     62.3429      0.0000    891.5476     13.5589
   374.2500     61.5323      0.0000    890.6212     13.6658
   374.5000     59.4915      0.0000    890.8915     13.7507
   374.7500     56.4739      0.0000    888.8791     13.8237
   375.0000     53.4243      0.0000    880.8768     13.8851
   375.2500     51.2057      0.0000    865.9147     13.9237
   375.5000     49.8902      0.0000    846.1669     13.9353
   375.7500     49.0130      0.0000    825.6573     13.9369
   376.0000     48.3158      0.0000    808.6296     13.9533
   376.2500     48.0014      0.0000    797.9031     13.9893
   376.5000     48.4529      0.0000    793.5971     14.0199
   376.7500     49.9378      0.0000    793.4454     14.0125
   377.0000     52.3363      0.0000    794.6889     13.9569
   377.2500     54.9682      0.0000    795.6487     13.8726
   377.5000     57.0427      0.0000    795.7974     13.7870
   377.7500     58.5597      0.0000    795.0918     13.7110
   378.0000     60.4634      0.0000    793.9534     13.6355
   378.2500     63.6422      0.0000    793.8293     13.5497
   378.5000     67.9903      0.0000    796.9338     13.4535
   378.7500     72.6555      0.0000    804.1768     13.3501
   379.0000     77.0920      0.0000    812.9017     13.2285
   379.2500     81.6451      0.0000    817.6215     13.0635
   379.5000     87.0140      0.0000    814.4000     12.8400
   379.7500     93.2136      0.0000    805.0535     12.5735
   380.0000     99.3049      0.0000    796.9128     12.2999
   380.2500    104.2912      0.0000    798.0093     12.0435
   380.5000    107.9864      0.0000    811.0067     11.8022
   380.7500    110.8123      0.0000    829.7711     11.5657
   381.0000    113.0636      0.0000    842.1793     11.3356
   381.2500    114.6076      0.0000    839.1487     11.1231
   381.5000    114.9961      0.0000    822.2253     10.9382
   381.7500    113.6239      0.0000    801.6342     10.7902
   382.0000    110.0550      0.0000    787.7565     10.6913
   382.2500    104.6436      0.0000    785.4301     10.6461
   382.5000     98.9095      0.0000    793.6759     10.6391
   382.7500     94.8977      0.0000    806.9084     10.6419
   383.0000     93.7679      0.0000    816.7472     10.6306
   383.2500     95.0458      0.0000    816.5392     10.5953
