~Version Information
VERS.                      2.0: CWLS Log ASCII Standard - VERSION 2.0
WRAP.                       NO: One line per depth step
~Well Information Block
STRT.FT                -3.5000: 
STOP.FT              1745.0000: 
STEP.FT                 0.2500: 
NULL.                -999.2500: 
COMP.          Pioneer Natural Resources: COMPANY
WELL.           Labrador 34-30: WELL
FLD.           Purgatorie River: FIELD
LOC.           926' FSL & 2080' FEL--: LOCATION
PROV.                       CO: PROVINCE
CNTY.               Las Animas: COUNTRY
SRVC.                         : SERVICE COMPANY
DATE.          Fri Dec 10 09:58:23 2004: LOG DATE
UWI.                071-08202 : UNIQUE WELL ID
~Curve Information Block
DEPT.FT            0 000 00 00: Depth
GR.GAPI                       : Gamma Ray
CCL.                          : Casing Collar Locator
TT3.usec                      : CBL 3' Travel Time
AMP3.mV                       : CBL 3' Amplitude
~Parameter Information Block
~A  Depth        GR         CCL         TT3         AMP3    
# ...
  1236.0000     93.4499      0.0000    557.4630     14.4619
  1236.2500     98.2054      0.0000    604.3333     14.4741
  1236.5000    102.3902      0.0000    649.6265     14.4472
  1236.7500    105.8509      0.0000    682.0580     14.3650
  1237.0000    108.7658      0.0000    700.6318     14.2205
  1237.2500    111.4314      0.0000    710.8139     14.0363
  1237.5000    114.6874      0.0000    718.5161     13.8581
  1237.7500    119.8602      0.0000    726.5728     13.7175
  1238.0000    127.7082      0.0000    734.4039     13.6088
  1238.2500    137.4315      0.0000    739.7249     13.5082
  1238.5000    146.9058      0.0000    741.0175     13.4092
  1238.7500    154.0629      0.0000    739.1859     13.3351
  1239.0000    158.1523      0.0000    737.1448     13.3175
  1239.2500    159.7845      0.0000    737.6038     13.3616
  1239.5000    159.9519      0.0000    740.9379     13.4314
  1239.7500    159.0832      0.0000    745.1222     13.4719
  1240.0000    156.9677      0.0000    747.4159     13.4522
  1240.2500    153.5636      0.0000    745.9056     13.3862
  1240.5000    149.7516      0.0000    740.1917     13.3139
  1240.7500    146.7281      0.0000    731.6862     13.2676
  1241.0000    144.3402      0.0000    723.2490     13.2523
  1241.2500    140.6474      0.0000    717.5082     13.2515
  1241.5000    133.7313      0.0000    714.9780     13.2484
  1241.7500    123.6020      0.0000    714.0084     13.2410
  1242.0000    112.0642      0.0000    712.7192     13.2368
  1242.2500    101.4739      0.0000    710.8661     13.2383
  1242.5000     94.0278      0.0000    709.8424     13.2425
  1242.7500     91.1857      0.0000    711.1958     13.2537
  1243.0000     92.6493      0.0000    715.2546     13.2871
  1243.2500     96.0891      0.0000    720.6749     13.3561
  1243.5000     98.4897      0.0000    724.9954     13.4604
  1243.7500     97.8342      0.0000    726.2299     13.5903
  1244.0000     93.8853      0.0000    724.1700     13.7341
  1244.2500     88.2542      0.0000    719.2794     13.8733
  1244.5000     83.6935      0.0000    709.6181     13.9736
  1244.7500     82.3952      0.0000    689.6301     13.9977
  1245.0000     84.6309      0.0000    653.9573     13.9360
  1245.2500     89.2077      0.0000    604.2963     13.8204
  1245.5000     95.0296      0.0000    552.9853     13.7003
  1245.7500    101.9790      0.0000    518.1273     13.6132
  1246.0000    110.6475      0.0000    512.3386     13.5796
  1246.2500    121.6696      0.0000    533.5292     13.6139
  1246.5000    135.1767      0.0000    565.6601     13.7209
  1246.7500    150.3324      0.0000    589.6642     13.8830
  1247.0000    165.1584      0.0000    596.3282     14.0577
  1247.2500    177.1612      0.0000    591.1437     14.1902
  1247.5000    184.6113      0.0000    588.2941     14.2293
  1247.7500    187.3071      0.0000    599.4218     14.1413
  1248.0000    186.1609      0.0000    625.5390     13.9144
  1248.2500    182.4088      0.0000    657.9067     13.5420
  1248.5000    177.3855      0.0000    686.6376     13.0021
  1248.7500    172.6539      0.0000    708.0195     12.2897
  1249.0000    169.6360      0.0000    723.4494     11.4982
  1249.2500    168.6155      0.0000    733.1382     10.8236
  1249.5000    168.2715      0.0000    733.0344     10.4295
  1249.7500    166.7972      0.0000    718.6238     10.3212
  1250.0000    163.5518      0.0000    691.6721     10.3852
  1250.2500    159.0888      0.0000    662.6779     10.5107
  1250.5000    153.6792      0.0000    645.2391     10.6363
  1250.7500    146.7696      0.0000    646.2620     10.7274
  1251.0000    138.2543      0.0000    661.6183     10.7667
  1251.2500    129.4867      2.0000    681.4122     10.7677
  1251.5000    122.7168      0.0000    698.1306     10.7934
  1251.7500    119.8735      0.0000    709.6474     10.9549
  1252.0000    121.5940      0.0000    717.3748     11.3463
  1252.2500    126.4951      0.0000    723.7788     11.9426
  1252.5000    131.3128      0.0000    730.6870     12.5921
  1252.7500    132.6733      0.0000    738.2276     13.1583
  1253.0000    129.3585      0.0000    745.1113     13.6327
  1253.2500    123.0188      0.0000    750.0583     14.0730
  1253.5000    116.9690      0.0000    752.8065     14.4836
  1253.7500    114.2415      0.0000    753.9362     14.8034
  1254.0000    115.9668      0.0000    754.1979     14.9788
  1254.2500    120.7612      0.0000    754.1317     15.0114
  1254.5000    125.5942      0.0000    754.0155     14.9477
  1254.7500    127.7247      0.0000    753.9340     14.8424
  1255.0000    126.2113      0.0000    753.8681     14.7349
  1255.2500    121.8773      0.0000    753.8062     14.6458
  1255.5000    116.2439      0.0000    753.7972     14.5842
  1255.7500    110.6263      0.0000    753.8879     14.5495
  1256.0000    106.0238      0.0000    753.9975     14.5296
  1256.2500    103.4221      0.0000    753.6869     14.4973
  1256.5000    103.5609      0.0000    751.6577     14.4163
  1256.7500    105.9457      0.0000    745.0814     14.2659
  1257.0000    108.5359      0.0000    729.9630     14.0650
  1257.2500    109.2578      0.0000    704.5092     13.8676
  1257.5000    107.9736      0.0000    674.4029     13.7291
  1257.7500    106.5203      0.0000    653.2744     13.6743
  1258.0000    106.7150      0.0000    653.5070     13.6907
  1258.2500    108.6796      0.0000    674.9987     13.7428
  1258.5000    111.3127      0.0000    705.1548     13.7978
  1258.7500    114.0605      0.0000    730.1046     13.8418
  1259.0000    117.7487      0.0000    743.9704     13.8736
  1259.2500    123.5891      0.0000    748.6720     13.8897
  1259.5000    131.6055      0.0000    748.8360     13.8859
  1259.7500    140.1328      0.0000    747.7654     13.8676
  1260.0000    146.8562      0.0000    745.5823     13.8428
  1260.2500    150.4614      0.0000    738.9432     13.8038
  1260.5000    151.3309      0.0000    722.9204     13.7338
  1260.7500    150.6236      0.0000    694.9424     13.6372
  1261.0000    148.9716      0.0000    658.1559     13.5545
  1261.2500    146.3870      0.0000    620.9631     13.5347
  1261.5000    143.1513      0.0000    593.1452     13.5940
  1261.7500    140.0824      0.0000    581.3264     13.7058
  1262.0000    137.8487      0.0000    584.9180     13.8303
  1262.2500    136.5321      0.0000    594.4045     13.9484
  1262.5000    135.8404      0.0000    596.2328     14.0601
  1262.7500    135.3220      0.0000    582.3431     14.1510
  1263.0000    134.5478      0.0000    555.3120     14.1818
  1263.2500    133.5408      0.0000    525.8596     14.1215
  1263.5000    132.8699      0.0000    506.6091     13.9912
  1263.7500    132.9111      0.0000    505.4883     13.8608
  1264.0000    133.2342      0.0000    522.1122     13.7958
  1264.2500    133.1307      0.0000    550.5488     13.8109
  1264.5000    132.6761      0.0000    585.4773     13.8770
  1264.7500    132.9197      0.0000    624.2578     13.9620
  1265.0000    134.8314      0.0000    663.9741     14.0530
  1265.2500    138.1815      0.0000    699.6000     14.1424
  1265.5000    141.6649      0.0000    726.3409     14.2088
  1265.7500    143.9961      0.0000    742.6838     14.2264
  1266.0000    144.6105      0.0000    750.6689     14.1940
  1266.2500    143.3428      0.0000    753.7014     14.1420
  1266.5000    139.9391      0.0000    754.4122     14.1024
  1266.7500    134.4268      0.0000    753.8704     14.0798
  1267.0000    128.0670      0.0000    751.7256     14.0592
  1267.2500    123.4463      0.0000    746.7690     14.0298
  1267.5000    122.7519      0.0000    737.9906     13.9961
  1267.7500    125.7101      0.0000    725.9097     13.9732
  1268.0000    129.6877      0.0000    712.4446     13.9792
  1268.2500    131.9192      0.0000    698.0496     14.0254
  1268.5000    131.4541      0.0000    678.6515     14.1138
  1268.7500    129.1336      0.0000    647.4224     14.2430
  1269.0000    126.1399      0.0000    601.8221     14.4109
  1269.2500    122.9098      0.0000    548.6475     14.6050
