~Version Information
VERS.                      2.0: CWLS Log ASCII Standard - VERSION 2.0
WRAP.                       NO: One line per depth step
~Well Information Block
STRT.FT               580.0000: 
STOP.FT              2729.7500: 
STEP.FT                 0.2500: 
NULL.                -999.2500: 
COMP.          Pioneer Natural Resources: COMPANY
WELL.          Sand Pebbles 13-33: WELL
FLD.           Purgatoire River: FIELD
LOC.           1883' FSL & 63' FWL----: LOCATION
PROV.                 Colorado: PROVINCE
CNTY.               Las Animas: COUNTRY
SRVC.                Patterson: SERVICE COMPANY
DATE.          Fri Mar 11 13:47:45 2005: LOG DATE
UWI.           05 071 08224 00: UNIQUE WELL ID
~Curve Information Block
DEPT.FT            0 000 00 00: Depth
SN.Ohm-m                      : IEL Short Normal
SP.mV                         : IEL Spontaneous Potential
DIR.Ohm-m                     : IEL Induction Resistivity
GR.GAPI                       : Gamma Ray
~Parameter Information Block
~A  Depth        SN          SP         DIR          GR     
# ...
  1149.5000     24.4237   -151.0440     57.2192    112.4804
  1149.7500     24.0449   -151.2850     27.0145    107.8760
  1150.0000     23.5948   -151.6577     18.6823     99.9395
  1150.2500     23.0809   -152.0957     15.2760     94.9070
  1150.5000     22.5914   -152.5338     13.7998     90.2872
  1150.7500     22.2388   -152.9176     13.2979     90.2659
  1151.0000     22.0752   -153.2105     13.3441     94.5722
  1151.2500     22.0439   -153.3997     13.6809     99.1574
  1151.5000     22.0059   -153.4971     14.1135    106.6037
  1151.7500     21.8155   -153.5377     14.4928    111.4396
  1152.0000     21.3918   -153.5741     14.7296    118.4410
  1152.2500     20.7456   -153.6692     14.8010    122.8311
  1152.5000     19.9519   -153.8868     14.7335    128.1952
  1152.7500     19.1012   -154.2828     14.5758    130.3529
  1153.0000     18.2672   -154.8962     14.3781    130.9270
  1153.2500     17.5080   -155.7428     14.1821    129.7277
  1153.5000     16.8803   -156.8096     14.0187    126.7478
  1153.7500     16.4390   -158.0519     13.9068    125.0755
  1154.0000     16.2162   -159.3924     13.8532    125.0034
  1154.2500     16.1945   -160.7272     13.8536    127.0328
  1154.5000     16.3039   -161.9395     13.8962    131.6689
  1154.7500     16.4528   -162.9213     13.9671    133.9804
  1155.0000     16.5724   -163.5967     14.0557    133.9605
  1155.2500     16.6396   -163.9391     14.1567    131.7663
  1155.5000     16.6685   -163.9765     14.2678    127.4901
  1155.7500     16.6847   -163.7839     14.3869    125.4082
  1156.0000     16.7056   -163.4689     14.5111    124.6278
  1156.2500     16.7325   -163.1525     14.6398    125.5279
  1156.5000     16.7545   -162.9508     14.7764    127.7813
  1156.7500     16.7625   -162.9584     14.9270    128.9877
  1157.0000     16.7651   -163.2340     15.0967    129.4196
  1157.2500     16.7933   -163.7929     15.2875    128.8385
  1157.5000     16.8818   -164.6056     15.4983    127.3362
  1157.7500     17.0306   -165.6047     15.7256    126.3281
  1158.0000     17.1788   -166.6986     15.9622    125.2870
  1158.2500     17.2277   -167.7910     16.1987    125.0305
  1158.5000     17.1189   -168.8015     16.4278    125.2655
  1158.7500     16.9164   -169.6829     16.6516    125.7638
  1159.0000     16.8145   -170.4303     16.8885    126.8391
  1159.2500     17.0436   -171.0771     17.1711    127.4173
  1159.5000     17.7274   -171.6793     17.5353    126.8213
  1159.7500     18.7856   -172.2916     18.0034    124.6555
  1160.0000     19.9523   -172.9432     18.5710    118.3824
  1160.2500     20.9013   -173.6210     19.2032    112.8187
  1160.5000     21.4002   -174.2664     19.8457    104.3403
  1160.7500     21.4086   -174.7867     20.4474     99.7122
  1161.0000     21.0953   -175.0777     20.9841     95.6961
  1161.2500     20.7865   -175.0532     21.4677     95.3626
  1161.5000     20.8475   -174.6715     21.9341     98.0626
  1161.7500     21.5168   -173.9509     22.4178    101.3506
  1162.0000     22.7770   -172.9705     22.9288    107.6604
  1162.2500     24.3722   -171.8531     23.4449    112.7655
  1162.5000     25.9796   -170.7383     23.9231    121.6783
  1162.7500     27.3994   -169.7534     24.3204    127.7887
  1163.0000     28.6126   -168.9910     24.6161    135.6012
  1163.2500     29.6963   -168.4978     24.8250    139.5307
  1163.5000     30.7084   -168.2755     24.9984    144.0048
  1163.7500     31.6486   -168.2903     25.2134    146.2735
  1164.0000     32.5008   -168.4891     25.5526    147.9047
  1164.2500     33.2923   -168.8181     26.0813    147.1061
  1164.5000     34.1103   -169.2387     26.8322    142.9487
  1164.7500     35.0717   -169.7362     27.8061    139.0950
  1165.0000     36.2839   -170.3186     28.9852    133.5202
  1165.2500     37.8162   -171.0063     30.3500    130.1080
  1165.5000     39.6823   -171.8163     31.8849    123.8051
  1165.7500     41.8330   -172.7468     33.5714    117.6089
  1166.0000     44.1732   -173.7688     35.3738    104.8979
  1166.2500     46.6081   -174.8272     37.2282     95.2729
  1166.5000     49.0942   -175.8525     39.0438     82.2720
  1166.7500     51.6497   -176.7787     40.7229     75.9702
  1167.0000     54.3008   -177.5592     42.1995     70.4185
  1167.2500     56.9977   -178.1758     43.4781     68.5998
  1167.5000     59.5739   -178.6389     44.6325     67.3136
  1167.7500     61.7948   -178.9799     45.7560     66.9696
  1168.0000     63.4625   -179.2410     46.8901     66.8555
  1168.2500     64.4892   -179.4664     47.9889     66.8134
  1168.5000     64.9023   -179.6956     48.9515     66.3203
  1168.7500     64.8099   -179.9622     49.6986     65.5026
  1169.0000     64.3666   -180.2941     50.2258     63.5531
  1169.2500     63.7488   -180.7172     50.5868     62.0069
  1169.5000     63.1290   -181.2571     50.8351     59.8536
  1169.7500     62.6447   -181.9385     50.9892     58.7206
  1170.0000     62.3716   -182.7791     51.0476     57.4941
  1170.2500     62.3182   -183.7799     51.0261     56.9466
  1170.5000     62.4433   -184.9165     50.9719     56.6281
  1170.7500     62.6778   -186.1352     50.9446     56.9384
  1171.0000     62.9396   -187.3596     50.9812     58.5235
  1171.2500     63.1458   -188.5061     51.0737     60.3483
  1171.5000     63.2362   -189.5033     51.1755     63.7427
  1171.7500     63.1957   -190.3087     51.2341     65.8842
  1172.0000     63.0578   -190.9142     51.2298     67.8434
  1172.2500     62.8798   -191.3412     51.1915     67.9052
  1172.5000     62.7089   -191.6283     51.1825     66.2742
  1172.7500     62.5644   -191.8172     51.2621     64.6718
  1173.0000     62.4393   -191.9432     51.4499     63.1101
  1173.2500     62.3151   -192.0304     51.7183     63.4935
  1173.5000     62.1736   -192.0916     52.0117     66.9342
  1173.7500     61.9998   -192.1314     52.2692     70.9590
  1174.0000     61.7832   -192.1491     52.4329     78.2746
  1174.2500     61.5249   -192.1438     52.4561     82.8606
  1174.5000     61.2500   -192.1167     52.3336     87.4529
  1174.7500     61.0180   -192.0740     52.1325     88.3989
  1175.0000     60.9189   -192.0261     51.9783     86.7868
  1175.2500     61.0421   -191.9848     51.9920     84.3077
  1175.5000     61.4277   -191.9597     52.2265     79.8503
  1175.7500     62.0288   -191.9553     52.6538     76.9668
  1176.0000     62.7163   -191.9696     53.1959     72.9260
  1176.2500     63.3300   -191.9966     53.7711     70.1537
  1176.5000     63.7528   -192.0287     54.3192     65.6056
  1176.7500     63.9605   -192.0594     54.8006     62.5341
  1177.0000     64.0175   -192.0850     55.1773     58.7019
  1177.2500     64.0256   -192.1042     55.4036     57.1235
  1177.5000     64.0700   -192.1175     55.4445     56.4382
  1177.7500     64.1921   -192.1261     55.3133     56.7574
  1178.0000     64.3909   -192.1316     55.0884     57.3296
  1178.2500     64.6405   -192.1353     54.8750     57.3256
  1178.5000     64.9102   -192.1383     54.7367     56.7227
  1178.7500     65.1811   -192.1412     54.6562     56.1206
  1179.0000     65.4498   -192.1441     54.5674     55.0511
  1179.2500     65.7184   -192.1470     54.4288     54.2215
  1179.5000     65.9830   -192.1494     54.2719     53.0386
  1179.7500     66.2383   -192.1508     54.1770     52.6120
  1180.0000     66.4915   -192.1510     54.2017     53.0572
  1180.2500     66.7663   -192.1498     54.3250     54.1181
  1180.5000     67.0869   -192.1476     54.4521     56.1571
  1180.7500     67.4607   -192.1449     54.4798     57.1886
  1181.0000     67.8745   -192.1423     54.3698     57.7057
  1181.2500     68.3024   -192.1407     54.1723     57.5564
  1181.5000     68.7149   -192.1405     53.9807     57.1771
  1181.7500     69.0788   -192.1422     53.8608     56.9144
  1182.0000     69.3507   -192.1456     53.8043     56.3207
  1182.2500     69.4700   -192.1500     53.7249     55.8159
  1182.5000     69.3567   -192.1537     53.4911     55.3849
  1182.7500     68.9163   -192.1544     52.9774     55.5854
