~Version Information
VERS.                      2.0: CWLS Log ASCII Standard - VERSION 2.0
WRAP.                       NO: One line per depth step
~Well Information Block
STRT.FT               250.0000: 
STOP.FT              2600.7000: 
STEP.FT                 0.1000: 
NULL.                -999.2500: 
COMP.          Pioneer Natural Resources: COMPANY
WELL.              Quack 22-24: WELL
FLD.           Purgatoire River: FIELD
LOC.           2492' FNL & 2459' FWL--: LOCATION
PROV.                 Colorado: PROVINCE
CNTY.               Las Animas: COUNTRY
SRVC.                Patterson: SERVICE COMPANY
DATE.          Mon Jun 13 08:03:15 2005: LOG DATE
UWI.            05 071 0840200: UNIQUE WELL ID
~Curve Information Block
DEPT.FT            0 000 00 00: Depth
DCAL.in                       : CDL Caliper
RHOB.g/cc                     : CDL Bulk Density
RHOC.g/cc                     : CDL Density Correction
DPOR.pu                       : CDL Density Porosity
NPOR.pu                       : Neutron Porosity
GR.GAPI                       : Gamma Ray
~Parameter Information Block
~A  Depth       DCAL        RHOB        RHOC        DPOR        NPOR         GR     
# ...
  2573.2000      7.7883      2.5233      0.0884      7.6774     15.8992   -999.2500
  2573.3000      7.7914      2.5283      0.0790      7.3780     15.7425   -999.2500
  2573.4000      7.7914      2.5403      0.1161      6.6512     15.3943   -999.2500
  2573.5000      7.7988      2.5496      0.0738      6.0831     14.7160   -999.2500
  2573.6000      7.7988      2.5522      0.0823      5.9295     13.8512   -999.2500
  2573.7000      7.7988      2.5528      0.0419      5.8885     13.4568   -999.2500
  2573.8000      7.8068      2.5607      0.0503      5.4138     14.1549   -999.2500
  2573.9000      7.8068      2.5747      0.0786      4.5663     17.1626   -999.2500
  2574.0000      7.8111      2.5726      0.0895      4.6921     25.4363   -999.2500
  2574.1000      7.8111      2.5447      0.0174      6.3818     38.2868   -999.2500
  2574.2000      7.8111      2.5206     -0.0115      7.8430     47.6482   -999.2500
  2574.3000      7.8131      2.5232      0.0389      7.6825     51.0237   -999.2500
  2574.4000      7.8131      2.5363      0.0620      6.8919     51.6847   -999.2500
  2574.5000      7.8139      2.5383      0.0438      6.7682     51.7548   -999.2500
  2574.6000      7.8139      2.5311      0.0321      7.2074     51.7587   -999.2500
  2574.7000      7.8139      2.5232      0.0615      7.6842   -999.2500   -999.2500
  2574.8000      7.8150      2.5196      0.0401      7.9004   -999.2500   -999.2500
  2574.9000      7.8150      2.5283      0.0320      7.3762   -999.2500   -999.2500
  2575.0000      7.8168      2.5484      0.0732      6.1604   -999.2500   -999.2500
  2575.1000      7.8168      2.5624      0.1089      5.3080   -999.2500   -999.2500
  2575.2000      7.8168      2.5581      0.0731      5.5684   -999.2500   -999.2500
  2575.3000      7.8181      2.5439      0.0545      6.4313   -999.2500   -999.2500
  2575.4000      7.8181      2.5310      0.0558      7.2105   -999.2500   -999.2500
  2575.5000      7.8178      2.5191      0.0556      7.9310   -999.2500   -999.2500
  2575.6000      7.8178      2.5057      0.0408      8.7476   -999.2500   -999.2500
  2575.7000      7.8178      2.4974      0.0114      9.2460   -999.2500   -999.2500
  2575.8000      7.8160      2.5042      0.0063      8.8348   -999.2500   -999.2500
  2575.9000      7.8160      2.5195      0.0601      7.9099   -999.2500   -999.2500
  2576.0000      7.8148      2.5236      0.0560      7.6591   -999.2500   -999.2500
  2576.1000      7.8148      2.5124      0.0632      8.3409   -999.2500   -999.2500
  2576.2000      7.8148      2.5013      0.0322      9.0102   -999.2500   -999.2500
  2576.3000      7.8121      2.5011      0.0726      9.0234   -999.2500   -999.2500
  2576.4000      7.8121      2.5079      0.0649      8.6118   -999.2500   -999.2500
  2576.5000      7.8021      2.5167      0.0717      8.0760   -999.2500   -999.2500
  2576.6000      7.8021      2.5254      0.0805      7.5506   -999.2500   -999.2500
  2576.7000      7.8021      2.5366      0.0734      6.8752   -999.2500   -999.2500
  2576.8000      7.7806      2.5492      0.0749      6.1108   -999.2500   -999.2500
  2576.9000      7.7806      2.5545      0.0783      5.7859   -999.2500   -999.2500
  2577.0000      7.7579      2.5513      0.0523      5.9807   -999.2500   -999.2500
  2577.1000      7.7579      2.5484      0.0477      6.1564   -999.2500   -999.2500
  2577.2000      7.7579      2.5515      0.0357      5.9718   -999.2500   -999.2500
  2577.3000      7.7468      2.5576      0.0732      5.6011   -999.2500   -999.2500
  2577.4000      7.7468      2.5589      0.0580      5.5194   -999.2500   -999.2500
  2577.5000      7.7428      2.5502      0.0529      6.0491   -999.2500   -999.2500
  2577.6000      7.7428      2.5403      0.0194      6.6476   -999.2500   -999.2500
  2577.7000      7.7428      2.5435      0.0521      6.4556   -999.2500   -999.2500
  2577.8000      7.7421      2.5541      0.0774      5.8118   -999.2500   -999.2500
  2577.9000      7.7421      2.5543      0.0816      5.8015   -999.2500   -999.2500
  2578.0000      7.7450      2.5435      0.0480      6.4575   -999.2500   -999.2500
  2578.1000      7.7450      2.5350      0.0243      6.9694   -999.2500   -999.2500
  2578.2000      7.7450      2.5277      0.0754      7.4104   -999.2500   -999.2500
  2578.3000      7.7471      2.5138      0.0378      8.2575   -999.2500   -999.2500
  2578.4000      7.7471      2.5001      0.0459      9.0840   -999.2500   -999.2500
  2578.5000      7.7477      2.4930      0.0407      9.5181   -999.2500   -999.2500
  2578.6000      7.7477      2.4911      0.0206      9.6301   -999.2500   -999.2500
  2578.7000      7.7477      2.4969      0.0310      9.2771   -999.2500   -999.2500
  2578.8000      7.7494      2.5127      0.0307      8.3216   -999.2500   -999.2500
  2578.9000      7.7494      2.5319      0.0772      7.1577   -999.2500   -999.2500
  2579.0000      7.7523      2.5440      0.0549      6.4253   -999.2500   -999.2500
  2579.1000      7.7523      2.5511      0.0715      5.9969   -999.2500   -999.2500
  2579.2000      7.7523      2.5579      0.0878      5.5829   -999.2500   -999.2500
  2579.3000      7.7513      2.5591      0.0916      5.5097   -999.2500   -999.2500
  2579.4000      7.7513      2.5532      0.0642      5.8639   -999.2500   -999.2500
  2579.5000      7.7486      2.5471      0.0857      6.2376   -999.2500   -999.2500
  2579.6000      7.7486      2.5443      0.0697      6.4074   -999.2500   -999.2500
  2579.7000      7.7486      2.5451      0.0895      6.3577   -999.2500   -999.2500
  2579.8000      7.7466      2.5442      0.0963      6.4126   -999.2500   -999.2500
  2579.9000      7.7466      2.5390      0.0444      6.7263   -999.2500   -999.2500
  2580.0000      7.7452      2.5378      0.0511      6.7975   -999.2500   -999.2500
  2580.1000      7.7452      2.5419      0.0918      6.5531   -999.2500   -999.2500
  2580.2000      7.7452      2.5413      0.0449      6.5900   -999.2500   -999.2500
  2580.3000      7.7474      2.5348      0.0424      6.9807   -999.2500   -999.2500
  2580.4000      7.7474      2.5309      0.0373      7.2201   -999.2500   -999.2500
  2580.5000      7.7519      2.5310      0.0691      7.2102   -999.2500   -999.2500
  2580.6000      7.7519      2.5307      0.0523      7.2333   -999.2500   -999.2500
  2580.7000      7.7519      2.5320      0.0540      7.1539   -999.2500   -999.2500
  2580.8000      7.7450      2.5384      0.0344      6.7645   -999.2500   -999.2500
  2580.9000      7.7450      2.5423      0.0934      6.5292   -999.2500   -999.2500
  2581.0000      7.7149      2.5337      0.0574      7.0514   -999.2500   -999.2500
  2581.1000      7.7149      2.5197      0.0389      7.8981   -999.2500   -999.2500
  2581.2000      7.7149      2.5128      0.0240      8.3169   -999.2500   -999.2500
  2581.3000      7.6673      2.5136      0.0711      8.2649   -999.2500   -999.2500
  2581.4000      7.6673      2.5277      0.0944      7.4148   -999.2500   -999.2500
  2581.5000      7.5487      2.5797      0.0575      4.2636   -999.2500   -999.2500
  2581.6000      7.5487      2.5679      0.0395      4.9763   -999.2500   -999.2500
  2581.7000      7.5487      2.1230      0.5343     31.9381   -999.2500   -999.2500
  2581.8000      6.9886      1.1980      0.0730     87.9991   -999.2500   -999.2500
  2581.9000      6.9886      0.4051      0.0730    136.0574   -999.2500   -999.2500
  2582.0000      5.2980      0.0768   -999.2500    155.9509   -999.2500   -999.2500
  2582.1000      5.2980      0.0079   -999.2500    160.1266   -999.2500   -999.2500
  2582.2000      5.2980      0.0004   -999.2500    160.5800   -999.2500   -999.2500
  2582.3000      2.9414      0.0000   -999.2500    160.6061   -999.2500   -999.2500
  2582.4000      2.9414      0.0000   -999.2500    160.6061   -999.2500   -999.2500
  2582.5000      1.6034   -999.2500   -999.2500   -999.2500   -999.2500   -999.2500
  2582.6000      1.6034   -999.2500   -999.2500   -999.2500   -999.2500   -999.2500
  2582.7000      1.6034   -999.2500   -999.2500   -999.2500   -999.2500   -999.2500
