~Version Information
VERS.                      2.0: CWLS Log ASCII Standard - VERSION 2.0
WRAP.                       NO: One line per depth step
~Well Information Block
STRT.FT               -12.5000: 
STOP.FT              2487.7500: 
STEP.FT                 0.2500: 
NULL.                -999.2500: 
COMP.          Petrogulf Corporation: COMPANY
WELL.             Royal 8-33 V: WELL
FLD.           Purgatorie River: FIELD
LOC.           2365' FSL & 2336' FEL--: LOCATION
CNTY.               Las Animas: COUNTY
SRVC.                         : SERVICE COMPANY
DATE.          Sat Jan 17 11:43:49 2004: LOG DATE
UWI.           05 071 07934 00: UNIQUE WELL ID
STAT.                       CO: STATE
~Curve Information Block
DEPT.FT            0 000 00 00: Depth
CCL.                          : Casing Collar Locator
TT3.usec                      : CBL 3' Travel Time
AMP3.mV                       : CBL 3' Amplitude
GR.GAPI                       : Gamma Ray
~Parameter Information Block
~A  Depth       CCL         TT3         AMP3         GR     
   -12.5000   -999.2500   -999.2500   -999.2500     80.4819
   -12.2500   -999.2500   -999.2500   -999.2500     80.2748
   -12.0000   -999.2500   -999.2500   -999.2500     81.5929
   -11.7500   -999.2500   -999.2500   -999.2500     83.6828
   -11.5000   -999.2500   -999.2500   -999.2500     85.3366
   -11.2500   -999.2500   -999.2500   -999.2500     85.6890
   -11.0000   -999.2500   -999.2500   -999.2500     84.7132
   -10.7500   -999.2500   -999.2500   -999.2500     83.0077
   -10.5000   -999.2500   -999.2500   -999.2500     81.3701
   -10.2500   -999.2500   -999.2500   -999.2500     80.4373
   -10.0000   -999.2500   -999.2500   -999.2500     80.4232
    -9.7500   -999.2500   -999.2500   -999.2500     81.2433
    -9.5000   -999.2500   -999.2500   -999.2500     82.9151
    -9.2500   -999.2500   -999.2500   -999.2500     85.4778
    -9.0000   -999.2500   -999.2500   -999.2500     88.4814
    -8.7500   -999.2500   -999.2500   -999.2500     90.9805
    -8.5000   -999.2500   -999.2500   -999.2500     92.1920
    -8.2500   -999.2500   -999.2500   -999.2500     92.1166
    -8.0000   -999.2500   -999.2500   -999.2500     91.6725
    -7.7500   -999.2500   1402.4183      1.0007     92.1888
    -7.5000   -999.2500   1402.3621      1.0352     94.3621
    -7.2500   -999.2500   1402.2914      1.1087     97.4813
    -7.0000   -999.2500   1402.2119      1.2039     99.8563
    -6.7500   -999.2500   1402.1322      1.2871    100.1131
    -6.5000   -999.2500   1402.0675      1.3289     98.0413
    -6.2500   -999.2500   1402.0276      1.3209     94.5051
    -6.0000   -999.2500   1402.0089      1.2763     90.8675
    -5.7500   -999.2500   1402.0029      1.2169     88.2457
    -5.5000   -999.2500   1402.0032      1.1612     86.8979
    -5.2500   -999.2500   1402.0112      1.1228     86.3144
    -5.0000   -999.2500   1402.0360      1.1130     86.0448
    -4.7500   -999.2500   1402.0919      1.1377     86.3593
    -4.5000   -999.2500   1402.1860      1.1895     87.8882
    -4.2500   -999.2500   1402.2977      1.2471     90.5544
    -4.0000   -999.2500   1402.3784      1.2891     93.0002
    -3.7500   -999.2500   1402.3872      1.3059     93.3207
    -3.5000   -999.2500   1402.3357      1.2977     90.5745
    -3.2500   -999.2500   1402.2888      1.2680     85.7224
    -3.0000   -999.2500   1402.3138      1.2253     81.1002
    -2.7500   -999.2500   1402.4269      1.1864     78.7298
    -2.5000   -999.2500   1402.5811      1.1675     78.8704
    -2.2500      0.0000   1402.7024      1.1715     80.0882
    -2.0000      0.0000   1402.7384      1.1884     80.5549
    -1.7500      4.0000   1402.6852      1.2065     79.1360
    -1.5000     -4.0000   1402.5764      1.2192     75.5546
    -1.2500      0.0000   1402.4591      1.2235     70.0486
    -1.0000      0.0000   1402.3798      1.2199     63.1248
    -0.7500      0.0000   1402.3745      1.2126     55.4820
    -0.5000     -4.0000   1402.4468      1.2086     47.8417
    -0.2500      4.0000   1402.5537      1.2130     40.8319
     0.0000      3.7253   1402.6277      1.2263     35.1985
     0.2500      0.0000   1402.6288      1.2448     31.9890
     0.5000      4.0000   1402.5654      1.2626     32.1397
     0.7500      0.0000   1402.4773      1.2754     35.7087
     1.0000      0.0000   1402.3981      1.2845     41.6611
     1.2500      0.0000   1402.3374      1.2943     48.6354
     1.5000      0.0000   1402.2848      1.3026     55.8477
     1.7500      0.0000   1402.2350      1.2955     63.0737
     2.0000      0.0000   1402.2151      1.1890     75.6848
     2.2500      0.0000   1402.2683      1.1074     79.7361
     2.5000      0.0000   1402.3293      1.0343     82.1758
     2.7500      0.0000   1402.3550      0.9830     83.4350
     3.0000      0.0000   1402.3237      0.9582     83.7014
     3.2500      0.0000   1402.2520      0.9568     82.8498
     3.5000      0.0000   1402.1736      0.9669     80.9096
     3.7500      0.0000   1402.0199      0.9818     78.2918
     4.0000      0.0000   1401.2870      1.0204     75.4053
     4.2500      0.0000   1397.7938      1.1732     72.3274
     4.5000      0.0000   1384.9052      1.7172     69.1290
     4.7500      0.0000   1347.9207      3.3167     66.2937
     5.0000      0.0000   1264.6464      7.0853     64.4727
     5.2500      0.0000   1117.1755     14.0784     63.9071
     5.5000      0.0000    911.8502     24.2312     64.2314
     5.7500      0.0000    687.3519     35.7491     64.6821
     6.0000      0.0000    494.8319     45.9728     64.4775
     6.2500      0.0000    365.4764     53.1010     63.2415
     6.5000      0.0000    297.4052     57.0452     61.2125
     6.7500      0.0000    269.3106     58.8384     59.1390
     7.0000      0.0000    260.1503     59.6005     58.0671
     7.2500      0.0000    257.7289     60.0176     58.9644
     7.5000      0.0000    257.1689     60.3682     62.0479
     7.7500      0.0000    257.0385     60.7231     66.3817
     8.0000      0.0000    257.0115     61.0773     70.4821
     8.2500      0.0000    257.0027     61.3934     73.5029
     8.5000      0.0000    257.0006     61.6252     75.6592
     8.7500      0.0000    257.0006     61.7716     77.4139
     9.0000      0.0000    257.0027     61.8953     78.5727
     9.2500      0.0000    257.0115     62.0704     78.5625
     9.5000      0.0000    257.0385     62.3220     77.4098
     9.7500      0.0000    257.1032     62.6292     75.8416
    10.0000      0.0000    257.2238     62.9597     74.3624
    10.2500      0.0000    257.3981     63.2868     72.8433
    10.5000      0.0000    257.5909     63.5921     71.2942
    10.7500      0.0000    257.7484     63.8706     70.4720
    11.0000      0.0000    257.8297     64.1305     71.2246
    11.2500      0.0000    257.8313     64.3844     73.4980
    11.5000      0.0000    257.7833     64.6407     76.3189
    11.7500      0.0000    257.7242     64.8994     78.4178
    12.0000      0.0000    257.6751     65.1477     78.6601
    12.2500      0.0000    257.6359     65.3603     76.3957
    12.5000      0.0000    257.6056     65.5105     71.9099
    12.7500      0.0000    257.5917     65.5901     66.5293
    13.0000      0.0000    257.5967     65.6220     62.1624
    13.2500      0.0000    257.6063     65.6513     60.6197
    13.5000      0.0000    257.5993     65.7185     62.9131
    13.7500      0.0000    257.5675     65.8414     68.6721
    14.0000      0.0000    257.5157     66.0174     76.2282
    14.2500      0.0000    257.4504     66.2260     83.5784
    14.5000      0.0000    257.3835     66.4016     89.3950
    14.7500      0.0000    257.3848     66.3845     93.3052
    15.0000      0.0000    257.6667     65.8835     95.7297
    15.2500      0.0000    258.6717     64.4822     97.6124
    15.5000      0.0000    261.0016     61.8175     99.7311
    15.7500      0.0000    265.0209     57.9562    101.8217
    16.0000      0.0000    270.3162     53.5949    102.6477
    16.2500      0.0000    275.6510     49.6497    101.1878
    16.5000      0.0000    279.7937     46.5954     97.5697
    16.7500      0.0000    282.5995     44.3542     92.7934
    17.0000      0.0000    285.1835     42.7068     87.8983
    17.2500      0.0000    288.7162     41.5483     83.5976
    17.5000      0.0000    292.8797     40.8261     80.3723
    17.7500     -4.0000    295.7371     40.4873     78.4290
    18.0000      0.0000    295.4052     40.5166     77.5589
    18.2500      0.0000    291.7886     40.9871     77.2986
    18.5000      0.0000    286.5005     42.1186     77.2783
    18.7500      0.0000    281.1537     44.2560     77.4331
    19.0000      0.0000    276.0898     47.6211     78.0757
    19.2500      0.0000    270.9545     52.0067     79.6195
    19.5000      0.0000    265.9292     56.8074     81.8567
    19.7500      0.0000    261.8082     61.3442     83.5737
    20.0000      0.0000    259.1318     65.1097     83.2908
    20.2500      0.0000    257.7537     67.8398     80.5870
    20.5000      0.0000    257.1614     69.5406     76.6598
    20.7500      0.0000    256.9082     70.4428     73.4713
