~Version Information
VERS.                      2.0: CWLS Log ASCII Standard - VERSION 2.0
WRAP.                       NO: One line per depth step
~Well Information Block
STRT.FT               620.0000: 
STOP.FT              2663.2500: 
STEP.FT                 0.2500: 
NULL.                -999.2500: 
COMP.          Evergreen Operating Corporation: COMPANY
WELL.             Carbon 34-21: WELL
FLD.           Purgatoire River: FIELD
LOC.           56' FSL & 2304' FEL: LOCATION
PROV.                 Colorado: PROVINCE
CNTY.               Las Animas: COUNTRY
SRVC.                Patterson: SERVICE COMPANY
DATE.          Mon Sep 13 11:41:04 2004: LOG DATE
UWI.           05 071 08117 00: UNIQUE WELL ID
~Curve Information Block
DEPT.FT            0 000 00 00: Depth
DIR.Ohm-m                     : IEL Induction Resistivity
SN.Ohm-m                      : IEL Short Normal
SP.mV                         : IEL Spontaneous Potential
GR.GAPI                       : Gamma Ray
~Parameter Information Block
~A  Depth       DIR          SN          SP          GR     
# ...
   754.0000     25.0267   2000.0000   2000.0000    124.4237
   754.2500     26.0297   2000.0000   2000.0000    126.7936
   754.5000     27.0011   2000.0000   2000.0000    127.2132
   754.7500     27.9151   2000.0000   2000.0000    125.0886
   755.0000     28.7562   2000.0000   2000.0000    118.1337
   755.2500     29.4897   2000.0000   2000.0000    111.6458
   755.5000     30.0377   2000.0000   2000.0000    101.5356
   755.7500     30.2902   2000.0000   2000.0000     95.9457
   756.0000     30.1582   2000.0000   2000.0000     90.7105
   756.2500     29.6439   2000.0000   2000.0000     89.6783
   756.5000     28.8703   2000.0000   2000.0000     92.1073
   756.7500     28.0338   2000.0000   2000.0000     96.3597
   757.0000     27.3040   2000.0000   2000.0000    106.0065
   757.2500     26.7506   2000.0000   2000.0000    113.7843
   757.5000     26.3408   2000.0000   2000.0000    125.5803
   757.7500     25.9973   2000.0000   2000.0000    132.2969
   758.0000     25.6722   2000.0000   2000.0000    138.2376
   758.2500     25.3807   2000.0000   2000.0000    137.9817
   758.5000     25.1804   2000.0000   2000.0000    129.9082
   758.7500     25.1318   2000.0000   2000.0000    120.0256
   759.0000     25.2749   2000.0000   2000.0000    101.9951
   759.2500     25.6336   2000.0000   2000.0000     90.5179
   759.5000     26.2303   2000.0000   2000.0000     77.9300
   759.7500     27.0923   2000.0000   2000.0000     73.8173
   760.0000     28.2345   2000.0000   2000.0000     74.1914
   760.2500     29.6176   2000.0000   2000.0000     77.9495
   760.5000     31.0915   2000.0000   2000.0000     86.2294
   760.7500     32.3584   2000.0000   2000.0000     91.6321
   761.0000     33.0169   2000.0000   2000.0000     96.9494
   761.2500     32.7333   2000.0000   2000.0000     98.2401
   761.5000     31.4545   2000.0000   2000.0000     98.4938
   761.7500     29.4601   2000.0000   2000.0000     99.3166
   762.0000     27.1878   2000.0000   2000.0000    104.0500
   762.2500     25.0135   2000.0000   2000.0000    109.9917
   762.5000     23.1520   2000.0000   2000.0000    122.0268
   762.7500     21.6727   2000.0000   2000.0000    130.8499
   763.0000     20.5552   2000.0000   2000.0000    142.7189
   763.2500     19.7376   2000.0000   2000.0000    148.2979
   763.5000     19.1504   2000.0000   2000.0000    151.4325
   763.7500     18.7368   2000.0000   2000.0000    149.8327
   764.0000     18.4607   2000.0000   2000.0000    143.2706
   764.2500     18.3075   2000.0000   2000.0000    137.5476
   764.5000     18.2822   2000.0000   2000.0000    129.0190
   764.7500     18.4075   2000.0000   2000.0000    123.8466
   765.0000     18.7130   2000.0000   2000.0000    116.9431
   765.2500     19.2090   2000.0000   2000.0000    113.2905
   765.5000     19.8506   2000.0000   2000.0000    110.9282
   765.7500     20.5134   2000.0000   2000.0000    112.3942
   766.0000     21.0139   2000.0000   2000.0000    119.1926
   766.2500     21.1832   2000.0000   2000.0000    125.7264
   766.5000     20.9499   2000.0000   2000.0000    136.1220
   766.7500     20.3609   2000.0000   2000.0000    142.5786
   767.0000     19.5333   2000.0000   2000.0000    151.4451
   767.2500     18.5938   2000.0000   2000.0000    156.9672
   767.5000     17.6481   2000.0000   2000.0000    163.9720
   767.7500     16.7765   2000.0000   2000.0000    166.8432
   768.0000     16.0330   2000.0000   2000.0000    167.3300
   768.2500     15.4426   2000.0000   2000.0000    165.3762
   768.5000     15.0025   2000.0000   2000.0000    160.7146
   768.7500     14.6890   2000.0000   2000.0000    157.4095
   769.0000     14.4715   2000.0000   2000.0000    152.7099
   769.2500     14.3251   2000.0000   2000.0000    149.5555
   769.5000     14.2390   2000.0000   2000.0000    144.6053
   769.7500     14.2150   2000.0000   2000.0000    141.4801
   770.0000     14.2599   2000.0000   2000.0000    138.0696
   770.2500     14.3781   2000.0000   2000.0000    137.1410
   770.5000     14.5673   2000.0000   2000.0000    137.8264
   770.7500     14.8180   2000.0000   2000.0000    138.9557
   771.0000     15.1143   2000.0000   2000.0000    139.2970
   771.2500     15.4358   2000.0000   2000.0000    137.3846
   771.5000     15.7602   2000.0000   2000.0000    131.3023
   771.7500     16.0691   2000.0000   2000.0000    126.4760
   772.0000     16.3526   2000.0000   2000.0000    121.0587
   772.2500     16.6108   2000.0000   2000.0000    119.7830
   772.5000     16.8451   2000.0000   2000.0000    121.6785
   772.7500     17.0483   2000.0000   2000.0000    124.7186
   773.0000     17.1992   2000.0000   2000.0000    129.2665
   773.2500     17.2679   2000.0000   2000.0000    130.7198
   773.5000     17.2262   2000.0000   2000.0000    130.0149
   773.7500     17.0558   2000.0000   2000.0000    128.8288
   774.0000     16.7561   2000.0000   2000.0000    128.5362
   774.2500     16.3499   2000.0000   2000.0000    129.8933
   774.5000     15.8846   2000.0000   2000.0000    133.3478
   774.7500     15.4188   2000.0000   2000.0000    135.7407
   775.0000     15.0001   2000.0000   2000.0000    138.7925
   775.2500     14.6496   2000.0000   2000.0000    140.6325
   775.5000     14.3624   2000.0000   2000.0000    143.4751
   775.7500     14.1185   2000.0000   2000.0000    145.3704
   776.0000     13.8956   2000.0000   2000.0000    148.0569
   776.2500     13.6806   2000.0000   2000.0000    149.8837
   776.5000     13.4746   2000.0000   2000.0000    152.8352
   776.7500     13.2933   2000.0000   2000.0000    154.6219
   777.0000     13.1612   2000.0000   2000.0000    156.1061
   777.2500     13.1038   2000.0000   2000.0000    156.0104
   777.5000     13.1411   2000.0000   2000.0000    154.3280
   777.7500     13.2859   2000.0000   2000.0000    152.2520
   778.0000     13.5460   2000.0000   2000.0000    147.4535
   778.2500     13.9276   2000.0000   2000.0000    142.8481
   778.5000     14.4393   2000.0000   2000.0000    133.4969
   778.7500     15.0935   2000.0000   2000.0000    125.6480
   779.0000     15.9086   2000.0000   2000.0000    111.9487
   779.2500     16.9120   2000.0000   2000.0000    102.1466
   779.5000     18.1440   2000.0000   2000.0000     87.9589
   779.7500     19.6583   2000.0000   2000.0000     79.7784
   780.0000     21.5136   2000.0000   2000.0000     70.5535
   780.2500     23.7577   2000.0000   2000.0000     66.5387
   780.5000     26.4019   2000.0000   2000.0000     62.7925
   780.7500     29.3945   2000.0000   2000.0000     60.9245
   781.0000     32.6015   2000.0000   2000.0000     57.8872
   781.2500     35.8165   2000.0000   2000.0000     55.5123
   781.5000     38.8050   2000.0000   2000.0000     51.7704
   781.7500     41.3661   2000.0000   2000.0000     49.4568
   782.0000     43.3911   2000.0000   2000.0000     46.4496
   782.2500     44.9040   2000.0000   2000.0000     44.6588
   782.5000     46.0594   2000.0000   2000.0000     42.1461
   782.7500     47.0710   2000.0000   2000.0000     40.6394
   783.0000     48.0989   2000.0000   2000.0000     38.8638
   783.2500     49.1775   2000.0000   2000.0000     38.1515
   783.5000     50.2314   2000.0000   2000.0000     37.9989
   783.7500     51.1638   2000.0000   2000.0000     38.4998
   784.0000     51.9368   2000.0000   2000.0000     39.7801
   784.2500     52.5847   2000.0000   2000.0000     40.6380
   784.5000     53.1619   2000.0000   2000.0000     41.4740
   784.7500     53.6803   2000.0000   2000.0000     41.7266
   785.0000     54.0864   2000.0000   2000.0000     42.2181
   785.2500     54.2866   2000.0000   2000.0000     43.1032
   785.5000     54.1870   2000.0000   2000.0000     45.6439
   785.7500     53.7226   2000.0000   2000.0000     47.8751
   786.0000     52.8726   2000.0000   2000.0000     51.0665
   786.2500     51.6827   2000.0000   2000.0000     52.6321
   786.5000     50.2688   2000.0000   2000.0000     53.8655
   786.7500     48.7824   2000.0000   2000.0000     53.9533
   787.0000     47.3553   2000.0000   2000.0000     53.0675
   787.2500     46.0668   2000.0000   2000.0000     51.9560
