~Version Information
VERS.                      2.0: CWLS Log ASCII Standard - VERSION 2.0
WRAP.                       NO: One line per depth step
~Well Information Block
STRT.FT               890.0000: 
STOP.FT              1589.0000: 
STEP.FT                 0.2500: 
NULL.                -999.2500: 
COMP.          Evergreen Operating Corporation: COMPANY
WELL.            Tomahawk 44-9: WELL
FLD.           Purgatorie River: FIELD
LOC.           434' FSL & 491' FEL: LOCATION
PROV.                 Colorado: PROVINCE
CNTY.               Las Animas: COUNTRY
SRVC.                         : SERVICE COMPANY
DATE.          Sat Sep 11 23:05:26 2004: LOG DATE
UWI.           05 071 08133 00: UNIQUE WELL ID
~Curve Information Block
DEPT.FT            0 000 00 00: Depth
LTEN.lb                       : Surface Line Tension
SN.Ohm-m                      : IEL Short Normal
SP.mV                         : IEL Spontaneous Potential
DIR.Ohm-m                     : IEL Induction Resistivity
GR.GAPI                       : Gamma Ray
~Parameter Information Block
~A  Depth       LTEN         SN          SP         DIR          GR     
# ...
  1170.0000    747.7969     12.0127    -65.8987     14.1660    125.7899
  1170.2500    747.4381     12.6901    -67.1337     14.5152    123.1788
  1170.5000    747.5533     13.5388    -68.2508     14.9606    120.9470
  1170.7500    748.8067     14.5342    -69.1889     15.4931    121.2008
  1171.0000    750.9743     15.5989    -69.9215     16.0318    123.7627
  1171.2500    752.8797     16.6193    -70.4567     16.4549    126.1208
  1171.5000    753.5319     17.4819    -70.8231     16.6745    129.0639
  1171.7500    753.2053     18.1048    -71.0545     16.6946    129.7827
  1172.0000    753.0441     18.4518    -71.1705     16.5914    128.1593
  1172.2500    753.6456     18.5285    -71.1754     16.4465    125.5119
  1172.5000    754.5013     18.3693    -71.0518     16.3004    120.8049
  1172.7500    754.8455     18.0219    -70.7781     16.1564    118.3499
  1173.0000    754.5395     17.5338    -70.3469     16.0051    117.2557
  1173.2500    754.0530     16.9452    -69.7779     15.8370    118.6825
  1173.5000    753.9290     16.2886    -69.1286     15.6369    123.7156
  1173.7500    754.2663     15.5944    -68.4786     15.3784    128.1335
  1174.0000    754.5541     14.8961    -67.9188     15.0313    134.4045
  1174.2500    753.9601     14.2297    -67.5202     14.5771    137.5518
  1174.5000    751.8721     13.6254    -67.3154     14.0261    140.4692
  1174.7500    748.5001     13.0981    -67.2876     13.4252    141.5411
  1175.0000    745.1491     12.6484    -67.3713     12.8439    142.7016
  1175.2500    743.5994     12.2723    -67.4590     12.3433    143.6608
  1175.5000    744.7870     11.9685    -67.4301     11.9506    145.8384
  1175.7500    747.9822     11.7369    -67.1768     11.6569    147.7036
  1176.0000    751.2676     11.5693    -66.6324     11.4383    150.3529
  1176.2500    752.9167     11.4469    -65.7895     11.2802    151.3669
  1176.5000    752.6694     11.3509    -64.6978     11.1858    150.9901
  1176.7500    751.9257     11.2783    -63.4513     11.1662    149.5256
  1177.0000    752.4441     11.2481    -62.1544     11.2217    146.1985
  1177.2500    754.6033     11.2911    -60.8952     11.3323    143.5697
  1177.5000    757.0994     11.4344    -59.7234     11.4681    139.0821
  1177.7500    758.3508     11.6962    -58.6559     11.6153    135.4620
  1178.0000    757.8182     12.0930    -57.6966     11.7972    128.3412
  1178.2500    756.0498     12.6493    -56.8583     12.0711    122.2963
  1178.5000    754.0482     13.3941    -56.1794     12.5004    112.5526
  1178.7500    752.6960     14.3405    -55.7211     13.1225    107.1604
  1179.0000    752.3324     15.4570    -55.5439     13.9262    102.8584
  1179.2500    752.6746     16.6553    -55.6785     14.8432    102.5384
  1179.5000    753.2740     17.8062    -56.0956     15.7633    104.2422
  1179.7500    754.0234     18.7820    -56.7089     16.5722    105.7198
  1180.0000    755.1058     19.5030    -57.3896     17.1958    107.3018
  1180.2500    756.4883     19.9657    -58.0053     17.6191    108.0337
  1180.5000    757.7172     20.2356    -58.4569     17.8723    110.1631
  1180.7500    758.4336     20.4053    -58.7010     18.0001    113.1083
  1181.0000    758.9703     20.5442    -58.7542     18.0320    118.8678
  1181.2500    760.0316     20.6713    -58.6706     17.9687    121.5932
  1181.5000    761.6692     20.7680    -58.5134     17.8014    121.0428
  1181.7500    762.9016     20.8098    -58.3217     17.5527    117.7502
  1182.0000    762.5512     20.7868    -58.1016     17.3012    111.6671
  1182.2500    760.4230     20.7014    -57.8175     17.1577    108.8506
  1182.5000    757.5997     20.5583    -57.4127     17.2127    107.6750
  1182.7500    755.6650     20.3662    -56.8359     17.4973    108.3469
  1183.0000    755.7250     20.1478    -56.0598     17.9714    110.0364
  1183.2500    757.8976     19.9426    -55.1046     18.5352    111.2264
  1183.5000    761.2525     19.7931    -54.0391     19.0495    113.4987
  1183.7500    764.2942     19.7248    -52.9678     19.3678    115.6946
  1184.0000    766.0046     19.7343    -52.0174     19.3747    119.5979
  1184.2500    766.5754     19.7919    -51.3126     19.0305    121.5014
  1184.5000    767.0524     19.8540    -50.9566     18.3910    120.8798
  1184.7500    768.3501     19.8742    -51.0190     17.5791    117.4273
  1185.0000    770.5100     19.8091    -51.5179     16.7242    108.9536
  1185.2500    772.4443     19.6148    -52.4071     15.9152    103.0477
  1185.5000    772.4458     19.2442    -53.5725     15.1961     97.1558
  1185.7500    769.6273     18.6538    -54.8389     14.5862     96.1347
  1186.0000    765.0015     17.8247    -55.9926     14.0970     98.5250
  1186.2500    760.6647     16.7868    -56.8305     13.7349    101.9262
  1186.5000    757.9344     15.6248    -57.2159     13.4905    108.6538
  1186.7500    756.5906     14.4558    -57.1110     13.3271    113.9592
  1187.0000    755.7288     13.3858    -56.5881     13.1772    122.9368
  1187.2500    754.9008     12.4746    -55.8017     12.9585    129.2742
  1187.5000    754.3464     11.7279    -54.9309     12.6097    138.1211
  1187.7500    754.4960     11.1156    -54.1162     12.1289    142.8434
  1188.0000    755.5811     10.5949    -53.4158     11.5739    147.8927
  1188.2500    757.6287     10.1236    -52.8009     11.0208    150.4566
  1188.5000    760.3224      9.6676    -52.1825     10.5190    154.1680
  1188.7500    762.6393      9.2097    -51.4644     10.0795    156.6120
  1189.0000    763.2275      8.7568    -50.5872      9.6938    159.5382
  1189.2500    761.7200      8.3372    -49.5568      9.3594    160.6384
  1189.5000    759.3679      7.9840    -48.4481      9.0867    160.7175
  1189.7500    757.9710      7.7166    -47.3830      8.8871    159.5491
  1190.0000    758.2615      7.5316    -46.5019      8.7584    155.8781
  1190.2500    759.4640      7.4098    -45.9350      8.6823    152.4958
  1190.5000    760.3124      7.3308    -45.7879      8.6340    146.9851
  1190.7500    760.2322      7.2860    -46.1188      8.5942    143.4913
  1191.0000    759.6354      7.2782    -46.9338      8.5538    139.2066
  1191.2500    759.5158      7.3107    -48.1819      8.5120    137.4497
  1191.5000    760.8270      7.3749    -49.7590      8.4710    137.0510
  1191.7500    763.7365      7.4460    -51.5292      8.4344    138.2391
  1192.0000    767.2896      7.4879    -53.3533      8.4082    141.3392
  1192.2500    770.1212      7.4674    -55.1136      8.3996    143.4757
  1192.5000    771.4521      7.3675    -56.7307      8.4138    145.6110
  1192.7500    771.2479      7.1951    -58.1597      8.4487    146.2332
  1193.0000    769.8680      6.9804    -59.3755      8.4935    146.8781
  1193.2500    768.0131      6.7669    -60.3646      8.5330    147.7390
  1193.5000    766.7371      6.5989    -61.1261      8.5549    149.9102
  1193.7500    766.8093      6.5071    -61.6796      8.5557    151.4810
  1194.0000    767.8448      6.4990    -62.0851      8.5401    152.7304
  1194.2500    768.5961      6.5595    -62.4429      8.5166    152.2048
  1194.5000    768.5026      6.6630    -62.8683      8.4943    149.1847
  1194.7500    768.3773      6.7887    -63.4490      8.4827    146.1175
  1195.0000    769.1132      6.9292    -64.2078      8.4941    141.2069
  1195.2500    770.3576      7.0844    -65.0716      8.5461    138.3954
  1195.5000    770.9982      7.2515    -65.8829      8.6571    135.3326
  1195.7500    770.4713      7.4222    -66.4442      8.8361    133.9940
  1196.0000    769.2244      7.5924    -66.5800      9.0724    133.1437
  1196.2500    768.1728      7.7703    -66.1960      9.3370    133.7267
  1196.5000    767.8767      7.9731    -65.3063      9.5992    136.6939
  1196.7500    768.0696      8.2134    -64.0308      9.8464    139.5850
  1197.0000    767.8705      8.4909    -62.5470     10.0859    143.4947
  1197.2500    766.6205      8.7959    -61.0442     10.3277    144.7884
  1197.5000    764.7623      9.1192    -59.6663     10.5696    143.7648
  1197.7500    763.7118      9.4580    -58.4873     10.8031    141.1239
