~Version Information
VERS.                      2.0: CWLS Log ASCII Standard - VERSION 2.0
WRAP.                       NO: One line per depth step
~Well Information Block
STRT.FT               890.0000: 
STOP.FT              1588.2000: 
STEP.FT                 0.1000: 
NULL.                -999.2500: 
COMP.          Evergreen Operating Corporation: COMPANY
WELL.            Tomahawk 44-9: WELL
FLD.           Purgatorie River: FIELD
LOC.           434' FSL & 491' FEL: LOCATION
PROV.                 Colorado: PROVINCE
CNTY.               Las Animas: COUNTRY
SRVC.                         : SERVICE COMPANY
DATE.          Mon Sep 13 10:07:57 2004: LOG DATE
UWI.           05 071 08133 00: UNIQUE WELL ID
~Curve Information Block
DEPT.FT            0 000 00 00: Depth
LTEN.lb                       : Surface Line Tension
DCAL.in                       : CDL Caliper
RHOB.g/cc                     : CDL Bulk Density
RHOC.g/cc                     : CDL Density Correction
DPOR.pu                       : CDL Density Porosity
GR.GAPI                       : Gamma Ray
NPOR.pu                       : Neutron Porosity
~Parameter Information Block
~A  Depth       LTEN        DCAL        RHOB        RHOC        DPOR         GR         NPOR    
# ...
  1486.4000   1115.5605      7.8311      2.3636      0.0344     17.3589     83.6992     17.9843
  1486.5000   1147.4928      7.8331      2.3754      0.0474     16.6438     81.8438     18.0199
  1486.6000   1147.4928      7.8331      2.3813      0.0467     16.2828     79.4978     19.1448
  1486.7000   1147.4928      7.8331      2.3878      0.0360     15.8914     79.6376     20.0900
  1486.8000   1106.7432      7.8420      2.3996      0.0535     15.1785     81.1650     20.3196
  1486.9000   1106.7432      7.8420      2.4041      0.0780     14.9001     83.1292     20.3652
  1487.0000   1141.5389      7.8334      2.3937      0.0588     15.5341     83.3570     20.5520
  1487.1000   1141.5389      7.8334      2.3802     -0.0134     16.3545     81.7870     20.9192
  1487.2000   1141.5389      7.8334      2.3761      0.0234     16.6016     82.3695     21.2960
  1487.3000   1113.3762      7.8307      2.3745      0.0574     16.6940     86.5200     21.5274
  1487.4000   1113.3762      7.8307      2.3668      0.0262     17.1652     89.5296     21.6402
  1487.5000   1127.5385      7.8307      2.3596      0.0374     17.5990     87.8954     21.5340
  1487.6000   1127.5385      7.8307      2.3667      0.0155     17.1668     86.7251     21.2565
  1487.7000   1127.5385      7.8307      2.3922      0.0552     15.6230     91.3323     20.9271
  1487.8000   1123.7893      7.8299      2.4278      0.0496     13.4649     98.6261     20.8152
  1487.9000   1123.7893      7.8299      2.4665      0.0792     11.1213    105.3055     21.3508
  1488.0000   1123.1871      7.8321      2.5040      0.1026      8.8472    112.4346     22.4819
  1488.1000   1123.1871      7.8321      2.5351      0.1429      6.9644    119.1869     23.4620
  1488.2000   1123.1871      7.8321      2.5541      0.1387      5.8145    122.1088     23.6448
  1488.3000   1130.7805      7.8392      2.5596      0.1351      5.4768    119.2466     23.3587
  1488.4000   1130.7805      7.8392      2.5536      0.1384      5.8450    109.6441     23.4038
  1488.5000   1114.6805      7.8396      2.5404      0.0809      6.6419     96.8307     23.7406
  1488.6000   1114.6805      7.8396      2.5274      0.0780      7.4277     89.7111     23.7322
  1488.7000   1114.6805      7.8396      2.5194      0.0363      7.9142     91.3227     23.5309
  1488.8000   1122.8977      7.8335      2.5194      0.0364      7.9143     97.0005     23.6152
  1488.9000   1122.8977      7.8335      2.5234      0.0587      7.6706    101.2303     23.7494
  1489.0000   1128.4940      7.8317      2.5226      0.0336      7.7212    100.5682     23.2174
  1489.1000   1128.4940      7.8317      2.5181      0.0273      7.9948     97.0165     21.8344
  1489.2000   1128.4940      7.8317      2.5094      0.0773      8.5194     92.0837     20.0007
  1489.3000   1134.2988      7.8276      2.4885      0.0515      9.7879     86.9600     18.2671
  1489.4000   1134.2988      7.8276      2.4628      0.0337     11.3443     87.0795     17.2953
  1489.5000   1132.1307      7.8105      2.4537      0.0104     11.8942     91.5108     17.3307
  1489.6000   1132.1307      7.8105      2.4640      0.0535     11.2744     93.0329     17.9038
  1489.7000   1132.1307      7.8105      2.4737      0.0765     10.6830     90.1581     18.3719
  1489.8000   1129.3969      7.8268      2.4738      0.0290     10.6784     86.7003     18.3787
  1489.9000   1129.3969      7.8268      2.4679      0.0500     11.0341     86.7195     18.0121
  1490.0000   1118.4664      7.8333      2.4585      0.0080     11.6038     90.5253     17.7848
  1490.1000   1118.4664      7.8333      2.4513      0.0339     12.0406     92.4091     17.9980
  1490.2000   1118.4664      7.8333      2.4509      0.0237     12.0687     89.2630     18.2467
  1490.3000   1129.6027      7.8492      2.4577      0.0289     11.6543     85.1871     18.1394
  1490.4000   1129.6027      7.8492      2.4661      0.0391     11.1455     83.5489     17.8451
  1490.5000   1103.0753      7.8494      2.4679      0.0365     11.0359     83.7726     17.6060
  1490.6000   1103.0753      7.8494      2.4738     -0.0137     10.6809     85.7926     17.5201
  1490.7000   1103.0753      7.8494      2.5001      0.0286      9.0836     89.1352     17.3500
  1490.8000   1118.9734      7.8360      2.5384      0.0668      6.7623     89.3405     16.6123
  1490.9000   1118.9734      7.8360      2.5694      0.0801      4.8848     85.2948     15.5490
  1491.0000   1124.2810      7.8052      2.5916      0.0742      3.5399     82.0903     14.9518
  1491.1000   1124.2810      7.8052      2.6129      0.1169      2.2483     80.4219     14.7410
  1491.2000   1124.2810      7.8052      2.6258      0.1327      1.4656     78.8134     14.2254
  1491.3000   1111.3083      7.8011      2.6187      0.1191      1.8977     79.4415     13.3847
  1491.4000   1111.3083      7.8011      2.6032      0.0496      2.8339     81.4186     12.5414
  1491.5000   1140.2291      7.8030      2.6000      0.0325      3.0281     81.9789     11.8816
  1491.6000   1140.2291      7.8030      2.6019      0.0613      2.9155     81.6771     11.5527
  1491.7000   1140.2291      7.8030      2.5951      0.0216      3.3243     80.5365     11.6323
  1491.8000   1121.9587      7.8090      2.5920      0.0054      3.5154     77.2162     11.9195
  1491.9000   1121.9587      7.8090      2.6002      0.0355      3.0198     74.0457     12.0617
  1492.0000   1110.9803      7.8234      2.6055      0.0388      2.6993     73.7135     12.0921
  1492.1000   1110.9803      7.8234      2.6035      0.0438      2.8196     74.8742     12.1225
  1492.2000   1110.9803      7.8234      2.6061      0.0108      2.6622     76.7768     12.2933
  1492.3000   1112.8972      7.8270      2.6184      0.0244      1.9161     81.0202     12.7307
  1492.4000   1112.8972      7.8270      2.6280      0.0777      1.3342     86.9482     12.8632
  1492.5000   1110.2081      7.8269      2.6225      0.0354      1.6673     91.7119     12.3929
  1492.6000   1110.2081      7.8269      2.6055      0.0229      2.6980     95.2433     11.9312
  1492.7000   1110.2081      7.8269      2.5804      0.0689      4.2159    100.4273     11.9941
  1492.8000   1135.9503      7.8269      2.5515      0.0061      5.9691    105.2532     12.5073
  1492.9000   1135.9503      7.8269      2.5307      0.0279      7.2309    104.2831     13.2854
  1493.0000   1137.7157      7.8274      2.5181      0.0321      7.9928    100.3762     13.9468
  1493.1000   1137.7157      7.8274      2.5093      0.0180      8.5280    100.4976     14.1651
  1493.2000   1137.7157      7.8274      2.5078      0.0068      8.6158    100.7269     14.4837
  1493.3000   1135.8787      7.8266      2.5115      0.0349      8.3911     97.0466     14.8336
  1493.4000   1135.8787      7.8266      2.5089      0.0386      8.5486     94.1546     14.4902
  1493.5000   1130.6595      7.8295      2.4985      0.0315      9.1798     93.1010     14.0835
  1493.6000   1130.6595      7.8295      2.4936      0.0241      9.4807     91.6964     14.4693
  1493.7000   1130.6595      7.8295      2.4979      0.0327      9.2152     90.5628     15.2325
  1493.8000   1117.2484      7.8266      2.4986      0.0728      9.1739     90.0237     15.5480
  1493.9000   1117.2484      7.8266      2.4874      0.0481      9.8526     88.9627     15.4032
  1494.0000   1110.4502      7.8304      2.4719      0.0353     10.7964     87.7309     15.3359
  1494.1000   1110.4502      7.8304      2.4619      0.0362     11.3996     87.0063     15.5736
  1494.2000   1110.4502      7.8304      2.4597      0.0230     11.5319     87.2622     15.9065
  1494.3000   1119.8761      7.8309      2.4619      0.0221     11.4013     90.0038     16.0037
  1494.4000   1119.8761      7.8309      2.4670      0.0366     11.0933     95.1641     15.9415
  1494.5000   1110.2394      7.8280      2.4799      0.0266     10.3107     98.4285     15.8820
  1494.6000   1110.2394      7.8280      2.5027      0.0432      8.9257     97.0007     15.6210
  1494.7000   1110.2394      7.8280      2.5287      0.0929      7.3543     92.5292     15.1201
