~Version Information
VERS.                      2.0: CWLS Log ASCII Standard - VERSION 2.0
WRAP.                       NO: One line per depth step
~Well Information Block
STRT.FT               770.0000: 
STOP.FT              1997.7000: 
STEP.FT                 0.1000: 
NULL.                -999.2500: 
COMP.          Pioneer Natural Resources: COMPANY
WELL.          Titan Federal 34-17: WELL
FLD.           Purgatoire River: FIELD
LOC.           321' FSL & 1911' FEL--: LOCATION
STAT.                 Colorado: State
CNTY.               Las Animas: COUNTY
CTRY. USA : Country
SECT. 17 : Section
TOWN. 32S : Township
RANG. 65W : Range
SRVC.                Patterson: SERVICE COMPANY
DATE.          Thu Oct 06 15:09:27 2005: LOG DATE
API.           05 071 08272 00: UNIQUE WELL ID
~Curve Information Block
DEPT.FT            0 000 00 00: Depth
DCAL.in                       : CDL Caliper
RHOB.g/cc                     : CDL Bulk Density
RHOC.g/cc                     : CDL Density Correction
DPOR.pu                       : CDL Density Porosity
NPOR.pu                       : Neutron Porosity
GR.GAPI                       : Gamma Ray
~Parameter Information Block
~A  Depth       DCAL        RHOB        RHOC        DPOR        NPOR         GR     
# ...
  1806.8000      8.0428      2.2268     -0.0806     25.6507     20.9801     93.0703
  1806.9000      8.0428      2.1474     -0.0797     30.4618     21.1847     87.3894
  1807.0000      8.0428      2.0806     -0.1258     34.5079     21.5485     77.8667
  1807.1000      8.0428      2.0332     -0.1504     37.3804     22.1045     73.6898
  1807.2000      8.0428      2.0121     -0.0797     38.6578     22.5066     76.5111
  1807.3000      8.0423      2.0147     -0.0566     38.5056     22.6497     83.1305
  1807.4000      8.0423      2.0403     -0.0156     36.9510     22.3807     89.2448
  1807.5000      8.0414      2.0901      0.0637     33.9354     21.8785     90.6888
  1807.6000      8.0414      2.1605      0.1340     29.6643     21.7947     86.8178
  1807.7000      8.0414      2.2415      0.1981     24.7601     22.2803     84.1763
  1807.8000      8.0420      2.3131      0.2114     20.4179     22.6195     87.0963
  1807.9000      8.0420      2.3577      0.1579     17.7139     22.5488     91.7745
  1808.0000      8.0438      2.3744      0.1361     16.7033     22.5647     94.9116
  1808.1000      8.0438      2.3840      0.0716     16.1184     22.5461     98.5495
  1808.2000      8.0438      2.4021      0.1210     15.0267     22.2536    104.0889
  1808.3000      8.0448      2.4148      0.0711     14.2566     22.2665    110.5195
  1808.4000      8.0448      2.4180      0.0398     14.0582     22.4313    116.4483
  1808.5000      8.0442      2.4263      0.0580     13.5572     22.0149    119.4804
  1808.6000      8.0442      2.4393      0.0854     12.7697     21.1956    118.6495
  1808.7000      8.0442      2.4488      0.0393     12.1913     20.8127    119.2972
  1808.8000      8.0442      2.4561      0.0316     11.7505     21.2559    123.5043
  1808.9000      8.0442      2.4648      0.0534     11.2260     21.6661    121.7464
  1809.0000      8.0445      2.4750      0.0661     10.6040     21.4948    111.1126
  1809.1000      8.0445      2.4879      0.0413      9.8219     21.4055    104.4961
  1809.2000      8.0445      2.5042      0.0696      8.8357     21.1419    110.2984
  1809.3000      8.0439      2.5172      0.0722      8.0494     20.2479    117.1330
  1809.4000      8.0439      2.5215      0.0586      7.7853     19.4185    111.7084
  1809.5000      8.0446      2.5203      0.0503      7.8613     19.0300    101.1196
  1809.6000      8.0446      2.5144      0.0705      8.2206     18.7890     98.0910
  1809.7000      8.0446      2.5063      0.0349      8.7064     18.6532    100.6077
  1809.8000      8.0448      2.5083      0.0391      8.5883     18.9871    101.8129
  1809.9000      8.0448      2.5198      0.0508      7.8917     19.8902    100.4000
  1810.0000      8.0440      2.5226      0.0605      7.7189     20.5678     98.5088
  1810.1000      8.0440      2.5119      0.0383      8.3708     20.2686     99.5710
  1810.2000      8.0440      2.5053      0.0159      8.7688     19.1435    103.8731
  1810.3000      8.0440      2.5105      0.0539      8.4527     17.9580    108.0253
  1810.4000      8.0440      2.5179      0.0297      8.0090     17.4091    108.8184
  1810.5000      8.0457      2.5248      0.0314      7.5902     17.1587    106.3529
  1810.6000      8.0457      2.5325      0.0190      7.1197     16.6735    100.4260
  1810.7000      8.0457      2.5389      0.0301      6.7322     16.0366     94.9064
  1810.8000      8.0467      2.5402      0.0786      6.6540     15.6661     98.7210
  1810.9000      8.0467      2.5360      0.0717      6.9072     16.0519    110.5641
  1811.0000      8.0460      2.5375     -0.0039      6.8168     17.0811    119.1787
  1811.1000      8.0460      2.5461      0.0971      6.2979     18.0750    121.3140
  1811.2000      8.0460      2.5429      0.0719      6.4904     18.4618    120.5145
  1811.3000      8.0438      2.5279      0.0234      7.3972     18.2501    116.4954
  1811.4000      8.0438      2.5180      0.0249      7.9974     17.8166    113.6611
  1811.5000      8.0423      2.5151      0.0288      8.1744     17.6041    115.8882
  1811.6000      8.0423      2.5157      0.0021      8.1377     17.8173    114.8826
  1811.7000      8.0423      2.5202      0.0292      7.8666     18.3641    107.0709
  1811.8000      8.0428      2.5239      0.0221      7.6428     18.8234     98.4606
  1811.9000      8.0428      2.5304      0.0200      7.2510     18.9848     94.1883
  1812.0000      8.0421      2.5436      0.0954      6.4465     19.1610     98.0076
  1812.1000      8.0421      2.5502      0.1108      6.0482     19.4509    108.3136
  1812.2000      8.0421      2.5475      0.0477      6.2099     19.7449    115.4991
  1812.3000      8.0388      2.5517      0.0458      5.9604     19.9787    116.9552
  1812.4000      8.0388      2.5681      0.0681      4.9621     20.2536    119.8554
  1812.5000      8.0387      2.5861      0.0632      3.8703     20.3728    127.6642
  1812.6000      8.0387      2.5888      0.0947      3.7102     19.6840    135.6170
  1812.7000      8.0387      2.5701      0.0602      4.8452     18.4802    136.5457
  1812.8000      8.0427      2.5500      0.0406      6.0586     17.9002    132.7178
  1812.9000      8.0427      2.5524      0.0288      5.9121     18.0459    133.2924
  1813.0000      8.0453      2.5632      0.1115      5.2619     18.1180    138.1000
  1813.1000      8.0453      2.5457      0.0877      6.3241     18.1169    139.8655
  1813.2000      8.0453      2.5008      0.0271      9.0447     18.4891    139.4497
  1813.3000      8.0443      2.4608     -0.0122     11.4642     19.3083    143.0122
  1813.4000      8.0443      2.4403      0.0032     12.7073     20.5457    148.0435
  1813.5000      8.0417      2.4312     -0.0208     13.2632     21.5560    149.3761
  1813.6000      8.0417      2.4232      0.0227     13.7479     21.6579    145.1591
  1813.7000      8.0417      2.4060      0.0106     14.7898     21.2215    137.8153
  1813.8000      8.0395      2.3706      0.0249     16.9353     21.2097    134.1921
  1813.9000      8.0395      2.3134     -0.0350     20.4016     22.3176    133.0494
  1814.0000      8.0404      2.2349     -0.0239     25.1599     24.1924    129.6074
  1814.1000      8.0404      2.1338     -0.0650     31.2851     25.9199    127.3819
  1814.2000      8.0404      2.0149     -0.1207     38.4908     27.1054    127.2078
  1814.3000      8.0473      1.8946     -0.1518     45.7805     27.8827    122.2547
  1814.4000      8.0473      1.7907     -0.1472     52.0799     28.7837    111.0222
  1814.5000      8.0630      1.7088     -0.1578     57.0407     29.9355     96.6649
  1814.6000      8.0630      1.6380     -0.1205     61.3316     30.9284     83.0501
  1814.7000      8.0630      1.5594     -0.0990     66.0967     31.5794     74.3398
  1814.8000      8.0874      1.4747     -0.1217     71.2297     31.6880     67.6596
  1814.9000      8.0874      1.4096     -0.0885     75.1776     31.1963     56.5775
  1815.0000      8.1187      1.3822     -0.0529     76.8344     30.9626     44.0816
  1815.1000      8.1187      1.3834      0.0638     76.7629     31.7304     36.8416
  1815.2000      8.1187      1.3852      0.0979     76.6565     32.7400     34.2211
  1815.3000      8.1763      1.3733      0.0658     77.3761     33.1497     32.9412
  1815.4000      8.1763      1.3576      0.0602     78.3292     33.1225     32.4060
  1815.5000      8.2971      1.3493      0.0591     78.8325     32.8848     31.7327
  1815.6000      8.2971      1.3468      0.0801     78.9826     32.4929     31.5220
  1815.7000      8.2971      1.3427      0.0716     79.2314     31.9070     33.7933
  1815.8000      8.4482      1.3389      0.0371     79.4603     31.5247     36.4292
  1815.9000      8.4482      1.3440      0.0405     79.1529     31.9560     36.7477
  1816.0000      8.5480      1.3561      0.0676     78.4177     32.5922     36.4048
  1816.1000      8.5480      1.3651      0.0812     77.8729     32.6248     35.9247
  1816.2000      8.5480      1.3725      0.0482     77.4244     32.1591     35.5163
  1816.3000      8.5981      1.3962      0.0618     75.9881     31.5561     36.7079
