~Version Information
 VERS.                                  2.0 : CWLS LAS VERSION
 WRAP.                                   NO : WRAPING MODE
 SWARE .                 MController 2.5.0J : SOFTWARE VERSION
~Well Information
 WELL.                     Kristin 22-23 TR : WELL
 COMP.        Pioneer Natural Resources Inc : COMPANY
 FLD.                      Purgatoire River : FIELD
 LOC.                SE/NW Sec 23 T33S R67W : LOCATION
 DATE.                           1/19-20/05 : DATE(S) LOGGED
 SRVC.       Blanco Geological Services LLC : SERVICE COMPANY
 STAT.                                   CO : STATE
 CNTY.                           Las Animas : COUNTY
 CTRY.                                  USA : COUNTRY
 API.                       05-071-08259-00 : API NUMBER
 STRT.FT                             499.00 : START DEPTH
 STOP.FT                            1575.00 : STOP DEPTH
 STEP.FT                               1.00 : DEPTH INCREMENT
 NULL.                                -9999 : NULL VALUE
~Curve information
 DEPTH.FT                                   :
 ROP.MIN/FT                                 :
 GAS.UNITS                                  :
~ASCII Log data
       499.0     -9999.00         10.1 
       500.0         0.80         10.0 
       501.0         1.07         10.1 
       502.0         0.18         10.1 
       503.0         1.17         10.1 
       504.0         0.63          9.9 
       505.0         2.05         10.2 
       506.0         0.23          9.1 
       507.0         0.17          9.1 
       508.0         0.27          9.9 
       509.0         0.30          9.8 
       510.0         0.17          8.9 
       511.0         0.27          9.5 
       512.0         0.13          8.8 
       513.0         0.23          9.6 
       514.0         0.10          8.4 
       515.0         0.17          8.8 
       516.0         0.37          8.7 
       517.0         0.32          8.9 
       518.0         0.53          8.9 
       519.0         0.27          9.1 
       520.0         0.57          9.5 
       521.0         0.13          9.2 
       522.0         0.17          9.2 
       523.0         0.27          9.5 
       524.0         0.10          9.2 
       525.0         0.07          9.2 
       526.0         0.03          9.2 
       527.0         0.07          8.7 
       528.0         0.70          9.4 
       529.0         0.62          8.9 
       530.0         0.27          9.4 
       531.0         0.50          9.4 
       532.0         0.47          9.4 
       533.0         0.30          8.9 
       534.0         0.53          9.1 
       535.0         0.17          9.1 
       536.0         0.07          9.1 
       537.0         0.73          9.5 
       538.0         0.42         10.2 
       539.0         0.67          9.4 
       540.0         0.70          9.5 
       541.0         0.10          9.5 
       542.0         0.23          9.4 
       543.0         0.80          9.3 
       544.0         0.47          9.6 
       545.0         0.28          8.6 
       546.0         0.30          8.6 
       547.0         0.73          9.9 
       548.0         1.23         10.2 
       549.0         0.37          9.2 
       550.0         0.27         10.0 
       551.0         0.32          9.8 
       552.0         1.27          9.6 
       553.0         0.93         10.1 
       554.0         1.45          9.6 
       555.0         1.13          9.6 
       556.0         0.90          9.8 
       557.0         0.90          9.2 
       558.0         1.22          9.8 
       559.0         1.10         10.2 
       560.0         0.47          9.9 
       561.0         0.78         10.1 
       562.0         0.83          9.9 
       563.0         0.83          9.6 
       564.0         0.50         10.2 
       565.0         0.57          9.7 
       566.0         0.82         10.3 
       567.0         0.30          9.4 
       568.0         0.30          9.5 
       569.0         0.27          9.3 
       570.0         0.20          9.9 
       571.0         0.22          9.5 
       572.0         0.17         10.0 
       573.0         0.27         10.6 
       574.0         0.27         10.3 
       575.0         0.17         10.9 
       576.0         0.17         11.6 
       577.0         0.20         11.6 
       578.0         0.10         12.0 
       579.0         0.20         12.3 
       580.0         0.13         12.3 
       581.0         0.20         13.9 
       582.0         0.13         14.7 
       583.0         0.23         15.2 
       584.0         0.23         15.0 
       585.0         0.27         14.7 
       586.0         0.23         14.1 
       587.0         0.32         14.1 
       588.0         0.27         13.3 
       589.0         0.27         13.5 
       590.0         0.27         14.0 
       591.0         0.13         12.8 
       592.0         0.23         12.3 
       593.0         0.20         12.3 
       594.0         0.23         12.9 
       595.0         0.17         13.5 
       596.0         0.20         13.9 
       597.0         0.27         13.7 
       598.0         0.20         13.3 
       599.0         0.23         13.6 
       600.0         0.20         12.3 
       601.0         0.30         12.4 
       602.0         0.27         12.0 
       603.0         0.13         12.0 
       604.0         0.20         11.9 
       605.0         0.17         11.7 
       606.0         0.20         11.6 
       607.0         0.23         11.6 
       608.0         0.20         12.2 
       609.0         0.25         11.5 
       610.0         0.23         12.1 
       611.0         0.20         12.3 
       612.0         0.20         12.0 
       613.0         0.23         12.6 
       614.0         0.20         12.0 
       615.0         0.20         12.3 
       616.0         0.20         11.9 
       617.0         0.20         12.2 
       618.0         0.20         12.6 
       619.0         0.17         12.4 
       620.0         0.17         12.5 
       621.0         0.20         12.9 
       622.0         0.17         12.4 
       623.0         0.17         12.8 
       624.0         0.23         11.9 
       625.0         0.17         11.9 
       626.0         0.35         16.2 
       627.0         0.23         16.0 
       628.0         0.20         14.8 
       629.0         0.27         13.5 
       630.0         0.37         12.9 
       631.0         0.27         12.5 
       632.0         0.27         12.3 
       633.0         0.27         12.3 
       634.0         0.25         11.6 
       635.0         0.47         12.5 
       636.0         0.43         12.7 
       637.0         0.47         12.5 
       638.0         0.43         12.1 
       639.0         0.37         12.6 
       640.0         0.37         12.2 
       641.0         0.33         12.4 
       642.0         0.32         12.0 
       643.0         0.33         12.5 
       644.0         0.33         12.3 
       645.0         0.40         12.8 
       646.0         0.37         12.5 
       647.0         0.33         12.3 
       648.0         0.37         12.5 
       649.0         0.40         12.1 
       650.0         0.37         11.9 
       651.0         0.45         12.6 
       652.0         0.40         13.1 
       653.0         0.20         13.0 
       654.0         0.20         13.0 
       655.0         0.20         13.5 
       656.0         0.30         17.1 
       657.0         0.27         17.4 
       658.0         0.23         16.0 
       659.0         0.20         15.0 
       660.0         0.17         14.1 
       661.0         0.20         13.5 
       662.0         0.23         13.6 
       663.0         0.23         13.2 
       664.0         0.17         12.7 
       665.0         0.20         13.4 
       666.0         0.23         13.5 
       667.0         0.20         13.7 
       668.0         0.22         13.8 
       669.0         0.23         14.6 
       670.0         0.20         18.6 
       671.0         0.30         32.1 
       672.0         0.23         36.4 
       673.0         0.17         47.7 
       674.0         0.27         60.1 
       675.0         0.30         68.7 
       676.0         0.27         75.5 
       677.0         0.30         77.8 
       678.0         0.27         78.9 
       679.0         0.27         78.5 
       680.0         0.23         78.1 
       681.0         0.23         77.9 
       682.0         0.22        381.9 
       683.0         0.20        381.9 
       684.0         0.23       1059.8 
       685.0         0.27       1048.5 
       686.0         0.13        950.8 
       687.0         0.28        933.8 
       688.0         0.27        798.4 
       689.0         0.23        667.2 
       690.0         0.27        618.6 
       691.0         0.27        557.7 
       692.0         0.20        553.5 
       693.0         0.20        522.5 
       694.0         0.13        504.8 
       695.0         0.17        501.0 
       696.0         0.13        497.1 
       697.0         0.20        493.5 
       698.0         0.17        499.7 
