~Version Information
VERS.                      2.0: CWLS Log ASCII Standard - VERSION 2.0
WRAP.                       NO: One line per depth step
~Well Information Block
STRT.FT               -19.2500: 
STOP.FT              2421.5000: 
STEP.FT                 0.2500: 
NULL.                -999.2500: 
COMP.          Petrogulf Corporation: COMPANY
WELL.           Montoya 13-41V: WELL
FLD.           Purgatorie River: FIELD
LOC.           449' FNL & 891' FEL: LOCATION
CNTY.               Las Animas: COUNTY
SRVC.                         : SERVICE COMPANY
DATE.          Mon Sep 13 13:48:36 2004: LOG DATE
UWI.                       N/A: UNIQUE WELL ID
STAT.                 Colorado: STATE
~Curve Information Block
DEPT.FT            0 000 00 00: Depth
TT3.usec                      : CBL 3' Travel Time
AMP3.mV                       : CBL 3' Amplitude
GR.GAPI                       : Gamma Ray
CCL.                          : Casing Collar Locator
~Parameter Information Block
~A  Depth       TT3         AMP3         GR         CCL     
# ...
  1119.7500    364.0125     12.1614    133.0256      0.0000
  1120.0000    363.9162     11.8370    127.3065      0.0000
  1120.2500    363.4181     11.8440    122.9724      0.0000
  1120.5000    362.6418     12.1906    120.4239      0.0000
  1120.7500    361.8420     12.6994    119.9880      0.0000
  1121.0000    361.3923     13.0735    121.5742      0.0000
  1121.2500    361.8795     13.1000    124.5092      0.0000
  1121.5000    365.4973     12.7991    127.5348      0.0000
  1121.7500    380.3579     12.3332    128.8907      0.0000
  1122.0000    423.0130     11.8453    126.8354      0.0000
  1122.2500    502.6206     11.4091    120.7615      0.0000
  1122.5000    591.2775     11.0991    111.8666      0.0000
  1122.7500    631.0546     11.0517    102.4864      0.0000
  1123.0000    590.8677     11.3680     94.7976      0.0000
  1123.2500    501.8827     11.9534     89.9380      0.0000
  1123.5000    422.4133     12.5410     87.6883      0.0000
  1123.7500    380.5975     12.8997     86.6933      0.0000
  1124.0000    366.8840     12.9829     85.2680      0.0000
  1124.2500    363.9392     12.9138     82.4025      0.0000
  1124.5000    363.0761     12.8640     78.1924      0.0000
  1124.7500    362.1310     12.9004     73.4931      0.0000
  1125.0000    361.1569     12.9106     69.4587      0.0000
  1125.2500    360.5362     12.7587     67.3517      0.0000
  1125.5000    360.3277     12.5114     68.0881      0.0000
  1125.7500    360.3340     12.3605     71.4435      0.0000
  1126.0000    360.7391     12.3435     76.0021      0.0000
  1126.2500    363.9750     12.2633     80.2695      0.0000
  1126.5000    379.3624     11.9052     83.6792      0.0000
  1126.7500    425.7752     11.2639     86.4701      0.0000
  1127.0000    515.7028     10.5133     88.9291      0.0000
  1127.2500    627.6523      9.8160     90.9477      0.0000
  1127.5000    717.2788      9.2243     92.2180      0.0000
  1127.7500    763.9726      8.7166     92.7864      0.0000
  1128.0000    779.7988      8.2835     93.2895      0.0000
  1128.2500    775.8220      7.9698     94.5491      0.0000
  1128.5000    744.0281      7.8230     96.9077      0.0000
  1128.7500    683.1075      7.7947     99.8857      0.0000
  1129.0000    633.7515      7.7449    102.4047      0.0000
  1129.2500    648.0101      7.5836    103.3648      0.0000
  1129.5000    716.1448      7.3689    102.1001      0.0000
  1129.7500    776.4734      7.2485     98.6659      0.0000
  1130.0000    793.4507      7.3497     93.9803      0.0000
  1130.2500    772.5533      7.7220     89.2810      0.0000
  1130.5000    716.8573      8.3372     85.0034      0.0000
  1130.7500    622.3210      9.1321     80.5739      0.0000
  1131.0000    510.6430     10.0294     75.6586      0.0000
  1131.2500    423.4293     10.9202     71.0139      0.0000
  1131.5000    379.1948     11.6935     67.6062      0.0000
  1131.7500    364.8470     12.2554     65.4377      0.0000
  1132.0000    362.1690     12.5106     63.6940      0.0000
  1132.2500    362.2023     12.4461     61.6942      0.0000
  1132.5000    362.5090     12.1944     59.4750      0.0000
  1132.7500    362.7689     11.9279     57.7054      0.0000
  1133.0000    363.0206     11.7448     57.0415      0.0000
  1133.2500    363.2719     11.6560     57.4926      0.0000
  1133.5000    363.4711     11.6321     58.5607      0.0000
  1133.7500    363.6027     11.6427     59.8218      0.0000
  1134.0000    363.7819     11.6502     60.8969      0.0000
  1134.2500    364.3382     11.6261     61.0874      0.0000
  1134.5000    367.2444     11.5761     59.7706      0.0000
  1134.7500    380.0851     11.4991     57.3216      0.0000
  1135.0000    416.8903     11.3849     55.2385      0.0000
  1135.2500    482.3365     11.2606     55.0379      0.0000
  1135.5000    551.5187     11.1450     57.0136      0.0000
  1135.7500    588.3514     11.0121     60.1371      0.0000
  1136.0000    583.0884     10.8692     63.0815      0.0000
  1136.2500    549.4185     10.8044     65.2921      0.0000
  1136.5000    504.7451     10.9033     67.1823      0.0000
  1136.7500    466.9364     11.1344     69.4467      0.0000
  1137.0000    450.1351     11.3620     72.4304      0.0000
  1137.2500    460.3249     11.4743     76.3909      0.0000
  1137.5000    498.2195     11.4615     82.0080      0.0000
  1137.7500    553.1118     11.4014     89.9441      0.0000
  1138.0000    589.1462     11.3872     99.8830      0.0000
  1138.2500    566.8275     11.4395    110.3954      0.0000
  1138.5000    494.2442     11.5030    119.6738      0.0000
  1138.7500    421.7107     11.5458    126.3179      0.0000
  1139.0000    381.1996     11.6596    129.8992      0.0000
  1139.2500    366.9509     12.0189    131.1553      0.0000
  1139.5000    363.3487     12.6743    131.3616      0.0000
  1139.7500    362.4945     13.4202    131.1997      0.0000
  1140.0000    362.3024     13.9508    130.3843      0.0000
  1140.2500    362.2408     14.1238    128.6735      0.0000
  1140.5000    362.0676     14.0354    127.2233      0.0000
  1140.7500    361.7688     13.8794    128.4865      0.0000
  1141.0000    361.4600     13.7611    134.2550      0.0000
  1141.2500    361.1835     13.6672    143.8429      0.0000
  1141.5000    360.8278     13.6455    154.5437      0.0000
  1141.7500    360.3398     13.8764    163.6490      0.0000
  1142.0000    359.8882     14.4532    169.6258      0.0000
  1142.2500    359.6472     15.2176    171.8317      0.0000
  1142.5000    359.6049     15.8857    170.1482      0.0000
  1142.7500    359.6427     16.2835    165.2136      0.0000
  1143.0000    359.6617     16.4655    158.5421      0.0000
  1143.2500    359.6537     16.6273    152.0284      0.0000
  1143.5000    359.6720     16.8851    147.2541      0.0000
  1143.7500    360.0276     17.1342    145.1156      0.0000
  1144.0000    363.0078     17.0903    145.6682      0.0000
  1144.2500    377.3766     16.4800    148.0538      0.0000
  1144.5000    420.8184     15.2896    151.0640      0.0000
  1144.7500    505.0996     13.7719    154.3382      0.0000
  1145.0000    610.8896     12.1708    158.5378      0.0000
  1145.2500    699.6038     10.6034    163.7001      0.0000
  1145.5000    758.1927      9.1079    167.9687      0.0000
  1145.7500    803.6269      7.6499    168.8571      0.0000
  1146.0000    845.7493      6.2356    165.6481      0.0000
  1146.2500    875.4990      4.9918    159.8861      0.0000
  1146.5000    885.2172      4.0143    153.4858      0.0000
  1146.7500    877.2138      3.2763    146.8627      0.0000
  1147.0000    856.7195      2.7162    139.1366      0.0000
  1147.2500    831.2654      2.2953    129.8572      0.0000
  1147.5000    810.9146      2.0073    119.9975      0.0000
  1147.7500    801.6765      1.8916    111.1243      0.0000
  1148.0000    803.7800      2.0076    104.1120      0.0000
  1148.2500    813.9362      2.3961     99.1983      0.0000
  1148.5000    825.3304      3.0676     97.0158      0.0000
  1148.7500    831.2089      4.0034     98.7290      0.0000
  1149.0000    827.4825      5.1678    104.7534      0.0000
  1149.2500    810.9728      6.5194    113.8055      0.0000
  1149.5000    778.2253      8.0243    123.6699      0.0000
  1149.7500    719.4750      9.7110    132.7591      0.0000
  1150.0000    624.1503     11.7282    140.7100      0.0000
  1150.2500    507.4563     14.1581    147.7651      0.0000
  1150.5000    409.0543     16.6967    154.0016      0.0000
  1150.7500    352.9953     18.7846    159.1896      0.0000
  1151.0000    333.4292     20.0136    162.9930      0.0000
  1151.2500    334.6703     20.2973    164.9383      0.0000
  1151.5000    343.9348     19.8630    164.2649      0.0000
  1151.7500    352.6340     19.0822    160.2907      0.0000
  1152.0000    357.4981     18.2740    153.3096      0.0000
  1152.2500    359.4943     17.6355    145.1607      0.0000
  1152.5000    360.3364     17.2062    138.4644      0.0000
  1152.7500    360.7401     16.9322    134.7768      0.0000
  1153.0000    360.8360     16.8056    133.4134      0.0000
