~Version Information
VERS.                      2.0: CWLS Log ASCII Standard - VERSION 2.0
WRAP.                       NO: One line per depth step
~Well Information Block
STRT.FT               754.6000: 
STOP.FT              2329.0000: 
STEP.FT                 0.1000: 
NULL.                -999.2500: 
COMP.          Petrogulf Corporation: COMPANY
WELL.           Anderson 18-42: WELL
FLD.           Purgatoire River: FIELD
LOC.           1668' FNL & 1110' FEL: LOCATION
CNTY.               Las Animas: COUNTY
SRVC.                         : SERVICE COMPANY
DATE.          Tue Dec 16 12:18:55 2003: LOG DATE
UWI.                          : UNIQUE WELL ID
STAT.                 Colorado: STATE
~Curve Information Block
DEPT.FT            0 000 00 00: Depth
DCAL.in                       : CDL Caliper
RHOB.g/cc                     : CDL Bulk Density
RHOC.g/cc                     : CDL Density Correction
DPOR.pu                       : CDL Density Porosity
NPOR.pu                       : Neutron Porosity
GR.GAPI                       : Gamma Ray
~Parameter Information Block
~A  Depth       DCAL        RHOB        RHOC        DPOR        NPOR         GR     
# ...
  2213.8000      8.5598      2.5266      0.0546      7.4782     16.0296    131.7726
  2213.9000      8.5598      2.5310      0.0742      7.2128     15.6068    132.5124
  2214.0000      8.4587      2.5346      0.0339      6.9924     15.2937    126.6576
  2214.1000      8.4587      2.5396      0.0282      6.6901     15.2736    117.4650
  2214.2000      8.4587      2.5536      0.0597      5.8403     15.5460    113.0406
  2214.3000      8.1791      2.5703      0.0409      4.8329     15.5177    110.4704
  2214.4000      8.1791      2.5791      0.0509      4.2951     15.0958    101.1220
  2214.5000      8.1427      2.5789      0.0805      4.3100     14.9626     94.9599
  2214.6000      8.1427      2.5737      0.0671      4.6236     15.3689    101.5251
  2214.7000      8.1427      2.5668      0.0445      5.0404     15.9967    109.7784
  2214.8000      8.1224      2.5561      0.0253      5.6903     16.6636    109.5970
  2214.9000      8.1224      2.5418      0.0316      6.5566     17.3689    105.6255
  2215.0000      8.1396      2.5254      0.0537      7.5499     17.7334    104.4640
  2215.1000      8.1396      2.5067      0.0372      8.6860     17.5524    107.9337
  2215.2000      8.1396      2.4958      0.0538      9.3431     17.3599    111.3781
  2215.3000      8.1420      2.5031      0.0522      8.9040     17.4353    111.7132
  2215.4000      8.1420      2.5176      0.0303      8.0229     17.5867    113.5490
  2215.5000      8.1452      2.5195      0.0765      7.9064     17.8266    114.3935
  2215.6000      8.1452      2.5059      0.0435      8.7357     18.2568    108.2986
  2215.7000      8.1452      2.4929      0.0299      9.5231     18.8130    101.7516
  2215.8000      8.1486      2.4951      0.0158      9.3872     19.2434    102.1155
  2215.9000      8.1486      2.5122      0.0315      8.3533     19.3451    104.8816
  2216.0000      8.1501      2.5312      0.0776      7.1987     19.5126    105.2374
  2216.1000      8.1501      2.5420      0.0957      6.5475     19.8825    105.3908
  2216.2000      8.1501      2.5445      0.1016      6.3969     19.7894    108.2433
  2216.3000      8.1558      2.5349      0.0963      6.9763     19.4361    112.8352
  2216.4000      8.1558      2.5079      0.0409      8.6126     19.6277    116.2244
  2216.5000      8.1842      2.4770      0.0159     10.4847     20.1165    115.9455
  2216.6000      8.1842      2.4589      0.0483     11.5791     20.3700    113.3977
  2216.7000      8.1842      2.4542      0.0510     11.8690     20.3868    113.6425
  2216.8000      8.2061      2.4560      0.0653     11.7572     20.3184    119.4290
  2216.9000      8.2061      2.4620      0.0515     11.3913     20.2430    127.6331
  2217.0000      8.2054      2.4767      0.0849     10.5030     19.9404    132.6235
  2217.1000      8.2054      2.4974      0.1367      9.2514     19.1333    131.6825
  2217.2000      8.2054      2.5151      0.0888      8.1763     18.3552    127.1014
  2217.3000      8.2052      2.5263      0.0979      7.4940     18.2018    124.9280
  2217.4000      8.2052      2.5314      0.0501      7.1857     18.0506    126.3719
  2217.5000      8.1861      2.5361      0.0622      6.9051     17.3116    125.4623
  2217.6000      8.1861      2.5397      0.1071      6.6819     16.6233    119.9694
  2217.7000      8.1861      2.5379      0.1080      6.7947     16.5640    112.7247
  2217.8000      8.1826      2.5407      0.0854      6.6247     16.9733    108.3711
  2217.9000      8.1826      2.5540      0.0851      5.8154     17.4066    108.5031
  2218.0000      8.1659      2.5625      0.0799      5.3004     17.5808    107.4487
  2218.1000      8.1659      2.5544      0.0753      5.7917     17.7131    104.1697
  2218.2000      8.1659      2.5361      0.0606      6.9055     18.1225    106.1970
  2218.3000      8.1630      2.5211      0.0312      7.8101     18.6313    114.8413
  2218.4000      8.1630      2.5174      0.0498      8.0372     18.7738    123.8321
  2218.5000      8.1667      2.5224      0.0250      7.7348     18.6580    128.6420
  2218.6000      8.1667      2.5338      0.0472      7.0397     18.3659    130.1503
  2218.7000      8.1667      2.5474      0.0294      6.2179     17.5585    129.9155
  2218.8000      8.1863      2.5522      0.0662      5.9250     16.5688    125.0528
  2218.9000      8.1863      2.5476      0.0356      6.2038     16.2246    117.7297
  2219.0000      8.1659      2.5468      0.0563      6.2548     16.6752    117.6053
  2219.1000      8.1659      2.5519      0.0867      5.9427     17.0702    125.1491
  2219.2000      8.1659      2.5585      0.0643      5.5465     16.9032    128.4307
  2219.3000      8.1629      2.5664      0.0825      5.0678     16.6220    123.6502
  2219.4000      8.1629      2.5660      0.0547      5.0937     16.3812    119.1159
  2219.5000      8.1686      2.5506      0.0393      6.0254     16.1288    115.1537
  2219.6000      8.1686      2.5370      0.0294      6.8508     16.1610    107.8165
  2219.7000      8.1686      2.5432      0.0423      6.4756     16.3425    103.6117
  2219.8000      8.1624      2.5596      0.0889      5.4799     16.0850    107.1549
  2219.9000      8.1624      2.5639      0.0564      5.2180     15.7889    113.3246
  2220.0000      8.1541      2.5587      0.0661      5.5325     16.0841    117.7658
  2220.1000      8.1541      2.5600      0.0616      5.4522     16.6320    116.1100
  2220.2000      8.1541      2.5662      0.0859      5.0811     16.9117    107.5926
  2220.3000      8.1619      2.5668      0.0650      5.0396     16.8411    100.7691
  2220.4000      8.1619      2.5616      0.0577      5.3572     16.7625    101.5398
  2220.5000      8.1662      2.5573      0.0371      5.6155     16.9448    106.0922
  2220.6000      8.1662      2.5502      0.0770      6.0511     17.1744    108.8919
  2220.7000      8.1662      2.5302      0.0535      7.2627     17.2209    110.5318
  2220.8000      8.1817      2.5095      0.0132      8.5148     17.2744    112.6411
  2220.9000      8.1817      2.5000      0.0217      9.0895     17.5907    115.0385
  2221.0000      8.2066      2.4930      0.0463      9.5131     18.0461    116.2998
  2221.1000      8.2066      2.4908      0.0165      9.6509     18.7003    117.3442
  2221.2000      8.2066      2.5039      0.0661      8.8517     19.3080    121.7062
  2221.3000      8.2208      2.5223      0.0705      7.7400     19.2263    128.9588
  2221.4000      8.2208      2.5292      0.0457      7.3184     18.5443    135.1033
  2221.5000      8.2345      2.5234      0.0752      7.6749     17.8299    137.2396
  2221.6000      8.2345      2.5135      0.0499      8.2741     17.5212    141.0029
  2221.7000      8.2345      2.5108      0.0241      8.4359     17.9029    148.3357
  2221.8000      8.2317      2.5222      0.0363      7.7470     18.6429    149.8091
  2221.9000      8.2317      2.5380      0.1148      6.7856     19.0181    146.0565
  2222.0000      8.2345      2.5417      0.1335      6.5614     18.9636    143.6752
  2222.1000      8.2345      2.5365      0.0987      6.8815     18.8773    139.7961
  2222.2000      8.2345      2.5290      0.0951      7.3359     18.9889    132.3597
  2222.3000      8.2337      2.5119      0.0878      8.3690     19.4616    125.9975
  2222.4000      8.2337      2.4873      0.0564      9.8621     20.2531    121.5252
  2222.5000      8.2353      2.4678      0.0170     11.0405     20.8487    115.5291
  2222.6000      8.2353      2.4571      0.0291     11.6899     20.9689    109.7131
  2222.7000      8.2353      2.4553      0.0085     11.8017     20.8530    108.2951
  2222.8000      8.2390      2.4654      0.0342     11.1908     20.8494    110.9339
  2222.9000      8.2390      2.4778      0.0754     10.4382     21.0370    117.2910
  2223.0000      8.2498      2.4820      0.0267     10.1791     21.3310    121.5936
  2223.1000      8.2498      2.4805      0.0809     10.2743     21.7357    117.1328
  2223.2000      8.2498      2.4782      0.0551     10.4150     22.2278    109.9178
  2223.3000      8.2643      2.4796      0.1003     10.3277     22.5540    108.3905
