~Version Information
VERS.                      2.0: CWLS Log ASCII Standard - VERSION 2.0
WRAP.                       NO: One line per depth step
~Well Information Block
STRT.FT               -13.5000: 
STOP.FT              2092.5000: 
STEP.FT                 0.2500: 
NULL.                -999.2500: 
COMP.          Petrogulf Corporation: COMPANY
WELL.          Robinson 15-11V: WELL
FLD.           Purgatorie River: FIELD
LOC.           226' FNL & 592' FWL--: LOCATION
CNTY.               Las Animas: COUNTY
SRVC.                         : SERVICE COMPANY
DATE.          Tue Aug 17 13:05:46 2004: LOG DATE
UWI.                          : UNIQUE WELL ID
STAT.                       CO: STATE
~Curve Information Block
DEPT.FT            0 000 00 00: Depth
CCL.                          : Casing Collar Locator
TT3.usec                      : CBL 3' Travel Time
AMP3.mV                       : CBL 3' Amplitude
GR.GAPI                       : Gamma Ray
~Parameter Information Block
~A  Depth       CCL         TT3         AMP3         GR     
# ...
   958.0000      0.0000    734.5545      7.3670     96.9327
   958.2500      0.0000    740.8546      7.5078     91.2660
   958.5000      0.0000    747.9054      7.6191     87.1517
   958.7500      0.0000    755.2993      7.7076     84.5261
   959.0000      0.0000    761.8869      7.7701     83.5919
   959.2500      0.0000    765.6290      7.7707     84.6310
   959.5000      0.0000    763.8075      7.6751     87.0210
   959.7500      0.0000    753.2341      7.5197     89.3158
   960.0000      0.0000    731.3309      7.4183     90.4842
   960.2500      0.0000    698.7727      7.4625     90.5118
   960.5000      0.0000    662.3990      7.6142     89.8649
   960.7500      0.0000    634.6330      7.7236     89.0049
   961.0000      0.0000    627.3148      7.6710     88.4549
   961.2500      0.0000    643.7266      7.4800     88.8114
   961.5000      0.0000    675.5164      7.2819     90.2620
   961.7500      0.0000    707.9532      7.1856     92.0377
   962.0000      0.0000    729.8733      7.1908     92.7771
   962.2500      0.0000    739.4828      7.2179     91.8543
   962.5000      0.0000    741.6793      7.2053     90.2326
   962.7500      0.0000    742.0457      7.1762     89.7393
   963.0000      0.0000    743.5586      7.2101     91.3758
   963.2500      0.0000    745.7295      7.3577     94.1245
   963.5000      0.0000    743.4370      7.5856     95.4611
   963.7500      0.0000    726.4074      7.7933     93.5155
   964.0000      0.0000    683.8873      7.8761     88.9931
   964.2500      0.0000    614.3987      7.7915     84.6917
   964.5000      0.0000    531.9109      7.5924     82.9083
   964.7500      0.0000    459.7620      7.4015     83.5074
   965.0000      0.0000    417.5865      7.3266     84.7198
   965.2500      0.0000    414.2701      7.3775     85.5263
   965.5000      0.0000    449.0868      7.4667     86.6017
   965.7500      0.0000    512.8690      7.5040     88.9440
   966.0000      0.0000    587.7309      7.4941     92.4161
   966.2500      0.0000    651.7919      7.5310     96.0378
   966.5000      0.0000    687.9503      7.7020     99.1625
   966.7500      0.0000    688.1970      8.0029    101.7361
   967.0000      0.0000    652.4000      8.3317    103.5115
   967.2500      0.0000    588.3058      8.5518    103.4838
   967.5000      0.0000    512.4346      8.5811    100.4715
   967.7500      0.0000    444.7657      8.4558     94.4255
   968.0000      0.0000    398.4847      8.3129     87.3155
   968.2500      0.0000    375.4593      8.2938     82.6865
   968.5000      0.0000    371.5808      8.4369     83.6767
   968.7500      0.0000    384.4003      8.6514     90.5354
   969.0000      0.0000    414.2869      8.7822     99.9286
   969.2500      0.0000    458.1200      8.7101    107.2185
   969.5000      0.0000    503.0981      8.4207    109.8143
   969.7500      0.0000    530.1257      8.0161    108.6201
   970.0000      0.0000    526.3989      7.6637    106.5937
   970.2500      0.0000    494.8113      7.5081    106.0060
   970.5000      0.0000    450.6049      7.6029    106.9762
   970.7500      0.0000    410.0295      7.8938    108.4739
   971.0000      0.0000    381.8672      8.2449    110.2934
   971.2500      0.0000    366.5265      8.4949    113.5180
   971.5000      0.0000    359.9785      8.5350    119.1124
   971.7500      0.0000    357.8813      8.3690    126.4907
   972.0000      0.0000    357.4792      8.1103    133.7545
   972.2500      0.0000    357.5714      7.9134    139.3477
   972.5000      0.0000    357.8004      7.8871    143.4498
   972.7500      0.0000    358.0967      8.0436    147.4831
   973.0000      0.0000    358.3904      8.3059    152.1357
   973.2500      0.0000    358.5775      8.5583    156.4707
   973.5000      0.0000    358.5928      8.7066    159.3580
   973.7500      0.0000    358.4695      8.7134    161.1721
   974.0000      0.0000    358.3416      8.5961    163.5215
   974.2500      0.0000    358.4223      8.4058    167.5634
   974.5000      0.0000    359.2332      8.2039    172.6659
   974.7500      0.0000    362.4165      8.0310    176.4987
   975.0000      0.0000    371.8987      7.8809    176.7738
   975.2500      0.0000    393.5994      7.7197    173.3075
   975.5000      0.0000    431.0184      7.5404    168.1761
   975.7500      0.0000    478.3789      7.3948    163.7652
   976.0000      0.0000    520.8356      7.3539    160.8266
   976.2500      0.0000    547.7098      7.4189    158.0793
   976.5000      0.0000    565.5720      7.4808    153.5517
   976.7500      0.0000    591.6713      7.4009    146.7084
   977.0000      0.0000    633.5936      7.1495    139.2958
   977.2500      0.0000    681.5076      6.8544    133.6857
   977.5000      0.0000    720.5723      6.6914    130.7172
   977.7500      0.0000    744.0818      6.7217    129.6646
   978.0000      0.0000    753.2362      6.8471    129.7579
   978.2500      0.0000    749.7837      6.9316    131.0419
   978.5000      0.0000    732.6590      6.9506    134.1736
   978.7500      0.0000    701.0391      7.0099    139.8633
   979.0000      0.0000    658.4170      7.2348    148.0180
   979.2500      0.0000    611.0282      7.6579    157.0786
   979.5000      0.0000    562.0154      8.1927    164.6712
   979.7500      0.0000    510.8157      8.6859    169.2596
   980.0000      0.0000    459.4863      9.0003    170.9255
   980.2500      0.0000    415.2514      9.0771    170.4263
   980.5000      0.0000    384.6666      8.9549    167.9106
   980.7500      0.0000    368.1156      8.7406    162.8260
   981.0000      0.0000    361.1451      8.5436    154.6362
   981.2500      0.0000    358.8953      8.4128    143.2085
   981.5000      0.0000    358.4209      8.3324    129.0847
   981.7500      0.0000    358.4509      8.2796    114.0547
   982.0000      0.0000    358.5187      8.2662    101.0996
   982.2500      0.0000    358.4015      8.3106     92.9981
   982.5000      0.0000    357.9653      8.3915     90.8386
   982.7500      0.0000    357.0875      8.4630     93.7533
   983.0000      0.0000    355.5139      8.5145     99.7807
   983.2500      0.0000    352.8305      8.5889    107.1762
   983.5000      0.0000    348.8819      8.7273    115.2444
   983.7500      0.0000    344.5453      8.9038    123.7785
   984.0000      0.0000    341.8877      9.0262    131.9870
   984.2500      0.0000    342.9429      8.9955    138.6990
   984.5000      0.0000    348.0088      8.7763    143.4608
   984.7500      0.0000    355.2319      8.4336    146.6382
   985.0000      0.0000    361.8064      8.1127    148.4671
   985.2500      0.0000    365.7786      7.9535    148.7985
   985.5000      0.0000    367.4094      7.9935    148.0387
   985.7500      0.0000    369.3731      8.1544    147.6001
   986.0000      0.0000    375.0790      8.3237    148.7047
   986.2500      0.0000    385.4682      8.4319    150.9744
   986.5000      0.0000    397.0483      8.4569    152.5072
   986.7500      0.0000    404.8776      8.3992    151.0371
   987.0000      0.0000    409.8683      8.2859    145.0128
   987.2500      0.0000    422.4906      8.1666    134.4214
   987.5000      0.0000    455.9896      8.0729    121.2088
   987.7500      0.0000    513.4472      7.9954    108.5878
   988.0000      0.0000    581.4452      7.9279     99.4066
   988.2500      0.0000    637.4341      7.9079     94.8194
   988.5000      0.0000    664.2675      7.9668     94.1828
   988.7500      0.0000    659.5967      8.0543     95.9341
   989.0000      0.0000    634.8149      8.0857     98.6906
   989.2500      0.0000    605.7177      8.0892    101.9009
   989.5000      0.0000    580.2987      8.2335    105.7341
   989.7500      0.0000    553.9645      8.6497    110.4641
   990.0000      0.0000    518.8193      9.2573    116.1110
   990.2500     -2.0000    476.3972      9.8187    122.6653
   990.5000      2.0000    437.0389     10.1483    130.1372
   990.7500      0.0000    408.2797     10.2529    138.0174
   991.0000      0.0000    389.0268     10.2971    145.0340
   991.2500      0.0000    374.6098     10.4428    149.8306
