~Version Information
 VERS.                                  2.0 : CWLS LAS VERSION
 WRAP.                                   NO : WRAPING MODE
 SWARE .                 MController 2.5.0I : SOFTWARE VERSION
~Well Information
 WELL.                        Montoya 6-14v : WELL
 COMP.                       Petrogulf Corp : COMPANY
 FLD.                      Purgatorie River : FIELD
 LOC.                 SW/SW Sec 6 T33S R67W : LOCATION
 DATE.                              8/12/04 : DATE(S) LOGGED
 SRVC.       Blanco Geological Services LLC : SERVICE COMPANY
 STAT.                                   CO : STATE
 CNTY.                           Las Animas : COUNTY
 CTRY.                                  USA : COUNTRY
 API.                       05-071-08070-00 : API NUMBER
 STRT.FT                             803.00 : START DEPTH
 STOP.FT                            2673.00 : STOP DEPTH
 STEP.FT                               1.00 : DEPTH INCREMENT
 NULL.                                -9999 : NULL VALUE
~Curve information
 DEPTH.FT                                   :
 ROP.MIN/FT                                 :
 GAS.UNITS                                  :
~ASCII Log data
# ...
      2403.0          0.5          3.6 
      2404.0          0.5          3.0 
      2405.0          0.5          4.6 
      2406.0          0.5          4.9 
      2407.0          8.2         58.5 
      2408.0          0.3          4.2 
      2409.0          0.7          2.1 
      2410.0          0.5          2.3 
      2411.0          0.4          3.3 
      2412.0          0.2          3.4 
      2413.0          0.2          5.7 
      2414.0          0.4         10.4 
      2415.0          0.4         10.7 
      2416.0          0.4          8.4 
      2417.0          0.4          7.9 
      2418.0          0.5          2.3 
      2419.0          0.7          4.1 
      2420.0          0.6          6.3 
      2421.0          0.4          7.7 
      2422.0          0.4          5.1 
      2423.0          0.4          5.7 
      2424.0          0.4          5.2 
      2425.0          0.4          6.5 
      2426.0          0.6          6.8 
      2427.0          0.5          6.2 
      2428.0          0.5          5.8 
      2429.0          0.5          4.6 
      2430.0          0.4          6.0 
      2431.0          0.5          6.1 
      2432.0          0.4          5.6 
      2433.0          0.3          3.9 
      2434.0          0.4          4.4 
      2435.0          0.5          5.4 
      2436.0          0.4          6.2 
      2437.0          8.3         78.8 
      2438.0          0.5          6.3 
      2439.0          0.4          3.3 
      2440.0          0.3          2.4 
      2441.0          0.3          2.9 
      2442.0          0.3          3.0 
      2443.0          0.4          3.6 
      2444.0          0.4          3.1 
      2445.0          0.3          4.1 
      2446.0          0.3          5.3 
      2447.0          0.4          5.5 
      2448.0          0.4          6.9 
      2449.0          0.4          7.0 
      2450.0          0.2          6.8 
      2451.0          0.2          5.5 
      2452.0          0.3          5.7 
      2453.0          0.4          7.4 
      2454.0          0.5          4.8 
      2455.0          0.4          5.4 
      2456.0          0.5          4.8 
      2457.0          0.4          5.4 
      2458.0          0.4          5.2 
      2459.0          0.5          3.9 
      2460.0          0.4          3.4 
      2461.0          0.5          3.7 
      2462.0          0.4          4.7 
      2463.0          0.4          4.9 
      2464.0          0.4          6.0 
      2465.0          0.3          6.4 
      2466.0          0.2          7.3 
      2467.0          8.4         57.3 
      2468.0          0.1          8.9 
      2469.0          0.2          7.8 
      2470.0          0.3          5.1 
      2471.0          0.3          3.5 
      2472.0          0.3          2.6 
      2473.0          0.2          2.3 
      2474.0          0.3          2.6 
      2475.0          0.3          2.9 
      2476.0          0.2          3.0 
      2477.0          0.2          3.1 
      2478.0          0.2          3.0 
      2479.0          0.3          5.6 
      2480.0          0.3          8.6 
      2481.0          0.4          9.9 
      2482.0          0.4          7.3 
      2483.0          0.3          7.1 
      2484.0          0.3          6.6 
      2485.0          0.3          5.4 
      2486.0          0.3          4.1 
      2487.0          0.3          5.7 
      2488.0          0.4          6.2 
      2489.0          0.4          7.3 
      2490.0          0.4          7.2 
      2491.0          0.4          5.7 
      2492.0          0.3          9.1 
      2493.0          0.2          8.3 
      2494.0          0.3          6.5 
      2495.0          0.3          8.4 
      2496.0          0.3          8.4 
      2497.0          9.4         78.5 
      2498.0          0.1          8.2 
      2499.0          0.4          7.8 
      2500.0          0.4          3.3 
      2501.0          0.4          3.3 
      2502.0          0.4          3.9 
      2503.0          0.3          5.6 
      2504.0          0.1          6.6 
      2505.0          0.1          8.8 
      2506.0          0.2          8.9 
      2507.0          0.3          9.9 
      2508.0          0.3          9.4 
      2509.0          0.4          7.9 
      2510.0          0.3          6.8 
      2511.0          0.3          7.3 
      2512.0          0.3          8.3 
      2513.0          0.4          8.5 
      2514.0          0.4          7.7 
      2515.0          0.4          8.3 
      2516.0          0.4          8.5 
      2517.0          0.5          7.3 
      2518.0          0.5          5.6 
      2519.0          0.5          7.7 
      2520.0          0.5          8.0 
      2521.0          0.5          7.9 
      2522.0          0.4          6.6 
      2523.0          0.4          7.5 
      2524.0          0.4          6.9 
      2525.0          0.3          4.0 
      2526.0          0.1          5.1 
      2527.0          8.3         65.1 
      2528.0          0.3          2.7 
      2529.0          0.4          3.5 
      2530.0          0.4          3.7 
      2531.0          0.4          2.1 
      2532.0          0.5          2.1 
      2533.0          0.4          4.0 
      2534.0          0.4          5.8 
      2535.0          0.4          7.2 
      2536.0          0.4          6.1 
      2537.0          0.4          5.2 
      2538.0          0.5          8.5 
      2539.0          0.5          5.6 
      2540.0          0.5          5.0 
      2541.0          0.5          5.3 
      2542.0          0.5          4.4 
      2543.0          0.6          6.5 
      2544.0          0.5          5.8 
      2545.0          0.5          6.0 
      2546.0          0.3          5.7 
      2547.0          0.3          4.2 
      2548.0          0.2          2.3 
      2549.0          0.1          2.2 
      2550.0          0.1          3.5 
      2551.0          0.2          3.6 
      2552.0          0.2          3.0 
      2553.0          0.3          6.4 
      2554.0          0.4          7.1 
      2555.0          0.2          7.0 
      2556.0          0.2          6.6 
      2557.0          7.8         72.3 
      2558.0          0.3          7.2 
      2559.0          0.2          4.6 
      2560.0          0.1          3.7 
      2561.0          0.2          3.1 
      2562.0          0.3          2.4 
      2563.0          0.3          1.7 
      2564.0          0.3          1.7 
      2565.0          0.3          2.0 
      2566.0          0.3          3.3 
      2567.0          0.2          4.5 
      2568.0          0.4          8.8 
      2569.0          0.3         12.0 
      2570.0          0.3         13.1 
      2571.0          0.3         12.3 
      2572.0          0.3          1.8 
      2573.0          0.3          0.6 
      2574.0          0.4          0.1 
      2575.0          0.4          0.6 
      2576.0          0.4          1.8 
      2577.0          0.4          0.3 
      2578.0          0.4         -3.3 
      2579.0          0.4         -2.2 
      2580.0          0.4          0.3 
      2581.0          0.4          1.1 
      2582.0          0.4          1.9 
      2583.0          0.4          1.7 
      2584.0          0.4          1.1 
      2585.0          0.4          0.0 
      2586.0          0.3          2.1 
      2587.0          7.7         70.9 
      2588.0          0.3          1.9 
      2589.0          0.4         -0.8 
      2590.0          0.4         -2.0 
      2591.0          0.4          0.2 
      2592.0          0.4          0.5 
      2593.0          0.4         -0.7 
      2594.0          0.4          2.1 
      2595.0          0.4          2.4 
      2596.0          0.4          2.1 
      2597.0          0.5          3.8 
      2598.0          0.5          4.2 
      2599.0          0.4          6.5 
      2600.0          0.4          6.9 
      2601.0          0.4          5.8 
      2602.0          0.5          6.4 
