~Version Information
VERS.                      2.0: CWLS Log ASCII Standard - VERSION 2.0
WRAP.                       NO: One line per depth step
~Well Information Block
STRT.FT               548.0000: 
STOP.FT              1916.0000: 
STEP.FT                 0.2500: 
NULL.                -999.2500: 
COMP.          Pioneer Natural Resources: COMPANY
WELL.          Blackjack 32-11 Tr: WELL
FLD.           Purgatorie River: FIELD
LOC.           2066' FNL & 1453' FEL: LOCATION
PROV.                 Colorado: PROVINCE
CNTY.               Las Animas: COUNTRY
SRVC.                Patterson: SERVICE COMPANY
DATE.          Tue Aug 16 12:08:23 2005: LOG DATE
UWI.                          : UNIQUE WELL ID
~Curve Information Block
DEPT.FT            0 000 00 00: Depth
SN.Ohm-m                      : IEL Short Normal
SP.mV                         : IEL Spontaneous Potential
DIR.Ohm-m                     : IEL Induction Resistivity
GR.GAPI                       : Gamma Ray
~Parameter Information Block
~A  Depth        SN          SP         DIR          GR     
   548.0000   2000.0000   2000.0000     13.6047     94.8745
   548.2500   2000.0000   2000.0000     13.4580     97.6528
   548.5000   2000.0000   2000.0000     13.1134     90.4310
   548.7500   2000.0000   2000.0000     12.7591     94.9515
   549.0000   2000.0000   2000.0000     13.1490     99.2561
   549.2500   2000.0000   2000.0000     13.1593    100.5131
   549.5000   2000.0000   2000.0000     12.7601     99.4332
   549.7500   2000.0000   2000.0000     12.6447     96.7828
   550.0000   2000.0000   2000.0000     12.2803     92.6661
   550.2500   2000.0000   2000.0000     12.2280     96.9936
   550.5000   2000.0000   2000.0000     12.1869    101.8555
   550.7500   2000.0000   2000.0000     11.7328     99.5552
   551.0000   2000.0000   2000.0000     11.7219     95.8542
   551.2500   2000.0000   2000.0000     12.2507     96.4026
   551.5000   2000.0000   2000.0000     12.2870     90.4249
   551.7500   2000.0000   2000.0000     12.8584     91.8943
   552.0000   2000.0000   2000.0000     12.7228     90.7809
   552.2500   2000.0000   2000.0000     13.0981     94.7082
   552.5000   2000.0000   2000.0000     12.3275     91.2051
   552.7500   2000.0000   2000.0000     12.4186     89.8824
   553.0000   2000.0000   2000.0000     12.2034     92.6222
   553.2500   2000.0000   2000.0000     12.5541     99.2423
   553.5000   2000.0000   2000.0000     12.7910     94.6655
   553.7500   2000.0000   2000.0000     12.5486     84.1817
   554.0000   2000.0000   2000.0000     12.5798     91.1586
   554.2500   2000.0000   2000.0000     12.5173     89.4253
   554.5000   2000.0000   2000.0000     12.8348     88.5848
   554.7500   2000.0000   2000.0000     13.1635     89.4419
   555.0000   2000.0000   2000.0000     12.7821     85.1136
   555.2500   2000.0000   2000.0000     12.8305     82.0183
   555.5000   2000.0000   2000.0000     12.8377     82.5301
   555.7500   2000.0000   2000.0000     12.7575     76.1947
   556.0000   2000.0000   2000.0000     12.6704     68.0572
   556.2500   2000.0000   2000.0000     12.7273     66.7102
   556.5000   2000.0000   2000.0000     12.1342     67.8923
   556.7500   2000.0000   2000.0000     12.5759     66.0569
   557.0000   2000.0000   2000.0000     12.9201     69.7792
   557.2500   2000.0000   2000.0000     13.0657     71.6649
   557.5000   2000.0000   2000.0000     12.5465     67.9102
   557.7500   2000.0000   2000.0000     12.4241     67.7780
   558.0000   2000.0000   2000.0000     12.4760     66.2136
   558.2500   2000.0000   2000.0000     12.1714     65.0824
   558.5000   2000.0000   2000.0000     11.3801     61.6818
   558.7500   2000.0000   2000.0000      9.8525     62.3607
   559.0000   2000.0000   2000.0000     10.5768     80.9423
   559.2500   2000.0000   2000.0000     11.9357     96.8011
   559.5000   2000.0000   2000.0000     12.0553     88.5844
   559.7500   2000.0000   2000.0000     12.0987     71.8810
   560.0000   2000.0000   2000.0000     11.7396     68.8026
   560.2500   2000.0000   2000.0000     11.8173     65.8474
   560.5000   2000.0000   2000.0000     11.3880     61.9089
   560.7500   2000.0000   2000.0000     10.8284     62.7105
   561.0000   2000.0000   2000.0000     10.3559     64.1903
   561.2500   2000.0000   2000.0000     10.0178     71.8916
   561.5000   2000.0000   2000.0000     10.0283     67.1711
   561.7500   2000.0000   2000.0000     11.2371     70.0746
   562.0000   2000.0000   2000.0000     15.9192     78.5085
   562.2500   2000.0000   2000.0000     20.4920     75.5393
   562.5000   2000.0000   2000.0000     13.2632     78.8044
   562.7500   2000.0000   2000.0000      9.2789     73.7196
   563.0000   2000.0000   2000.0000      8.4677     64.1496
   563.2500   2000.0000   2000.0000      8.3022     61.6430
   563.5000   2000.0000   2000.0000      8.2881     58.0132
   563.7500   2000.0000   2000.0000      8.3965     56.5603
   564.0000   2000.0000   2000.0000      8.7395     56.1838
   564.2500   2000.0000   2000.0000      9.6578     59.4488
   564.5000   2000.0000   2000.0000      9.0700     60.7170
   564.7500   2000.0000   2000.0000     12.5526     61.7442
   565.0000   2000.0000   2000.0000 100000.0000     65.2231
   565.2500   2000.0000   2000.0000 100000.0000     69.3238
   565.5000   2000.0000   2000.0000 100000.0000     76.8898
   565.7500   2000.0000   2000.0000      5.3147     78.9343
   566.0000   2000.0000   2000.0000      4.2165     84.3129
   566.2500   2000.0000   2000.0000      4.7459     91.4286
   566.5000   2000.0000   2000.0000      5.9222     79.0474
   566.7500   2000.0000   2000.0000      6.5921     83.8927
   567.0000   2000.0000   2000.0000      7.2326     88.0182
   567.2500   2000.0000   2000.0000      7.9762     88.5417
   567.5000   2000.0000   2000.0000     12.3589     94.6331
   567.7500   2000.0000   2000.0000 100000.0000     99.2741
   568.0000   2000.0000   2000.0000 100000.0000    115.6223
   568.2500   2000.0000   2000.0000      3.9968    117.4893
   568.5000   2000.0000   2000.0000      1.1966    121.2646
   568.7500   2000.0000   2000.0000      1.0626    117.2795
   569.0000   2000.0000   2000.0000      1.7711    114.0858
   569.2500   2000.0000   2000.0000      4.4256    107.9560
   569.5000   2000.0000   2000.0000     10.5303    119.3548
   569.7500   2000.0000   2000.0000     23.8091    105.9092
   570.0000   2000.0000   2000.0000     55.7161     93.9311
   570.2500   2000.0000   2000.0000     95.8793     97.0766
   570.5000   2000.0000   2000.0000 100000.0000    111.7642
   570.7500   2000.0000   2000.0000 100000.0000    111.0546
   571.0000   2000.0000   2000.0000 100000.0000    110.0356
   571.2500   2000.0000   2000.0000 100000.0000    112.2480
   571.5000   2000.0000   2000.0000 100000.0000    111.0234
   571.7500   2000.0000   2000.0000     28.9869    114.7022
   572.0000   2000.0000   2000.0000     24.1664    111.6543
   572.2500   2000.0000   2000.0000     38.0072    107.1834
   572.5000   2000.0000   2000.0000     69.4369    100.1166
   572.7500   2000.0000   2000.0000     55.4231    103.1215
   573.0000   2000.0000   2000.0000     50.9471    107.5696
   573.2500   2000.0000   2000.0000     56.7178    110.5120
   573.5000   2000.0000   2000.0000     48.8868    109.4628
   573.7500   2000.0000   2000.0000     69.2495    107.0668
   574.0000   2000.0000   2000.0000    129.8482    108.0673
   574.2500   2000.0000   2000.0000     67.7232    119.1373
   574.5000   2000.0000   2000.0000     49.5263    179.2991
   574.7500   2000.0000   2000.0000     65.5489    251.9981
   575.0000   2000.0000   2000.0000 100000.0000    276.8849
   575.2500   2000.0000   2000.0000 100000.0000    210.0301
   575.5000   2000.0000   2000.0000    130.4156    133.0239
   575.7500   2000.0000   2000.0000     50.5120    106.5226
   576.0000   2000.0000   2000.0000     40.5860     97.6311
   576.2500   2000.0000   2000.0000     37.7159     97.5452
   576.5000   2000.0000   2000.0000     25.6888     94.4436
   576.7500   2000.0000   2000.0000     35.1143     94.7314
   577.0000   2000.0000   2000.0000     34.0103    106.5311
   577.2500   2000.0000   2000.0000     29.1093    113.6024
   577.5000   2000.0000   2000.0000     21.1125    132.2294
   577.7500   2000.0000   2000.0000     25.3680    136.2903
   578.0000   2000.0000   2000.0000     32.1637    144.6277
   578.2500   2000.0000   2000.0000     32.0669    139.6311
   578.5000   2000.0000   2000.0000     31.2388    133.5550
   578.7500   2000.0000   2000.0000     32.8103    135.0382
   579.0000   2000.0000   2000.0000     31.0497    130.5101
   579.2500   2000.0000   2000.0000     32.0033    124.1950
   579.5000   2000.0000   2000.0000     29.8390    122.5523
   579.7500   2000.0000   2000.0000     30.8923    123.5853
   580.0000   2000.0000   2000.0000     31.9458    123.5687
   580.2500   2000.0000   2000.0000     33.1497    125.1356
   580.5000   2000.0000   2000.0000     34.3611    127.3157
   580.7500   2000.0000   2000.0000     33.8952    122.1069
   581.0000   2000.0000   2000.0000     29.0313    118.7905
   581.2500   2000.0000   2000.0000     31.1883    123.3574
