~Version Information
VERS.                      2.0: CWLS Log ASCII Standard - VERSION 2.0
WRAP.                       NO: One line per depth step
~Well Information Block
STRT.FT               784.0000: 
STOP.FT              1033.0000: 
STEP.FT                 0.1000: 
NULL.                -999.2500: 
COMP.          Pioneer Natural Resources: COMPANY
WELL.          Run-Away-Train 43-26: WELL
FLD.           Purgatoire River: FIELD
LOC.           1693' FSL & 1195' FEL: LOCATION
PROV.                 Colorado: PROVINCE
CNTY.               Las Animas: COUNTRY
SRVC.                Patterson: SERVICE COMPANY
DATE.          Wed Apr 06 07:23:28 2005: LOG DATE
UWI.           05 071 08188 00: UNIQUE WELL ID
~Curve Information Block
DEPT.FT            0 000 00 00: Depth
DCAL.in                       : CDL Caliper
RHOB.g/cc                     : CDL Bulk Density
RHOC.g/cc                     : CDL Density Correction
DPOR.pu                       : CDL Density Porosity
GR.GAPI                       : Gamma Ray
NPOR.pu                       : Neutron Porosity
~Parameter Information Block
~A  Depth       DCAL        RHOB        RHOC        DPOR         GR         NPOR    
# ...
   937.6000      7.8650      2.5201      0.0118      7.8757     82.1632     22.0556
   937.7000      7.8650      2.5310      0.0441      7.2094     78.6391     21.9345
   937.8000      7.8583      2.5645      0.0947      5.1788     74.9162     22.2356
   937.9000      7.8583      2.6011      0.1195      2.9660     68.2933     22.6138
   938.0000      7.8429      2.6201      0.1310      1.8147     62.7160     22.4907
   938.1000      7.8429      2.6140      0.1024      2.1832     63.2298     22.1098
   938.2000      7.8429      2.5999      0.0659      3.0356     68.0716     21.9149
   938.3000      7.8356      2.6013      0.1030      2.9521     73.9289     21.7464
   938.4000      7.8356      2.6066      0.1083      2.6301     77.4106     21.3109
   938.5000      7.8330      2.5953      0.0603      3.3164     77.1054     20.8363
   938.6000      7.8330      2.5803      0.0134      4.2259     75.3874     20.8875
   938.7000      7.8330      2.5814      0.0437      4.1599     73.5460     21.2135
   938.8000      7.8329      2.5960      0.0750      3.2726     70.9783     21.1941
   938.9000      7.8329      2.6113      0.0594      2.3456     69.0874     20.9074
   939.0000      7.8332      2.6106      0.1278      2.3885     68.3798     20.7229
   939.1000      7.8332      2.5842      0.0875      3.9891     67.0015     20.9492
   939.2000      7.8332      2.5454      0.0378      6.3421     66.7914     21.5676
   939.3000      7.8243      2.5152      0.0281      8.1680     69.3424     22.0621
   939.4000      7.8243      2.5088     -0.0551      8.5595     71.5791     22.0964
   939.5000      7.8189      2.5300     -0.0413      7.2726     71.1494     21.8605
   939.6000      7.8189      2.5523      0.0718      5.9229     70.8693     21.4610
   939.7000      7.8189      2.5479     -0.0214      6.1868     73.5303     20.8431
   939.8000      7.8523      2.5324      0.0058      7.1302     75.1334     20.3059
   939.9000      7.8523      2.5246     -0.0030      7.6022     73.7913     20.2804
   940.0000      7.8606      2.5212      0.0039      7.8036     73.7045     20.5787
   940.1000      7.8606      2.5190      0.0002      7.9387     75.7455     20.6344
   940.2000      7.8606      2.5197     -0.0152      7.8953     77.6829     20.2757
   940.3000      7.8722      2.5232      0.0382      7.6840     78.6498     19.8137
   940.4000      7.8722      2.5278      0.0385      7.4080     78.1780     19.6644
   940.5000      7.8815      2.5288      0.0501      7.3475     76.0756     19.8258
   940.6000      7.8815      2.5229      0.0216      7.7005     73.4621     19.9303
   940.7000      7.8815      2.5142      0.0511      8.2304     71.7246     19.8814
   940.8000      7.8885      2.5083      0.0468      8.5871     71.7725     19.7322
   940.9000      7.8885      2.5072      0.0303      8.6560     73.7798     19.6333
   941.0000      7.8626      2.5081      0.0715      8.5993     75.1318     19.9591
   941.1000      7.8626      2.5102      0.0395      8.4729     73.0378     20.6568
   941.2000      7.8626      2.5109      0.0523      8.4308     70.2517     21.3315
   941.3000      7.8605      2.4998      0.0031      9.1058     71.4348     21.6375
   941.4000      7.8605      2.4849     -0.0628     10.0048     75.0198     21.4377
   941.5000      7.8767      2.4803      0.0005     10.2862     76.6796     20.9197
   941.6000      7.8767      2.4719      0.0083     10.7952     74.5146     20.3977
   941.7000      7.8767      2.4490      0.0223     12.1848     70.1831     20.1900
   941.8000      7.8843      2.4226      0.0171     13.7805     67.9474     20.3692
   941.9000      7.8843      2.4080     -0.0427     14.6692     69.7155     20.6890
   942.0000      7.8860      2.4145     -0.0595     14.2738     73.6133     20.9207
   942.1000      7.8860      2.4449     -0.0527     12.4287     76.6449     21.1116
   942.2000      7.8860      2.4887      0.0380      9.7764     76.9492     21.4106
   942.3000      7.8726      2.5231      0.0879      7.6884     75.0351     21.8721
   942.4000      7.8726      2.5322      0.0301      7.1392     72.4733     22.2117
   942.5000      7.8679      2.5262      0.0254      7.5044     69.9815     22.2774
   942.6000      7.8679      2.5322      0.0037      7.1365     66.5162     22.3532
   942.7000      7.8679      2.5562      0.0482      5.6865     64.7720     22.4411
   942.8000      7.8763      2.5736      0.0340      4.6309     67.0853     22.3523
   942.9000      7.8763      2.5729      0.0271      4.6735     69.8190     22.1506
   943.0000      7.8480      2.5750      0.0155      4.5463     70.8072     21.9626
   943.1000      7.8480      2.5995      0.0849      3.0628     70.8599     21.7541
   943.2000      7.8480      2.6368      0.1163      0.8028     69.2260     21.6066
   943.3000      7.8471      2.6652      0.1257     -0.9232     65.5798     21.6142
   943.4000      7.8471      2.6712      0.1370     -1.2835     62.3632     21.4956
   943.5000      7.8212      2.6553      0.0767     -0.3236     62.3370     21.1141
   943.6000      7.8212      2.6275      0.0882      1.3634     63.7049     20.7664
   943.7000      7.8212      2.5973      0.0129      3.1920     64.1112     20.7155
   943.8000      7.8264      2.5743     -0.0054      4.5906     64.4399     20.8350
   943.9000      7.8264      2.5632     -0.0144      5.2600     65.5626     20.6798
   944.0000      7.8485      2.5675     -0.0300      5.0006     67.1929     20.1901
   944.1000      7.8485      2.5855      0.0304      3.9070     67.5609     19.6897
   944.2000      7.8485      2.6056      0.0143      2.6904     66.0843     19.2200
   944.3000      7.8567      2.6159      0.0152      2.0668     65.6348     18.7517
   944.4000      7.8567      2.6080      0.0620      2.5448     66.5632     18.3418
   944.5000      7.8611      2.5817      0.0185      4.1392     66.7202     17.9913
   944.6000      7.8611      2.5486      0.0154      6.1476     66.3901     17.9245
   944.7000      7.8611      2.5206      0.0266      7.8428     66.8473     18.2520
   944.8000      7.8756      2.4986      0.0175      9.1787     69.9746     18.7757
   944.9000      7.8756      2.4760      0.0320     10.5428     75.2310     19.0775
   945.0000      7.8585      2.4624     -0.0436     11.3678     77.1025     18.9107
   945.1000      7.8585      2.4722     -0.0015     10.7756     73.7331     18.7109
   945.2000      7.8585      2.4972      0.0201      9.2612     69.9147     18.8744
   945.3000      7.8787      2.5218      0.0145      7.7721     68.4055     19.3449
   945.4000      7.8787      2.5297      0.0918      7.2880     69.9698     19.8917
   945.5000      7.8866      2.5132      0.0213      8.2894     74.1929     20.1979
   945.6000      7.8866      2.4958      0.0035      9.3426     76.5313     20.0893
   945.7000      7.8866      2.4979      0.0401      9.2184     74.2412     19.8070
   945.8000      7.8843      2.5109      0.0542      8.4290     70.0925     19.7422
   945.9000      7.8843      2.5270      0.0573      7.4548     68.3727     19.9270
   946.0000      7.8766      2.5437      0.0522      6.4426     70.4266     20.0623
   946.1000      7.8766      2.5480      0.0916      6.1817     72.5884     20.1116
   946.2000      7.8766      2.5288      0.0475      7.3484     72.8664     20.3131
   946.3000      7.8828      2.4973      0.0236      9.2528     72.8110     20.7396
   946.4000      7.8828      2.4722      0.0546     10.7730     72.9665     21.5005
   946.5000      7.8811      2.4581      0.0172     11.6316     74.3441     22.3064
   946.6000      7.8811      2.4490      0.0408     12.1826     77.1945     22.4434
   946.7000      7.8811      2.4433     -0.0138     12.5273     80.2646     21.7119
   946.8000      7.8740      2.4457      0.0116     12.3803     83.7387     20.8074
   946.9000      7.8740      2.4519     -0.0054     12.0081     86.4571     20.4523
   947.0000      7.8653      2.4565     -0.0211     11.7294     85.9457     20.5847
   947.1000      7.8653      2.4669      0.0043     11.0974     81.9503     20.7511
