~Version Information
 VERS.                                  2.0 : CWLS LAS VERSION
 WRAP.                                   NO : WRAPING MODE
 SWARE .                 MController 2.5.0N : SOFTWARE VERSION
~Well Information
 WELL.                           Zink 44-10 : WELL
 COMP.    Pioneer Natural Resources USA Inc : COMPANY
 FLD.                      Purgatoire River : FIELD
 LOC.                SE/SE Sec 10 T32S R66W : LOCATION
 DATE.                              5/29/05 : DATE(S) LOGGED
 SRVC.       Blanco Geological Services LLC : SERVICE COMPANY
 STAT.                                   CO : STATE
 CNTY.                           Las Animas : COUNTY
 CTRY.                                  USA : COUNTRY
 API.                       05-071-08380-00 : API NUMBER
 STRT.FT                             620.00 : START DEPTH
 STOP.FT                            2635.00 : STOP DEPTH
 STEP.FT                               1.00 : DEPTH INCREMENT
 NULL.                                -9999 : NULL VALUE
~Curve information
 DEPTH.FT                                   :
 ROP.MIN/FT                                 :
 GAS.UNITS                                  :
~ASCII Log data
# ...
      2020.0         0.27        911.6 
      2021.0         0.27        908.0 
      2022.0         0.20        901.1 
      2023.0         0.23        887.7 
      2024.0         0.33        871.7 
      2025.0         0.27        843.2 
      2026.0         0.30        808.2 
      2027.0         0.23        847.5 
      2028.0         0.17        922.1 
      2029.0         0.22        979.6 
      2030.0         0.20        958.0 
      2031.0         0.30        889.3 
      2032.0         0.37        812.1 
      2033.0         0.30        719.9 
      2034.0         0.27        619.8 
      2035.0         0.20        555.0 
      2036.0         2.55       1921.8 
      2037.0         0.43       1839.4 
      2038.0         0.33       1610.4 
      2039.0         0.33       1430.1 
      2040.0         0.33       1275.1 
      2041.0         0.50       1160.2 
      2042.0         0.45       1025.4 
      2043.0         0.33        948.6 
      2044.0         0.30        917.2 
      2045.0         0.27        894.6 
      2046.0         0.17        882.1 
      2047.0         0.23        879.5 
      2048.0         0.20        875.3 
      2049.0         0.33        871.4 
      2050.0         0.23        866.4 
      2051.0         0.23        863.8 
      2052.0         0.30        931.5 
      2053.0         0.23       1042.5 
      2054.0         0.13       1033.6 
      2055.0         0.20        995.0 
      2056.0         0.15        924.0 
      2057.0         0.10        872.3 
      2058.0         0.13        830.1 
      2059.0         0.13        788.6 
      2060.0         0.17        738.5 
      2061.0         0.13        678.0 
      2062.0         0.17        633.5 
      2063.0         0.30        577.2 
      2064.0         0.20        520.0 
      2065.0         0.20        557.0 
      2066.0         2.42       1989.9 
      2067.0         0.43       1861.6 
      2068.0         0.37       1623.1 
      2069.0         0.37       1409.8 
      2070.0         0.30       1245.6 
      2071.0         0.33       1138.3 
      2072.0         0.33       1056.8 
      2073.0         0.27        993.1 
      2074.0         0.32        955.1 
      2075.0         0.27        916.5 
      2076.0         0.30        894.9 
      2077.0         0.33        877.9 
      2078.0         0.30        878.6 
      2079.0         0.27        872.0 
      2080.0         0.27        845.5 
      2081.0         0.23        833.1 
      2082.0         0.23        820.6 
      2083.0         0.27        794.1 
      2084.0         0.27        761.1 
      2085.0         0.23        818.4 
      2086.0         0.23        869.1 
      2087.0         0.22        868.7 
      2088.0         0.27        832.4 
      2089.0         0.20        797.1 
      2090.0         0.23        761.8 
      2091.0         0.20        710.1 
      2092.0         0.23        648.6 
      2093.0         0.17        585.8 
      2094.0         0.20        564.5 
      2095.0         0.13        569.1 
      2096.0         3.38       2551.9 
      2097.0         0.43       1855.7 
      2098.0         0.30       1538.4 
      2099.0         0.17       1381.1 
      2100.0         0.30       1299.6 
      2101.0         0.27       1193.9 
      2102.0         0.25       1115.1 
      2103.0         0.23       1053.6 
      2104.0         0.27       1017.3 
      2105.0         0.30        989.5 
      2106.0         0.30        958.4 
      2107.0         0.27        938.1 
      2108.0         0.27        912.2 
      2109.0         0.33        896.5 
      2110.0         0.37        884.8 
      2111.0         0.23        889.0 
      2112.0         0.23        949.5 
      2113.0         0.17        908.6 
      2114.0         0.17        834.7 
      2115.0         0.18        780.7 
      2116.0         0.17        747.0 
      2117.0         0.17        721.8 
      2118.0         0.17        696.7 
      2119.0         0.17        664.9 
      2120.0         0.13        627.0 
      2121.0         0.10        592.3 
      2122.0         0.13        568.1 
      2123.0         0.17        565.5 
      2124.0         0.17        601.5 
      2125.0         0.27        699.9 
      2126.0         2.62       2282.3 
      2127.0         0.43       1888.5 
      2128.0         0.33       1613.7 
      2129.0         0.37       1428.2 
      2130.0         0.30       1256.4 
      2131.0         0.27       1121.0 
      2132.0         0.30       1091.2 
      2133.0         0.32       1013.7 
      2134.0         0.30        945.9 
      2135.0         0.33        910.9 
      2136.0         0.37        852.7 
      2137.0         0.33        799.1 
      2138.0         0.27        793.5 
      2139.0         0.27        807.6 
      2140.0         0.30        820.0 
      2141.0         0.30        819.0 
      2142.0         0.30        817.0 
      2143.0         0.37        781.1 
      2144.0         0.32        757.8 
      2145.0         0.27        874.6 
      2146.0         0.23        911.6 
      2147.0         0.27        902.8 
      2148.0         0.37        902.4 
      2149.0         0.20        796.1 
      2150.0         0.20        774.8 
      2151.0         0.20        708.4 
      2152.0         0.20        642.0 
      2153.0         0.20        589.0 
      2154.0         0.23        594.6 
      2155.0         0.33        716.6 
      2156.0         2.98       2317.3 
      2157.0         0.40       1561.3 
      2158.0         0.30       1410.2 
      2159.0         0.32       1360.1 
      2160.0         0.23       1246.6 
      2161.0         0.23       1162.5 
      2162.0         0.20       1109.2 
      2163.0         0.27       1051.6 
      2164.0         0.23        969.8 
      2165.0         0.23        915.5 
      2166.0         0.23        872.3 
      2167.0         0.27        871.4 
      2168.0         0.27        867.1 
      2169.0         0.27        875.0 
      2170.0         0.27        871.7 
      2171.0         0.23        869.4 
      2172.0         0.25        863.2 
      2173.0         0.30        843.5 
      2174.0         0.23        824.6 
      2175.0         0.27        810.2 
      2176.0         0.27        858.6 
      2177.0         0.27        923.7 
      2178.0         0.27        921.1 
      2179.0         0.27        877.9 
      2180.0         0.27        836.7 
      2181.0         0.30        780.7 
      2182.0         0.20        674.4 
      2183.0         0.20        615.9 
      2184.0         0.17        593.6 
      2185.0         0.13        602.4 
      2186.0         2.52       1895.7 
      2187.0         0.43       1754.3 
      2188.0         0.30       1541.7 
      2189.0         0.32       1401.3 
      2190.0         0.30       1276.7 
      2191.0         0.30       1185.1 
      2192.0         0.23       1115.1 
      2193.0         0.23       1061.4 
      2194.0         0.27       1019.9 
      2195.0         0.23        971.1 
      2196.0         0.23        930.6 
      2197.0         0.27        904.7 
      2198.0         0.27        883.5 
      2199.0         0.30        860.2 
      2200.0         0.27        832.1 
      2201.0         0.25        817.4 
      2202.0         0.27        792.2 
      2203.0         0.30        778.8 
      2204.0         0.27        778.1 
      2205.0         0.27        780.4 
      2206.0         0.27        822.6 
      2207.0         0.27        926.0 
      2208.0         0.30        943.7 
      2209.0         0.27        929.9 
      2210.0         0.27        869.4 
      2211.0         0.27        781.7 
      2212.0         0.23        666.9 
      2213.0         0.25        574.6 
      2214.0         0.30        510.8 
      2215.0         0.33        571.4 
      2216.0         2.43       2003.0 
      2217.0         0.42       1863.6 
      2218.0         0.50       1624.1 
      2219.0         0.50       1401.0 
