~Version Information
VERS.                      2.0: CWLS Log ASCII Standard - VERSION 2.0
WRAP.                       NO: One line per depth step
~Well Information Block
STRT.FT               583.0000: 
STOP.FT              1701.5000: 
STEP.FT                 0.2500: 
NULL.                -999.2500: 
COMP.          Pioneer Natural Resources: COMPANY
WELL.          Scott Canyon 11-18 Tr: WELL
FLD.           Purgatoire River: FIELD
LOC.           411' FNL & 580' FWL: LOCATION
PROV.                 Colorado: PROVINCE
CNTY.               Las Animas: COUNTRY
SRVC.                Patterson: SERVICE COMPANY
DATE.          Thu Feb 17 02:07:21 2005: LOG DATE
UWI.           05 071 08286 00: UNIQUE WELL ID
~Curve Information Block
DEPT.FT            0 000 00 00: Depth
SN.Ohm-m                      : IEL Short Normal
SP.mV                         : IEL Spontaneous Potential
DIR.Ohm-m                     : IEL Induction Resistivity
GR.GAPI                       : Gamma Ray
~Parameter Information Block
~A  Depth        SN          SP         DIR          GR     
# ...
   784.0000   2000.0000   2000.0000     27.5868    101.7260
   784.2500   2000.0000   2000.0000     27.6846    107.0212
   784.5000   2000.0000   2000.0000     27.7471    113.8181
   784.7500   2000.0000   2000.0000     27.6868    116.3539
   785.0000   2000.0000   2000.0000     27.4304    116.3323
   785.2500   2000.0000   2000.0000     26.9492    114.1727
   785.5000   2000.0000   2000.0000     26.2603    109.6048
   785.7500   2000.0000   2000.0000     25.4067    106.9252
   786.0000   2000.0000   2000.0000     24.4319    104.9066
   786.2500   2000.0000   2000.0000     23.3633    105.2805
   786.5000   2000.0000   2000.0000     22.2119    108.7828
   786.7500   2000.0000   2000.0000     20.9926    113.1790
   787.0000   2000.0000   2000.0000     19.7498    122.3760
   787.2500   2000.0000   2000.0000     18.5624    129.4040
   787.5000   2000.0000   2000.0000     17.5197    139.3501
   787.7500   2000.0000   2000.0000     16.6865    144.6489
   788.0000   2000.0000   2000.0000     16.0835    150.0561
   788.2500   2000.0000   2000.0000     15.6893    152.2958
   788.5000   2000.0000   2000.0000     15.4559    154.5050
   788.7500   2000.0000   2000.0000     15.3284    155.4500
   789.0000   2000.0000   2000.0000     15.2603    155.8852
   789.2500   2000.0000   2000.0000     15.2197    155.2960
   789.5000   2000.0000   2000.0000     15.1899    152.6720
   789.7500   2000.0000   2000.0000     15.1664    149.3761
   790.0000   2000.0000   2000.0000     15.1549    141.3658
   790.2500   2000.0000   2000.0000     15.1682    133.9741
   790.5000   2000.0000   2000.0000     15.2235    121.5172
   790.7500   2000.0000   2000.0000     15.3406    114.2300
   791.0000   2000.0000   2000.0000     15.5422    107.9415
   791.2500   2000.0000   2000.0000     15.8536    107.3085
   791.5000   2000.0000   2000.0000     16.2992    109.6065
   791.7500   2000.0000   2000.0000     16.8943    111.4114
   792.0000   2000.0000   2000.0000     17.6313    112.5106
   792.2500   2000.0000   2000.0000     18.4628    112.0359
   792.5000   2000.0000   2000.0000     19.2932    109.9501
   792.7500   2000.0000   2000.0000     19.9958    107.7706
   793.0000   2000.0000   2000.0000     20.4608    103.4554
   793.2500   2000.0000   2000.0000     20.6459    100.1758
   793.5000   2000.0000   2000.0000     20.5864     95.4801
   793.7500   2000.0000   2000.0000     20.3633     93.0008
   794.0000   2000.0000   2000.0000     20.0622     91.0573
   794.2500   2000.0000   2000.0000     19.7515     91.3732
   794.5000   2000.0000   2000.0000     19.4745     94.6808
   794.7500   2000.0000   2000.0000     19.2471     98.6794
   795.0000   2000.0000   2000.0000     19.0604    106.6863
   795.2500   2000.0000   2000.0000     18.8904    112.8343
   795.5000   2000.0000   2000.0000     18.7128    122.2176
   795.7500   2000.0000   2000.0000     18.5149    127.7271
   796.0000   2000.0000   2000.0000     18.2997    133.0925
   796.2500   2000.0000   2000.0000     18.0850    134.0690
   796.5000   2000.0000   2000.0000     17.9004    132.2524
   796.7500   2000.0000   2000.0000     17.7821    130.1149
   797.0000   2000.0000   2000.0000     17.7661    127.6326
   797.2500   2000.0000   2000.0000     17.8815    126.8646
   797.5000   2000.0000   2000.0000     18.1474    126.0721
   797.7500   2000.0000   2000.0000     18.5747    124.7299
   798.0000   2000.0000   2000.0000     19.1664    120.2339
   798.2500   2000.0000   2000.0000     19.9116    115.7028
   798.5000   2000.0000   2000.0000     20.7720    108.0303
   798.7500   2000.0000   2000.0000     21.6730    103.2202
   799.0000   2000.0000   2000.0000     22.5112     97.3489
   799.2500   2000.0000   2000.0000     23.1856     94.6393
   799.5000   2000.0000   2000.0000     23.6314     92.8858
   799.7500   2000.0000   2000.0000     23.8329     93.3488
   800.0000   2000.0000   2000.0000     23.8091     95.9334
   800.2500   2000.0000   2000.0000     23.5933     98.3174
   800.5000   2000.0000   2000.0000     23.2242    102.0018
   800.7500   2000.0000   2000.0000     22.7455    104.3586
   801.0000   2000.0000   2000.0000     22.1980    108.2570
   801.2500   2000.0000   2000.0000     21.6069    111.6754
   801.5000   2000.0000   2000.0000     20.9767    118.4604
   801.7500   2000.0000   2000.0000     20.3036    123.5712
   802.0000   2000.0000   2000.0000     19.5956    130.5105
   802.2500   2000.0000   2000.0000     18.8811    134.1017
   802.5000   2000.0000   2000.0000     18.1998    138.2189
   802.7500   2000.0000   2000.0000     17.5822    140.4953
   803.0000   2000.0000   2000.0000     17.0344    143.0624
   803.2500   2000.0000   2000.0000     16.5378    143.6436
   803.5000   2000.0000   2000.0000     16.0636    142.1350
   803.7500   2000.0000   2000.0000     15.5944    139.9000
   804.0000   2000.0000   2000.0000     15.1371    136.4357
   804.2500   2000.0000   2000.0000     14.7194    134.9013
   804.5000   2000.0000   2000.0000     14.3719    133.5988
   804.7500   2000.0000   2000.0000     14.1099    132.5190
   805.0000   2000.0000   2000.0000     13.9260    129.3345
   805.2500   2000.0000   2000.0000     13.7970    126.1906
   805.5000   2000.0000   2000.0000     13.6977    120.9630
   805.7500   2000.0000   2000.0000     13.6143    117.8517
   806.0000   2000.0000   2000.0000     13.5463    114.6660
   806.2500   2000.0000   2000.0000     13.4978    113.6860
   806.5000   2000.0000   2000.0000     13.4697    113.3936
   806.7500   2000.0000   2000.0000     13.4586    113.4765
   807.0000   2000.0000   2000.0000     13.4643    113.5671
   807.2500   2000.0000   2000.0000     13.4982    113.6426
   807.5000   2000.0000   2000.0000     13.5839    113.9303
   807.7500   2000.0000   2000.0000     13.7455    114.2137
   808.0000   2000.0000   2000.0000     13.9897    114.4584
   808.2500   2000.0000   2000.0000     14.2931    114.2295
   808.5000   2000.0000   2000.0000     14.6076    113.0746
   808.7500   2000.0000   2000.0000     14.8822    111.8678
   809.0000   2000.0000   2000.0000     15.0841    109.4088
   809.2500   2000.0000   2000.0000     15.2006    106.8945
   809.5000   2000.0000   2000.0000     15.2260    100.6610
   809.7500   2000.0000   2000.0000     15.1595     94.6415
   810.0000   2000.0000   2000.0000     15.0209     84.0940
   810.2500   2000.0000   2000.0000     14.8636     77.5904
   810.5000   2000.0000   2000.0000     14.7621     71.4327
   810.7500   2000.0000   2000.0000     14.7765     70.8365
   811.0000   2000.0000   2000.0000     14.9232     75.4493
   811.2500   2000.0000   2000.0000     15.1670     81.1279
   811.5000   2000.0000   2000.0000     15.4385     90.1558
   811.7500   2000.0000   2000.0000     15.6642     94.5814
   812.0000   2000.0000   2000.0000     15.7921     97.3945
   812.2500   2000.0000   2000.0000     15.7958     97.1500
   812.5000   2000.0000   2000.0000     15.6648     95.6745
   812.7500   2000.0000   2000.0000     15.4008     95.4572
   813.0000   2000.0000   2000.0000     15.0297     98.4313
   813.2500   2000.0000   2000.0000     14.6075    102.8689
   813.5000   2000.0000   2000.0000     14.2067    111.1414
   813.7500   2000.0000   2000.0000     13.8854    115.7468
   814.0000   2000.0000   2000.0000     13.6670    118.9986
   814.2500   2000.0000   2000.0000     13.5400    118.7657
   814.5000   2000.0000   2000.0000     13.4761    116.7147
   814.7500   2000.0000   2000.0000     13.4518    115.7009
   815.0000   2000.0000   2000.0000     13.4575    116.7230
   815.2500   2000.0000   2000.0000     13.4879    119.3973
   815.5000     18.9452    -53.2447     13.5249    124.8880
   815.7500     19.1917    -53.2391     13.5335    127.8484
   816.0000     19.4319    -53.3070     13.4746    128.7184
   816.2500     19.6116    -53.4672     13.3261    126.4999
   816.5000     19.6082    -53.7094     13.0934    120.1645
   816.7500     19.2722    -53.9995     12.8056    115.1422
   817.0000     18.5461    -54.2948     12.5025    108.2933
   817.2500     17.5715    -54.5601     12.2209    104.9660
