~Version Information
VERS.                      2.0: CWLS Log ASCII Standard - VERSION 2.0
WRAP.                       NO: One line per depth step
~Well Information Block
STRT.FT               491.0000: 
STOP.FT              1055.5000: 
STEP.FT                 0.1000: 
NULL.                -999.2500: 
COMP.          Evergreen Operating Corporation: COMPANY
WELL.              Sunset 24-3: WELL
FLD.           Purgatorie River: FIELD
LOC.           467' FSL & 2262' FWL: LOCATION
PROV.                 Colorado: PROVINCE
CNTY.               Las Animas: COUNTRY
SRVC.                         : SERVICE COMPANY
DATE.          Wed Sep 22 14:05:09 2004: LOG DATE
UWI.           05 071 08158 00: UNIQUE WELL ID
~Curve Information Block
DEPT.FT            0 000 00 00: Depth
DCAL.in                       : CDL Caliper
RHOB.g/cc                     : CDL Bulk Density
RHOC.g/cc                     : CDL Density Correction
DPOR.pu                       : CDL Density Porosity
GR.GAPI                       : Gamma Ray
NPOR.pu                       : Neutron Porosity
~Parameter Information Block
~A  Depth       DCAL        RHOB        RHOC        DPOR         GR         NPOR    
# ...
   817.4000      7.8580      2.6163      0.1262      2.0424     73.4621     23.0003
   817.5000      7.8582      2.6018      0.0757      2.9240     77.1917     23.3638
   817.6000      7.8582      2.6024      0.0839      2.8865     81.9903     23.8965
   817.7000      7.8582      2.6166      0.1218      2.0262     82.1367     23.9235
   817.8000      7.8580      2.6253      0.1407      1.4983     77.2173     23.4911
   817.9000      7.8580      2.6153      0.1463      2.1049     71.2620     23.1825
   818.0000      7.8687      2.5898      0.0686      3.6490     69.2937     23.0033
   818.1000      7.8687      2.5671      0.0545      5.0269     70.5881     22.8142
   818.2000      7.8687      2.5612      0.0553      5.3802     68.3990     22.8247
   818.3000      7.8733      2.5684      0.0486      4.9426     62.6438     23.0620
   818.4000      7.8733      2.5743      0.0397      4.5869     58.7814     22.9548
   818.5000      7.9064      2.5709      0.0440      4.7910     57.6718     22.0319
   818.6000      7.9064      2.5625      0.0289      5.3050     57.7475     20.8136
   818.7000      7.9064      2.5554      0.0394      5.7359     60.9033     20.2042
   818.8000      7.9115      2.5531      0.0105      5.8739     67.3828     20.4122
   818.9000      7.9115      2.5554      0.0500      5.7320     74.1381     21.0996
   819.0000      7.8997      2.5568      0.0227      5.6507     77.9999     21.5234
   819.1000      7.8997      2.5567      0.0138      5.6518     76.3337     21.0511
   819.2000      7.8997      2.5626      0.0184      5.2969     72.4261     20.2975
   819.3000      7.9071      2.5740      0.0560      4.6070     72.5820     20.1915
   819.4000      7.9071      2.5767      0.0836      4.4398     75.1169     21.0809
   819.5000      7.9010      2.5668      0.0362      5.0424     75.2929     22.4467
   819.6000      7.9010      2.5591      0.0338      5.5094     73.5507     23.0801
   819.7000      7.9010      2.5560      0.0698      5.6980     71.8749     22.8084
   819.8000      7.9069      2.5434      0.0833      6.4618     71.3387     22.4174
   819.9000      7.9069      2.5226      0.0422      7.7193     73.7997     22.1215
   820.0000      7.8976      2.5119      0.0368      8.3708     78.9902     21.8554
   820.1000      7.8976      2.5175      0.0600      8.0274     82.4820     21.8900
   820.2000      7.8976      2.5287      0.0737      7.3541     82.5185     22.3740
   820.3000      7.8883      2.5398      0.0763      6.6771     80.0006     22.8805
   820.4000      7.8883      2.5588      0.0713      5.5289     77.4094     23.0516
   820.5000      7.9006      2.5824      0.1077      4.0998     77.2380     23.0552
   820.6000      7.9006      2.5920      0.1182      3.5160     78.7899     23.3837
   820.7000      7.9006      2.5798      0.1335      4.2529     79.9060     24.0209
   820.8000      7.8985      2.5564      0.0870      5.6725     79.0192     24.2528
   820.9000      7.8985      2.5344      0.0842      7.0045     77.5561     23.8749
   821.0000      7.8992      2.5179      0.0489      8.0083     80.8554     23.7957
   821.1000      7.8992      2.5127      0.0434      8.3226     88.7051     24.3915
   821.2000      7.8992      2.5238      0.0576      7.6484     94.3695     24.9660
   821.3000      7.9003      2.5367      0.0593      6.8671     97.6054     24.9865
   821.4000      7.9003      2.5316      0.0552      7.1762    100.4881     24.5332
   821.5000      7.9146      2.5204      0.0114      7.8519    101.3507     23.9866
   821.6000      7.9146      2.5305      0.0044      7.2421    100.4781     23.5582
   821.7000      7.9146      2.5543      0.0918      5.7988     99.0304     23.3968
   821.8000      7.9189      2.5617      0.0689      5.3487     96.9050     23.4899
   821.9000      7.9189      2.5471      0.0572      6.2349     91.5554     23.4545
   822.0000      7.9274      2.5309      0.0389      7.2179     85.1152     23.4611
   822.1000      7.9274      2.5272      0.0278      7.4451     82.7067     23.4298
   822.2000      7.9274      2.5295      0.0227      7.3013     81.9566     22.6157
   822.3000      7.9347      2.5309      0.0364      7.2201     79.1670     21.6709
   822.4000      7.9347      2.5343      0.0195      7.0138     75.8171     21.5489
   822.5000      7.9253      2.5404      0.0711      6.6433     75.6330     22.0199
   822.6000      7.9253      2.5464      0.0618      6.2761     78.9307     22.7608
   822.7000      7.9253      2.5558      0.0674      5.7081     82.0113     23.7444
   822.8000      7.9185      2.5667      0.0791      5.0487     84.3940     24.6912
   822.9000      7.9185      2.5738      0.0680      4.6167     87.9368     25.0623
   823.0000      7.9162      2.5814      0.0761      4.1558     90.3270     24.6680
   823.1000      7.9162      2.5911      0.0762      3.5718     89.9098     24.0325
   823.2000      7.9162      2.5939      0.0998      3.3985     89.1120     23.9022
   823.3000      7.9188      2.5838      0.0954      4.0141     90.2855     24.0502
   823.4000      7.9188      2.5677      0.0744      4.9880     90.2825     23.8731
   823.5000      7.9203      2.5579      0.0888      5.5810     86.5847     23.8131
   823.6000      7.9203      2.5568      0.0470      5.6490     82.9483     24.2697
   823.7000      7.9203      2.5564      0.0847      5.6743     82.8634     24.4203
   823.8000      7.9394      2.5466      0.0182      6.2692     85.4509     23.6011
   823.9000      7.9394      2.5311      0.0212      7.2040     88.1748     22.5126
   824.0000      7.9588      2.5230      0.0324      7.6948     89.7023     21.9918
   824.1000      7.9588      2.5294      0.0128      7.3104     88.3802     22.0357
   824.2000      7.9588      2.5452      0.0068      6.3520     85.2756     22.2168
   824.3000      7.9925      2.5534      0.0362      5.8553     84.1454     22.0863
   824.4000      7.9925      2.5439     -0.0024      6.4275     82.9167     21.5253
   824.5000      7.9496      2.5323     -0.0072      7.1347     78.1399     21.0235
   824.6000      7.9496      2.5383      0.0287      6.7721     75.1156     20.8897
   824.7000      7.9496      2.5568      0.0566      5.6506     78.9122     20.6642
   824.8000      7.9423      2.5696      0.0552      4.8742     85.0755     20.0870
   824.9000      7.9423      2.5718      0.0623      4.7403     85.4980     19.6440
   825.0000      7.9433      2.5740      0.0308      4.6079     78.0301     19.7793
   825.1000      7.9433      2.5831      0.0340      4.0532     68.2841     20.3948
   825.2000      7.9433      2.5914      0.0764      3.5486     62.7240     21.2310
   825.3000      7.9416      2.5981      0.0401      3.1438     62.8007     21.6074
   825.4000      7.9416      2.6075      0.0788      2.5764     64.1791     20.9681
   825.5000      7.9405      2.6056      0.0648      2.6920     62.7052     20.2250
   825.6000      7.9405      2.5841      0.0163      3.9947     58.9379     20.0292
   825.7000      7.9405      2.5546     -0.0298      5.7803     54.9326     19.9547
   825.8000      7.9423      2.5193      0.0115      7.9240     53.9785     20.3001
   825.9000      7.9423      2.4726     -0.0301     10.7497     58.2024     21.4671
   826.0000      7.9481      2.4197      0.0187     13.9577     66.1384     22.5656
   826.1000      7.9481      2.3581     -0.0316     17.6924     72.9140     22.8646
   826.2000      7.9481      2.2782     -0.0476     22.5354     74.9876     23.0207
   826.3000      7.9657      2.1765     -0.0756     28.6959     72.3450     23.6517
   826.4000      7.9657      2.0610     -0.1020     35.6946     67.5466     24.7749
   826.5000      8.0101      1.9540     -0.1377     42.1818     64.7984     26.5835
   826.6000      8.0101      1.8833     -0.1150     46.4641     65.2051     28.7795
   826.7000      8.0101      1.8583     -0.0344     47.9794     65.2111     30.3523
   826.8000      8.0948      1.8621      0.0263     47.7496     63.0534     31.0996
   826.9000      8.0948      1.8789      0.0317     46.7352     62.6480     31.6267
