~Version Information
VERS.                      2.0: CWLS Log ASCII Standard - VERSION 2.0
WRAP.                       NO: One line per depth step
~Well Information Block
STRT.FT                -7.5000: 
STOP.FT              2226.0000: 
STEP.FT                 0.2500: 
NULL.                -999.2500: 
COMP.          Pioneer Natural Resources: COMPANY
WELL.              Tonto 42-23: WELL
FLD.           Purgatorie River: FIELD
LOC.           2217' FNL & 423' FEL----: LOCATION
PROV.                       CO: PROVINCE
CNTY.               Las Animas: COUNTRY
SRVC.          Patterson Wireline: SERVICE COMPANY
DATE.          Fri Apr 22 11:40:07 2005: LOG DATE
UWI.           05 071 08335 00: UNIQUE WELL ID
~Curve Information Block
DEPT.FT            0 000 00 00: Depth
CCL.                          : Casing Collar Locator
TT3.usec                      : CBL 3' Travel Time
AMP3.mV                       : CBL 3' Amplitude
GR.GAPI                       : Gamma Ray
~Parameter Information Block
~A  Depth       CCL         TT3         AMP3         GR     
# ...
  2069.5000      0.0000    572.0586      2.1265     81.9129
  2069.7500      0.0000    528.5486      1.8992     79.3447
  2070.0000      0.0000    488.7130      1.9147     77.9571
  2070.2500      0.0000    460.6664      2.1277     77.7959
  2070.5000      0.0000    446.6301      2.4070     78.0917
  2070.7500      0.0000    445.2618      2.6573     77.9973
  2071.0000      0.0000    455.7893      2.8790     77.1113
  2071.2500      0.0000    478.7578      3.1132     75.4884
  2071.5000      0.0000    513.4017      3.3595     73.4615
  2071.7500      0.0000    555.2542      3.5737     71.6941
  2072.0000      0.0000    596.6938      3.7293     71.1726
  2072.2500      0.0000    630.1486      3.8446     72.5156
  2072.5000      0.0000    651.9814      3.9408     75.1776
  2072.7500      0.0000    664.1304      3.9991     77.8614
  2073.0000      0.0000    671.2455      3.9858     79.7618
  2073.2500      0.0000    674.9109      3.9097     80.9029
  2073.5000      0.0000    671.0323      3.8244     81.3298
  2073.7500      0.0000    654.9066      3.7638     80.7097
  2074.0000      0.0000    629.9832      3.7045     79.0206
  2074.2500      2.0000    609.7731      3.6184     77.1303
  2074.5000      2.0000    607.4920      3.5445     76.0944
  2074.7500      0.0000    623.0617      3.5750     75.9375
  2075.0000      0.0000    643.0087      3.7628     75.5734
  2075.2500      0.0000    653.8437      4.0615     74.0263
  2075.5000      0.0000    652.3505      4.3630     71.5086
  2075.7500      0.0000    642.2563      4.5802     69.3799
  2076.0000      0.0000    626.6274      4.6932     69.1944
  2076.2500      0.0000    608.2483      4.7318     71.4418
  2076.5000      0.0000    594.2621      4.7259     74.9229
  2076.7500      0.0000    593.7299      4.6807     77.6791
  2077.0000      0.0000    608.4415      4.5903     78.8905
  2077.2500      0.0000    628.7449      4.4602     79.6273
  2077.5000      0.0000    640.8484      4.3101     81.4942
  2077.7500      0.0000    637.6730      4.1568     84.8137
  2078.0000      0.0000    620.9661      4.0001     88.3298
  2078.2500      0.0000    594.4714      3.8312     90.4149
  2078.5000      0.0000    559.9043      3.6521     90.4242
  2078.7500      0.0000    520.8356      3.4730     89.1182
  2079.0000      0.0000    485.2719      3.2933     87.8987
  2079.2500      0.0000    460.6284      3.1052     87.5460
  2079.5000      0.0000    447.9208      2.9122     87.7431
  2079.7500      0.0000    442.6054      2.7220     87.9284
  2080.0000      0.0000    439.7846      2.5265     88.3817
  2080.2500      0.0000    437.7047      2.3137     90.0357
  2080.5000      0.0000    437.8453      2.1007     93.1215
  2080.7500      0.0000    444.0028      1.9332     96.4040
  2081.0000      0.0000    461.6798      1.8521     98.0777
  2081.2500      0.0000    495.8325      1.8768     97.2835
  2081.5000      0.0000    545.7787      2.0171     94.6765
  2081.7500      0.0000    601.7686      2.2719     91.8207
  2082.0000      0.0000    649.2206      2.6103     90.1284
  2082.2500      0.0000    678.2591      2.9682     90.1199
  2082.5000      0.0000    688.9934      3.2764     91.5352
  2082.7500      0.0000    688.3496      3.4944     94.0071
  2083.0000      0.0000    683.8150      3.6204     97.2603
  2083.2500      0.0000    680.1696      3.6753    100.5682
  2083.5000      0.0000    679.5679      3.6793    102.5360
  2083.7500      0.0000    682.3156      3.6427    102.0398
  2084.0000      0.0000    687.1896      3.5758     99.3389
  2084.2500      0.0000    692.0973      3.4925     95.8582
  2084.5000      0.0000    695.2759      3.3935     92.7892
  2084.7500      0.0000    695.9442      3.2559     90.2635
  2085.0000      0.0000    693.9520      3.0566     88.0625
  2085.2500      0.0000    689.4752      2.8068     86.7434
  2085.5000      0.0000    683.5386      2.5616     87.4802
  2085.7500      0.0000    678.5464      2.3971     90.6560
  2086.0000      0.0000    677.4985      2.3730     95.0512
  2086.2500      0.0000    682.1332      2.4991     98.8473
  2086.5000      0.0000    691.7047      2.7348    101.1483
  2086.7500      0.0000    703.6112      3.0197    102.1034
  2087.0000      0.0000    714.9446      3.2942    101.9423
  2087.2500      0.0000    722.8443      3.4965    100.6466
  2087.5000      0.0000    722.8524      3.5666     98.3825
  2087.7500      0.0000    707.9299      3.4672     95.5435
  2088.0000      0.0000    671.9954      3.2056     92.2859
  2088.2500      0.0000    616.8966      2.8491     88.4805
  2088.5000      0.0000    555.2492      2.5204     84.1471
  2088.7500      0.0000    504.3810      2.3550     79.7857
  2089.0000      0.0000    476.3931      2.4283     76.2888
  2089.2500      0.0000    472.9540      2.7075     74.5444
  2089.5000      0.0000    486.7699      3.0702     74.9921
  2089.7500      0.0000    506.0338      3.3709     77.3835
  2090.0000      0.0000    519.2109      3.5078     80.8244
  2090.2500      0.0000    519.5694      3.4577     83.9974
  2090.5000      0.0000    508.1830      3.2785     85.5354
  2090.7500      0.0000    492.9792      3.0812     84.7349
  2091.0000      0.0000    484.0027      2.9759     82.3187
  2091.2500      0.0000    489.1687      3.0129     80.1821
  2091.5000      0.0000    512.6416      3.1530     79.9468
  2091.7500      0.0000    553.2033      3.2875     81.7961
  2092.0000      0.0000    602.7919      3.3028     84.5512
  2092.2500      0.0000    649.5724      3.1536     86.5356
  2092.5000      0.0000    684.5574      2.8902     86.7268
  2092.7500      0.0000    705.2228      2.6188     85.6272
  2093.0000      0.0000    714.2955      2.4350     84.7357
  2093.2500      0.0000    717.3896      2.3787     84.8465
  2093.5000      0.0000    720.0156      2.4230     85.2144
  2093.7500      0.0000    723.3113      2.4900     84.4676
  2094.0000      0.0000    722.8698      2.5114     81.7907
  2094.2500      0.0000    714.1307      2.5001     77.1726
  2094.5000      0.0000    698.6790      2.5461     71.2821
  2094.7500      0.0000    683.6229      2.7194     65.4048
  2095.0000      0.0000    675.4197      2.9822     60.9194
  2095.2500      0.0000    675.4254      3.2042     58.5812
  2095.5000      0.0000    680.4366      3.2647     58.5620
  2095.7500      0.0000    685.8347      3.1483     60.8300
  2096.0000      0.0000    688.2271      2.9575     64.8641
  2096.2500      0.0000    686.4615      2.8344     69.2412
  2096.5000      0.0000    681.5247      2.8575     72.3202
  2096.7500      0.0000    675.7705      2.9950     73.5756
  2097.0000      0.0000    671.3826      3.1404     73.9210
  2097.2500      0.0000    668.6902      3.1957     74.5875
  2097.5000      0.0000    665.9491      3.1480     75.8622
  2097.7500      0.0000    661.0452      3.0826     76.9276
  2098.0000      0.0000    653.4731      3.1032     76.7222
  2098.2500      0.0000    645.0515      3.2213     74.7457
  2098.5000      0.0000    639.2813      3.3410     71.1366
  2098.7500      0.0000    639.6683      3.3708     66.4595
  2099.0000      0.0000    647.7938      3.3271     61.6923
  2099.2500      0.0000    662.6609      3.2977     57.9851
  2099.5000      0.0000    681.3242      3.3214     56.0589
  2099.7500      0.0000    698.8806      3.3521     55.9873
  2100.0000      0.0000    708.2524      3.3459     57.4512
  2100.2500      0.0000    702.9145      3.3277     59.8167
  2100.5000      0.0000    681.9239      3.3400     62.1476
  2100.7500      0.0000    652.1402      3.3676     63.6929
  2101.0000      0.0000    625.4188      3.3618     64.4282
  2101.2500      0.0000    612.9354      3.3227     64.8504
  2101.5000      0.0000    619.0334      3.3017     65.3074
  2101.7500      0.0000    637.8712      3.3213     65.8212
  2102.0000      0.0000    656.9026      3.3449     66.6118
  2102.2500      0.0000    665.9501      3.3470     68.5230
  2102.5000      0.0000    664.2620      3.3577     72.5064
  2102.7500      0.0000    659.4901      3.4066     78.3141
