~Version Information
VERS.                      2.0: CWLS Log ASCII Standard - VERSION 2.0
WRAP.                       NO: One line per depth step
~Well Information Block
STRT.FT              1684.7500: 
STOP.FT              2367.7500: 
STEP.FT                 0.2500: 
NULL.                -999.2500: 
COMP.          Petrogulf Corporation: COMPANY
WELL.             Norton 9-14V: WELL
FLD.           Purgatorie River: FIELD
LOC.           250' FSL & 225' FWL--: LOCATION
CNTY.               Las Animas: COUNTY
SRVC.                         : SERVICE COMPANY
DATE.          Mon Jan 10 10:00:10 2005: LOG DATE
UWI.                          : UNIQUE WELL ID
STAT.                       CO: STATE
~Curve Information Block
DEPT.FT            0 000 00 00: Depth
CCL.                          : Casing Collar Locator
TT3.usec                      : CBL 3' Travel Time
AMP3.mV                       : CBL 3' Amplitude
GR.GAPI                       : Gamma Ray
~Parameter Information Block
~A  Depth       CCL         TT3         AMP3         GR     
# ...
  1952.7500      0.0000    585.1945      4.7646    111.8453
  1953.0000      0.0000    599.4835      4.6810    109.2308
  1953.2500      0.0000    587.4544      4.5168    105.7569
  1953.5000      0.0000    551.4731      4.3361    103.1779
  1953.7500      0.0000    505.6395      4.1790    103.4267
  1954.0000      0.0000    466.3525      4.0712    106.9485
  1954.2500      0.0000    445.2201      4.0420    112.3235
  1954.5000      0.0000    447.5593      4.1042    117.2251
  1954.7500      0.0000    473.0392      4.2317    119.5009
  1955.0000      0.0000    515.0838      4.3751    117.7290
  1955.2500      0.0000    560.8849      4.4988    111.4154
  1955.5000      0.0000    595.6789      4.5930    101.2943
  1955.7500      0.0000    609.9717      4.6528     89.8419
  1956.0000      0.0000    603.9801      4.6616     81.0376
  1956.2500      0.0000    586.5341      4.6063     78.3193
  1956.5000      0.0000    570.1998      4.5083     82.1162
  1956.7500      0.0000    565.2669      4.4274     89.7689
  1957.0000      0.0000    575.1912      4.4250     98.0170
  1957.2500      0.0000    596.0121      4.5155    105.0923
  1957.5000      0.0000    619.5535      4.6504    110.5213
  1957.7500      0.0000    637.8505      4.7532    114.2524
  1958.0000      0.0000    646.9156      4.7740    116.8338
  1958.2500      0.0000    648.6047      4.7155    119.5489
  1958.5000      0.0000    648.6292      4.6216    123.2323
  1958.7500      0.0000    651.5784      4.5496    127.1062
  1959.0000      0.0000    657.6447      4.5447    129.3649
  1959.2500      0.0000    663.4592      4.6286    128.8253
  1959.5000      0.0000    664.0924      4.8016    125.9007
  1959.7500      0.0000    654.5006      5.0352    122.3454
  1960.0000      0.0000    632.9280      5.2658    120.1591
  1960.2500      0.0000    605.6206      5.4217    120.1378
  1960.5000      0.0000    585.7947      5.4692    121.2113
  1960.7500      0.0000    583.9279      5.4135    121.6895
  1961.0000      0.0000    598.5235      5.2538    121.1747
  1961.2500      0.0000    618.4055      4.9674    120.6270
  1961.5000      0.0000    633.6143      4.5504    120.7004
  1961.7500      0.0000    642.1728      4.0530    120.7771
  1962.0000      0.0000    647.5656      3.5649    119.6402
  1962.2500      0.0000    653.2370      3.1741    116.5976
  1962.5000      0.0000    660.2836      2.9283    112.0680
  1962.7500      0.0000    668.1227      2.8148    107.5955
  1963.0000      0.0000    675.5203      2.7757    105.0861
  1963.2500      0.0000    680.9665      2.7557    105.2938
  1963.5000      0.0000    682.7523      2.7393    106.9112
  1963.7500      0.0000    679.5034      2.7439    107.7207
  1964.0000      0.0000    671.1578      2.7941    106.9688
  1964.2500      0.0000    659.2243      2.9094    106.2384
  1964.5000      2.0000    645.6540      3.1049    107.6626
  1964.7500      0.0000    631.1335      3.3789    111.4483
  1965.0000      0.0000    614.1683      3.7073    115.3977
  1965.2500      0.0000    592.0461      4.0800    116.8675
  1965.5000      0.0000    563.9893      4.5458    115.1595
  1965.7500      0.0000    533.2144      5.1886    111.9954
  1966.0000      0.0000    503.6913      6.0363    109.6583
  1966.2500      0.0000    474.9846      7.0021    108.9642
  1966.5000      0.0000    443.2743      7.9261    109.3315
  1966.7500      0.0000    407.8147      8.6745    110.2807
  1967.0000      0.0000    373.5764      9.1946    112.0380
  1967.2500      0.0000    346.9160      9.4992    114.8398
  1967.5000      0.0000    330.7918      9.6290    118.3626
  1967.7500      0.0000    324.4717      9.6263    121.8624
  1968.0000      0.0000    325.7920      9.5072    124.4537
  1968.2500      0.0000    332.7063      9.2413    125.3340
  1968.5000      0.0000    343.9218      8.7822    124.2500
  1968.7500      0.0000    359.5847      8.1286    121.8629
  1969.0000      0.0000    381.6585      7.3379    119.2079
  1969.2500      0.0000    412.9854      6.4815    116.5774
  1969.5000      0.0000    455.3316      5.6143    113.2611
  1969.7500      0.0000    507.2085      4.7880    108.5739
  1970.0000      0.0000    562.3788      4.0594    102.8420
  1970.2500      0.0000    611.1371      3.4664     97.2802
  1970.5000      0.0000    645.3746      3.0029     93.1879
  1970.7500      0.0000    663.5609      2.6389     91.2521
  1971.0000      0.0000    670.6695      2.3629     91.2286
  1971.2500      0.0000    673.4075      2.1870     92.1042
  1971.5000      0.0000    675.4590      2.1126     92.8644
  1971.7500      0.0000    676.4146      2.1045     93.2203
  1972.0000      0.0000    674.2828      2.1099     93.3073
  1972.2500      0.0000    668.3313      2.1000     92.8965
  1972.5000      0.0000    659.4241      2.0939     91.6741
  1972.7500      0.0000    648.4957      2.1383     90.1122
  1973.0000      0.0000    636.0516      2.2594     88.9323
  1973.2500      0.0000    623.6560      2.4301     87.6602
  1973.5000      0.0000    615.2211      2.5827     84.8057
  1973.7500      0.0000    615.5629      2.6614     79.7397
  1974.0000      0.0000    626.5146      2.6691     73.6597
  1974.2500      0.0000    644.4164      2.6596     68.6184
  1974.5000      0.0000    662.2794      2.6853     66.0740
  1974.7500      0.0000    674.6738      2.7607     66.2972
  1975.0000      0.0000    680.4611      2.8734     68.8258
  1975.2500      0.0000    681.9348      3.0228     73.4091
  1975.5000      0.0000    682.5544      3.2360     80.3647
  1975.7500      0.0000    684.9727      3.5409     89.5919
  1976.0000      0.0000    689.9160      3.9315     99.2933
  1976.2500      0.0000    696.2448      4.3693    106.4920
  1976.5000      0.0000    701.5028      4.8189    109.4223
  1976.7500      0.0000    702.3220      5.2732    109.2134
  1977.0000      0.0000    695.6271      5.7373    108.7734
  1977.2500      0.0000    680.8552      6.2008    110.0446
  1977.5000      0.0000    660.9138      6.6311    112.6231
  1977.7500      0.0000    640.5732      6.9899    114.9522
  1978.0000      0.0000    623.9095      7.2542    116.2735
  1978.2500      0.0000    613.0251      7.4390    117.0765
  1978.5000      0.0000    607.7355      7.6029    118.0367
  1978.7500      0.0000    605.8512      7.8123    119.1934
  1979.0000      0.0000    605.1235      8.0835    120.3037
  1979.2500      0.0000    606.3690      8.3663    121.4769
  1979.5000      0.0000    613.7640      8.5914    122.8725
  1979.7500      0.0000    630.5196      8.7191    123.7946
  1980.0000      0.0000    654.6893      8.7342    122.7129
  1980.2500      0.0000    680.0172      8.6258    118.5148
  1980.5000      0.0000    700.1929      8.4021    111.6326
  1980.7500      0.0000    712.3002      8.1238    104.0796
  1981.0000      0.0000    717.4628      7.9027     98.4337
  1981.2500      0.0000    718.4639      7.8605     96.3930
  1981.5000      0.0000    715.9734      8.0798     97.9755
  1981.7500      0.0000    706.0139      8.5716    101.8797
  1982.0000      0.0000    680.4144      9.2707    106.4008
  1982.2500      0.0000    631.4517     10.0686    110.2108
  1982.5000      0.0000    559.5723     10.8697    112.7727
  1982.7500      0.0000    477.7236     11.6223    114.1534
  1983.0000      0.0000    405.1592     12.3081    114.4263
  1983.2500      0.0000    354.9659     12.9139    113.4626
  1983.5000      0.0000    327.8107     13.4191    111.3449
  1983.7500      0.0000    316.3795     13.8025    108.8439
  1984.0000      0.0000    313.3022     14.0451    107.4007
  1984.2500      0.0000    315.6592     14.1086    108.3476
  1984.5000      0.0000    325.9823     13.9232    111.7831
  1984.7500      0.0000    351.2969     13.4297    116.3764
  1985.0000      0.0000    399.0105     12.6556    120.5507
  1985.2500      0.0000    469.3818     11.7427    123.5433
  1985.5000      0.0000    550.3555     10.8833    125.1296
  1985.7500      0.0000    621.4520     10.2275    124.9275
  1986.0000      0.0000    663.7322      9.8462    122.5379
