~Version Information
VERS.                      2.0: CWLS Log ASCII Standard - VERSION 2.0
WRAP.                       NO: One line per depth step
~Well Information Block
STRT.FT               758.7500: 
STOP.FT              2420.7500: 
STEP.FT                 0.2500: 
NULL.                -999.2500: 
COMP.          Petrogulf Corporation: COMPANY
WELL.            Montoya 7-21V: WELL
FLD.           Purgatorie River: FIELD
LOC.           738' FSL & 2070' FWL: LOCATION
CNTY.               Las Animas: COUNTY
SRVC.                         : SERVICE COMPANY
DATE.          Fri Aug 20 07:13:07 2004: LOG DATE
UWI.           05 071 08018 00: UNIQUE WELL ID
STAT.                 Colorado: STATE
~Curve Information Block
DEPT.FT            0 000 00 00: Depth
SP.mV                         : DIL Spontaneous Potential
RILD.Ohm-m                    : DIL Deep Resistivity
RILM.Ohm-m                    : DIL Medium Resistivity
RLL3.Ohm-m                    : DIL Shallow Resistivity
GR.GAPI                       : Gamma Ray
~Parameter Information Block
~A  Depth        SP         RILD        RILM        RLL3         GR     
# ...
  1318.7500    -29.0998      8.4972      9.8183     12.6559    144.6457
  1319.0000    -28.9067      8.5384      9.8708     13.0054    148.6936
  1319.2500    -28.7100      8.6021      9.9260     13.1163    152.2458
  1319.5000    -28.5257      8.6933      9.9905     12.9796    157.1367
  1319.7500    -28.3698      8.8141     10.0733     12.6685    158.7394
  1320.0000    -28.2531      8.9635     10.1846     12.3103    157.0590
  1320.2500    -28.1787      9.1383     10.3342     12.0395    153.6070
  1320.5000    -28.1436      9.3337     10.5311     11.9591    147.3830
  1320.7500    -28.1398      9.5441     10.7832     12.1245    143.8069
  1321.0000    -28.1582      9.7652     11.0968     12.5456    139.7682
  1321.2500    -28.1920      9.9960     11.4781     13.1950    137.5564
  1321.5000    -28.2376     10.2414     11.9332     14.0241    134.4807
  1321.7500    -28.2955     10.5131     12.4696     14.9900    132.7039
  1322.0000    -28.3683     10.8281     13.0963     16.0945    130.9032
  1322.2500    -28.4585     11.2058     13.8248     17.4167    130.4709
  1322.5000    -28.5671     11.6637     14.6693     19.1157    130.9320
  1322.7500    -28.6922     12.2135     15.6465     21.3795    131.5358
  1323.0000    -28.8301     12.8589     16.7750     24.3286    131.3783
  1323.2500    -28.9755     13.5940     18.0740     27.9274    129.7020
  1323.5000    -29.1224     14.4039     19.5615     31.9842    124.5987
  1323.7500    -29.2653     15.2662     21.2506     36.2723    120.3000
  1324.0000    -29.3960     16.1552     23.1464     40.6847    114.6575
  1324.2500    -29.5026     17.0459     25.2399     45.2543    112.1666
  1324.5000    -29.5677     17.9190     27.5036     49.9624    109.7342
  1324.7500    -29.5666     18.7638     29.8888     54.4707    108.0171
  1325.0000    -29.4701     19.5793     32.3271     58.0480    104.4178
  1325.2500    -29.2508     20.3730     34.7397     59.8384    101.7185
  1325.5000    -28.8943     21.1562     37.0520     59.3457     98.5267
  1325.7500    -28.4124     21.9400     39.2109     56.8179     97.4412
  1326.0000    -27.8514     22.7310     41.1957     53.2862     97.4185
  1326.2500    -27.2905     23.5304     43.0173     50.2228     98.2040
  1326.5000    -26.8234     24.3349     44.7070     48.9791     99.5177
  1326.7500    -26.5283     25.1394     46.2994     50.2491     99.4878
  1327.0000    -26.4378     25.9407     47.8168     53.7978     96.5172
  1327.2500    -26.5242     26.7379     49.2613     58.5912     92.3520
  1327.5000    -26.7108     27.5321     50.6177     63.2696     83.9704
  1327.7500    -26.9062     28.3217     51.8624     66.7116     78.2623
  1328.0000    -27.0465     29.0984     52.9788     68.3974     71.7442
  1328.2500    -27.1212     29.8447     53.9681     68.4299     69.4230
  1328.5000    -27.1727     30.5381     54.8557     67.3012     68.6813
  1328.7500    -27.2690     31.1610     55.6856     65.6057     69.3717
  1329.0000    -27.4659     31.7154     56.5112     63.8531     71.0569
  1329.2500    -27.7803     32.2288     57.3809     62.4127     72.1069
  1329.5000    -28.1852     32.7478     58.3275     61.5384     73.2569
  1329.7500    -28.6246     33.3192     59.3602     61.4088     74.0680
  1330.0000    -29.0390     33.9718     60.4653     62.1431     76.4616
  1330.2500    -29.3854     34.7063     61.6091     63.7757     79.1924
  1330.5000    -29.6461     35.4962     62.7441     66.2016     84.1890
  1330.7500    -29.8256     36.2919     63.8169     69.1336     86.9737
  1331.0000    -29.9396     37.0267     64.7736     72.1279     88.3498
  1331.2500    -30.0073     37.6288     65.5669     74.6926     86.8827
  1331.5000    -30.0429     38.0426     66.1560     76.4213     81.7987
  1331.7500    -30.0543     38.2542     66.5078     77.0733     77.5294
  1332.0000    -30.0447     38.3058     66.5932     76.5787     71.6561
  1332.2500    -30.0146     38.2821     66.3822     75.0121     68.8601
  1332.5000    -29.9645     38.2777     65.8443     72.5830     66.9475
  1332.7500    -29.8960     38.3600     64.9481     69.6316     67.0619
  1333.0000    -29.8129     38.5454     63.6714     66.5797     68.2710
  1333.2500    -29.7198     38.7949     62.0172     63.8084     69.0452
  1333.5000    -29.6213     39.0316     60.0255     61.5019     69.7435
  1333.7500    -29.5209     39.1787     57.7772     59.5455     70.3142
  1334.0000    -29.4211     39.1962     55.3840     57.5693     72.5302
  1334.2500    -29.3228     39.0953     52.9695     55.1534     75.4067
  1334.5000    -29.2253     38.9186     50.6478     52.0991     81.8540
  1334.7500    -29.1261     38.7005     48.5062     48.5978     87.2374
  1335.0000    -29.0216     38.4404     46.5991     45.1748     96.3344
  1335.2500    -28.9072     38.1038     44.9470     42.4356    102.7917
  1335.5000    -28.7781     37.6516     43.5431     40.7773    112.0787
  1335.7500    -28.6308     37.0755     42.3595     40.2424    116.9379
  1336.0000    -28.4635     36.4181     41.3564     40.5886    120.5172
  1336.2500    -28.2779     35.7656     40.4898     41.4895    120.2381
  1336.5000    -28.0791     35.2201     39.7191     42.6904    117.0031
  1336.7500    -27.8757     34.8687     39.0145     43.9919    113.9315
  1337.0000    -27.6791     34.7627     38.3607     45.1216    109.1545
  1337.2500    -27.5021     34.9111     37.7598     45.6856    106.4104
  1337.5000    -27.3575     35.2880     37.2292     45.3241    104.3709
  1337.7500    -27.2570     35.8472     36.7977     43.9643    105.3959
  1338.0000    -27.2089     36.5375     36.4993     41.9488    110.9662
  1338.2500    -27.2177     37.3093     36.3658     39.9259    116.1361
  1338.5000    -27.2821     38.1129     36.4214     38.5998    122.1734
  1338.7500    -27.3947     38.8921     36.6787     38.5130    123.1382
  1339.0000    -27.5414     39.5868     37.1358     39.9359    119.2998
  1339.2500    -27.7040     40.1486     37.7768     42.8294    114.1876
  1339.5000    -27.8629     40.5637     38.5735     46.8441    105.0226
  1339.7500    -28.0025     40.8696     39.4895     51.3797     98.9496
  1340.0000    -28.1150     41.1531     40.4864     55.7375     90.8752
  1340.2500    -28.2016     41.5323     41.5300     59.3336     86.5257
  1340.5000    -28.2712     42.1298     42.5941     61.8706     82.0518
  1340.7500    -28.3352     43.0507     43.6633     63.3815     80.5868
  1341.0000    -28.4019     44.3639     44.7304     64.1376     80.2070
  1341.2500    -28.4742     46.0869     45.7928     64.4912     80.4461
  1341.5000    -28.5489     48.1663     46.8463     64.7388     80.3710
  1341.7500    -28.6200     50.4592     47.8810     65.0495     79.9515
  1342.0000    -28.6826     52.7302     48.8784     65.4564     79.7271
  1342.2500    -28.7342     54.6923     49.8121     65.8861     80.4684
  1342.5000    -28.7749     56.0966     50.6526     66.2052     82.9603
  1342.7500    -28.8050     56.8353     51.3718     66.2798     84.8695
  1343.0000    -28.8228     56.9707     51.9489     66.0397     86.6205
  1343.2500    -28.8239     56.6660     52.3729     65.5295     86.5938
  1343.5000    -28.8010     56.0751     52.6407     64.9116     85.0064
  1343.7500    -28.7465     55.2730     52.7553     64.4014     83.2838
  1344.0000    -28.6553     54.2587     52.7217     64.1510     80.0207
  1344.2500    -28.5269     53.0083     52.5473     64.1457     77.4192
  1344.5000    -28.3673     51.5355     52.2433     64.1847     73.1648
  1344.7500    -28.1886     49.9220     51.8270     63.9722     70.5129
  1345.0000    -28.0075     48.3074     51.3233     63.2643     67.7285
  1345.2500    -27.8418     46.8489     50.7627     61.9775     67.1396
  1345.5000    -27.7060     45.6748     50.1767     60.2032     68.4857
  1345.7500    -27.6095     44.8476     49.5940     58.1440     70.5685
  1346.0000    -27.5535     44.3489     49.0365     56.0286     74.1679
  1346.2500    -27.5310     44.0886     48.5205     54.0511     76.1009
  1346.5000    -27.5279     43.9340     48.0587     52.3430     77.7082
