~Version Information
VERS.                      2.0: CWLS Log ASCII Standard - VERSION 2.0
WRAP.                       NO: One line per depth step
~Well Information Block
STRT.FT               665.0000: 
STOP.FT              1972.0000: 
STEP.FT                 0.2500: 
NULL.                -999.2500: 
COMP.          Petrogulf Corporation: COMPANY
WELL.          Great Plains 22-21V: WELL
FLD.           Purgatorie River: FIELD
LOC.           63' FNL & 1895' FWL: LOCATION
PROV.                 Colorado: PROVINCE
CNTY.               Las Animas: COUNTRY
SRVC.                Patterson: SERVICE COMPANY
DATE.          Thu Sep 01 07:36:33 2005: LOG DATE
UWI.                          : UNIQUE WELL ID
~Curve Information Block
DEPT.FT            0 000 00 00: Depth
SP.mV                         : DIL Spontaneous Potential
RILD.Ohm-m                    : DIL Deep Resistivity
RILM.Ohm-m                    : DIL Medium Resistivity
RLL3.Ohm-m                    : DIL Shallow Resistivity
GR.GAPI                       : Gamma Ray
~Parameter Information Block
~A  Depth        SP         RILD        RILM        RLL3         GR     
# ...
  1365.0000    168.0131     19.8195     34.2256     65.9643     72.3687
  1365.2500    169.1277     20.0326     37.5123     64.2439     76.4634
  1365.5000    170.4427     18.5408     36.0605     65.9340     83.5680
  1365.7500    171.7433     17.8263     32.9783     69.7887     91.3821
  1366.0000    172.8197     16.9724     28.7785     64.8365     79.4708
  1366.2500    174.3994     15.6688     23.8597     48.6757     85.9260
  1366.5000    176.1359     14.8259     19.8042     29.8938    121.6492
  1366.7500    177.6575     14.3695     17.3428     19.6548    126.3140
  1367.0000    179.0602     13.5074     14.9507     14.6955    138.9439
  1367.2500    180.3004     12.5004     13.2167     11.6641    158.8696
  1367.5000    181.3159     11.7642     12.6765      9.8800    191.6170
  1367.7500    182.2820     10.9260     11.7203      9.7733    171.5403
  1368.0000    183.1227     10.0417     11.1565     11.5075    149.8875
  1368.2500    183.6868      9.3154     10.3258     13.5473    148.4022
  1368.5000    184.2963      8.5943      9.5818     12.8456    159.8788
  1368.7500    184.7142      8.1052      8.8554     10.7069    138.8760
  1369.0000    184.4923      7.7824      8.0516      9.3203    162.2540
  1369.2500    183.7914      7.4497      7.5709      8.7109    204.0967
  1369.5000    183.6645      7.1856      7.1000      7.9703    170.9860
  1369.7500    183.9205      6.8552      6.7898      7.7307    163.5719
  1370.0000    184.2843      6.7466      6.6733      7.7103    181.4839
  1370.2500    184.6763      6.5793      6.5873      7.6852    198.1676
  1370.5000    185.1630      6.3828      6.4387      7.5597    178.1952
  1370.7500    185.5841      6.2669      6.3876      8.0415    171.8640
  1371.0000    186.0648      6.0799      6.3057      8.5583    177.4517
  1371.2500    186.7016      5.9016      6.1185      8.6479    164.6311
  1371.5000    187.1952      5.8222      5.9735      8.2879    172.7087
  1371.7500    187.6588      5.7984      5.8088      7.9669    195.8627
  1372.0000    187.6873      5.7663      5.7089      7.7594    177.9747
  1372.2500    187.3591      5.7245      5.6499      7.2475    159.9309
  1372.5000    186.8910      5.6884      5.6255      6.8654    165.6308
  1372.7500    186.6712      5.6507      5.5502      7.2323    184.0306
  1373.0000    186.3964      5.5932      5.5460      7.6123    164.8453
  1373.2500    185.9853      5.5141      5.5719      7.5903    164.6227
  1373.5000    185.2047      5.4913      5.6111      7.3522    175.3807
  1373.7500    184.1925      5.5317      5.5703      7.2930    199.4092
  1374.0000    183.7218      5.5282      5.5206      7.6731    187.9557
  1374.2500    182.9499      5.5372      5.5685      8.1174    185.7064
  1374.5000    182.2487      5.5444      5.5333      8.0481    188.8574
  1374.7500    181.1822      5.5919      5.5323      7.6459    212.5415
  1375.0000    179.1387      5.7636      5.5535      7.4165    193.2190
  1375.2500    178.0120      5.9054      5.6383      7.1981    177.3966
  1375.5000    177.2592      6.0371      5.7229      7.3036    172.8404
  1375.7500    176.8383      6.2070      5.9117      6.9870    174.3997
  1376.0000    176.7162      6.3447      6.1015      7.2358    141.9636
  1376.2500    176.8812      6.3795      6.5078      7.9306    155.2422
  1376.5000    177.2902      6.4563      6.9324      9.1521    142.9697
  1376.7500    177.9506      6.4678      7.3634     12.7431    122.9103
  1377.0000    178.8654      6.4907      7.7361     19.2937    118.0755
  1377.2500    179.4136      6.5286      7.7691     21.0576    120.0879
  1377.5000    180.1005      6.5354      7.5929     15.1169    121.5307
  1377.7500    180.5251      6.5441      7.3906     11.6325    128.1572
  1378.0000    180.5169      6.7365      7.2186      9.7292    134.8757
  1378.2500    180.3204      6.8143      7.1273      8.9086    139.3259
  1378.5000    179.4961      6.9524      7.1325      8.4264    148.3985
  1378.7500    178.7869      7.0988      7.0328      8.6886    157.2412
  1379.0000    178.3798      7.1594      7.0323      8.8895    161.4660
  1379.2500    177.9523      7.1211      7.0128      8.6935    185.3057
  1379.5000    177.5052      7.0387      7.0291      8.4231    176.4767
  1379.7500    177.0871      6.9303      6.9939      8.5096    170.3629
  1380.0000    176.7789      7.0074      7.0264      8.6697    155.3799
  1380.2500    176.6457      7.0249      6.9897      9.2611    157.3355
  1380.5000    176.5955      7.0182      7.0575      9.7680    165.5162
  1380.7500    176.4520      7.0006      7.1396      9.7240    148.4143
  1381.0000    176.1001      7.2318      7.2481      9.5311    128.7825
  1381.2500    175.9301      7.3656      7.4083      9.7734    137.7302
  1381.5000    175.6033      7.4964      7.6797      9.6732    137.5851
  1381.7500    175.0822      7.6803      7.9865     10.1090    122.2939
  1382.0000    174.6364      7.9262      8.2581     11.1299    115.8483
  1382.2500    174.1386      8.1620      8.6090     11.6411    110.2082
  1382.5000    173.6472      8.2619      8.8182     12.0690    107.6584
  1382.7500    172.9190      8.4694      9.1672     12.2344    122.5935
  1383.0000    171.5511      8.5439      9.3606     12.6226    110.2887
  1383.2500    169.9276      8.4290      9.5664     13.1925     99.1772
  1383.5000    168.9732      8.4403      9.7633     12.6787    112.6389
  1383.7500    168.0482      8.5010      9.5334     11.7847    127.0319
  1384.0000    167.1315      8.5365      9.4180     11.5490    149.3533
  1384.2500    166.3935      8.3481      9.3167     11.1717    144.6122
  1384.5000    166.0963      8.1151      9.3204     11.1988    134.0917
  1384.7500    166.0592      7.8622      8.9504     11.4912    123.2175
  1385.0000    166.1959      7.7230      8.6360     11.4318    156.3964
  1385.2500    166.4441      7.5446      8.2734     11.2004    148.8577
  1385.5000    166.9153      7.5022      7.8078     10.8337    143.6395
  1385.7500    167.5950      7.4121      7.2143     10.0215    144.5562
  1386.0000    168.1676      7.3853      6.9086      8.4807    150.7218
  1386.2500    168.5420      7.3066      6.7928      7.4366    159.2977
  1386.5000    169.2491      7.3102      6.7435      7.6143    161.0116
  1386.7500    169.3884      7.2544      6.8379      8.2930    147.2259
  1387.0000    169.3630      7.1933      7.0287      9.0633    159.0544
  1387.2500    170.4992      7.1035      7.2484      9.2650    157.6566
  1387.5000    171.8819      7.0680      7.4440      8.8850    142.2805
  1387.7500    173.4309      6.9466      7.5919     10.5883    133.3239
  1388.0000    175.1452      6.9883      7.5742     16.7642    130.9839
  1388.2500    176.9707      7.0533      7.5869     25.0963    126.8647
  1388.5000    178.5651      7.2433      7.4340     19.0733    151.1528
  1388.7500    179.9556      7.4271      7.1755     11.1728    168.0370
  1389.0000    180.9212      7.6466      7.0895      8.7269    155.1624
  1389.2500    181.1487      7.8547      7.1950      8.8733    173.8058
  1389.5000    181.1040      8.2385      7.4729      9.1800    164.3952
  1389.7500    181.2104      8.5908      7.7954      9.8994    169.3605
  1390.0000    181.3486      8.9531      8.1315     10.9848    154.5211
  1390.2500    181.6998      9.2237      8.6533     11.2195    137.2256
  1390.5000    182.0012      9.3384      9.3449     12.0750    117.7794
  1390.7500    182.4591      9.3393      9.9948     15.4243    108.3784
  1391.0000    182.8383      9.4272     10.5692     18.1847    133.6718
  1391.2500    183.0681      9.7554     11.0761     18.9860    148.0956
  1391.5000    183.1721      9.8935     11.3871     19.9981    134.6429
  1391.7500    183.0181     10.3436     11.5896     20.6933    130.2664
  1392.0000    181.7653     10.6908     11.9737     19.0239    124.2412
  1392.2500    180.7794     10.9684     12.4636     16.6317    130.0125
  1392.5000    180.1802     11.3859     13.1537     15.9302    124.6060
  1392.7500    179.7701     11.4208     13.6789     17.1047    107.1612
