~Version Information
VERS.                      2.0: CWLS Log ASCII Standard - VERSION 2.0
WRAP.                       NO: One line per depth step
~Well Information Block
STRT.FT                -4.5000: 
STOP.FT              1680.2500: 
STEP.FT                 0.2500: 
NULL.                -999.2500: 
COMP.          Pioneer Natural Resources: COMPANY
WELL.            Salty 42-6 Tr: WELL
FLD.           Purgatorie River: FIELD
LOC.           2409' FNL & 599' FEL--: LOCATION
PROV.                       CO: PROVINCE
CNTY.               Las Animas: COUNTRY
SRVC.                         : SERVICE COMPANY
DATE.          Mon Dec 20 13:36:48 2004: LOG DATE
UWI.           071-08238      : UNIQUE WELL ID
~Curve Information Block
DEPT.FT            0 000 00 00: Depth
HVOLTA.V                      : Head Voltage Apparent
GR.GAPI                       : Gamma Ray
CCL.                          : Casing Collar Locator
TT3.usec                      : CBL 3' Travel Time
AMP3.mV                       : CBL 3' Amplitude
~Parameter Information Block
~A  Depth      HVOLTA        GR         CCL         TT3         AMP3    
# ...
  1087.5000     97.3435    157.4836      0.0000    728.9914      6.8818
  1087.7500     97.2372    152.4310      0.0000    732.1169      6.9048
  1088.0000     97.1142    147.5488      0.0000    734.2165      6.9069
  1088.2500     97.3603    146.5234      0.0000    735.7827      6.8716
  1088.5000     97.2982    150.2184      0.0000    737.7000      6.8060
  1088.7500     97.2480    156.5876      0.0000    740.6223      6.7529
  1089.0000     97.1142    162.5814      0.0000    744.4466      6.7674
  1089.2500     97.0903    165.8912      0.0000    748.3260      6.8685
  1089.5000     97.1213    165.5289      0.0000    751.3326      7.0111
  1089.7500     97.0963    161.7225      0.0000    753.1060      7.1108
  1090.0000     97.1452    155.6120      0.0000    753.8351      7.1091
  1090.2500     97.3424    148.7744      0.0000    753.7490      7.0168
  1090.5000     97.2850    142.7356      0.0000    752.6773      6.8960
  1090.7500     97.1691    138.7874      0.0000    749.9750      6.8057
  1091.0000     97.3974    137.7376      0.0000    744.9689      6.7664
  1091.2500     97.2815    139.3530      0.0000    737.7966      6.7597
  1091.5000     97.2265    142.2639      0.0000    729.9569      6.7497
  1091.7500     97.1895    144.6986      0.0000    723.8095      6.7061
  1092.0000     97.1071    145.1771      0.0000    721.2794      6.6252
  1092.2500     97.3424    142.8406      0.0000    722.7341      6.5353
  1092.5000     97.1584    137.9295      0.0000    726.6619      6.4838
  1092.7500     97.2540    131.8946      0.0000    730.4304      6.5112
  1093.0000     97.4284    126.4401      0.0000    732.0059      6.6278
  1093.2500     97.3364    122.5619      0.0000    731.2975      6.8108
  1093.5000     97.1955    120.7640      0.0000    729.6548      7.0202
  1093.7500     97.3196    121.5227      0.0000    728.2543      7.2190
  1094.0000     97.3567    124.7467      0.0000    727.3060      7.3803
  1094.2500     97.1142    129.2522      0.0000    726.3286      7.4853
  1094.5000     97.1524    133.6595      0.0000    724.6198      7.5247
  1094.7500     97.1310    137.4632      0.0000    721.8149      7.5088
  1095.0000     97.5144    140.5739      0.0000    718.3662      7.4680
  1095.2500     97.2743    142.3713      0.0000    715.2638      7.4349
  1095.5000     97.1727    142.0853      0.0000    713.2108      7.4193
  1095.7500     97.2480    140.1277      0.0000    712.2357      7.4051
  1096.0000     97.0593    138.6783      0.0000    711.9709      7.3748
  1096.2500     97.4487    140.5334      0.0000    712.0443      7.3387
  1096.5000     97.2133    146.6211      0.0000    712.2293      7.3319
  1096.7500     97.3221    154.4245      0.0000    712.4291      7.3789
  1097.0000     97.3293    159.5997      0.0000    712.6270      7.4670
  1097.2500     97.0867    159.6976      0.0000    712.8788      7.5548
  1097.5000     97.2850    156.2415      0.0000    713.3798      7.6029
  1097.7500     97.0832    153.1037      0.0000    714.5615      7.5983
  1098.0000     97.0832    152.9167      0.0000    717.0586      7.5604
  1098.2500     97.2708    154.9619      0.0000    721.2603      7.5170
  1098.5000     97.3496    156.4152      0.0000    726.5831      7.4707
  1098.7500     97.5108    155.3626      0.0000    731.3076      7.3969
  1099.0000     97.2230    152.3718      0.0000    733.5570      7.2800
  1099.2500     97.4523    149.4569      0.0000    732.5714      7.1359
  1099.5000     97.0628    147.9821      0.0000    729.0007      6.9968
  1099.7500     97.2779    147.6308      0.0000    724.2612      6.8867
  1100.0000     97.3054    147.3560      0.0000    719.7905      6.8161
  1100.2500     97.3735    146.9847      0.0000    716.4784      6.7923
  1100.5000     97.4798    147.1461      0.0000    714.3417      6.8254
  1100.7500     97.2301    147.5893      0.0000    712.6628      6.9193
  1101.0000     97.2804    146.5758      0.0000    710.6055      7.0585
  1101.2500     97.2875    142.6308      0.0000    708.0020      7.2049
  1101.5000     97.1477    136.3967      0.0000    705.7828      7.3120
  1101.7500     97.0892    130.2088      0.0000    705.5117      7.3365
  1102.0000     97.0593    126.2306      0.0000    708.1301      7.2389
  1102.2500     97.1035    125.1694      0.0000    713.0159      7.0000
  1102.5000     97.3567    126.1381      0.0000    718.3464      6.6638
  1102.7500     97.2230    127.3672      0.0000    722.5127      6.3548
  1103.0000     97.3878    127.4319      0.0000    725.4352      6.2112
  1103.2500     97.2098    126.0173      0.0000    728.5100      6.2948
  1103.5000     97.0832    123.3796      0.0000    732.9966      6.5769
  1103.7500     97.1798    119.4077      0.0000    738.4336      6.9891
  1104.0000     97.2672    113.9148      0.0000    742.9371      7.4573
  1104.2500     97.1406    107.8488      0.0000    745.1199      7.9066
  1104.5000     97.3389    103.5057     -2.0000    745.5052      8.2742
  1104.7500     97.3902    103.0140     -2.0000    745.8835      8.5318
  1105.0000     97.2397    106.5050      0.0000    747.2862      8.7029
  1105.2500     97.2600    111.9498      0.0000    748.6865      8.8676
  1105.5000     97.2133    116.9360      0.0000    747.5612      9.1298
  1105.7500     97.3196    120.4251      0.0000    741.6538      9.5365
  1106.0000     97.2026    122.7023      0.0000    730.6235     10.0222
  1106.2500     97.0974    123.9948      0.0000    716.5005     10.4629
  1106.5000     97.3531    123.6644      0.0000    702.5342     10.7750
  1106.7500     97.3054    120.9603      0.0000    691.6465     10.9408
  1107.0000     97.2504    116.5711      0.0000    685.9601     10.9723
  1107.2500     97.3496    113.1586      0.0000    686.5628     10.8934
  1107.5000     97.1310    113.7532      0.0000    692.4676     10.7398
  1107.7500     97.1142    118.9137      0.0000    700.4799     10.5433
  1108.0000     97.2301    125.3135      0.0000    707.2523     10.3129
  1108.2500     97.0939    127.7223      0.0000    711.3508     10.0418
  1108.5000     97.3927    123.1628      0.0000    713.2039      9.7317
  1108.7500     96.3581    113.2392      0.0000    713.7854      9.4111
  1109.0000     97.2493    102.2808      0.0000    713.7543      9.1295
  1109.2500     97.3542     93.8029      0.0000    713.4130      8.9291
  1109.5000     97.3293     89.1451      0.0000    712.9247      8.8133
  1109.7500     97.3770     88.3274      0.0000    712.4492      8.7390
  1110.0000     97.4559     90.6167      0.0000    712.1297      8.6447
  1110.2500     97.2779     94.1847      0.0000    712.0291      8.4944
  1110.5000     97.3196     96.5492      0.0000    712.1058      8.2970
  1110.7500     97.4452     96.3530      0.0000    712.2656      8.0891
  1111.0000     97.3100     94.6175      0.0000    712.4497      7.9022
  1111.2500     97.3185     93.8484      0.0000    712.7012      7.7436
  1111.5000     97.3221     96.0064      0.0000    713.1830      7.6032
  1111.7500     97.2230    101.1557      0.0000    714.1913      7.4699
  1112.0000     97.3902    107.3169      0.0000    716.1192      7.3405
  1112.2500     97.2444    111.4296      0.0000    719.2739      7.2187
  1112.5000     97.1609    111.3025      0.0000    723.6313      7.1135
  1112.7500     97.3029    107.2708      0.0000    728.8129      7.0371
  1113.0000     97.2062    101.7628      0.0000    734.2697      7.0016
  1113.2500     97.2647     97.0567      0.0000    739.2975      7.0055
  1113.5000     97.4117     93.6308      0.0000    742.8658      7.0231
  1113.7500     97.1823     90.6294      0.0000    743.7485      7.0158
  1114.0000     97.4869     87.4873      0.0000    741.1511      6.9655
  1114.2500     97.2337     84.8337      0.0000    735.4232      6.8906
  1114.5000     97.1417     83.9179      0.0000    728.2277      6.8232
  1114.7500     97.0974     85.2544      0.0000    721.8491      6.7727
  1115.0000     97.0939     87.7807      0.0000    718.1625      6.7259
  1115.2500     97.2312     89.3862      0.0000    718.1306      6.6789
