~Version Information
VERS.                      2.0: CWLS Log ASCII Standard - VERSION 2.0
WRAP.                       NO: One line per depth step
~Well Information Block
STRT.FT               450.0000: 
STOP.FT              1739.2500: 
STEP.FT                 0.2500: 
NULL.                -999.2500: 
COMP.          Pioneer Natural Resources: COMPANY
WELL.            Harlee L 34-9: WELL
FLD.           Purgatoire River: FIELD
LOC.           600' FSL & 2125' FEL: LOCATION
PROV.                 Colorado: PROVINCE
CNTY.               Las Animas: COUNTRY
SRVC.                Patterson: SERVICE COMPANY
DATE.          Wed Jan 26 02:00:08 2005: LOG DATE
UWI.           05 071 08009 00: UNIQUE WELL ID
~Curve Information Block
DEPT.FT            0 000 00 00: Depth
SN.Ohm-m                      : IEL Short Normal
SP.mV                         : IEL Spontaneous Potential
DIR.Ohm-m                     : IEL Induction Resistivity
GR.GAPI                       : Gamma Ray
~Parameter Information Block
~A  Depth        SN          SP         DIR          GR     
# ...
  1522.0000     13.1243    -79.6642     11.6830    114.2518
  1522.2500     12.9039    -79.1366     11.5842    113.8219
  1522.5000     12.7604    -78.6355     11.4792    112.7076
  1522.7500     12.7416    -78.1905     11.3834    111.7796
  1523.0000     12.8604    -77.8191     11.3108    111.0834
  1523.2500     13.0949    -77.5316     11.2730    111.7227
  1523.5000     13.4070    -77.3346     11.2801    114.2900
  1523.7500     13.7612    -77.2353     11.3403    116.1653
  1524.0000     14.1332    -77.2479     11.4576    116.9180
  1524.2500     14.5143    -77.4003     11.6288    114.9010
  1524.5000     14.9165    -77.7371     11.8455    107.7719
  1524.7500     15.3725    -78.3142     12.1023    101.5240
  1525.0000     15.9275    -79.1878     12.4054     93.4763
  1525.2500     16.6223    -80.4006     12.7747     90.4042
  1525.5000     17.4718    -81.9737     13.2366     88.6236
  1525.7500     18.4481    -83.9042     13.8112     87.6551
  1526.0000     19.4799    -86.1643     14.5019     83.8472
  1526.2500     20.4737    -88.6957     15.2896     79.2480
  1526.5000     21.3484    -91.3953     16.1322     70.4173
  1526.7500     22.0652    -94.1003     16.9684     64.5069
  1527.0000     22.6248    -96.5842     17.7235     57.4481
  1527.2500     23.0222    -98.5777     18.3173     54.3907
  1527.5000     23.1970    -99.8152     18.6733     51.9740
  1527.7500     23.0441   -100.0963     18.7314     51.4107
  1528.0000     22.4890    -99.3393     18.4663     51.9303
  1528.2500     21.5498    -97.6070     17.9010     53.4259
  1528.5000     20.3269    -95.0947     17.1052     57.7333
  1528.7500     18.9460    -92.0864     16.1723     61.7974
  1529.0000     17.5136    -88.8954     15.1899     68.8686
  1529.2500     16.1049    -85.8074     14.2209     73.7473
  1529.5000     14.7748    -83.0403     13.3014     80.5667
  1529.7500     13.5699    -80.7259     12.4495     84.3452
  1530.0000     12.5315    -78.9114     11.6743     88.5940
  1530.2500     11.6873    -77.5743     10.9824     90.9167
  1530.5000     11.0407    -76.6433     10.3803     94.7091
  1530.7500     10.5714    -76.0215      9.8747     97.4533
  1531.0000     10.2463    -75.6067      9.4704    100.6912
  1531.2500     10.0329    -75.3082      9.1657    101.6161
  1531.5000      9.9056    -75.0571      8.9505    101.1338
  1531.7500      9.8412    -74.8101      8.8066    100.0188
  1532.0000      9.8121    -74.5473      8.7112     98.0381
  1532.2500      9.7854    -74.2674      8.6428     96.8991
  1532.5000      9.7332    -73.9826      8.5850     95.8393
  1532.7500      9.6470    -73.7133      8.5271     95.6563
  1533.0000      9.5393    -73.4838      8.4625     96.0780
  1533.2500      9.4309    -73.3151      8.3877     96.4825
  1533.5000      9.3348    -73.2171      8.3014     96.2924
  1533.7500      9.2539    -73.1818      8.2063     95.3392
  1534.0000      9.1870    -73.1816      8.1091     93.3747
  1534.2500      9.1318    -73.1752      8.0179     92.5073
  1534.5000      9.0806    -73.1191      7.9395     92.5874
  1534.7500      9.0185    -72.9818      7.8765     93.3349
  1535.0000      8.9307    -72.7530      7.8278     94.7611
  1535.2500      8.8094    -72.4446      7.7897     95.8421
  1535.5000      8.6531    -72.0849      7.7586     98.2409
  1535.7500      8.4653    -71.7070      7.7317    100.6281
  1536.0000      8.2618    -71.3400      7.7068    104.9935
  1536.2500      8.0794    -71.0034      7.6829    107.7705
  1536.5000      7.9652    -70.7069      7.6600    110.3927
  1536.7500      7.9448    -70.4534      7.6389    110.4974
  1537.0000      8.0019    -70.2429      7.6202    108.1511
  1537.2500      8.0949    -70.0775      7.6043    105.6903
  1537.5000      8.1899    -69.9653      7.5922    102.4550
  1537.7500      8.2764    -69.9251      7.5872    101.1304
  1538.0000      8.3616    -69.9892      7.5963    100.0411
  1538.2500      8.4583    -70.2043      7.6288     99.5439
  1538.5000      8.5774    -70.6267      7.6950     99.1691
  1538.7500      8.7251    -71.3121      7.8040     99.3562
  1539.0000      8.9022    -72.2987      7.9634     99.9240
  1539.2500      9.1081    -73.5886      8.1788     99.8445
  1539.5000      9.3481    -75.1337      8.4530     98.1426
  1539.7500      9.6401    -76.8321      8.7846     95.9211
  1540.0000     10.0159    -78.5410      9.1653     91.3170
  1540.2500     10.5216    -80.1046      9.5811     87.4626
  1540.5000     11.2179    -81.3897     10.0161     80.5658
  1540.7500     12.1716    -82.3195     10.4598     75.7394
  1541.0000     13.4230    -82.8929     10.9129     70.0775
  1541.2500     14.9377    -83.1819     11.3878     68.3871
  1541.5000     16.5791    -83.3087     11.9016     69.1147
  1541.7500     18.1462    -83.4075     12.4636     70.8779
  1542.0000     19.4630    -83.5853     13.0616     73.4462
  1542.2500     20.4555    -83.8937     13.6558     74.2543
  1542.5000     21.1576    -84.3192     14.1841     73.5048
  1542.7500     21.6608    -84.7934     14.5849     71.8789
  1543.0000     22.0571    -85.2198     14.8286     68.8875
  1543.2500     22.4135    -85.5069     14.9383     67.2985
  1543.5000     22.7712    -85.5950     14.9811     66.1463
  1543.7500     23.1492    -85.4710     15.0362     66.1123
  1544.0000     23.5437    -85.1683     15.1635     67.1099
  1544.2500     23.9273    -84.7593     15.3889     68.7709
  1544.5000     24.2543    -84.3481     15.7047     72.9861
  1544.7500     24.4807    -84.0662     16.0798     76.2400
  1545.0000     24.5975    -84.0664     16.4770     79.2896
  1545.2500     24.6700    -84.5080     16.8751     78.9178
  1545.5000     24.8561    -85.5308     17.2838     74.9239
  1545.7500     25.3827    -87.2258     17.7446     71.1554
  1546.0000     26.4803    -89.6115     18.3162     65.7965
  1546.2500     28.2885    -92.6239     19.0583     62.8097
  1546.5000     30.7627    -96.1167     20.0143     59.0210
  1546.7500     33.6410    -99.8680     21.1963     56.8998
  1547.0000     36.5284   -103.5940     22.5717     54.4233
  1547.2500     39.0647   -106.9722     24.0548     53.0491
  1547.5000     41.0340   -109.6834     25.4973     50.5793
  1547.7500     42.3287   -111.4643     26.6763     48.4816
  1548.0000     42.8585   -112.1570     27.3176     45.7164
  1548.2500     42.5438   -111.7327     27.2036     45.2099
  1548.5000     41.3947   -110.2816     26.3245     47.7162
  1548.7500     39.5465   -107.9760     24.9019     51.5847
  1549.0000     37.1919   -105.0287     23.2335     59.9938
  1549.2500     34.4804   -101.6621     21.5299     66.9038
  1549.5000     31.4842    -98.0959     19.8794     78.5394
  1549.7500     28.2497    -94.5415     18.3052     86.5278
  1550.0000     24.8879    -91.1918     16.8270     97.1245
  1550.2500     21.6228    -88.2029     15.4787    102.1925
  1550.5000     18.7378    -85.6732     14.2948    106.3990
  1550.7500     16.4498    -83.6332     13.2931    108.0403
  1551.0000     14.8215    -82.0522     12.4697    111.4768
  1551.2500     13.7694    -80.8595     11.8033    115.0385
  1551.5000     13.1309    -79.9711     11.2626    120.9327
  1551.7500     12.7349    -79.3113     10.8131    124.0373
  1552.0000     12.4490    -78.8230     10.4229    126.7016
  1552.2500     12.1999    -78.4691     10.0685    127.4482
  1552.5000     11.9666    -78.2281      9.7413    127.5006
  1552.7500     11.7596    -78.0890      9.4501    126.8229
  1553.0000     11.5999    -78.0462      9.2167    125.0158
  1553.2500     11.5049    -78.0953      9.0642    123.7949
  1553.5000     11.4812    -78.2270      9.0042    122.4886
  1553.7500     11.5265    -78.4215      9.0288    121.6833
  1554.0000     11.6343    -78.6482      9.1143    119.5543
  1554.2500     11.7958    -78.8710      9.2330    117.1574
  1554.5000     11.9938    -79.0589      9.3673    112.3496
  1554.7500     12.2023    -79.1956      9.5160    108.9757
  1555.0000     12.3959    -79.2824      9.6857    105.2381
  1555.2500     12.5615    -79.3315      9.8775    104.3638
