~Version Information
 VERS.                                  2.0 : CWLS LAS VERSION
 WRAP.                                   NO : WRAPING MODE
 SWARE .                 MController 2.5.0J : SOFTWARE VERSION
~Well Information
 WELL.                          Tonto 42-23 : WELL
 COMP.    Pioneer Natural Resources USA Inc : COMPANY
 FLD.                      Purgatoire River : FIELD
 LOC.                SE/NE Sec 23 T32S R66W : LOCATION
 DATE.                              4/16/05 : DATE(S) LOGGED
 SRVC.       Blanco Geological Services LLC : SERVICE COMPANY
 STAT.                                   CO : STATE
 CNTY.                           Las Animas : COUNTY
 CTRY.                                  USA : COUNTRY
 API.                       05-071-08335-00 : API NUMBER
 STRT.FT                             892.00 : START DEPTH
 STOP.FT                            2270.00 : STOP DEPTH
 STEP.FT                               1.00 : DEPTH INCREMENT
 NULL.                                -9999 : NULL VALUE
~Curve information
 DEPTH.FT                                   :
 ROP.MIN/FT                                 :
 GAS.UNITS                                  :
~ASCII Log data
# ...
      1892.0         0.17         68.1 
      1893.0         0.30         68.4 
      1894.0         0.33         69.8 
      1895.0         0.30         73.6 
      1896.0         0.33         76.1 
      1897.0         0.33         76.7 
      1898.0         0.20         75.7 
      1899.0         0.13         74.5 
      1900.0         0.23         73.6 
      1901.0         0.20         73.6 
      1902.0         0.17         73.3 
      1903.0         0.17         73.3 
      1904.0         0.22         72.9 
      1905.0         0.20         71.3 
      1906.0         0.13         69.1 
      1907.0         0.20         63.8 
      1908.0         0.20         47.8 
      1909.0         0.20         38.6 
      1910.0         0.20         32.2 
      1911.0         0.23         35.6 
      1912.0         0.20         41.8 
      1913.0         0.23         54.2 
      1914.0         0.27         74.7 
      1915.0         0.20         95.5 
      1916.0         1.22        224.2 
      1917.0         0.50        216.4 
      1918.0         0.33        171.8 
      1919.0         0.43        140.7 
      1920.0         0.33        100.5 
      1921.0         0.27         79.2 
      1922.0         0.17         69.4 
      1923.0         0.20         65.0 
      1924.0         0.33         61.4 
      1925.0         0.30         60.5 
      1926.0         0.38         69.4 
      1927.0         0.47         78.9 
      1928.0         0.57         79.0 
      1929.0         0.27         73.0 
      1930.0         0.33         68.3 
      1931.0         0.40         72.2 
      1932.0         0.37         73.8 
      1933.0         0.40         72.9 
      1934.0         0.32         70.6 
      1935.0         0.30         70.0 
      1936.0         0.23         70.8 
      1937.0         0.23         70.6 
      1938.0         0.23         70.1 
      1939.0         0.23         69.7 
      1940.0         0.23         68.1 
      1941.0         0.27         60.8 
      1942.0         0.23         50.9 
      1943.0         0.27         42.8 
      1944.0         0.23         37.9 
      1945.0         0.30         47.0 
      1946.0         4.33        303.7 
      1947.0         0.57         87.9 
      1948.0         0.50         74.4 
      1949.0         0.33         71.9 
      1950.0         0.47         71.9 
      1951.0         0.47         70.8 
      1952.0         0.43         70.6 
      1953.0         0.45         70.4 
      1954.0         0.33         71.4 
      1955.0         0.30         70.9 
      1956.0         0.27         68.2 
      1957.0         0.30         64.9 
      1958.0         0.33         66.5 
      1959.0         0.30         66.6 
      1960.0         0.33         64.9 
      1961.0         0.30         61.1 
      1962.0         0.47         58.9 
      1963.0         0.42         54.8 
      1964.0         0.37         53.0 
      1965.0         0.43         53.1 
      1966.0         0.37         52.7 
      1967.0         0.40         47.1 
      1968.0         0.43         50.4 
      1969.0         0.43         49.2 
      1970.0         0.33         33.9 
      1971.0         0.35         35.2 
      1972.0         0.30         47.5 
      1973.0         0.50         84.6 
      1974.0         0.40        135.0 
      1975.0         0.50        216.8 
      1976.0         1.40        254.9 
      1977.0         0.45        177.6 
      1978.0         0.30        131.3 
      1979.0         0.23        106.8 
      1980.0         0.23         92.8 
      1981.0         0.30         81.0 
      1982.0         0.30         71.7 
      1983.0         0.33         66.0 
      1984.0         0.30         61.9 
      1985.0         0.27         60.6 
      1986.0         0.27         60.1 
      1987.0         0.30         60.3 
      1988.0         0.28         62.2 
      1989.0         0.27         64.0 
      1990.0         0.30         65.1 
      1991.0         0.27         66.3 
      1992.0         0.27         66.4 
      1993.0         0.23         65.9 
      1994.0         0.23         65.0 
      1995.0         0.20         64.2 
      1996.0         0.27         63.2 
      1997.0         0.20         61.8 
      1998.0         0.27         61.9 
      1999.0         0.27         62.4 
      2000.0         0.27         61.7 
      2001.0         0.35         49.6 
      2002.0         0.37         29.8 
      2003.0         0.30         39.5 
      2004.0         0.23         54.3 
      2005.0         0.27         78.9 
      2006.0         3.05        178.1 
      2007.0         0.30         92.8 
      2008.0         0.30         78.3 
      2009.0         0.33         68.3 
      2010.0         0.50         60.7 
      2011.0         0.37         55.3 
      2012.0         0.30         49.9 
      2013.0         0.35         54.9 
      2014.0         0.33         68.1 
      2015.0         0.33         79.3 
      2016.0         0.33        101.6 
      2017.0         0.27        118.2 
      2018.0         0.27        124.1 
      2019.0         0.27        124.0 
      2020.0         0.20        120.5 
      2021.0         0.20        115.7 
      2022.0         0.23        111.6 
      2023.0         0.27        106.4 
      2024.0         0.20         97.6 
      2025.0         0.20         90.6 
      2026.0         0.18         82.7 
      2027.0         0.17         74.0 
      2028.0         0.20         67.8 
      2029.0         0.17         64.0 
      2030.0         0.20         62.8 
      2031.0         0.23         58.6 
      2032.0         0.37         48.5 
      2033.0         0.43         43.7 
      2034.0         0.43         49.1 
      2035.0         0.27         52.0 
      2036.0         2.88        286.1 
      2037.0         0.50        275.1 
      2038.0         0.30        211.2 
      2039.0         0.58        173.7 
      2040.0         0.40        117.9 
      2041.0         0.43         94.3 
      2042.0         0.37         80.1 
      2043.0         0.37         75.3 
      2044.0         0.33         73.6 
      2045.0         0.20         70.8 
      2046.0         0.17         70.2 
      2047.0         0.27         71.1 
      2048.0         0.23         72.5 
      2049.0         0.20         73.9 
      2050.0         0.18         74.2 
      2051.0         0.20         75.0 
      2052.0         0.20         75.5 
      2053.0         0.23         74.6 
      2054.0         0.23         74.1 
      2055.0         0.20         74.2 
      2056.0         0.17         73.8 
      2057.0         0.17         73.7 
      2058.0         0.17         73.3 
      2059.0         0.20         71.7 
      2060.0         0.23         64.6 
      2061.0         0.23         49.8 
      2062.0         0.20         37.9 
      2063.0         0.23         33.3 
      2064.0         0.20         35.3 
      2065.0         0.17         37.6 
      2066.0         4.57        267.7 
      2067.0         0.30         77.8 
      2068.0         0.33         72.9 
      2069.0         0.43         69.2 
      2070.0         0.33         63.4 
      2071.0         0.43         57.8 
      2072.0         0.30         74.7 
      2073.0         0.35         86.4 
      2074.0         0.30         86.7 
      2075.0         0.30         85.4 
      2076.0         0.10         83.7 
      2077.0         0.20         83.1 
      2078.0         0.23         80.2 
      2079.0         0.23         77.8 
      2080.0         0.27         78.7 
      2081.0         0.20         77.8 
      2082.0         0.23         77.4 
      2083.0         0.20         77.0 
      2084.0         0.17         75.2 
      2085.0         0.10         73.4 
      2086.0         0.20         72.4 
      2087.0         0.23         70.2 
      2088.0         0.17         64.0 
      2089.0         0.18         53.2 
      2090.0         0.23         40.4 
      2091.0         0.27         32.5 
