~Version Information
VERS.                      2.0: CWLS Log ASCII Standard - VERSION 2.0
WRAP.                       NO: One line per depth step
~Well Information Block
STRT.FT               238.0000: 
STOP.FT              1377.0000: 
STEP.FT                 0.1000: 
NULL.                -999.2500: 
COMP.          Pioneer Natural Resources: COMPANY
WELL.             Raptor 44-26: WELL
FLD.           Purgatoire River: FIELD
LOC.           180' FSL & 812' FEL: LOCATION
PROV.                 Colorado: PROVINCE
CNTY.               Las Animas: COUNTRY
SRVC.                Patterson: SERVICE COMPANY
DATE.          Tue Mar 22 15:28:33 2005: LOG DATE
UWI.           05 071 08187 00: UNIQUE WELL ID
~Curve Information Block
DEPT.FT            0 000 00 00: Depth
DCAL.in                       : CDL Caliper
RHOB.g/cc                     : CDL Bulk Density
RHOC.g/cc                     : CDL Density Correction
DPOR.pu                       : CDL Density Porosity
GR.GAPI                       : Gamma Ray
NPOR.pu                       : Neutron Porosity
~Parameter Information Block
~A  Depth       DCAL        RHOB        RHOC        DPOR         GR         NPOR    
# ...
  1361.2000      7.8167      2.6110      0.0604      2.3626   -999.2500     17.3582
  1361.3000      7.8099      2.6336      0.0789      0.9953   -999.2500     17.7495
  1361.4000      7.8099      2.6473      0.1538      0.1618   -999.2500     17.7086
  1361.5000      7.8061      2.6383      0.0632      0.7073   -999.2500     16.9810
  1361.6000      7.8061      2.6113      0.0614      2.3431   -999.2500     15.8678
  1361.7000      7.8061      2.5762      0.0435      4.4744   -999.2500     15.1788
  1361.8000      7.8214      2.5486     -0.0104      6.1477   -999.2500     15.2763
  1361.9000      7.8214      2.5458      0.0060      6.3127   -999.2500     15.8636
  1362.0000      7.8219      2.5523      0.0461      5.9183   -999.2500     16.9311
  1362.1000      7.8219      2.5432     -0.0042      6.4749   -999.2500     19.5190
  1362.2000      7.8219      2.5235     -0.0058      7.6689   -999.2500     25.1367
  1362.3000      7.8288      2.5101      0.0099      8.4810   -999.2500     32.8895
  1362.4000      7.8288      2.5078     -0.0110      8.6202   -999.2500     38.4782
  1362.5000      7.8242      2.5159      0.0058      8.1246   -999.2500     40.5651
  1362.6000      7.8242      2.5404     -0.0125      6.6445   -999.2500     40.9845
  1362.7000      7.8242      2.5698      0.0992      4.8582   -999.2500     41.0295
  1362.8000      7.8266      2.5771      0.0598      4.4153   -999.2500     41.0321
  1362.9000      7.8266      2.5675      0.0542      5.0004   -999.2500   -999.2500
  1363.0000      7.8191      2.5690      0.0291      4.9094   -999.2500   -999.2500
  1363.1000      7.8191      2.5831      0.0760      4.0566   -999.2500   -999.2500
  1363.2000      7.8191      2.5868      0.0601      3.8279   -999.2500   -999.2500
  1363.3000      7.8207      2.5715      0.0511      4.7551   -999.2500   -999.2500
  1363.4000      7.8207      2.5500      0.0272      6.0599   -999.2500   -999.2500
  1363.5000      7.8104      2.5331      0.0460      7.0870   -999.2500   -999.2500
  1363.6000      7.8104      2.5243      0.0204      7.6193   -999.2500   -999.2500
  1363.7000      7.8104      2.5281      0.0054      7.3890   -999.2500   -999.2500
  1363.8000      7.8081      2.5432     -0.0044      6.4756   -999.2500   -999.2500
  1363.9000      7.8081      2.5601      0.0650      5.4486   -999.2500   -999.2500
  1364.0000      7.7959      2.5729      0.0185      4.6702   -999.2500   -999.2500
  1364.1000      7.7959      2.5860      0.0143      3.8806   -999.2500   -999.2500
  1364.2000      7.7959      2.5985      0.0650      3.1240   -999.2500   -999.2500
  1364.3000      7.7980      2.6055      0.0882      2.6965   -999.2500   -999.2500
  1364.4000      7.7980      2.6026      0.0756      2.8710   -999.2500   -999.2500
  1364.5000      7.7889      2.5830      0.0678      4.0605   -999.2500   -999.2500
  1364.6000      7.7889      2.5566      0.0309      5.6583   -999.2500   -999.2500
  1364.7000      7.7889      2.5463      0.0426      6.2861   -999.2500   -999.2500
  1364.8000      7.7964      2.5579      0.0336      5.5842   -999.2500   -999.2500
  1364.9000      7.7964      2.5754      0.0536      4.5226   -999.2500   -999.2500
  1365.0000      7.7940      2.5779      0.0354      4.3725   -999.2500   -999.2500
  1365.1000      7.7940      2.5637      0.0155      5.2298   -999.2500   -999.2500
  1365.2000      7.7940      2.5464     -0.0068      6.2762   -999.2500   -999.2500
  1365.3000      7.8018      2.5352      0.0207      6.9587   -999.2500   -999.2500
  1365.4000      7.8018      2.5365      0.0101      6.8809   -999.2500   -999.2500
  1365.5000      7.8008      2.5522      0.0590      5.9300   -999.2500   -999.2500
  1365.6000      7.8008      2.5745      0.0291      4.5774   -999.2500   -999.2500
  1365.7000      7.8008      2.5969      0.0650      3.2182   -999.2500   -999.2500
  1365.8000      7.8001      2.6149      0.0584      2.1293   -999.2500   -999.2500
  1365.9000      7.8001      2.6214      0.0948      1.7324   -999.2500   -999.2500
  1366.0000      7.8127      2.6161      0.0754      2.0533   -999.2500   -999.2500
  1366.1000      7.8127      2.6074      0.0901      2.5796   -999.2500   -999.2500
  1366.2000      7.8127      2.5947      0.0726      3.3492   -999.2500   -999.2500
  1366.3000      7.8256      2.5766      0.0301      4.4514   -999.2500   -999.2500
  1366.4000      7.8256      2.5647      0.0704      5.1682   -999.2500   -999.2500
  1366.5000      7.8109      2.5650      0.0682      5.1510   -999.2500   -999.2500
  1366.6000      7.8109      2.5693      0.0408      4.8927   -999.2500   -999.2500
  1366.7000      7.8109      2.5759      0.0431      4.4931   -999.2500   -999.2500
  1366.8000      7.8065      2.5885      0.0805      3.7281   -999.2500   -999.2500
  1366.9000      7.8065      2.5964      0.0917      3.2502   -999.2500   -999.2500
  1367.0000      7.8179      2.5931      0.0754      3.4473   -999.2500   -999.2500
  1367.1000      7.8179      2.5902      0.0828      3.6218   -999.2500   -999.2500
  1367.2000      7.8179      2.5914      0.0460      3.5529   -999.2500   -999.2500
  1367.3000      7.7966      2.5882      0.0513      3.7473   -999.2500   -999.2500
  1367.4000      7.7966      2.5855      0.0468      3.9100   -999.2500   -999.2500
  1367.5000      7.7823      2.6016      0.0357      2.9311   -999.2500   -999.2500
  1367.6000      7.7823      2.6310      0.1035      1.1525   -999.2500   -999.2500
  1367.7000      7.7823      2.6448      0.0949      0.3132   -999.2500   -999.2500
  1367.8000      7.7813      2.6316      0.0894      1.1143   -999.2500   -999.2500
  1367.9000      7.7813      2.6044      0.0753      2.7609   -999.2500   -999.2500
  1368.0000      7.7815      2.5835      0.0224      4.0324   -999.2500   -999.2500
  1368.1000      7.7815      2.5780      0.0196      4.3614   -999.2500   -999.2500
  1368.2000      7.7815      2.5795      0.0473      4.2741   -999.2500   -999.2500
  1368.3000      7.8024      2.5762      0.0164      4.4700   -999.2500   -999.2500
  1368.4000      7.8024      2.5668      0.0542      5.0437   -999.2500   -999.2500
  1368.5000      7.7972      2.5563      0.0308      5.6775   -999.2500   -999.2500
  1368.6000      7.7972      2.5583     -0.0013      5.5586   -999.2500   -999.2500
  1368.7000      7.7972      2.5777      0.0442      4.3820   -999.2500   -999.2500
  1368.8000      7.7818      2.5986      0.0761      3.1170   -999.2500   -999.2500
  1368.9000      7.7818      2.6084      0.0478      2.5234   -999.2500   -999.2500
  1369.0000      7.7835      2.6067      0.0689      2.6240   -999.2500   -999.2500
  1369.1000      7.7835      2.5993      0.0134      3.0756   -999.2500   -999.2500
  1369.2000      7.7835      2.5948      0.0522      3.3457   -999.2500   -999.2500
  1369.3000      7.7909      2.5932      0.0454      3.4439   -999.2500   -999.2500
  1369.4000      7.7909      2.5905      0.0337      3.6080   -999.2500   -999.2500
  1369.5000      7.7972      2.5834      0.0375      4.0385   -999.2500   -999.2500
  1369.6000      7.7972      2.5730      0.0233      4.6670   -999.2500   -999.2500
  1369.7000      7.7972      2.5685      0.0089      4.9378   -999.2500   -999.2500
  1369.8000      7.7992      2.5698      0.0533      4.8592   -999.2500   -999.2500
  1369.9000      7.7992      2.5646      0.0775      5.1776   -999.2500   -999.2500
  1370.0000      7.7970      2.5523      0.0191      5.9203   -999.2500   -999.2500
  1370.1000      7.7970      2.5455      0.0320      6.3337   -999.2500   -999.2500
  1370.2000      7.7970      2.5482      0.0408      6.1716   -999.2500   -999.2500
  1370.3000      7.7859      2.5590      0.0387      5.5129   -999.2500   -999.2500
  1370.4000      7.7859      2.5800      0.0390      4.2402   -999.2500   -999.2500
  1370.5000      7.7820      2.6030      0.0886      2.8476   -999.2500   -999.2500
  1370.6000      7.7820      2.6106      0.0915      2.3859   -999.2500   -999.2500
  1370.7000      7.7820      2.5999      0.0421      3.0367   -999.2500   -999.2500
