~Version Information
VERS.                      2.0: CWLS Log ASCII Standard - VERSION 2.0
WRAP.                       NO: One line per depth step
~Well Information Block
STRT.FT               235.0000: 
STOP.FT              1633.0000: 
STEP.FT                 0.1000: 
NULL.                -999.2500: 
COMP.          Petrogulf Corporation: COMPANY
WELL.             State 16-41R: WELL
FLD.           Purgatorie River: FIELD
LOC.           280' FNL & 907' FEL: LOCATION
PROV.                 Colorado: PROVINCE
CNTY.               Las Animas: COUNTRY
SRVC.                Patterson: SERVICE COMPANY
DATE.          Wed Oct 19 07:05:20 2005: LOG DATE
API.           05-071-08345    : API
~Curve Information Block
DEPT.FT            0 000 00 00: Depth
DCAL.in                       : CDL Caliper
RHOB.g/cc                     : CDL Bulk Density
RHOC.g/cc                     : CDL Density Correction
DPOR.pu                       : CDL Density Porosity
GR.GAPI                       : Gamma Ray
NPOR.pu                       : Neutron Porosity
~Parameter Information Block
~A  Depth       DCAL        RHOB        RHOC        DPOR         GR         NPOR    
# ...
   599.8000      8.0024      2.4786      0.0798     10.3890    129.8737     17.1391
   599.9000      8.0024      2.4868      0.0444      9.8899    129.3864     17.8040
   600.0000      8.0638      2.5037      0.1287      8.8690    134.9984     19.2060
   600.1000      8.0638      2.5072      0.1163      8.6555    142.3537     20.4434
   600.2000      8.0638      2.5035      0.0514      8.8817    147.0471     20.9250
   600.3000      8.1322      2.5102      0.0996      8.4737    148.6712     21.2985
   600.4000      8.1322      2.5175      0.0842      8.0305    149.0263     21.8474
   600.5000      8.1724      2.5116      0.0437      8.3890    150.7287     22.0173
   600.6000      8.1724      2.4949      0.0497      9.3973    152.6563     21.5763
   600.7000      8.1724      2.4805      0.0432     10.2742    153.4412     21.2040
   600.8000      8.2202      2.4827      0.0473     10.1414    154.8021     20.9762
   600.9000      8.2202      2.5013      0.0307      9.0141    156.8486     20.3013
   601.0000      8.2547      2.5223      0.0519      7.7379    156.7250     19.6901
   601.1000      8.2547      2.5377      0.0518      6.8053    155.6143     19.8353
   601.2000      8.2547      2.5444      0.0769      6.3970    158.0376     19.9287
   601.3000      8.2678      2.5370      0.0762      6.8515    161.4208     19.3221
   601.4000      8.2678      2.5239      0.0560      7.6410    158.5799     18.9597
   601.5000      8.2754      2.5203      0.0604      7.8594    149.7792     19.3832
   601.6000      8.2754      2.5249      0.0891      7.5789    142.5887     19.8351
   601.7000      8.2754      2.5376      0.0271      6.8095    138.4131     19.8825
   601.8000      8.2718      2.5660      0.0170      5.0890    134.3714     19.6793
   601.9000      8.2718      2.6033      0.0757      2.8309    132.1146     19.1024
   602.0000      8.2719      2.6306      0.1261      1.1740    133.2394     18.6706
   602.1000      8.2719      2.6421      0.0896      0.4805    134.6379     19.2411
   602.2000      8.2719      2.6526      0.0827     -0.1582    133.5836     20.3630
   602.3000      8.2433      2.6689      0.1349     -1.1485    131.9068     20.6706
   602.4000      8.2433      2.6716      0.1331     -1.3061    130.6070     19.2925
   602.5000      8.2085      2.6507      0.0565     -0.0449    129.2527     17.4159
   602.6000      8.2085      2.6255      0.0122      1.4833    127.8796     17.0959
   602.7000      8.2085      2.6121      0.0137      2.2990    127.4551     17.8619
   602.8000      8.2098      2.6059      0.0476      2.6728    130.0749     17.3965
   602.9000      8.2098      2.5952      0.0540      3.3218    135.2222     15.8840
   603.0000      8.2140      2.5822      0.0280      4.1114    140.1579     15.5853
   603.1000      8.2140      2.5737      0.0745      4.6231    143.3518     16.7294
   603.2000      8.2140      2.5617      0.0932      5.3545    145.0279     17.7911
   603.3000      8.2175      2.5428      0.0364      6.4953    143.5385     18.6388
   603.4000      8.2175      2.5336      0.0362      7.0535    137.6539     19.7665
   603.5000      8.2177      2.5456      0.0593      6.3261    131.5941     20.4788
   603.6000      8.2177      2.5702      0.0826      4.8378    129.1118     20.2448
   603.7000      8.2177      2.5966      0.0300      3.2382    127.2460     19.5471
   603.8000      8.2152      2.6233      0.1165      1.6162    125.0469     18.8073
   603.9000      8.2152      2.6477      0.0649      0.1416    123.7821     18.0394
   604.0000      8.2096      2.6637      0.0815     -0.8317    122.7813     17.7151
   604.1000      8.2096      2.6624      0.0837     -0.7489    122.2830     18.0249
   604.2000      8.2096      2.6480      0.0489      0.1221    121.1955     17.9892
   604.3000      8.1943      2.6383      0.0781      0.7099    118.6555     17.8494
   604.4000      8.1943      2.6330      0.0822      1.0308    116.6902     18.7318
   604.5000      8.2025      2.6254      0.0334      1.4929    117.6957     19.9395
   604.6000      8.2025      2.6212      0.0159      1.7431    119.3557     20.3281
   604.7000      8.2025      2.6202      0.0033      1.8085    118.1253     20.0603
   604.8000      8.1892      2.6118      0.0346      2.3153    115.0416     19.4713
   604.9000      8.1892      2.5956     -0.0130      3.2947    112.9141     18.7440
   605.0000      8.1857      2.5905     -0.0314      3.6071    113.5576     18.3565
   605.1000      8.1857      2.6070      0.0529      2.6087    116.1407     18.4784
   605.2000      8.1857      2.6295      0.0551      1.2419    117.1054     18.8158
   605.3000      8.1936      2.6452      0.0691      0.2899    115.9285     18.9803
   605.4000      8.1936      2.6559      0.0797     -0.3557    114.7459     18.7156
   605.5000      8.1717      2.6601      0.0970     -0.6142    112.2562     18.2161
   605.6000      8.1717      2.6488      0.0982      0.0706    109.4659     17.7720
   605.7000      8.1717      2.6318      0.0342      1.1055    110.1227     17.5780
   605.8000      8.1636      2.6263      0.0837      1.4343    113.6056     17.8625
   605.9000      8.1636      2.6196      0.0448      1.8415    114.2289     18.2000
   606.0000      8.1631      2.5996      0.0118      3.0572    110.4298     17.7590
   606.1000      8.1631      2.5870     -0.0166      3.8204    107.9201     16.5979
   606.2000      8.1631      2.6036      0.0177      2.8139    109.8541     15.9176
   606.3000      8.1587      2.6368      0.0575      0.8022    113.2435     16.3146
   606.4000      8.1587      2.6553      0.0882     -0.3242    116.7172     16.9536
   606.5000      8.1686      2.6486      0.0766      0.0838    121.1982     17.3508
   606.6000      8.1686      2.6285      0.0653      1.3048    124.9866     17.8932
   606.7000      8.1686      2.6025      0.0894      2.8773    128.0197     18.2474
   606.8000      8.1577      2.5703      0.0299      4.8309    131.1825     17.9653
   606.9000      8.1577      2.5451      0.0163      6.3599    131.9523     17.7632
   607.0000      8.1533      2.5412      0.0017      6.5941    130.7142     18.2244
   607.1000      8.1533      2.5492      0.0345      6.1101    129.7661     18.5341
   607.2000      8.1533      2.5519      0.0271      5.9448    127.1705     18.1346
   607.3000      8.1410      2.5476      0.0153      6.2035    122.7532     17.9024
   607.4000      8.1410      2.5452      0.0220      6.3512    119.9108     18.4724
   607.5000      8.1420      2.5429      0.0333      6.4936    121.7588     19.1803
   607.6000      8.1420      2.5359      0.0199      6.9141    126.5865     19.3526
   607.7000      8.1420      2.5361      0.0053      6.9001    128.0036     19.0061
   607.8000      8.1474      2.5460      0.0383      6.3037    124.8081     18.5240
   607.9000      8.1474      2.5541      0.0168      5.8136    122.6129     18.6024
   608.0000      8.1559      2.5602      0.0362      5.4419    123.2788     19.4577
   608.1000      8.1559      2.5657      0.0307      5.1106    122.7838     20.1505
   608.2000      8.1559      2.5671      0.0574      5.0229    120.7346     19.7237
   608.3000      8.1634      2.5677      0.0433      4.9856    120.3125     18.4684
   608.4000      8.1634      2.5696      0.0387      4.8721    119.7581     17.0113
   608.5000      8.1763      2.5719      0.0504      4.7319    116.7590     15.9203
   608.6000      8.1763      2.5800      0.0488      4.2454    115.3084     16.4539
   608.7000      8.1763      2.5945      0.0573      3.3620    117.3427     18.5724
   608.8000      8.1920      2.6053      0.0647      2.7121    120.0042     20.1777
   608.9000      8.1920      2.6018      0.0372      2.9241    122.2578     20.3662
   609.0000      8.2025      2.5811      0.0822      4.1737    121.3604     20.1348
   609.1000      8.2025      2.5540     -0.0049      5.8176    115.4792     19.9946
   609.2000      8.2025      2.5440     -0.0234      6.4245    110.0232     19.8005
   609.3000      8.2221      2.5600      0.0068      5.4571    108.2751     19.3636
