~Version Information
VERS.                      2.0: CWLS Log ASCII Standard - VERSION 2.0
WRAP.                       NO: One line per depth step
~Well Information Block
STRT.FT               748.2500: 
STOP.FT              2498.5000: 
STEP.FT                 0.2500: 
NULL.                -999.2500: 
COMP.          Petrogulf Corporation: COMPANY
WELL.           Montoya 13-41V: WELL
FLD.           Purgatorie River: FIELD
LOC.           449' FNL & 891' FEL: LOCATION
CNTY.               Las Animas: COUNTY
SRVC.                         : SERVICE COMPANY
DATE.          Tue Aug 17 13:22:31 2004: LOG DATE
UWI.           05 071 08021 00: UNIQUE WELL ID
STAT.                 Colorado: STATE
~Curve Information Block
DEPT.FT            0 000 00 00: Depth
SP.mV                         : DIL Spontaneous Potential
RILD.Ohm-m                    : DIL Deep Resistivity
RILM.Ohm-m                    : DIL Medium Resistivity
RLL3.Ohm-m                    : DIL Shallow Resistivity
GR.GAPI                       : Gamma Ray
~Parameter Information Block
~A  Depth        SP         RILD        RILM        RLL3         GR     
# ...
  2344.2500     65.0125     18.9289     17.5406     17.0336     75.5200
  2344.5000     64.8219     18.8792     17.4955     16.5060     77.8676
  2344.7500     64.5619     18.7908     17.4845     16.4599     79.0259
  2345.0000     64.2424     18.6827     17.4984     16.8501     79.3083
  2345.2500     63.8803     18.5784     17.5256     17.5410     78.4898
  2345.5000     63.4972     18.5030     17.5562     18.3668     76.7702
  2345.7500     63.1151     18.4815     17.5846     19.1813     76.1798
  2346.0000     62.7524     18.5357     17.6125     19.8704     76.9615
  2346.2500     62.4215     18.6824     17.6488     20.3397     78.3584
  2346.5000     62.1266     18.9310     17.7085     20.5128     80.5771
  2346.7500     61.8643     19.2792     17.8097     20.3627     81.5050
  2347.0000     61.6249     19.7100     17.9701     19.9653     81.6687
  2347.2500     61.3963     20.1903     18.2040     19.5302     81.0777
  2347.5000     61.1664     20.6772     18.5189     19.3656     79.6818
  2347.7500     60.9272     21.1303     18.9144     19.7684     78.8273
  2348.0000     60.6754     21.5259     19.3810     20.8827     78.0283
  2348.2500     60.4137     21.8651     19.9004     22.6024     77.5236
  2348.5000     60.1492     22.1690     20.4481     24.5858     75.9657
  2348.7500     59.8926     22.4647     20.9964     26.3897     74.4507
  2349.0000     59.6562     22.7715     21.5188     27.6537     72.9314
  2349.2500     59.4522     23.0942     21.9941     28.2337     73.4207
  2349.5000     59.2908     23.4259     22.4083     28.2168     76.7652
  2349.7500     59.1787     23.7569     22.7552     27.8250     79.8260
  2350.0000     59.1177     24.0804     23.0350     27.2810     83.1341
  2350.2500     59.1040     24.3942     23.2526     26.7174     83.4361
  2350.5000     59.1291     24.6967     23.4155     26.1670     81.0467
  2350.7500     59.1815     24.9837     23.5332     25.6183     78.3713
  2351.0000     59.2492     25.2492     23.6169     25.0761     74.5430
  2351.2500     59.3215     25.4899     23.6798     24.5792     73.1681
  2351.5000     59.3913     25.7088     23.7364     24.1726     74.3381
  2351.7500     59.4553     25.9139     23.8029     23.8671     77.5243
  2352.0000     59.5140     26.1126     23.8957     23.6295     84.7596
  2352.2500     59.5705     26.3042     24.0311     23.4117     89.8644
  2352.5000     59.6290     26.4763     24.2234     23.2001     95.5787
  2352.7500     59.6935     26.6102     24.4834     23.0525     97.2450
  2353.0000     59.7662     26.6922     24.8160     23.1026     96.4043
  2353.2500     59.8465     26.7246     25.2186     23.5365     94.2255
  2353.5000     59.9313     26.7309     25.6786     24.5540     89.9808
  2353.7500     60.0154     26.7493     26.1724     26.3297     87.1005
  2354.0000     60.0926     26.8199     26.6659     28.9760     82.9725
  2354.2500     60.1577     26.9695     27.1172     32.5024     80.2267
  2354.5000     60.2076     27.1990     27.4821     36.7601     75.9292
  2354.7500     60.2419     27.4783     27.7207     41.3801     73.0451
  2355.0000     60.2627     27.7503     27.8062     45.7482     69.2813
  2355.2500     60.2732     27.9467     27.7299     49.0815     67.5316
  2355.5000     60.2762     28.0105     27.5031     50.6374     66.3547
  2355.7500     60.2723     27.9178     27.1549     49.9908     66.5198
  2356.0000     60.2598     27.6857     26.7245     47.2318     68.0569
  2356.2500     60.2345     27.3627     26.2540     42.9528     69.7595
  2356.5000     60.1915     27.0078     25.7814     38.0202     72.7673
  2356.7500     60.1272     26.6697     25.3356     33.2660     74.7769
  2357.0000     60.0407     26.3741     24.9352     29.2625     77.6731
  2357.2500     59.9354     26.1224     24.5886     26.2588     79.5152
  2357.5000     59.8184     25.8987     24.2954     24.2446     81.5630
  2357.7500     59.7004     25.6812     24.0488     23.0572     81.7379
  2358.0000     59.5934     25.4500     23.8384     22.4720     79.3661
  2358.2500     59.5091     25.1898     23.6518     22.2657     76.3778
  2358.5000     59.4570     24.8903     23.4778     22.2554     71.6477
  2358.7500     59.4426     24.5491     23.3077     22.3192     69.3015
  2359.0000     59.4670     24.1776     23.1363     22.3974     67.2803
  2359.2500     59.5266     23.8047     22.9626     22.4754     66.5112
  2359.5000     59.6137     23.4699     22.7884     22.5598     65.6215
  2359.7500     59.7179     23.2080     22.6172     22.6572     65.1561
  2360.0000     59.8276     23.0316     22.4516     22.7652     64.6767
  2360.2500     59.9317     22.9218     22.2919     22.8766     64.3848
  2360.5000     60.0210     22.8319     22.1346     22.9898     63.7215
  2360.7500     60.0899     22.7025     21.9724     23.1156     63.1614
  2361.0000     60.1358     22.4835     21.7955     23.2733     62.6169
  2361.2500     60.1601     22.1528     21.5943     23.4743     62.7885
  2361.5000     60.1658     21.7250     21.3630     23.6995     64.1136
  2361.7500     60.1566     21.2473     21.1027     23.8813     65.5557
  2362.0000     60.1343     20.7858     20.8226     23.9059     67.9314
  2362.2500     60.0985     20.4067     20.5388     23.6473     69.3619
  2362.5000     60.0458     20.1591     20.2711     23.0330     71.1618
  2362.7500     59.9714     20.0641     20.0391     22.1100     72.0847
  2363.0000     59.8711     20.1110     19.8581     21.0638     72.6509
  2363.2500     59.7428     20.2626     19.7376     20.1577     72.3311
  2363.5000     59.5880     20.4665     19.6803     19.6191     71.3462
  2363.7500     59.4115     20.6723     19.6834     19.5421     70.8996
  2364.0000     59.2206     20.8455     19.7408     19.8676     70.7417
  2364.2500     59.0231     20.9763     19.8447     20.4386     70.4841
  2364.5000     58.8262     21.0774     19.9875     21.0826     68.9634
  2364.7500     58.6353     21.1747     20.1628     21.6707     67.2660
  2365.0000     58.4539     21.2963     20.3653     22.1366     64.9469
  2365.2500     58.2842     21.4621     20.5900     22.4667     64.3437
  2365.5000     58.1279     21.6792     20.8317     22.6782     65.0696
  2365.7500     57.9872     21.9413     21.0851     22.7983     66.0574
  2366.0000     57.8655     22.2327     21.3448     22.8523     67.2583
  2366.2500     57.7676     22.5340     21.6068     22.8651     67.7863
  2366.5000     57.6994     22.8291     21.8703     22.8686     68.6455
  2366.7500     57.6670     23.1104     22.1388     22.9017     69.4365
  2367.0000     57.6762     23.3824     22.4211     22.9970     70.8185
  2367.2500     57.7314     23.6624     22.7306     23.1637     71.7088
  2367.5000     57.8352     23.9762     23.0842     23.3843     72.8092
  2367.7500     57.9879     24.3503     23.5001     23.6321     73.3447
  2368.0000     58.1863     24.8039     23.9950     23.9026     73.9056
  2368.2500     58.4241     25.3424     24.5811     24.2450     74.1304
  2368.5000     58.6909     25.9540     25.2632     24.7774     73.9072
  2368.7500     58.9727     26.6116     26.0350     25.6757     73.0852
  2369.0000     59.2526     27.2760     26.8758     27.1296     70.9923
  2369.2500     59.5131     27.9017     27.7477     29.2783     69.6676
  2369.5000     59.7378     28.4426     28.5947     32.1474     68.8683
  2369.7500     59.9140     28.8584     29.3464     35.6061     69.1098
  2370.0000     60.0346     29.1209     29.9255     39.3475     69.6142
  2370.2500     60.0982     29.2172     30.2618     42.9001     69.5274
  2370.5000     60.1087     29.1514     30.3068     45.6907     68.8449
  2370.7500     60.0734     28.9410     30.0461     47.1763     68.4559
  2371.0000     60.0008     28.6105     29.5031     47.0153     68.5217
  2371.2500     59.8987     28.1858     28.7331     45.1968     69.0260
  2371.5000     59.7738     27.6903     27.8106     42.0483     70.2735
  2371.7500     59.6314     27.1472     26.8142     38.1142     71.3172
  2372.0000     59.4759     26.5814     25.8151     33.9782     73.0358
