~Version Information
VERS.                      2.0: CWLS Log ASCII Standard - VERSION 2.0
WRAP.                       NO: One line per depth step
~Well Information Block
STRT.FT                -8.0000: 
STOP.FT              1357.5000: 
STEP.FT                 0.2500: 
NULL.                -999.2500: 
COMP.          Pioneer Natural Resources: COMPANY
WELL.          Lorencito 6-3-34-66: WELL
FLD.           Purgatorie River: FIELD
LOC.           2545' FNL & 1914' FWL: LOCATION
STAT.                       CO: State
CNTY.               Las Animas: COUNTY
CTRY. USA : Country
SECT. 3 : Section
TOWN. 34S : Township
RANG. 66W : Range
SRVC.          Patterson Wireline: SERVICE COMPANY
DATE.          Tue Sep 27 11:36:13 2005: LOG DATE
API.           05 071 08369 00: UNIQUE WELL ID
~Curve Information Block
DEPT.FT            0 000 00 00: Depth
CCL.                          : Casing Collar Locator
TT3.usec                      : CBL 3' Travel Time
AMP3.mV                       : CBL 3' Amplitude
GR.GAPI                       : Gamma Ray
~Parameter Information Block
~A  Depth       CCL         TT3         AMP3         GR     
# ...
   896.5000      0.0000    669.7905      7.2048    111.3891
   896.7500      0.0000    670.0837      7.3823    110.4507
   897.0000      0.0000    670.2351      7.5461    111.1258
   897.2500      0.0000    670.2143      7.6762    112.2344
   897.5000      0.0000    669.8602      7.7565    112.3201
   897.7500      0.0000    668.8065      7.7858    111.1003
   898.0000      0.0000    666.6758      7.7787    109.4462
   898.2500      0.0000    663.6010      7.7562    108.0213
   898.5000      0.0000    660.6361      7.7331    106.6189
   898.7500      0.0000    659.2943      7.7144    104.8716
   899.0000      0.0000    660.2806      7.7004    102.8521
   899.2500      0.0000    662.8068      7.6952    100.7846
   899.5000      0.0000    665.4023      7.7072     98.8118
   899.7500      0.0000    667.1533      7.7414     97.2412
   900.0000      0.0000    667.9221      7.7927     96.3771
   900.2500      0.0000    667.6609      7.8517     95.7265
   900.5000      0.0000    665.8054      7.9138     93.9529
   900.7500      0.0000    661.2224      7.9830     90.1346
   901.0000      0.0000    652.2928      8.0635     84.7470
   901.2500      0.0000    637.2172      8.1511     79.1473
   901.5000      0.0000    616.0007      8.2299     74.6221
   901.7500      0.0000    593.8778      8.2816     72.1558
   902.0000      0.0000    581.1149      8.3009     72.2652
   902.2500      0.0000    585.3526      8.3004     74.4035
   902.5000      0.0000    603.2722      8.2970     77.0748
   902.7500      0.0000    621.8188      8.2937     79.1166
   903.0000      0.0000    628.0555      8.2906     80.4855
   903.2500      0.0000    617.9597      8.3087     81.4945
   903.5000      0.0000    598.0919      8.3656     81.8852
   903.7500      0.0000    579.4748      8.4119     81.1871
   904.0000      0.0000    567.5585      8.3419     79.7006
   904.2500      0.0000    558.5458      8.1108     78.4972
   904.5000      0.0000    548.2062      7.7987     78.3377
   904.7500      0.0000    541.8280      7.5209     78.9633
   905.0000      0.0000    549.7364      7.3184     79.5831
   905.2500      0.0000    573.5814      7.1598     79.7455
   905.5000     -2.0000    602.7551      7.0062     79.5978
   905.7500      0.0000    625.2716      6.8519     79.4830
   906.0000      0.0000    637.9993      6.7249     79.3144
   906.2500      0.0000    645.3506      6.6557     78.4634
   906.5000      0.0000    651.8828      6.6311     76.5740
   906.7500      0.0000    658.4407      6.5947     74.3772
   907.0000      0.0000    663.6779      6.5192     73.1988
   907.2500      0.0000    666.6895      6.4485     73.6723
   907.5000      0.0000    667.7731      6.4365     75.2790
   907.7500      0.0000    667.7458      6.4723     77.0706
   908.0000      0.0000    667.2828      6.4937     78.4624
   908.2500      0.0000    666.7840      6.4564     79.1833
   908.5000      0.0000    666.4715      6.3697     78.8275
   908.7500      0.0000    666.4301      6.2780     77.1711
   909.0000      0.0000    666.6024      6.2211     75.2104
   909.2500      0.0000    666.8196      6.2114     75.2141
   909.5000      0.0000    666.9471      6.2411     79.0918
   909.7500      0.0000    667.0516      6.3013     86.7439
   910.0000      0.0000    667.5257      6.3886     95.9354
   910.2500      0.0000    669.0304      6.4949    103.4410
   910.5000      0.0000    672.0010      6.5979    106.7048
   910.7500      0.0000    675.8693      6.6650    105.4712
   911.0000      0.0000    679.1042      6.6736    102.1172
   911.2500      0.0000    680.6268      6.6280     99.7752
   911.5000      0.0000    680.9391      6.5566     99.6896
   911.7500      0.0000    681.3477      6.4905    100.4174
   912.0000      0.0000    682.5695      6.4430     99.6226
   912.2500      0.0000    684.5170      6.4084     96.6289
   912.5000      0.0000    686.5661      6.3742     93.2155
   912.7500      0.0000    687.4446      6.3337     92.0159
   913.0000      0.0000    685.7847      6.2874     94.3381
   913.2500      0.0000    681.5287      6.2384     99.4571
   913.5000      0.0000    676.2964      6.1879    105.4767
   913.7500      0.0000    671.9857      6.1354    110.4991
   914.0000      0.0000    669.3760      6.0830    113.3464
   914.2500      0.0000    668.0612      6.0360    113.8419
   914.5000      0.0000    667.1628      6.0005    112.6347
   914.7500      0.0000    665.8498      5.9789    110.6708
   915.0000      0.0000    663.5429      5.9684    108.7738
   915.2500      0.0000    659.9465      5.9632    107.4858
   915.5000      0.0000    655.0216      5.9597    106.9685
   915.7500      0.0000    649.2448      5.9585    106.9660
   916.0000      0.0000    644.1324      5.9624    106.8488
   916.2500      0.0000    641.8701      5.9752    105.7257
   916.5000      0.0000    643.5615      6.0016    102.8393
   916.7500      0.0000    648.1148      6.0426     98.4171
   917.0000      0.0000    653.3834      6.0929     94.2445
   917.2500      0.0000    657.8835      6.1428     92.8389
   917.5000      0.0000    661.0872      6.1824     95.5084
   917.7500      0.0000    662.8765      6.2015    101.2557
   918.0000      0.0000    663.3996      6.1906    107.8006
   918.2500      0.0000    663.3344      6.1470    113.4872
   918.5000      0.0000    663.8762      6.0813    117.9662
   918.7500      0.0000    665.9695      6.0130    121.3178
   919.0000      0.0000    669.2849      5.9598    123.1684
   919.2500      0.0000    672.4065      5.9285    122.9699
   919.5000      0.0000    674.7045      5.9143    120.7907
   919.7500      0.0000    677.7511      5.9067    117.2968
   920.0000      0.0000    684.2048      5.8965    113.0999
   920.2500      0.0000    695.1438      5.8753    108.7539
   920.5000      0.0000    708.8347      5.8338    105.2124
   920.7500      0.0000    722.0779      5.7666    103.3662
   921.0000      0.0000    732.0726      5.6833    102.9442
   921.2500      0.0000    736.5938      5.6081    102.4509
   921.5000      0.0000    733.6367      5.5630    100.3221
   921.7500      0.0000    722.7413      5.5501     96.0939
   922.0000      0.0000    706.6428      5.5540     90.9395
   922.2500      0.0000    690.2391      5.5590     87.3390
   922.5000      0.0000    677.4362      5.5597     87.4677
   922.7500      0.0000    669.0441      5.5560     91.1888
   923.0000      0.0000    663.1278      5.5434     96.0469
   923.2500      0.0000    656.6277      5.5138     99.6995
   923.5000      0.0000    647.0785      5.4670    101.7677
   923.7500      0.0000    633.9793      5.4172    102.9235
   924.0000      0.0000    619.1224      5.3809    103.0765
   924.2500      0.0000    605.0919      5.3596    101.5576
   924.5000      0.0000    593.1288      5.3397     98.7676
   924.7500      0.0000    582.8748      5.3082     96.5463
   925.0000      0.0000    574.0316      5.2635     96.5725
   925.2500      0.0000    567.4372      5.2122     98.9464
   925.5000      0.0000    564.7689      5.1602    102.6097
   925.7500      0.0000    567.9909      5.1115    106.6846
   926.0000      0.0000    578.4881      5.0697    110.9902
   926.2500      0.0000    595.5446      5.0370    115.5098
   926.5000      0.0000    615.6929      5.0120    119.8925
   926.7500      0.0000    634.2699      4.9893    123.6403
   927.0000      0.0000    647.9644      4.9616    126.3698
   927.2500      0.0000    656.0793      4.9222    127.5683
   927.5000      0.0000    659.8871      4.8686    126.4903
   927.7500      0.0000    661.1324      4.8055    122.8667
   928.0000      0.0000    661.0007      4.7429    117.4514
   928.2500      0.0000    660.1315      4.6885    111.3626
   928.5000      0.0000    659.3500      4.6436    105.2399
   928.7500      0.0000    660.1597      4.6040     99.6589
   929.0000      0.0000    664.0957      4.5663     95.9466
   929.2500      0.0000    671.4001      4.5309     95.6430
   929.5000      0.0000    680.5764      4.5024     99.0382
   929.7500      0.0000    689.3481      4.4877    104.6971
