~Version Information
VERS.                      2.0: CWLS Log ASCII Standard - VERSION 2.0
WRAP.                       NO: One line per depth step
~Well Information Block
STRT.FT               480.0000: 
STOP.FT              1625.5000: 
STEP.FT                 0.1000: 
NULL.                -999.2500: 
COMP.          Pioneer Natural Resources: COMPANY
WELL.          Dude Canyon 22-32 Tr: WELL
FLD.           Purgatoire River: FIELD
LOC.           1741' FNL & 2331' FWL: LOCATION
PROV.                 Colorado: PROVINCE
CNTY.               Las Animas: COUNTRY
SRVC.                Patterson: SERVICE COMPANY
DATE.          Mon Jul 11 10:33:06 2005: LOG DATE
UWI.           05 071 08421 00: UNIQUE WELL ID
~Curve Information Block
DEPT.FT            0 000 00 00: Depth
DCAL.in                       : CDL Caliper
RHOB.g/cc                     : CDL Bulk Density
RHOC.g/cc                     : CDL Density Correction
DPOR.pu                       : CDL Density Porosity
GR.GAPI                       : Gamma Ray
NPOR.pu                       : Neutron Porosity
~Parameter Information Block
~A  Depth       DCAL        RHOB        RHOC        DPOR         GR         NPOR    
# ...
  1382.4000      7.9818      2.7481      0.1949     -5.9432    128.1441     26.8598
  1382.5000      7.9896      2.7185      0.1514     -4.1527    130.8320     26.7583
  1382.6000      7.9896      2.6644      0.0622     -0.8734    135.7177     27.3291
  1382.7000      7.9896      2.6212      0.0366      1.7426    139.9958     28.3819
  1382.8000      8.0177      2.6087      0.0721      2.5011    143.0685     29.6398
  1382.9000      8.0177      2.6089      0.0956      2.4879    145.5661     30.6190
  1383.0000      8.0045      2.5980      0.1156      3.1537    144.9412     30.3263
  1383.1000      8.0045      2.5734      0.0941      4.6411    145.0832     29.2476
  1383.2000      8.0045      2.5498      0.0523      6.0714    153.9428     29.0267
  1383.3000      8.0343      2.5410      0.1080      6.6053    165.2547     29.5941
  1383.4000      8.0343      2.5478      0.0409      6.1934    165.9166     29.8749
  1383.5000      8.0532      2.5610      0.1007      5.3955    155.7147     30.0004
  1383.6000      8.0532      2.5677      0.1089      4.9892    146.8752     30.6921
  1383.7000      8.0532      2.5654      0.1141      5.1291    142.9391     31.4748
  1383.8000      8.0957      2.5659      0.0553      5.0947    139.9813     31.2290
  1383.9000      8.0957      2.5784      0.0818      4.3383    138.4258     30.1722
  1384.0000      8.0932      2.6007      0.0456      2.9863    138.1529     29.2465
  1384.1000      8.0932      2.6277      0.0795      1.3518    138.0483     28.5104
  1384.2000      8.0932      2.6498      0.1048      0.0132    136.0669     27.7023
  1384.3000      8.0804      2.6617      0.1094     -0.7096    133.6149     27.2378
  1384.4000      8.0804      2.6647      0.1213     -0.8897    135.2287     27.3774
  1384.5000      8.0538      2.6538      0.1561     -0.2275    140.5837     27.6410
  1384.6000      8.0538      2.6344      0.0624      0.9434    147.3639     27.8160
  1384.7000      8.0538      2.6221      0.0938      1.6902    151.3355     28.2758
  1384.8000      8.0495      2.6124      0.0897      2.2807    149.4000     29.6191
  1384.9000      8.0495      2.5958      0.1101      3.2825    146.5912     31.2087
  1385.0000      8.0474      2.5810      0.0835      4.1803    146.3039     31.2911
  1385.1000      8.0474      2.5778      0.0747      4.3739    146.6658     29.6531
  1385.2000      8.0474      2.5826      0.0825      4.0845    146.4662     28.0839
  1385.3000      8.0551      2.5896      0.0582      3.6588    145.0191     27.7775
  1385.4000      8.0551      2.5944      0.1089      3.3698    141.0562     28.2080
  1385.5000      8.0468      2.5884      0.0908      3.7343    136.1945     28.1955
  1385.6000      8.0468      2.5773      0.0608      4.4086    132.3377     27.7476
  1385.7000      8.0468      2.5781      0.0173      4.3567    128.6057     27.3965
  1385.8000      8.0403      2.5927      0.0415      3.4757    124.0988     26.9107
  1385.9000      8.0403      2.6062      0.0377      2.6575    116.3369     26.5828
  1386.0000      8.0314      2.6078      0.0540      2.5569    107.5025     27.0896
  1386.1000      8.0314      2.6020      0.0716      2.9118    106.9790     27.8084
  1386.2000      8.0314      2.6017      0.0501      2.9279    115.9766     27.8608
  1386.3000      8.0105      2.6075      0.0570      2.5766    123.1614     27.5640
  1386.4000      8.0105      2.6025      0.0470      2.8797    122.2347     27.0459
  1386.5000      8.0496      2.5751      0.0756      4.5381    118.8101     26.3727
  1386.6000      8.0496      2.5346      0.0332      6.9912    116.7900     26.1174
  1386.7000      8.0496      2.4950      0.0612      9.3909    115.9794     26.4885
  1386.8000      8.0450      2.4604      0.0613     11.4911    116.7691     27.6781
  1386.9000      8.0450      2.4415      0.0253     12.6347    119.5186     29.4874
  1387.0000      8.0388      2.4469      0.1094     12.3067    124.4834     30.3589
  1387.1000      8.0388      2.4558      0.1601     11.7669    128.2310     29.8188
  1387.2000      8.0388      2.4362      0.1539     12.9569    126.6270     28.9876
  1387.3000      8.0132      2.3759      0.1695     16.6149    120.6558     28.2508
  1387.4000      8.0132      2.2806      0.1009     22.3855    115.0537     27.7792
  1387.5000      7.9835      2.1571      0.0231     29.8728    114.0472     28.1859
  1387.6000      7.9835      2.0109     -0.0102     38.7329    115.5183     29.5532
  1387.7000      7.9835      1.8685     -0.0937     47.3655    113.0243     30.8283
  1387.8000      7.9926      1.7670     -0.0583     53.5152    103.4753     31.1823
  1387.9000      7.9926      1.7134     -0.0581     56.7642     92.7601     31.5246
  1388.0000      8.0143      1.6953     -0.0526     57.8627     87.4428     32.5216
  1388.1000      8.0143      1.7143     -0.0171     56.7081     87.1799     33.1144
  1388.2000      8.0143      1.7740      0.0836     53.0901     91.6550     32.9369
  1388.3000      8.0423      1.8656      0.1675     47.5398    100.6717     32.9516
  1388.4000      8.0423      1.9843      0.1936     40.3453    108.9392     33.1330
  1388.5000      8.1440      2.1149      0.2461     32.4333    112.4885     33.0965
  1388.6000      8.1440      2.2181      0.2699     26.1751    112.3481     33.3320
  1388.7000      8.1440      2.2850      0.1797     22.1216    115.5525     33.8701
  1388.8000      8.1504      2.3461      0.1835     18.4196    127.5482     34.1504
  1388.9000      8.1504      2.4029      0.2032     14.9752    139.5635     33.7254
  1389.0000      8.1381      2.4331      0.1454     13.1454    142.4301     32.7209
  1389.1000      8.1381      2.4406      0.1335     12.6932    139.1636     31.8094
  1389.2000      8.1381      2.4445      0.1316     12.4572    134.4597     31.1403
  1389.3000      8.1671      2.4596      0.1171     11.5404    131.1504     30.3366
  1389.4000      8.1671      2.4913      0.0945      9.6182    128.7938     29.4185
  1389.5000      8.1576      2.5244      0.1396      7.6141    124.4080     28.7143
  1389.6000      8.1576      2.5416      0.1096      6.5673    117.7134     28.2459
  1389.7000      8.1576      2.5466      0.1225      6.2673    112.2132     28.1782
  1389.8000      8.1193      2.5433      0.1461      6.4649    110.7537     28.6216
  1389.9000      8.1193      2.5314      0.0973      7.1871    112.6292     29.2578
  1390.0000      8.1119      2.5110      0.0924      8.4224    117.7967     29.9502
  1390.1000      8.1119      2.4725      0.1015     10.7553    124.9491     30.8785
  1390.2000      8.1119      2.4127      0.0247     14.3843    128.5009     31.5266
  1390.3000      8.1275      2.3527     -0.0175     18.0184    128.0253     31.2433
  1390.4000      8.1275      2.3118      0.0253     20.4974    130.0050     30.7857
  1390.5000      8.1465      2.2823      0.0198     22.2853    134.2878     30.8137
  1390.6000      8.1465      2.2429      0.0515     24.6750    131.4953     30.4814
  1390.7000      8.1465      2.1890     -0.0088     27.9376    120.3074     29.4659
  1390.8000      8.1375      2.1334      0.0236     31.3114    111.7195     28.8287
  1390.9000      8.1375      2.0720      0.0521     35.0313    109.5766     29.2318
  1391.0000      8.1422      1.9861      0.1104     40.2370    108.1005     29.9062
  1391.1000      8.1422      1.8803      0.0284     46.6470    103.6644     30.3078
  1391.2000      8.1422      1.7841      0.0269     52.4771     95.9144     30.8178
  1391.3000      8.1523      1.6975      0.0219     57.7245     87.7620     31.6254
  1391.4000      8.1523      1.5948     -0.0176     63.9519     82.1730     32.7119
  1391.5000      8.1590      1.4870     -0.0855     70.4872     77.2170     33.9134
  1391.6000      8.1590      1.4174     -0.0688     74.7017     70.8859     34.7381
  1391.7000      8.1590      1.3939      0.0405     76.1261     66.0444     34.9285
  1391.8000      8.1538      1.3821      0.0893     76.8416     61.7894     34.4667
  1391.9000      8.1538      1.3642      0.0443     77.9247     54.1690     33.6614
