~Version Information
VERS.                      2.0: CWLS Log ASCII Standard - VERSION 2.0
WRAP.                       NO: One line per depth step
~Well Information Block
STRT.FT               298.0000: 
STOP.FT              1325.5000: 
STEP.FT                 0.2500: 
NULL.                -999.2500: 
COMP.          Pioneer Natural Resources: COMPANY
WELL.          Santa Fe 43-27 Tr: WELL
FLD.           Purgatoire River: FIELD
LOC.           2018' FSL & 534' FEL: LOCATION
PROV.                 Colorado: PROVINCE
CNTY.               Las Animas: COUNTRY
SRVC.                Patterson: SERVICE COMPANY
DATE.          Tue Mar 08 10:44:11 2005: LOG DATE
UWI.           05 071 08303 00: UNIQUE WELL ID
~Curve Information Block
DEPT.FT            0 000 00 00: Depth
SN.Ohm-m                      : IEL Short Normal
SP.mV                         : IEL Spontaneous Potential
DIR.Ohm-m                     : IEL Induction Resistivity
GR.GAPI                       : Gamma Ray
~Parameter Information Block
~A  Depth        SN          SP         DIR          GR     
# ...
  1102.0000     28.3257     46.0367     20.6310     90.4209
  1102.2500     29.9885     46.1236     21.8412     89.3552
  1102.5000     31.3571     46.2632     23.0241     87.6296
  1102.7500     32.3659     46.4154     24.1488     86.7208
  1103.0000     33.1309     46.5320     25.1806     86.2254
  1103.2500     33.8447     46.5895     26.0678     86.5555
  1103.5000     34.6041     46.6138     26.7521     87.5539
  1103.7500     35.3446     46.6644     27.1875     88.0374
  1104.0000     35.9237     46.7843     27.3455     87.7327
  1104.2500     36.2230     46.9669     27.2121     86.7611
  1104.5000     36.2154     47.1718     26.8037     85.0056
  1104.7500     35.9699     47.3637     26.1922     84.5991
  1105.0000     35.5611     47.5308     25.4965     86.4206
  1105.2500     34.9925     47.6720     24.8237     89.1780
  1105.5000     34.2154     47.7770     24.2028     94.1624
  1105.7500     33.1782     47.8262     23.5689     96.9742
  1106.0000     31.8680     47.8067     22.8202     99.0747
  1106.2500     30.3452     47.7240     21.9092     98.8297
  1106.5000     28.7269     47.5958     20.8850     96.8908
  1106.7500     27.1090     47.4390     19.8514     95.7474
  1107.0000     25.5078     47.2628     18.8947     96.4155
  1107.2500     23.8985     47.0713     18.0468     99.0025
  1107.5000     22.3043     46.8678     17.2958    105.1320
  1107.7500     20.8231     46.6533     16.6174    109.4656
  1108.0000     19.5721     46.4193     15.9999    114.7735
  1108.2500     18.6000     46.1481     15.4497    117.4760
  1108.5000     17.8346     45.8215     14.9815    120.9076
  1108.7500     17.1493     45.4303     14.6049    122.8440
  1109.0000     16.5140     44.9774     14.3181    124.6904
  1109.2500     16.0220     44.4810     14.1096    124.9463
  1109.5000     15.7508     43.9763     13.9638    123.8795
  1109.7500     15.6780     43.5117     13.8664    122.4130
  1110.0000     15.7366     43.1336     13.8056    119.6127
  1110.2500     15.8883     42.8643     13.7716    117.6573
  1110.5000     16.1328     42.6940     13.7548    114.9229
  1110.7500     16.4633     42.5940     13.7449    113.3040
  1111.0000     16.8235     42.5360     13.7288    111.3427
  1111.2500     17.1279     42.4983     13.6893    110.4870
  1111.5000     17.3221     42.4635     13.6078    109.8115
  1111.7500     17.3912     42.4215     13.4709    109.4342
  1112.0000     17.3334     42.3755     13.2740    108.6221
  1112.2500     17.1544     42.3409     13.0203    108.3087
  1112.5000     16.8575     42.3367     12.7154    109.4214
  1112.7500     16.4265     42.3752     12.3629    111.4640
  1113.0000     15.8442     42.4554     11.9651    115.6255
  1113.2500     15.1271     42.5630     11.5271    118.4779
  1113.5000     14.3407     42.6780     11.0599    122.3875
  1113.7500     13.5968     42.7904     10.5794    124.6725
  1114.0000     12.9853     42.9129     10.1021    127.3197
  1114.2500     12.4958     43.0762      9.6419    128.4620
  1114.5000     12.0579     43.3088      9.2109    129.8442
  1114.7500     11.6192     43.6169      8.8195    131.3189
  1115.0000     11.1523     43.9813      8.4760    135.4594
  1115.2500     10.6365     44.3710      8.1845    139.5049
  1115.5000     10.0721     44.7610      7.9440    146.4798
  1115.7500      9.5122     45.1402      7.7502    151.0616
  1116.0000      9.0498     45.5066      7.5974    157.0804
  1116.2500      8.7566     45.8573      7.4808    160.0772
  1116.5000      8.6537     46.1821      7.3965    162.0309
  1116.7500      8.7329     46.4614      7.3399    161.4388
  1117.0000      8.9550     46.6685      7.3054    158.9134
  1117.2500      9.2188     46.7810      7.2864    157.2881
  1117.5000      9.4019     46.7977      7.2781    155.9678
  1117.7500      9.4467     46.7462      7.2795    155.5754
  1118.0000      9.3626     46.6715      7.2965    154.6401
  1118.2500      9.1710     46.6126      7.3415    153.3383
  1118.5000      8.9047     46.5862      7.4316    150.3789
  1118.7500      8.6438     46.5867      7.5826    148.1565
  1119.0000      8.5095     46.5967      7.8044    145.4959
  1119.2500      8.6157     46.6012      8.0989    144.6696
  1119.5000      9.0333     46.5974      8.4601    145.0650
  1119.7500      9.7872     46.5953      8.8763    146.0945
  1120.0000     10.8399     46.6111      9.3325    147.5727
  1120.2500     12.0732     46.6604      9.8116    147.5720
  1120.5000     13.3357     46.7532     10.2971    144.5530
  1120.7500     14.5249     46.8912     10.7729    140.0666
  1121.0000     15.6073     47.0656     11.2211    130.2543
  1121.2500     16.5924     47.2551     11.6216    122.8760
  1121.5000     17.5228     47.4287     11.9563    113.2458
  1121.7500     18.4573     47.5524     12.2195    109.0074
  1122.0000     19.4227     47.6012     12.4241    106.6716
  1122.2500     20.3650     47.5692     12.5951    107.4718
  1122.5000     21.1423     47.4734     12.7562    110.8345
  1122.7500     21.5870     47.3486     12.9197    113.6604
  1123.0000     21.6101     47.2326     13.0870    118.0409
  1123.2500     21.2545     47.1502     13.2570    121.1867
  1123.5000     20.6523     47.1088     13.4323    126.6557
  1123.7500     19.9406     47.1041     13.6172    130.6254
  1124.0000     19.2085     47.1278     13.8090    135.9473
  1124.2500     18.4872     47.1691     13.9926    138.2709
  1124.5000     17.7669     47.2151     14.1429    138.8182
  1124.7500     17.0435     47.2548     14.2360    136.9269
  1125.0000     16.3772     47.2827     14.2615    131.1597
  1125.2500     15.9113     47.2987     14.2305    126.1753
  1125.5000     15.8476     47.3025     14.1745    118.5781
  1125.7500     16.3904     47.2877     14.1353    114.0473
  1126.0000     17.6366     47.2475     14.1568    108.5560
  1126.2500     19.4585     47.1906     14.2798    105.9607
  1126.5000     21.5077     47.1487     14.5368    103.7788
  1126.7500     23.3719     47.1571     14.9431    103.1330
  1127.0000     24.7650     47.2252     15.4831    102.2143
  1127.2500     25.6049     47.3246     16.1024    101.1435
  1127.5000     25.9743     47.4063     16.7145     99.1406
  1127.7500     26.0428     47.4336     17.2285     98.2405
  1128.0000     25.9763     47.4026     17.5820     98.6564
  1128.2500     25.8527     47.3386     17.7584    100.1664
  1128.5000     25.6452     47.2750     17.7774    103.0661
  1128.7500     25.2809     47.2383     17.6722    104.4137
  1129.0000     24.7134     47.2427     17.4717    104.7124
  1129.2500     23.9503     47.2881     17.1996    104.0948
  1129.5000     23.0491     47.3557     16.8815    103.3044
  1129.7500     22.1151     47.4092     16.5494    103.5832
  1130.0000     21.2632     47.4102     16.2367    105.6928
  1130.2500     20.5508     47.3407     15.9667    108.0626
  1130.5000     19.9841     47.2176     15.7400    112.2516
  1130.7500     19.5623     47.0823     15.5299    114.7738
  1131.0000     19.2733     46.9727     15.2943    116.7474
  1131.2500     19.0752     46.9022     14.9998    116.1853
  1131.5000     18.9065     46.8577     14.6418    112.3057
  1131.7500     18.7236     46.8108     14.2425    108.2279
  1132.0000     18.5200     46.7313     13.8320    101.5406
  1132.2500     18.3014     46.5984     13.4335     97.8341
  1132.5000     18.0627     46.4068     13.0629     95.1726
  1132.7500     17.8056     46.1629     12.7337     95.9201
  1133.0000     17.5444     45.8735     12.4578    100.4477
  1133.2500     17.2773     45.5382     12.2394    104.8003
  1133.5000     16.9707     45.1510     12.0690    111.4988
  1133.7500     16.5782     44.7081     11.9252    115.3871
  1134.0000     16.0877     44.2181     11.7831    120.0406
  1134.2500     15.5670     43.7124     11.6250    122.4317
  1134.5000     15.1315     43.2446     11.4473    124.8925
  1134.7500     14.8524     42.8710     11.2593    125.4979
  1135.0000     14.7178     42.6251     11.0766    124.3284
  1135.2500     14.6722     42.5040     10.9137    122.2011
