~Version Information
VERS.                      2.0: CWLS Log ASCII Standard - VERSION 2.0
WRAP.                       NO: One line per depth step
~Well Information Block
STRT.FT               480.0000: 
STOP.FT              1994.2000: 
STEP.FT                 0.1000: 
NULL.                -999.2500: 
COMP.          Evergreen Operating Corporation: COMPANY
WELL.          McCullough 34-32 Tr: WELL
FLD.           Purgatoire River: FIELD
LOC.           394' FSL & 2077' FEL: LOCATION
PROV.                 Colorado: PROVINCE
CNTY.               Las Animas: COUNTRY
SRVC.                Patterson: SERVICE COMPANY
DATE.          Mon Sep 20 07:30:00 2004: LOG DATE
UWI.           05 071 08157 00: UNIQUE WELL ID
~Curve Information Block
DEPT.FT            0 000 00 00: Depth
DCAL.in                       : CDL Caliper
RHOB.g/cc                     : CDL Bulk Density
RHOC.g/cc                     : CDL Density Correction
DPOR.pu                       : CDL Density Porosity
NPOR.pu                       : Neutron Porosity
GR.GAPI                       : Gamma Ray
~Parameter Information Block
~A  Depth       DCAL        RHOB        RHOC        DPOR        NPOR         GR     
# ...
  1276.8000      7.9941      2.5454      0.0605      6.3412     17.1234     50.8994
  1276.9000      7.9941      2.5615      0.0618      5.3618     17.3187     48.9903
  1277.0000      8.0021      2.5607      0.0755      5.4134     17.5840     46.5346
  1277.1000      8.0021      2.5479      0.0371      6.1904     17.8563     46.5944
  1277.2000      8.0021      2.5449      0.0283      6.3709     18.3576     49.7642
  1277.3000      7.9967      2.5549      0.0602      5.7611     18.7498     52.3440
  1277.4000      7.9967      2.5566      0.0743      5.6589     18.5523     52.1970
  1277.5000      7.9855      2.5415      0.0225      6.5755     17.8899     50.7553
  1277.6000      7.9855      2.5248      0.0172      7.5870     17.3220     51.2801
  1277.7000      7.9855      2.5197      0.0250      7.8986     17.3352     56.5603
  1277.8000      7.9744      2.5288     -0.0136      7.3462     17.9801     65.8241
  1277.9000      7.9744      2.5447      0.0260      6.3813     19.0123     75.1520
  1278.0000      7.9698      2.5575      0.0487      5.6080     20.2258     83.8015
  1278.1000      7.9698      2.5772      0.0036      4.4133     21.1743     94.2032
  1278.2000      7.9698      2.6157      0.0801      2.0760     21.4686    105.1324
  1278.3000      7.9740      2.6534      0.1020     -0.2075     21.5696    110.8846
  1278.4000      7.9740      2.6655      0.1036     -0.9395     21.8714    106.7175
  1278.5000      7.9724      2.6595      0.0696     -0.5742     22.0816     96.9657
  1278.6000      7.9724      2.6621      0.0327     -0.7347     22.0765     90.4329
  1278.7000      7.9724      2.6769      0.0937     -1.6302     21.9812     87.6995
  1278.8000      7.9685      2.6813      0.0892     -1.8959     21.5018     85.8036
  1278.9000      7.9685      2.6724      0.0858     -1.3593     20.7051     84.2465
  1279.0000      7.9690      2.6675      0.0363     -1.0584     20.5936     83.0699
  1279.1000      7.9690      2.6630      0.1131     -0.7868     21.4234     83.5941
  1279.2000      7.9690      2.6437      0.0200      0.3841     22.1351     85.9515
  1279.3000      7.9703      2.6163      0.0195      2.0404     21.7300     87.7240
  1279.4000      7.9703      2.5939      0.0057      3.3993     20.4182     87.8955
  1279.5000      7.9702      2.5855     -0.0233      3.9081     19.3143     89.7917
  1279.6000      7.9702      2.5917      0.0263      3.5336     18.7853     92.8805
  1279.7000      7.9702      2.6009     -0.0167      2.9758     18.4104     88.9442
  1279.8000      7.9683      2.6079      0.0003      2.5492     18.1628     78.9715
  1279.9000      7.9683      2.6093      0.0260      2.4664     18.1818     74.3811
  1280.0000      7.9667      2.5991      0.0320      3.0841     18.1371     78.2626
  1280.1000      7.9667      2.5852      0.0243      3.9258     17.9383     83.4255
  1280.2000      7.9667      2.5821      0.0116      4.1134     17.8086     83.4008
  1280.3000      7.9669      2.5833      0.0699      4.0413     17.4413     80.8677
  1280.4000      7.9669      2.5740      0.0178      4.6060     16.7981     81.9213
  1280.5000      7.9672      2.5657      0.0222      5.1077     16.7395     87.4869
  1280.6000      7.9672      2.5761      0.0441      4.4761     17.4243     93.0593
  1280.7000      7.9672      2.5904      0.0968      3.6144     18.1281     92.4681
  1280.8000      7.9672      2.5815      0.0989      4.1507     18.4293     86.0816
  1280.9000      7.9672      2.5593      0.0319      5.4998     18.3017     80.4557
  1281.0000      7.9653      2.5535      0.0550      5.8480     17.9486     78.6662
  1281.1000      7.9653      2.5700      0.0489      4.8473     17.7989     78.5364
  1281.2000      7.9653      2.5969      0.0871      3.2188     18.2667     76.4804
  1281.3000      7.9634      2.6232      0.0977      1.6255     19.1217     72.5381
  1281.4000      7.9634      2.6370      0.1116      0.7898     19.7071     70.5561
  1281.5000      7.9662      2.6348      0.0867      0.9209     19.5454     71.1564
  1281.6000      7.9662      2.6302      0.0837      1.2020     18.6435     71.5279
  1281.7000      7.9662      2.6270      0.1158      1.3969     17.5805     69.5038
  1281.8000      7.9696      2.6143      0.0893      2.1639     16.7721     66.3416
  1281.9000      7.9696      2.5933      0.0551      3.4390     16.0145     65.6900
  1282.0000      7.9689      2.5745      0.0830      4.5757     15.3159     68.2449
  1282.1000      7.9689      2.5701     -0.0050      4.8399     15.1438     70.9496
  1282.2000      7.9689      2.5883      0.0425      3.7399     15.7287     72.2143
  1282.3000      7.9676      2.6114      0.0763      2.3410     16.5632     72.3261
  1282.4000      7.9676      2.6139      0.0535      2.1898     17.0159     70.3384
  1282.5000      7.9674      2.5994      0.0108      3.0675     16.8482     66.6080
  1282.6000      7.9674      2.5850      0.0466      3.9386     16.5670     63.2003
  1282.7000      7.9674      2.5794     -0.0148      4.2762     16.7051     62.1296
  1282.8000      7.9667      2.5854      0.0353      3.9158     16.8151     62.7246
  1282.9000      7.9667      2.5931      0.0281      3.4513     16.4730     62.3122
  1283.0000      7.9663      2.5958      0.0426      3.2852     15.9760     59.8914
  1283.1000      7.9663      2.5967      0.0510      3.2300     15.8327     57.8139
  1283.2000      7.9663      2.5909      0.0300      3.5831     16.2983     58.7031
  1283.3000      7.9693      2.5763      0.0376      4.4647     16.9629     61.6280
  1283.4000      7.9693      2.5677     -0.0250      4.9903     17.3303     65.6671
  1283.5000      7.9697      2.5686      0.0621      4.9347     17.5247     72.7055
  1283.6000      7.9697      2.5664      0.0387      5.0641     17.5052     81.6214
  1283.7000      7.9697      2.5676      0.0187      4.9970     17.2118     89.1716
  1283.8000      7.9650      2.5783      0.0926      4.3428     16.7448     93.3908
  1283.9000      7.9650      2.5881      0.0549      3.7502     16.3458     91.1771
  1284.0000      7.9635      2.5891      0.0972      3.6902     16.4803     83.8283
  1284.1000      7.9635      2.5736      0.0732      4.6273     16.6837     76.8792
  1284.2000      7.9635      2.5518      0.0092      5.9532     16.2057     71.8041
  1284.3000      7.9652      2.5479      0.0450      6.1897     15.4984     69.5586
  1284.4000      7.9652      2.5613      0.0872      5.3744     15.1351     70.6972
  1284.5000      7.9638      2.5776      0.0722      4.3875     15.0096     72.3840
  1284.6000      7.9638      2.5911      0.0901      3.5669     14.7872     74.2600
  1284.7000      7.9638      2.6019      0.0458      2.9179     14.0338     77.4337
  1284.8000      7.9618      2.6124      0.0765      2.2804     12.7277     79.5591
  1284.9000      7.9618      2.6172      0.1046      1.9867     11.4856     75.1663
  1285.0000      7.9679      2.6176      0.0775      1.9661     10.6074     63.3183
  1285.1000      7.9679      2.6269      0.1151      1.4022      9.9241     51.6339
  1285.2000      7.9679      2.6413      0.1387      0.5256      9.5435     46.8970
  1285.3000      7.9811      2.6508      0.1016     -0.0494      9.8577     49.2395
  1285.4000      7.9811      2.6631      0.0935     -0.7911     10.6715     54.9067
  1285.5000      7.9882      2.6834      0.0757     -2.0218     11.3459     59.9709
  1285.6000      7.9882      2.6994      0.1223     -2.9964     11.8322     63.1261
  1285.7000      7.9882      2.7017      0.0552     -3.1354     12.3782     64.6373
  1285.8000      7.9864      2.6917      0.1072     -2.5253     12.8835     64.1911
  1285.9000      7.9864      2.6689      0.0502     -1.1465     13.4513     61.4830
  1286.0000      7.9828      2.6449      0.0360      0.3070     14.2544     59.6392
  1286.1000      7.9828      2.6390      0.0285      0.6694     14.6843     62.1374
  1286.2000      7.9828      2.6510      0.0438     -0.0625     14.3564     69.5878
  1286.3000      7.9816      2.6577      0.0598     -0.4654     13.9090     79.3793
