~Version Information
VERS.                      2.0: CWLS Log ASCII Standard - VERSION 2.0
WRAP.                       NO: One line per depth step
~Well Information Block
STRT.FT               500.0000: 
STOP.FT              2760.5000: 
STEP.FT                 0.1000: 
NULL.                -999.2500: 
COMP.          Petrogulf Corporation: COMPANY
WELL.              Silva 1-43V: WELL
FLD.           Purgatorie River: FIELD
LOC.           2010' FSL & 614' FEL: LOCATION
PROV.                 Colorado: PROVINCE
CNTY.               Las Animas: COUNTRY
SRVC.                Patterson: SERVICE COMPANY
DATE.          Mon Aug 29 08:02:37 2005: LOG DATE
UWI.                          : UNIQUE WELL ID
~Curve Information Block
DEPT.FT            0 000 00 00: Depth
DCAL.in                       : CDL Caliper
RHOB.g/cc                     : CDL Bulk Density
RHOC.g/cc                     : CDL Density Correction
DPOR.pu                       : CDL Density Porosity
GR.GAPI                       : Gamma Ray
NPOR.pu                       : Neutron Porosity
~Parameter Information Block
~A  Depth       DCAL        RHOB        RHOC        DPOR         GR         NPOR    
# ...
  1095.2000      8.3080      2.6954      0.0953     -2.7540    158.1951     28.8127
  1095.3000      8.3237      2.6822      0.0816     -1.9504    159.0144     28.6884
  1095.4000      8.3237      2.6568      0.0350     -0.4106    162.9168     28.4375
  1095.5000      8.3310      2.6259     -0.0178      1.4628    165.8344     28.2169
  1095.6000      8.3310      2.5941      0.0361      3.3890    163.1107     28.2279
  1095.7000      8.3310      2.5704     -0.0416      4.8229    158.1586     28.5276
  1095.8000      8.3172      2.5650      0.0565      5.1514    155.8932     28.9977
  1095.9000      8.3172      2.5673      0.0719      5.0101    153.9784     29.5051
  1096.0000      8.3139      2.5704      0.0369      4.8216    151.3915     29.8035
  1096.1000      8.3139      2.5844      0.0828      3.9772    153.7118     29.7070
  1096.2000      8.3139      2.6078      0.0889      2.5578    162.1674     29.4549
  1096.3000      8.3877      2.6223      0.1424      1.6782    169.8196     29.3776
  1096.4000      8.3877      2.6168      0.0880      2.0141    169.2029     29.5833
  1096.5000      8.4007      2.6042      0.0454      2.7788    160.1649     29.9893
  1096.6000      8.4007      2.5961      0.0798      3.2664    151.7822     30.3951
  1096.7000      8.4007      2.5889      0.0502      3.7057    151.9795     30.6462
  1096.8000      8.4473      2.5794      0.0460      4.2785    155.6113     30.6378
  1096.9000      8.4473      2.5668      0.0036      5.0418    156.5035     30.3870
  1097.0000      8.3671      2.5511      0.0043      5.9928    156.5739     30.1113
  1097.1000      8.3671      2.5353     -0.0008      6.9501    156.5014     30.0628
  1097.2000      8.3671      2.5281     -0.0147      7.3878    156.7516     30.2514
  1097.3000      8.3422      2.5399      0.0134      6.6714    158.3192     30.2133
  1097.4000      8.3422      2.5687      0.0545      4.9297    158.7085     29.7317
  1097.5000      8.3342      2.5982      0.0930      3.1424    156.1424     29.3630
  1097.6000      8.3342      2.6141      0.0996      2.1749    150.9862     29.4100
  1097.7000      8.3342      2.6204      0.0497      1.7946    145.8130     29.7044
  1097.8000      8.3613      2.6200      0.1106      1.8165    143.8987     30.1115
  1097.9000      8.3613      2.6043      0.0754      2.7695    145.7437     30.4208
  1098.0000      8.3532      2.5802      0.0326      4.2277    149.8559     30.4526
  1098.1000      8.3532      2.5597      0.0702      5.4749    152.2775     30.4505
  1098.2000      8.3532      2.5365      0.0573      6.8786    151.2306     30.7897
  1098.3000      8.3448      2.5071      0.0031      8.6592    150.5906     31.2336
  1098.4000      8.3448      2.4787      0.0553     10.3838    152.8815     31.2473
  1098.5000      8.3151      2.4526      0.0189     11.9647    157.4097     31.0631
  1098.6000      8.3151      2.4252      0.0164     13.6213    163.8014     31.3568
  1098.7000      8.3151      2.3971      0.0241     15.3270    169.1446     32.0041
  1098.8000      8.3280      2.3785     -0.0304     16.4548    169.8813     32.3907
  1098.9000      8.3280      2.3769      0.0396     16.5530    167.8085     32.4577
  1099.0000      8.3452      2.3858      0.0650     16.0106    166.4461     32.5573
  1099.1000      8.3452      2.4070      0.0914     14.7255    167.6217     32.7673
  1099.2000      8.3452      2.4525      0.1308     11.9670    169.3437     32.7339
  1099.3000      8.3839      2.5152      0.2672      8.1685    168.6689     32.1790
  1099.4000      8.3839      2.5677      0.3183      4.9884    166.9366     31.4672
  1099.5000      8.4219      2.5952      0.3253      3.3240    167.0431     31.2028
  1099.6000      8.4219      2.5991      0.3009      3.0824    169.5684     31.4518
  1099.7000      8.4219      2.5891      0.2343      3.6926    171.6452     31.9370
  1099.8000      8.4919      2.5874      0.1739      3.7915    169.9098     32.4373
  1099.9000      8.4919      2.6051      0.1933      2.7217    167.5536     32.8126
  1100.0000      8.4668      2.6196      0.2214      1.8397    168.9160     33.0797
  1100.1000      8.4668      2.6141      0.1637      2.1730    170.8748     33.2677
  1100.2000      8.4668      2.6041      0.1894      2.7836    170.5479     33.2035
  1100.3000      8.4816      2.6034      0.1679      2.8225    170.6794     32.9605
  1100.4000      8.4816      2.6057      0.1906      2.6876    173.0236     32.8631
  1100.5000      8.3875      2.6027      0.1561      2.8651    175.9655     32.8839
  1100.6000      8.3875      2.5982      0.0884      3.1407    177.7375     32.7064
  1100.7000      8.3875      2.5974      0.0493      3.1895    175.6168     32.4483
  1100.8000      8.3351      2.5954      0.0846      3.3069    170.3769     32.4062
  1100.9000      8.3351      2.5802      0.0959      4.2296    169.4410     32.3887
  1101.0000      8.3356      2.5499      0.0516      6.0650    173.4070     32.0426
  1101.1000      8.3356      2.5205      0.0348      7.8506    174.9354     31.5289
  1101.2000      8.3356      2.5092      0.0353      8.5321    173.6761     31.2145
  1101.3000      8.3327      2.5162      0.0830      8.1070    173.1764     31.2202
  1101.4000      8.3327      2.5219      0.0735      7.7623    172.9157     31.4862
  1101.5000      8.3324      2.5110      0.0593      8.4213    170.8838     31.7201
  1101.6000      8.3324      2.4918      0.0261      9.5861    166.6722     31.7110
  1101.7000      8.3324      2.4702      0.0519     10.8990    163.0207     31.5963
  1101.8000      8.3260      2.4242      0.1023     13.6877    161.3931     31.4858
  1101.9000      8.3260      2.3389      0.0325     18.8569    160.3242     31.3492
  1102.0000      8.3368      2.2266      0.0582     25.6598    159.4274     31.2524
  1102.1000      8.3368      2.0986      0.0220     33.4163    155.5620     31.2823
  1102.2000      8.3368      1.9633     -0.0196     41.6167    145.5347     31.3018
  1102.3000      8.3546      1.8315     -0.0556     49.6075    132.4554     31.3628
  1102.4000      8.3546      1.6957     -0.0713     57.8365    121.7833     31.5669
  1102.5000      8.3349      1.5429     -0.0692     67.0955    113.6190     31.7180
  1102.6000      8.3349      1.4001     -0.1329     75.7524    105.6718     31.8445
  1102.7000      8.3349      1.3135     -0.1310     80.9972     99.6324     32.1883
  1102.8000      8.3403      1.2814     -0.0206     82.9439     94.9510     32.9343
  1102.9000      8.3403      1.2645      0.0270     83.9722     88.1931     34.1132
  1103.0000      8.4176      1.2488     -0.0000     84.9212     79.4594     35.3353
  1103.1000      8.4176      1.2522      0.0004     84.7136     71.9403     35.9898
  1103.2000      8.4176      1.2847      0.0513     82.7431     68.7056     36.0106
  1103.3000      8.4708      1.3341      0.0830     79.7505     69.1490     35.9945
  1103.4000      8.4708      1.3860      0.0940     76.6051     69.5964     36.2224
  1103.5000      8.5162      1.4440      0.1026     73.0889     68.0559     36.4803
  1103.6000      8.5162      1.5224      0.1349     68.3396     66.7777     36.7047
  1103.7000      8.5162      1.6190      0.1790     62.4874     68.1239     36.8393
  1103.8000      8.5781      1.7193      0.1767     56.4051     70.9133     36.8365
  1103.9000      8.5781      1.8255      0.2001     49.9695     75.8237     36.8485
  1104.0000      8.4805      1.9438      0.1891     42.7989     84.4566     36.9086
  1104.1000      8.4805      2.0587      0.2230     35.8365     92.1639     36.7981
  1104.2000      8.4805      2.1562      0.2217     29.9291     96.1015     36.3242
  1104.3000      8.5194      2.2526      0.2182     24.0854    102.7114     35.7494
  1104.4000      8.5194      2.3626      0.2151     17.4168    114.6768     35.4153
  1104.5000      8.4982      2.4577      0.2767     11.6567    125.8546     35.2038
  1104.6000      8.4982      2.5035      0.1641      8.8815    133.8401     34.9147
  1104.7000      8.4982      2.5166      0.1094      8.0870    139.2358     34.4671
