~Version Information
VERS.                      2.0: CWLS Log ASCII Standard - VERSION 2.0
WRAP.                       NO: One line per depth step
~Well Information Block
STRT.FT                 0.5000: 
STOP.FT              2744.2500: 
STEP.FT                 0.2500: 
NULL.                -999.2500: 
COMP.          Petrogulf Corporation: COMPANY
WELL.              Silva 1-43V: WELL
FLD.           Purgatoire River: FIELD
LOC.           2010' FSL & 614' FEL--: LOCATION
PROV.                 Colorado: PROVINCE
CNTY.               Las Animas: COUNTRY
SRVC.                Patterson: SERVICE COMPANY
DATE.          Mon Sep 12 10:37:12 2005: LOG DATE
UWI.           05 071 08371 00: UNIQUE WELL ID
~Curve Information Block
DEPT.FT            0 000 00 00: Depth
CCL.                          : Casing Collar Locator
TT3.usec                      : CBL 3' Travel Time
AMP3.mV                       : CBL 3' Amplitude
GR.GAPI                       : Gamma Ray
~Parameter Information Block
~A  Depth       CCL         TT3         AMP3         GR     
# ...
  2546.5000      0.0000    710.1599      2.0409     66.0949
  2546.7500      0.0000    724.9171      2.1993     69.3669
  2547.0000      0.0000    733.7388      2.3626     69.8756
  2547.2500      0.0000    733.2337      2.5238     68.9289
  2547.5000      0.0000    725.0916      2.6848     67.8440
  2547.7500      0.0000    714.3473      2.8482     67.1896
  2548.0000      0.0000    705.1042      3.0071     66.9891
  2548.2500      0.0000    698.3088      3.1477     67.1805
  2548.5000      0.0000    692.8211      3.2632     67.9214
  2548.7500      0.0000    687.4131      3.3654     69.6212
  2549.0000      0.0000    681.6475      3.4774     72.5656
  2549.2500      0.0000    675.9525      3.6123     76.5360
  2549.5000      0.0000    671.7488      3.7619     80.9714
  2549.7500      0.0000    670.9747      3.9067     85.3301
  2550.0000      0.0000    674.4730      4.0329     89.1335
  2550.2500      0.0000    681.0917      4.1373     92.0154
  2550.5000      0.0000    688.9379      4.2188     94.0100
  2550.7500      0.0000    696.6790      4.2699     95.4635
  2551.0000      0.0000    702.8969      4.2767     96.5011
  2551.2500      0.0000    705.5844      4.2303     96.8736
  2551.5000      0.0000    703.8904      4.1378     96.3549
  2551.7500      0.0000    699.7529      4.0223     95.0088
  2552.0000      0.0000    696.4190      3.9100     93.0868
  2552.2500      0.0000    695.4191      3.8195     90.7070
  2552.5000      0.0000    695.6558      3.7640     87.6204
  2552.7500      0.0000    695.0543      3.7543     83.4387
  2553.0000      0.0000    692.4262      3.7859     78.2804
  2553.2500      0.0000    688.1633      3.8224     73.0879
  2553.5000      0.0000    683.9449      3.8106     69.0361
  2553.7500      0.0000    681.7574      3.7253     66.6379
  2554.0000      0.0000    682.6454      3.5907     65.6469
  2554.2500      0.0000    686.5030      3.4528     65.6953
  2554.5000      2.0000    693.2943      3.3397     66.6182
  2554.7500      2.0000    703.6316      3.2527     68.2286
  2555.0000      0.0000    717.0779      3.1836     70.2734
  2555.2500      0.0000    730.3111      3.1309     72.7155
  2555.5000      0.0000    738.4057      3.0987     75.7014
  2555.7500      0.0000    738.2822      3.0821     79.1927
  2556.0000      0.0000    730.5151      3.0559     82.8118
  2556.2500      0.0000    718.3364      2.9869     85.8695
  2556.5000      0.0000    705.7674      2.8629     87.4589
  2556.7500      0.0000    696.5292      2.7060     86.9321
  2557.0000      0.0000    693.6198      2.5518     84.6117
  2557.2500      0.0000    698.3289      2.4221     81.8300
  2557.5000      0.0000    708.2648      2.3203     80.1049
  2557.7500      0.0000    716.5449      2.2442     80.2971
  2558.0000      0.0000    715.0085      2.1914     82.4130
  2558.2500      0.0000    700.3298      2.1570     86.0117
  2558.5000      0.0000    677.0757      2.1340     90.7817
  2558.7500      0.0000    653.9860      2.1146     96.7660
  2559.0000      0.0000    637.4030      2.0919    103.9796
  2559.2500      0.0000    628.3785      2.0623    111.7009
  2559.5000      0.0000    624.7033      2.0300    118.1509
  2559.7500      0.0000    624.1498      2.0045    121.2501
  2560.0000      0.0000    626.1023      1.9934    120.1888
  2560.2500      0.0000    631.4788      1.9994    116.2427
  2560.5000      0.0000    641.6149      2.0209    111.7750
  2560.7500      0.0000    656.7418      2.0511    108.4660
  2561.0000      0.0000    675.3461      2.0777    106.5947
  2561.2500      0.0000    695.3028      2.0919    105.5921
  2561.5000      0.0000    715.0507      2.0974    104.7228
  2561.7500      0.0000    732.5735      2.1056    103.2556
  2562.0000      0.0000    743.9424      2.1207    100.5107
  2562.2500      0.0000    745.3369      2.1365     96.0701
  2562.5000      0.0000    737.3666      2.1467     89.9689
  2562.7500      0.0000    725.9327      2.1516     82.8456
  2563.0000      0.0000    717.9299      2.1520     76.1184
  2563.2500      0.0000    716.7995      2.1414     71.7301
  2563.5000      0.0000    722.1328      2.1113     71.0745
  2563.7500      0.0000    732.9987      2.0644     73.7927
  2564.0000      0.0000    751.0159      2.0195     77.6447
  2564.2500      0.0000    778.7606      1.9987     79.7956
  2564.5000      0.0000    813.7186      2.0085     78.6111
  2564.7500      0.0000    845.1356      2.0366     74.5681
  2565.0000      0.0000    859.3640      2.0678     69.6729
  2565.2500      0.0000    849.0353      2.0982     66.0677
  2565.5000      0.0000    817.6398      2.1310     65.1009
  2565.7500      0.0000    776.7473      2.1657     67.2479
  2566.0000      0.0000    738.7820      2.1978     72.2389
  2566.2500      0.0000    710.8503      2.2268     78.8545
  2566.5000      0.0000    693.5701      2.2601     84.9088
  2566.7500      0.0000    684.0032      2.3096     88.1712
  2567.0000      0.0000    679.0339      2.3852     87.8699
  2567.2500      0.0000    676.8466      2.4878     85.3724
  2567.5000      0.0000    676.3755      2.6063     83.1790
  2567.7500      0.0000    676.8147      2.7217     83.1206
  2568.0000      0.0000    678.4515      2.8146     85.4353
  2568.2500      0.0000    683.2537      2.8722     89.0843
  2568.5000      0.0000    692.8411      2.8912     92.4766
  2568.7500      0.0000    705.5595      2.8780     94.1794
  2569.0000      0.0000    716.5031      2.8429     93.6147
  2569.2500      0.0000    721.1584      2.7942     91.2767
  2569.5000      0.0000    719.2045      2.7356     88.1514
  2569.7500      0.0000    714.4334      2.6669     84.9705
  2570.0000      0.0000    710.4803      2.5861     82.0703
  2570.2500      0.0000    707.0263      2.4902     79.6459
  2570.5000      0.0000    701.2734      2.3783     77.8232
  2570.7500      0.0000    693.0099      2.2565     76.5290
  2571.0000      0.0000    686.4023      2.1385     75.3864
  2571.2500      0.0000    685.8646      2.0392     73.6371
  2571.5000      0.0000    691.2820      1.9687     70.3925
  2571.7500      0.0000    698.2905      1.9292     65.4416
  2572.0000      0.0000    702.5096      1.9121     59.6700
  2572.2500      0.0000    702.5302      1.9003     54.2997
  2572.5000      0.0000    699.3963      1.8785     49.9987
  2572.7500      0.0000    694.8257      1.8465     46.9531
  2573.0000      0.0000    690.5020      1.8199     45.3232
  2573.2500      0.0000    687.8686      1.8142     45.3495
  2573.5000      0.0000    687.7281      1.8325     47.4414
  2573.7500      0.0000    690.6627      1.8682     52.2585
  2574.0000      0.0000    698.8897      1.9148     60.2254
  2574.2500      0.0000    716.4869      1.9700     70.7737
  2574.5000      0.0000    745.0701      2.0336     82.2088
  2574.7500      0.0000    778.2813      2.1045     92.2390
  2575.0000      0.0000    802.8893      2.1792     98.6859
  2575.2500      0.0000    808.1066      2.2503    100.4173
  2575.5000      0.0000    794.1794      2.3075     98.2286
  2575.7500      0.0000    771.5001      2.3444     94.6193
  2576.0000      0.0000    751.9764      2.3614     92.1966
  2576.2500      0.0000    741.1960      2.3629     91.9834
  2576.5000      0.0000    737.3023      2.3551     92.9160
  2576.7500      0.0000    735.7624      2.3446     92.8576
  2577.0000      0.0000    735.0441      2.3320     90.4337
  2577.2500      0.0000    739.6771      2.3083     86.1018
  2577.5000      0.0000    757.9961      2.2654     81.4751
  2577.7500      0.0000    792.8002      2.2080     77.9859
  2578.0000      0.0000    831.7042      2.1508     76.5133
  2578.2500      0.0000    851.7271      2.1062     77.6888
  2578.5000      0.0000    839.8884      2.0786     81.7029
  2578.7500      0.0000    806.8246      2.0679     87.9345
  2579.0000      0.0000    775.1699      2.0709     95.2476
  2579.2500      0.0000    757.8401      2.0827    102.3971
  2579.5000      0.0000    752.2789      2.0976    107.9286
  2579.7500      0.0000    751.4467      2.1142    110.3851
