~Version Information
VERS.                      2.0: CWLS Log ASCII Standard - VERSION 2.0
WRAP.                       NO: One line per depth step
~Well Information Block
STRT.FT               577.8000: 
STOP.FT              2445.8000: 
STEP.FT                 0.1000: 
NULL.                -999.2500: 
COMP.          Petrogulf Corporation: COMPANY
WELL.             State 16-32V: WELL
FLD.           Purgatorie River: FIELD
LOC.           1599' FNL & 1783' FEL: LOCATION
CNTY.               Las Animas: COUNTY
SRVC.                         : SERVICE COMPANY
DATE.          Thu Jun 05 16:36:04 2003: LOG DATE
UWI.           05 071 07726 00: UNIQUE WELL ID
STAT.                 Colorado: STATE
~Curve Information Block
DEPT.FT            0 000 00 00: Depth
DCAL.in                       : Caliper from Density Tool
RHOB.g/cc                     : Bulk Density
RHOC.g/cc                     : Density Correction
DPOR.pu                       : Density Porosity
GR.GAPI                       : Gamma Ray
NPOR.pu                       : Neutron Porosity
~Parameter Information Block
~A  Depth       DCAL        RHOB        RHOC        DPOR         GR         NPOR    
# ...
   952.2000      8.0998      2.5244      0.0217      7.6148    144.9033     29.0317
   952.3000      8.1392      2.5550      0.0344      5.7576    142.9495     29.1179
   952.4000      8.1392      2.5550      0.0344      5.7576    140.9869     29.1791
   952.5000      8.1634      2.5769      0.0459      4.4332    139.0689     29.2106
   952.6000      8.1634      2.5769      0.0459      4.4332    137.2511     29.2072
   952.7000      8.1634      2.5769      0.0459      4.4332    135.5876     29.1645
   952.8000      8.1336      2.6034      0.0642      2.8226    134.1273     29.0792
   952.9000      8.1336      2.6034      0.0642      2.8226    132.9039     28.9505
   953.0000      8.0858      2.6124      0.0748      2.2780    131.9353     28.7810
   953.1000      8.0858      2.6124      0.0748      2.2780    131.2198     28.5770
   953.2000      8.0858      2.6124      0.0748      2.2780    130.7413     28.3488
   953.3000      8.0903      2.6088      0.0846      2.4983    130.4747     28.1099
   953.4000      8.0903      2.6088      0.0846      2.4983    130.3933     27.8760
   953.5000      8.0993      2.5962      0.0860      3.2580    130.4760     27.6633
   953.6000      8.0993      2.5962      0.0860      3.2580    130.7131     27.4867
   953.7000      8.0993      2.5962      0.0860      3.2580    131.1016     27.3582
   953.8000      8.0646      2.5700      0.0814      4.8501    131.6452     27.2850
   953.9000      8.0646      2.5700      0.0814      4.8501    132.3450     27.2693
   954.0000      8.0716      2.5531      0.0756      5.8706    133.1922     27.3071
   954.1000      8.0716      2.5531      0.0756      5.8706    134.1648     27.3886
   954.2000      8.0716      2.5531      0.0756      5.8706    135.2257     27.4999
   954.3000      8.0858      2.5364      0.0677      6.8823    136.3252     27.6236
   954.4000      8.0858      2.5364      0.0677      6.8823    137.4090     27.7411
   954.5000      8.0550      2.5327      0.0652      7.1073    138.4243     27.8351
   954.6000      8.0550      2.5327      0.0652      7.1073    139.3295     27.8910
   954.7000      8.0550      2.5327      0.0652      7.1073    140.0954     27.8990
   954.8000      8.0345      2.5360      0.0674      6.9075    140.7112     27.8554
   954.9000      8.0345      2.5360      0.0674      6.9075    141.1796     27.7626
   955.0000      8.0329      2.5408      0.0716      6.6181    141.5143     27.6293
   955.1000      8.0329      2.5408      0.0716      6.6181    141.7349     27.4685
   955.2000      8.0329      2.5408      0.0716      6.6181    141.8627     27.2964
   955.3000      8.0551      2.5465      0.0780      6.2737    141.9161     27.1298
   955.4000      8.0551      2.5465      0.0780      6.2737    141.9093     26.9844
   955.5000      8.0651      2.5481      0.0806      6.1743    141.8519     26.8727
   955.6000      8.0651      2.5481      0.0806      6.1743    141.7506     26.8035
   955.7000      8.0651      2.5481      0.0806      6.1743    141.6092     26.7810
   955.8000      8.0838      2.5490      0.0818      6.1230    141.4336     26.8052
   955.9000      8.0838      2.5490      0.0818      6.1230    141.2299     26.8726
   956.0000      8.0753      2.5501      0.0824      6.0517    141.0076     26.9772
   956.1000      8.0753      2.5501      0.0824      6.0517    140.7746     27.1115
   956.2000      8.0753      2.5501      0.0824      6.0517    140.5390     27.2678
   956.3000      8.0269      2.5540      0.0861      5.8205    140.3030     27.4382
   956.4000      8.0269      2.5540      0.0861      5.8205    140.0629     27.6151
   956.5000      8.0097      2.5568      0.0910      5.6492    139.8075     27.7910
   956.6000      8.0097      2.5568      0.0910      5.6492    139.5205     27.9589
   956.7000      8.0097      2.5568      0.0910      5.6492    139.1864     28.1114
   956.8000      8.0196      2.5576      0.1002      5.5973    138.7928     28.2418
   956.9000      8.0196      2.5576      0.1002      5.5973    138.3375     28.3439
   957.0000      8.0300      2.5538      0.1057      5.8275    137.8323     28.4132
   957.1000      8.0300      2.5538      0.1057      5.8275    137.3030     28.4479
   957.2000      8.0300      2.5538      0.1057      5.8275    136.7884     28.4492
   957.3000      7.9980      2.5401      0.1098      6.6590    136.3324     28.4215
   957.4000      7.9980      2.5401      0.1098      6.6590    135.9783     28.3726
   957.5000      7.9572      2.5265      0.1092      7.4872    135.7646     28.3118
   957.6000      7.9572      2.5265      0.1092      7.4872    135.7143     28.2489
   957.7000      7.9572      2.5265      0.1092      7.4872    135.8344     28.1925
   957.8000      7.9407      2.5032      0.1046      8.8989    136.1174     28.1478
   957.9000      7.9407      2.5032      0.1046      8.8989    136.5393     28.1163
   958.0000      7.9404      2.4888      0.1014      9.7675    137.0703     28.0950
   958.1000      7.9404      2.4888      0.1014      9.7675    137.6763     28.0775
   958.2000      7.9404      2.4888      0.1014      9.7675    138.3266     28.0558
   958.3000      7.9737      2.4734      0.1005     10.7011    138.9992     28.0217
   958.4000      7.9737      2.4734      0.1005     10.7011    139.6868     27.9695
   958.5000      8.0204      2.4680      0.1035     11.0307    140.3905     27.8974
   958.6000      8.0204      2.4680      0.1035     11.0307    141.1229     27.8081
   958.7000      8.0204      2.4680      0.1035     11.0307    141.8987     27.7091
   958.8000      8.0263      2.4649      0.1114     11.2200    142.7280     27.6111
   958.9000      8.0263      2.4649      0.1114     11.2200    143.6083     27.5265
   959.0000      8.0288      2.4638      0.1155     11.2819    144.5181     27.4673
   959.1000      8.0288      2.4638      0.1155     11.2819    145.4134     27.4438
   959.2000      8.0288      2.4638      0.1155     11.2819    146.2293     27.4626
   959.3000      8.0609      2.4615      0.1137     11.4270    146.8817     27.5269
   959.4000      8.0609      2.4615      0.1137     11.4270    147.2767     27.6350
   959.5000      8.0978      2.4600      0.1053     11.5154    147.3181     27.7817
   959.6000      8.0978      2.4600      0.1053     11.5154    146.9172     27.9580
   959.7000      8.0978      2.4600      0.1053     11.5154    146.0010     28.1520
   959.8000      8.0753      2.4630      0.0838     11.3337    144.5204     28.3493
   959.9000      8.0753      2.4630      0.0838     11.3337    142.4579     28.5339
   960.0000      8.0397      2.4724      0.0679     10.7627    139.8300     28.6889
   960.1000      8.0397      2.4724      0.0679     10.7627    136.6897     28.7977
   960.2000      8.0397      2.4724      0.0679     10.7627    133.1271     28.8448
   960.3000      8.0423      2.5020      0.0513      8.9683    129.2616     28.8172
   960.4000      8.0423      2.5020      0.0513      8.9683    125.2349     28.7056
   960.5000      8.0132      2.5304      0.0492      7.2509    121.1993     28.5050
   960.6000      8.0132      2.5304      0.0492      7.2509    117.3019     28.2159
   960.7000      8.0132      2.5304      0.0492      7.2509    113.6742     27.8446
   960.8000      8.0182      2.5737      0.0596      4.6224    110.4166     27.4030
   960.9000      8.0182      2.5737      0.0596      4.6224    107.5969     26.9081
   961.0000      8.0606      2.5940      0.0716      3.3915    105.2436     26.3809
   961.1000      8.0606      2.5940      0.0716      3.3915    103.3510     25.8446
   961.2000      8.0606      2.5940      0.0716      3.3915    101.8878     25.3233
   961.3000      8.0772      2.6023      0.0886      2.8880    100.8044     24.8395
   961.4000      8.0772      2.6023      0.0886      2.8880    100.0468     24.4124
   961.5000      8.1019      2.5942      0.0962      3.3788     99.5633     24.0568
   961.6000      8.1019      2.5942      0.0962      3.3788     99.3118     23.7822
   961.7000      8.1019      2.5942      0.0962      3.3788     99.2646     23.5923
