~Version Information
VERS.                      2.0: CWLS Log ASCII Standard - VERSION 2.0
WRAP.                       NO: One line per depth step
~Well Information Block
STRT.FT               362.0000: 
STOP.FT               983.0000: 
STEP.FT                 0.1000: 
NULL.                -999.2500: 
COMP.          Pioneer Natural Resources: COMPANY
WELL.             Tomcat 32-10: WELL
FLD.           Purgatoire River: FIELD
LOC.           2286' FNL & 2463' FEL: LOCATION
PROV.                 Colorado: PROVINCE
CNTY.               Las Animas: COUNTRY
SRVC.                Patterson: SERVICE COMPANY
DATE.          Tue Mar 22 11:24:45 2005: LOG DATE
UWI.           05 071 08301 00: UNIQUE WELL ID
~Curve Information Block
DEPT.FT            0 000 00 00: Depth
DCAL.in                       : CDL Caliper
RHOB.g/cc                     : CDL Bulk Density
RHOC.g/cc                     : CDL Density Correction
DPOR.pu                       : CDL Density Porosity
GR.GAPI                       : Gamma Ray
NPOR.pu                       : Neutron Porosity
~Parameter Information Block
~A  Depth       DCAL        RHOB        RHOC        DPOR         GR         NPOR    
# ...
   890.0000      7.9819      2.4875      0.0737      9.8469     84.6661     23.8214
   890.1000      7.9819      2.4904      0.0198      9.6715     84.6171     24.2323
   890.2000      7.9819      2.4908      0.0058      9.6503     85.5708     24.3244
   890.3000      7.9765      2.4809     -0.0104     10.2514     84.9555     24.0704
   890.4000      7.9765      2.4590      0.0182     11.5787     83.3682     23.8568
   890.5000      7.9795      2.4426     -0.0799     12.5700     82.5553     23.8580
   890.6000      7.9795      2.4479     -0.0335     12.2487     82.9626     23.9281
   890.7000      7.9795      2.4596     -0.0505     11.5418     84.5127     23.9425
   890.8000      8.0070      2.4610     -0.0082     11.4532     86.3328     23.9003
   890.9000      8.0070      2.4615     -0.0532     11.4237     86.3566     24.1760
   891.0000      8.0155      2.4717     -0.0048     10.8083     83.9914     25.0599
   891.1000      8.0155      2.4859      0.0043      9.9437     82.7811     25.9680
   891.2000      8.0155      2.4948      0.0343      9.4055     85.1421     25.9957
   891.3000      8.0133      2.4956      0.0055      9.3602     86.1878     25.2748
   891.4000      8.0133      2.4885      0.0295      9.7886     82.7339     24.7935
   891.5000      8.0015      2.4730      0.0181     10.7256     81.4239     24.9971
   891.6000      8.0015      2.4564     -0.0402     11.7332     86.0124     25.5656
   891.7000      8.0015      2.4515     -0.0647     12.0276     90.2827     25.9881
   891.8000      7.9992      2.4591      0.0068     11.5704     90.9445     26.0040
   891.9000      7.9992      2.4683     -0.0452     11.0101     91.4235     25.8669
   892.0000      7.9806      2.4735      0.0108     10.6962     91.8748     25.8329
   892.1000      7.9806      2.4717     -0.0114     10.8046     92.4498     25.9095
   892.2000      7.9806      2.4706      0.0012     10.8742     93.7546     26.0093
   892.3000      7.9500      2.4852     -0.0298      9.9851     93.0978     25.9734
   892.4000      7.9500      2.5127      0.0306      8.3183     90.2689     25.7724
   892.5000      7.9137      2.5274      0.0307      7.4333     87.1006     25.7682
   892.6000      7.9137      2.5183      0.0504      7.9822     84.1958     26.0858
   892.7000      7.9137      2.5085      0.0100      8.5771     81.8674     26.2507
   892.8000      7.8894      2.5256      0.0158      7.5377     79.0235     26.0463
   892.9000      7.8894      2.5722      0.1084      4.7157     75.7143     25.6153
   893.0000      7.8720      2.6209      0.1667      1.7633     74.3352     24.9720
   893.1000      7.8720      2.6401      0.1412      0.5986     76.3045     24.3252
   893.2000      7.8720      2.6277      0.1318      1.3520     79.9761     24.1117
   893.3000      7.8657      2.6096      0.0868      2.4459     82.9170     24.2268
   893.4000      7.8657      2.6085      0.0720      2.5124     83.6251     24.2060
   893.5000      7.8801      2.6156      0.1184      2.0836     81.2824     24.2951
   893.6000      7.8801      2.6044      0.0845      2.7650     78.3928     24.8796
   893.7000      7.8801      2.5692      0.0210      4.8945     76.6860     25.6472
   893.8000      7.9030      2.5276     -0.0211      7.4207     73.9471     26.2114
   893.9000      7.9030      2.4910      0.0249      9.6366     71.1913     26.4010
   894.0000      7.9230      2.4632     -0.0050     11.3202     71.3722     26.3304
   894.1000      7.9230      2.4629     -0.0749     11.3403     74.4968     26.1807
   894.2000      7.9230      2.4975      0.0170      9.2398     78.9569     25.9481
   894.3000      7.9235      2.5415      0.0433      6.5767     83.2570     25.5793
   894.4000      7.9235      2.5796      0.0185      4.2665     83.6667     25.2200
   894.5000      7.9281      2.6159      0.0708      2.0695     78.5635     25.2149
   894.6000      7.9281      2.6378      0.0784      0.7395     73.4545     25.3671
   894.7000      7.9281      2.6246      0.1110      1.5387     71.3810     25.2041
   894.8000      7.9172      2.5878      0.0208      3.7710     70.9350     24.9712
   894.9000      7.9172      2.5646      0.0041      5.1769     73.8026     25.1031
   895.0000      7.9153      2.5617      0.0278      5.3496     81.4593     25.4434
   895.1000      7.9153      2.5561      0.0274      5.6895     89.4101     25.7307
   895.2000      7.9153      2.5457      0.0074      6.3210     90.7697     25.9913
   895.3000      7.9134      2.5442      0.0428      6.4132     86.0499     26.1354
   895.4000      7.9134      2.5473      0.0024      6.2236     81.3900     25.8448
   895.5000      7.9198      2.5451     -0.0022      6.3597     78.4821     25.2471
   895.6000      7.9198      2.5385      0.0553      6.7577     76.5119     24.9117
   895.7000      7.9198      2.5333      0.0456      7.0735     76.3036     25.0187
   895.8000      7.9186      2.5302      0.0180      7.2601     76.1529     25.2885
   895.9000      7.9186      2.5346      0.0009      6.9936     74.2192     25.4027
   896.0000      7.9164      2.5569      0.0121      5.6419     71.3390     25.3104
   896.1000      7.9164      2.5779      0.0483      4.3722     68.0042     25.1337
   896.2000      7.9164      2.5690      0.0166      4.9089     67.7082     25.1039
   896.3000      7.9154      2.5468     -0.0105      6.2570     72.9304     25.4441
   896.4000      7.9154      2.5380      0.0022      6.7855     78.0762     25.9048
   896.5000      7.9189      2.5403     -0.0110      6.6469     78.5195     26.0157
   896.6000      7.9189      2.5466      0.0553      6.2672     76.2170     25.9068
   896.7000      7.9189      2.5547      0.0269      5.7737     74.1225     26.0191
   896.8000      7.9314      2.5608      0.0339      5.4068     73.9549     26.3510
   896.9000      7.9314      2.5592      0.0307      5.5023     74.9064     26.6472
   897.0000      7.9297      2.5517      0.0149      5.9548     76.2764     26.7277
   897.1000      7.9297      2.5500      0.0373      6.0633     77.6020     26.5890
   897.2000      7.9297      2.5552      0.0177      5.7480     77.5903     26.2074
   897.3000      7.9288      2.5556      0.0459      5.7210     76.2934     25.6323
   897.4000      7.9288      2.5532      0.0039      5.8651     75.6587     25.3227
   897.5000      7.9263      2.5619      0.0499      5.3408     76.9318     25.5006
   897.6000      7.9263      2.5673      0.0491      5.0150     78.5883     25.8678
   897.7000      7.9263      2.5456     -0.0133      6.3300     79.9737     26.0968
   897.8000      7.9123      2.5133     -0.0305      8.2870     82.7114     26.0021
   897.9000      7.9123      2.5027     -0.0329      8.9266     86.3965     25.6489
   898.0000      7.9118      2.5175      0.0035      8.0286     88.7047     25.3807
   898.1000      7.9118      2.5384      0.0385      6.7634     88.3280     25.5044
   898.2000      7.9118      2.5495      0.0147      6.0927     85.0565     25.8638
   898.3000      7.9150      2.5515      0.0131      5.9680     81.4488     26.1341
   898.4000      7.9150      2.5431      0.0446      6.4812     80.6824     26.1644
   898.5000      7.9147      2.5170     -0.0188      8.0612     81.3274     26.0745
   898.6000      7.9147      2.4883     -0.0568      9.7999     82.2986     26.1135
   898.7000      7.9147      2.4793     -0.0335     10.3478     85.1053     26.1199
   898.8000      7.9209      2.4938     -0.0032      9.4656     88.3293     25.7050
   898.9000      7.9209      2.5262     -0.0107      7.5009     88.5010     24.9809
   899.0000      7.9341      2.5585      0.0375      5.5463     85.0303     24.6495
   899.1000      7.9341      2.5660      0.0420      5.0899     79.0213     25.0876
   899.2000      7.9341      2.5520     -0.0231      5.9393     72.8952     25.7366
   899.3000      7.9351      2.5335      0.0190      7.0581     72.1592     25.8984
   899.4000      7.9351      2.5163     -0.0220      8.1049     77.7330     25.7463
   899.5000      7.9364      2.5055     -0.0405      8.7570     81.9439     25.7485
