~Version Information
VERS.                      2.0: CWLS Log ASCII Standard - VERSION 2.0
WRAP.                       NO: One line per depth step
~Well Information Block
STRT.FT               340.0000: 
STOP.FT              1542.5000: 
STEP.FT                 0.2500: 
NULL.                -999.2500: 
COMP.          Petrogulf Corporation: COMPANY
WELL.            Montoya 7-21R: WELL
FLD.           Purgatorie River: FIELD
LOC.           445' FNL & 1942' FWL: LOCATION
PROV.                 Colorado: PROVINCE
CNTY.               Las Animas: COUNTRY
SRVC.                Patterson: SERVICE COMPANY
DATE.          Thu Sep 15 10:37:42 2005: LOG DATE
UWI.                          : UNIQUE WELL ID
~Curve Information Block
DEPT.FT            0 000 00 00: Depth
SP.mV                         : DIL Spontaneous Potential
RILD.Ohm-m                    : DIL Deep Resistivity
RILM.Ohm-m                    : DIL Medium Resistivity
RLL3.Ohm-m                    : DIL Shallow Resistivity
GR.GAPI                       : Gamma Ray
~Parameter Information Block
~A  Depth        SP         RILD        RILM        RLL3         GR     
# ...
   424.0000   2000.0000     14.5139     15.2472   2000.0000    154.1125
   424.2500   2000.0000     14.8434     15.1103   2000.0000    144.7529
   424.5000   2000.0000     14.9984     14.8079   2000.0000    133.2048
   424.7500   2000.0000     15.3890     14.9282   2000.0000    116.3640
   425.0000   2000.0000     15.4599     15.0165   2000.0000    126.6020
   425.2500   2000.0000     15.5953     15.3877   2000.0000    136.8722
   425.5000   2000.0000     15.9139     15.9684   2000.0000    145.7341
   425.7500   2000.0000     16.2160     15.5046   2000.0000    147.3983
   426.0000   2000.0000     16.4304     16.2020   2000.0000    161.5492
   426.2500   2000.0000     16.4417     16.5732   2000.0000    167.8004
   426.5000   2000.0000     16.3961     16.2153   2000.0000    149.5520
   426.7500   2000.0000     16.2998     16.7447   2000.0000    148.5476
   427.0000   2000.0000     16.6730     16.6421   2000.0000    155.9921
   427.2500   2000.0000     16.6547     16.7441   2000.0000    135.6818
   427.5000   2000.0000     16.8977     16.8807   2000.0000    133.3825
   427.7500   2000.0000     17.2605     17.0213   2000.0000    145.6096
   428.0000   2000.0000     17.4119     17.1172   2000.0000    170.4526
   428.2500   2000.0000     17.7542     17.4290   2000.0000    174.5788
   428.5000   2000.0000     17.8250     17.5469   2000.0000    152.5988
   428.7500   2000.0000     18.4214     17.5127   2000.0000    147.3307
   429.0000   2000.0000     18.8058     17.6475   2000.0000    143.1434
   429.2500   2000.0000     19.2959     18.2250   2000.0000    120.1920
   429.5000   2000.0000     20.0388     18.7030   2000.0000    144.7365
   429.7500   2000.0000     20.3316     19.6118   2000.0000    145.7197
   430.0000   2000.0000     21.2605     20.7495   2000.0000    156.4594
   430.2500   2000.0000     21.5180     22.0400   2000.0000    149.9715
   430.5000   2000.0000     22.0305     23.3132   2000.0000    122.3907
   430.7500   2000.0000     22.7762     24.5970   2000.0000    132.7019
   431.0000   2000.0000     23.6802     25.0191   2000.0000    165.9432
   431.2500   2000.0000     24.8080     26.8457   2000.0000    145.9467
   431.5000   2000.0000     25.5194     27.6984   2000.0000    135.6699
   431.7500   2000.0000     27.1806     28.5948   2000.0000    136.8615
   432.0000   2000.0000     28.3562     30.4779   2000.0000    135.8563
   432.2500   2000.0000     29.5021     32.5481   2000.0000    144.5098
   432.5000   2000.0000     31.3166     34.6703   2000.0000    125.5783
   432.7500   2000.0000     33.3476     38.4827   2000.0000    138.0291
   433.0000   2000.0000     35.0198     40.2699   2000.0000    133.5542
   433.2500   2000.0000     36.3415     41.3185   2000.0000    128.2307
   433.5000   2000.0000     38.1584     43.5868   2000.0000    123.5058
   433.7500   2000.0000     39.1693     45.3352   2000.0000    114.0949
   434.0000   2000.0000     42.8034     45.9566   2000.0000     84.2362
   434.2500   2000.0000     44.8818     49.7734   2000.0000     92.0712
   434.5000   2000.0000     47.9087     53.7133   2000.0000    124.8612
   434.7500   2000.0000     50.2847     58.4592   2000.0000    130.6947
   435.0000   2000.0000     51.2524     65.1116   2000.0000    125.4680
   435.2500   2000.0000     55.8380     69.3927   2000.0000    105.3440
   435.5000   2000.0000     54.7971     75.7257   2000.0000     94.0666
   435.7500   2000.0000     56.0993     76.3382   2000.0000     88.4780
   436.0000   2000.0000     58.7819     81.3265   2000.0000     86.2509
   436.2500   2000.0000     64.5694     86.5147   2000.0000     70.1422
   436.5000   2000.0000     63.4184     90.0977   2000.0000     79.7368
   436.7500   2000.0000     65.2774    102.1994   2000.0000     84.9354
   437.0000   2000.0000     65.5837    103.6051   2000.0000     73.0209
   437.2500   2000.0000     65.3380    111.4393   2000.0000     60.5174
   437.5000   2000.0000     67.3462    106.2288   2000.0000     67.7496
   437.7500   2000.0000     65.3052    102.7238   2000.0000     89.9785
   438.0000   2000.0000     66.1161    105.8815   2000.0000     71.7202
   438.2500   2000.0000     66.0429    103.1323   2000.0000     68.5823
   438.5000   2000.0000     58.9009    106.1632   2000.0000     58.2337
   438.7500   2000.0000     57.0213    101.3423   2000.0000     52.5305
   439.0000   2000.0000     52.5052     89.3160   2000.0000     76.5519
   439.2500   2000.0000     45.2361     77.4875   2000.0000     65.4624
   439.5000   2000.0000     41.5517     64.3297   2000.0000     74.7422
   439.7500   2000.0000     36.6440     55.2396   2000.0000     66.5680
   440.0000   2000.0000     33.5762     47.8138   2000.0000     48.9425
   440.2500   2000.0000     30.4719     38.6211   2000.0000     47.8797
   440.5000   2000.0000     27.0212     31.2133   2000.0000     60.5636
   440.7500   2000.0000     25.6471     26.1604   2000.0000     72.6184
   441.0000   2000.0000     24.1896     22.3576   2000.0000     91.4198
   441.2500   2000.0000     23.1051     20.1236   2000.0000     97.7708
   441.5000   2000.0000     21.8973     18.2948   2000.0000    151.7362
   441.7500   2000.0000     21.2318     17.1013   2000.0000    193.2705
   442.0000   2000.0000     20.5002     16.3613   2000.0000    181.3676
   442.2500   2000.0000     19.4804     16.2066   2000.0000    192.5861
   442.5000   2000.0000     18.6135     15.9403   2000.0000    197.3944
   442.7500   2000.0000     17.6083     15.7624   2000.0000    203.8175
   443.0000   2000.0000     17.2037     15.6984   2000.0000    207.3634
   443.2500   2000.0000     17.1421     15.6197   2000.0000    187.6392
   443.5000   2000.0000     17.1456     15.4481   2000.0000    187.3356
   443.7500   2000.0000     16.8435     15.5277   2000.0000    182.6458
   444.0000   2000.0000     17.0493     15.6738   2000.0000    213.9071
   444.2500   2000.0000     16.7622     15.8183   2000.0000    190.7786
   444.5000   2000.0000     16.6804     16.5531   2000.0000    202.4753
   444.7500   2000.0000     16.5768     17.1758   2000.0000    211.2776
   445.0000   2000.0000     16.5770     17.3456   2000.0000    188.5015
   445.2500   2000.0000     16.3442     17.2434   2000.0000    161.2655
   445.5000   2000.0000     16.0100     16.9226   2000.0000    149.3488
   445.7500   2000.0000     15.9060     16.0357   2000.0000    150.6019
   446.0000   2000.0000     16.2061     15.3336   2000.0000    136.6349
   446.2500   2000.0000     15.5540     14.6903   2000.0000    145.6842
   446.5000   2000.0000     15.4852     14.1796   2000.0000    155.1184
   446.7500   2000.0000     15.6606     13.8100   2000.0000    159.8243
   447.0000   2000.0000     15.5229     13.3664   2000.0000    171.5650
   447.2500   2000.0000     15.2901     13.1708   2000.0000    168.7004
   447.5000   2000.0000     15.2420     13.1608   2000.0000    158.8381
   447.7500   2000.0000     15.1316     12.6432   2000.0000    155.8357
   448.0000   2000.0000     15.2524     12.5942   2000.0000    137.7264
   448.2500   2000.0000     15.2206     12.7754   2000.0000    132.3273
   448.5000   2000.0000     15.2086     13.0792   2000.0000    153.6891
   448.7500   2000.0000     15.2853     13.4371   2000.0000    148.2055
   449.0000   2000.0000     15.1026     13.7583   2000.0000    157.3287
   449.2500   2000.0000     15.3856     14.3493   2000.0000    138.1159
   449.5000   2000.0000     15.5930     14.5597   2000.0000    134.3472
   449.7500   2000.0000     16.1768     14.7797   2000.0000    151.3391
   450.0000   2000.0000     16.6149     14.2820   2000.0000    146.7378
   450.2500   2000.0000     17.1528     14.6086   2000.0000    145.7317
   450.5000   2000.0000     17.6854     15.1235   2000.0000    136.7631
   450.7500   2000.0000     18.3674     15.6593   2000.0000    140.2218
   451.0000   2000.0000     18.9764     16.2264   2000.0000    123.3300
   451.2500   2000.0000     19.4115     17.0775   2000.0000    137.8249
   451.5000   2000.0000     19.3022     17.9886   2000.0000    146.6483
   451.7500   2000.0000     19.1183     18.8607   2000.0000    138.6634
