~Version Information
VERS.                      2.0: CWLS Log ASCII Standard - VERSION 2.0
WRAP.                       NO: One line per depth step
~Well Information Block
STRT.FT                -8.2500: 
STOP.FT              1175.7500: 
STEP.FT                 0.2500: 
NULL.                -999.2500: 
COMP.          Evergreen Operating Corporation: COMPANY
WELL.             Justin 32-10: WELL
FLD.           Purgatorie River: FIELD
LOC.           2994' FNL & 1449' FEL: LOCATION
PROV.                 Colorado: PROVINCE
CNTY.               Las Animas: COUNTRY
SRVC.                         : SERVICE COMPANY
DATE.          Wed Sep 29 10:00:10 2004: LOG DATE
UWI.           05 071 08053 00: UNIQUE WELL ID
~Curve Information Block
DEPT.FT            0 000 00 00: Depth
GR.GAPI                       : Gamma Ray
CCL.                          : Casing Collar Locator
TT3.usec                      : CBL 3' Travel Time
AMP3.mV                       : CBL 3' Amplitude
~Parameter Information Block
~A  Depth        GR         CCL         TT3         AMP3    
# ...
   293.2500    110.4254      0.0000    825.1972      5.3404
   293.5000    115.6313      0.0000    858.2589      5.5060
   293.7500    117.4828      0.0000    884.5901      5.6907
   294.0000    115.8497      0.0000    898.1331      5.8563
   294.2500    112.6706      0.0000    900.5521      5.9629
   294.5000    111.0336      0.0000    897.7060      6.0000
   294.7500    113.3046      0.0000    896.1992      5.9872
   295.0000    119.4772      0.0000    899.4693      5.9613
   295.2500    126.7681      0.0000    905.9468      5.9570
   295.5000    131.1395      0.0000    911.3501      5.9873
   295.7500    130.1867      0.0000    912.7041      6.0341
   296.0000    124.9357      0.0000    910.6943      6.0607
   296.2500    118.7676      0.0000    909.1094      6.0431
   296.5000    114.7084      0.0000    911.1238      5.9905
   296.7500    113.6387      0.0000    914.0427      5.9343
   297.0000    114.3108      0.0000    907.0016      5.9035
   297.2500    114.5461      0.0000    874.8903      5.9122
   297.5000    112.7375      0.0000    807.0568      5.9628
   297.7500    108.7160      0.0000    706.4410      6.0494
   298.0000    103.3396      0.0000    592.4756      6.1596
   298.2500     97.2483      0.0000    491.8099      6.2749
   298.5000     90.2850      0.0000    422.1575      6.3755
   298.7500     82.4540      0.0000    384.1665      6.4489
   299.0000     75.2000      0.0000    367.0845      6.4982
   299.2500     71.0075      0.0000    359.0443      6.5386
   299.5000     71.5538      0.0000    352.5538      6.5873
   299.7500     76.5575      0.0000    344.8521      6.6534
   300.0000     84.2478      0.0000    336.3825      6.7341
   300.2500     92.4613      0.0000    328.9133      6.8156
   300.5000     99.3435      0.0000    323.7574      6.8825
   300.7500    103.6412      0.0000    321.0010      6.9289
   301.0000    104.8596      0.0000    319.8663      6.9644
   301.2500    103.3173      0.0000    319.4944      7.0088
   301.5000     99.9741      0.0000    319.3611      7.0827
   301.7500     95.9670      0.0000    319.2550      7.2001
   302.0000     92.1789      0.0000    319.1159      7.3612
   302.2500     89.2190      0.0000    318.9329      7.5526
   302.5000     87.6922      0.0000    318.7144      7.7574
   302.7500     88.2690      0.0000    318.4869      7.9661
   303.0000     91.3787      0.0000    318.3189      8.1715
   303.2500     96.7443      0.0000    318.3906      8.3557
   303.5000    103.1599      0.0000    319.3945      8.4899
   303.7500    108.8642      0.0000    323.6048      8.5479
   304.0000    112.5729      0.0000    336.5815      8.5133
   304.2500    114.3936      0.0000    367.7192      8.3725
   304.5000    115.5163      0.0000    426.3365      8.1124
   304.7500    116.7394      0.0000    513.4603      7.7326
   305.0000    117.2718      0.0000    617.1555      7.2636
   305.2500    115.1250      0.0000    719.0449      6.7693
   305.5000    108.7562      0.0000    806.8054      6.3261
   305.7500     98.3694      0.0000    879.5632      5.9953
   306.0000     85.9442      0.0000    942.3577      5.8066
   306.2500     74.2769      0.0000    997.5068      5.7548
   306.5000     65.7905      0.0000   1040.5497      5.8081
   306.7500     61.8944      0.0000   1062.5854      5.9243
   307.0000     63.0912      0.0000   1055.9015      6.0743
   307.2500     69.0905      0.0000   1017.1547      6.2615
   307.5000     78.5249      0.0000    945.7139      6.5241
   307.7500     88.8895      0.0000    842.4572      6.9117
   308.0000     97.2660      0.0000    714.8736      7.4489
   308.2500    101.4656      0.0000    582.2166      8.1063
   308.5000    101.0033      0.0000    469.1232      8.7946
   308.7500     97.2741      0.0000    391.1078      9.3813
   309.0000     92.4880      0.0000    347.6761      9.7344
   309.2500     88.2024      0.0000    328.3951      9.7820
   309.5000     84.8948      0.0000    323.0126      9.5533
   309.7500     82.4558      0.0000    327.6229      9.1534
   310.0000     80.5208      0.0000    346.6141      8.6907
   310.2500     78.7623      0.0000    391.0975      8.2272
   310.5000     77.5525      0.0000    470.9665      7.7869
   310.7500     78.0722      0.0000    581.3517      7.3887
   311.0000     81.2209      0.0000    694.8384      7.0542
   311.2500     86.4916      0.0000    772.5328      6.7946
   311.5000     92.1813      0.0000    790.2059      6.6031
   311.7500     96.6579      0.0000    757.4147      6.4699
   312.0000     99.5085      0.0000    708.9902      6.4043
   312.2500    101.6121      0.0000    672.3110      6.4401
   312.5000    103.9299      0.0000    642.6713      6.6117
   312.7500    106.2530      0.0000    596.0710      6.9192
   313.0000    107.6050      0.0000    523.5275      7.3100
   313.2500    107.7451      0.0000    443.0916      7.6972
   313.5000    107.6348      0.0000    379.4387      8.0021
   313.7500    108.4499      0.0000    342.2950      8.1884
   314.0000    110.6286      0.0000    325.9396      8.2605
   314.2500    113.8569      0.0000    320.6052      8.2396
   314.5000    117.5285      0.0000    320.0951      8.1465
   314.7500    120.9949      0.0000    322.9637      8.0059
   315.0000    123.5269      0.0000    331.7751      7.8482
   315.2500    124.3895      0.0000    353.4365      7.6954
   315.5000    123.3241      0.0000    398.6563      7.5384
   315.7500    121.0620      0.0000    475.6415      7.3363
   316.0000    119.0750      0.0000    578.9673      7.0531
   316.2500    118.4351      0.0000    686.3060      6.7019
   316.5000    118.9617      0.0000    772.1515      6.3523
   316.7500    119.6502      0.0000    826.0710      6.0878
   317.0000    119.5633      0.0000    855.8947      5.9487
   317.2500    118.1313      0.0000    875.4653      5.9090
   317.5000    115.2830      0.0000    891.6667      5.9041
   317.7500    111.8340      0.0000    901.7919      5.8864
   318.0000    109.3409      0.0000    902.1478      5.8559
   318.2500    109.0402      0.0000    897.3262      5.8445
   318.5000    110.8511      0.0000    896.3358      5.8798
   318.7500    113.3849      0.0000    897.2550      5.9672
   319.0000    114.8996      0.0000    879.8063      6.0964
   319.2500    114.4840      0.0000    820.0121      6.2538
   319.5000    112.6278      0.0000    714.8973      6.4268
   319.7500    110.6664      0.0000    590.5544      6.5960
   320.0000    109.6507      0.0000    484.1971      6.7333
   320.2500    109.8483      0.0000    420.0639      6.8162
   320.5000    111.1231      0.0000    400.7031      6.8467
   320.7500    113.2506      0.0000    412.4394      6.8456
   321.0000    115.6939      0.0000    433.3210      6.8294
   321.2500    117.6420      0.0000    442.1431      6.7959
   321.5000    118.9446      0.0000    430.0522      6.7324
   321.7500    120.9233      0.0000    404.9428      6.6307
   322.0000    125.3689      0.0000    381.4374      6.4978
   322.2500    132.1391      0.0000    367.6145      6.3571
   322.5000    138.1850      0.0000    362.3714      6.2385
   322.7500    139.6613      0.0000    361.2430      6.1627
   323.0000    135.1389      0.0000    361.0399      6.1340
   323.2500    126.5479      0.0000    360.2208      6.1476
   323.5000    117.1487      0.0000    357.7599      6.1990
   323.7500    109.2561      0.0000    352.8635      6.2832
   324.0000    104.0836      0.0000    345.5526      6.3897
   324.2500    102.5354      0.0000    337.1540      6.5011
   324.5000    104.9093      0.0000    329.6448      6.5993
   324.7500    110.1392      0.0000    324.3720      6.6734
   325.0000    116.1662      0.0000    321.4257      6.7240
   325.2500    121.1255      0.0000    320.0879      6.7613
   325.5000    124.1998      0.0000    319.5901      6.7956
   325.7500    125.7303      0.0000    319.4750      6.8269
   326.0000    126.4540      0.0000    319.5963      6.8433
   326.2500    126.3474      0.0000    320.1021      6.8271
   326.5000    124.6361      0.0000    321.5298      6.7675
