~Version Information
VERS.                      2.0: CWLS Log ASCII Standard - VERSION 2.0
WRAP.                       NO: One line per depth step
~Well Information Block
STRT.FT               706.1000: 
STOP.FT              2370.0000: 
STEP.FT                 0.1000: 
NULL.                -999.2500: 
COMP.          Petrogulf Corporation: COMPANY
WELL.             State 16-12V: WELL
FLD.           Purgatorie River: FIELD
LOC.           1992' FNL & 1237' FWL: LOCATION
CNTY.               Las Animas: COUNTY
SRVC.                         : SERVICE COMPANY
DATE.          Thu Aug 04 09:34:25 2005: LOG DATE
UWI.           05-071-08016-00: UNIQUE WELL ID
STAT.                 Colorado: STATE
~Curve Information Block
DEPT.FT            0 000 00 00: Depth
DCAL.in                       : CDL Caliper
DPOR.pu                       : CDL Density Porosity
GR.GAPI                       : Gamma Ray
NPOR.pu                       : Neutron Porosity
RHOB.g/cc                     : CDL Bulk Density
RHOC.g/cc                     : CDL Density Correction
~Parameter Information Block
~A  Depth       DCAL        DPOR         GR         NPOR        RHOB        RHOC    
# ...
  1906.1000      7.9258      4.5027     97.3512     24.1878      2.5757      0.0769
  1906.2000      7.9258      4.7268     96.1180     23.8693      2.5720      0.0777
  1906.3000      7.8672      5.0760     97.7282     23.6993      2.5662      0.1145
  1906.4000      7.8672      5.4060    101.1269     24.0363      2.5608      0.0489
  1906.5000      7.9694      4.7697    105.3947     24.5476      2.5713      0.0609
  1906.6000      7.9694      3.4884    109.7715     24.7028      2.5924      0.1318
  1906.7000      7.9694      2.7407    112.6936     24.6410      2.6048      0.0974
  1906.8000      7.9626      2.8253    110.4534     24.5952      2.6034      0.0846
  1906.9000      7.9626      3.8848    104.1009     24.4896      2.5859      0.1102
  1907.0000      7.9835      5.5849     99.1685     24.4508      2.5578      0.0378
  1907.1000      7.9835      6.6820     97.0761     24.6417      2.5397      0.0486
  1907.2000      7.9835      7.3135     96.3486     24.8822      2.5293      0.1151
  1907.3000      7.8730      8.7985     95.5074     25.1309      2.5048      0.1036
  1907.4000      7.8730     10.5414     93.2789     25.6382      2.4761      0.0746
  1907.5000      7.7981     10.3782     91.0469     26.3114      2.4788      0.0498
  1907.6000      7.7981      7.5703     91.2456     26.7595      2.5251      0.1490
  1907.7000      7.7981      3.1100     92.3062     26.8391      2.5987      0.1746
  1907.8000      7.7275     -1.6666     92.0251     26.7432      2.6775      0.2749
  1907.9000      7.7275     -4.8786     91.7016     26.6378      2.7305      0.3357
  1908.0000      7.7441     -4.9273     93.5071     26.4479      2.7313      0.3034
  1908.1000      7.7441     -2.3326     97.9543     26.0811      2.6885      0.2071
  1908.2000      7.7441      1.1369    102.5447     25.4356      2.6312      0.1439
  1908.3000      7.7682      4.2832    103.6982     24.3894      2.5793      0.0906
  1908.4000      7.7682      6.2183    100.8836     23.1702      2.5474      0.0278
  1908.5000      7.8164      6.5332     98.2840     22.2724      2.5422      0.0473
  1908.6000      7.8164      6.0694     99.8032     21.9322      2.5499      0.0438
  1908.7000      7.8164      5.8470    104.0734     21.9664      2.5535      0.0759
  1908.8000      7.8796      6.1616    108.4484     22.1753      2.5483      0.1015
  1908.9000      7.8796      6.6255    111.8732     22.4596      2.5407      0.0938
  1909.0000      7.8773      6.3101    113.0962     22.6498      2.5459      0.0662
  1909.1000      7.8773      5.0505    112.1139     22.7932      2.5667      0.1845
  1909.2000      7.8773      3.8628    112.0078     23.1637      2.5863      0.1697
  1909.3000      7.8495      3.0174    112.9596     23.7710      2.6002      0.1459
  1909.4000      7.8495      2.4223    112.5881     24.3324      2.6100      0.2030
  1909.5000      7.8491      2.8728    111.5090     24.6311      2.6026      0.1662
  1909.6000      7.8491      4.7007    108.8267     24.7241      2.5724      0.1243
  1909.7000      7.8491      6.8864    105.6772     24.6816      2.5364      0.0855
  1909.8000      7.8463      8.0398    107.2550     24.4900      2.5173      0.0890
  1909.9000      7.8463      7.6091    110.8059     24.3516      2.5245      0.0871
  1910.0000      7.8483      6.2971    110.4947     24.2155      2.5461      0.1298
  1910.1000      7.8483      5.4081    109.1079     23.9107      2.5608      0.1708
  1910.2000      7.8483      5.4252    110.9519     23.7254      2.5605      0.1377
  1910.3000      7.8416      5.4347    114.0993     23.8609      2.5603      0.1169
  1910.4000      7.8416      4.5745    115.5554     23.9931      2.5745      0.1635
  1910.5000      7.8568      3.0281    113.0511     23.9051      2.6000      0.1581
  1910.6000      7.8568      1.7783    106.6081     23.8511      2.6207      0.2097
  1910.7000      7.8568      1.9054    102.3985     24.1547      2.6186      0.2166
  1910.8000      7.8046      2.9966    104.1510     24.5369      2.6006      0.1380
  1910.9000      7.8046      3.7985    106.6935     24.4791      2.5873      0.1299
  1911.0000      7.8419      4.1673    106.4075     24.3071      2.5812      0.1341
  1911.1000      7.8419      4.2391    105.2358     24.5371      2.5801      0.0583
  1911.2000      7.8419      3.8179    103.4854     24.9617      2.5870      0.1038
  1911.3000      7.8561      3.5585    101.3658     25.1712      2.5913      0.1386
  1911.4000      7.8561      3.6680    100.9418     25.0754      2.5895      0.1047
  1911.5000      7.8501      2.9412    101.4262     24.7751      2.6015      0.1046
  1911.6000      7.8501      1.2120    100.0051     24.4506      2.6300      0.1845
  1911.7000      7.8501     -0.2612     97.7538     24.2215      2.6543      0.1635
  1911.8000      7.7890     -0.8571     97.2176     23.9958      2.6641      0.1850
  1911.9000      7.7890     -0.5295     97.3269     23.7793      2.6587      0.1604
  1912.0000      7.8520      0.4973     95.8930     23.6793      2.6418      0.1101
  1912.1000      7.8520      1.6794     93.7274     23.5714      2.6223      0.1363
  1912.2000      7.8520      2.5575     92.3655     23.3762      2.6078      0.0977
  1912.3000      7.8245      2.9428     91.5506     23.2376      2.6014      0.1027
  1912.4000      7.8245      2.9544     91.7332     23.2527      2.6013      0.0825
  1912.5000      7.8551      2.4955     93.1665     23.4254      2.6088      0.0773
  1912.6000      7.8551      1.5985     95.8700     23.7115      2.6236      0.1457
  1912.7000      7.8551      0.8919     99.0288     23.8668      2.6353      0.1502
  1912.8000      7.8479      0.5032    100.1896     23.6304      2.6417      0.1222
  1912.9000      7.8479      0.0497    101.5620     23.3185      2.6492      0.1290
  1913.0000      7.8442     -0.3695    106.0017     23.2871      2.6561      0.1524
  1913.1000      7.8442     -0.0835    110.5193     23.2844      2.6514      0.1511
  1913.2000      7.8442      1.4397    113.0777     23.1081      2.6262      0.1656
  1913.3000      7.8561      3.4552    114.6001     23.0545      2.5930      0.1174
  1913.4000      7.8561      4.7765    115.1127     23.3755      2.5712      0.1212
  1913.5000      7.8537      5.9677    116.1927     23.8345      2.5515      0.1542
  1913.6000      7.8537      7.9482    119.7703     24.1436      2.5189      0.0682
  1913.7000      7.8537      9.6441    122.8127     24.2930      2.4909      0.0074
  1913.8000      7.8706      9.8815    122.2710     24.2710      2.4870      0.0185
  1913.9000      7.8706      9.4200    118.1988     24.1391      2.4946      0.0626
  1914.0000      7.9409      9.2649    111.8594     24.0640      2.4971      0.0441
  1914.1000      7.9409      8.9736    106.8327     24.1021      2.5019      0.0364
  1914.2000      7.9409      8.2732    105.4116     24.1828      2.5135      0.0877
  1914.3000      7.9174      7.8426    106.2273     24.2769      2.5206      0.1101
  1914.4000      7.9174      7.6012    106.6376     24.3393      2.5246      0.1393
  1914.5000      7.8231      6.8064    106.8810     24.4335      2.5377      0.1356
  1914.6000      7.8231      5.3797    108.3920     24.5702      2.5612      0.1690
  1914.7000      7.8231      4.3426    108.7732     24.3185      2.5783      0.2208
  1914.8000      7.7985      4.9360    106.2151     23.6796      2.5686      0.2039
  1914.9000      7.7985      7.0921    102.6155     23.3127      2.5330      0.1799
  1915.0000      7.7652      9.4781    102.0842     23.4934      2.4936      0.1231
  1915.1000      7.7652     10.9534    105.8405     23.9434      2.4693      0.1056
  1915.2000      7.7652     10.7878    108.8871     24.2919      2.4720      0.1133
  1915.3000      7.7719      7.8160    106.7949     24.3402      2.5210      0.0838
  1915.4000      7.7719      2.0554    101.9467     24.1777      2.6161      0.2060
  1915.5000      7.8127     -3.4612     98.7894     24.0421      2.7071      0.3583
  1915.6000      7.8127     -5.4734     97.8302     23.9572      2.7403      0.3568
