~Version Information
VERS.                      2.0: CWLS Log ASCII Standard - VERSION 2.0
WRAP.                       NO: One line per depth step
~Well Information Block
STRT.FT               -12.0000: 
STOP.FT              2137.5000: 
STEP.FT                 0.2500: 
NULL.                -999.2500: 
COMP.          Pioneer Natural Resources: COMPANY
WELL.           Ogallela 44-12: WELL
FLD.           Purgatorie River: FIELD
LOC.           610' FSL & 671' FEL------------: LOCATION
PROV.                       CO: PROVINCE
CNTY.               Las Animas: COUNTRY
SRVC.          Patterson Wireline: SERVICE COMPANY
DATE.          Thu Apr 07 14:25:46 2005: LOG DATE
UWI.           05 071 08283 00: UNIQUE WELL ID
~Curve Information Block
DEPT.FT            0 000 00 00: Depth
CCL.                          : Casing Collar Locator
TT3.usec                      : CBL 3' Travel Time
AMP3.mV                       : CBL 3' Amplitude
ATT3.db/ft                    : CBL 3' Attenuation
GR.GAPI                       : Gamma Ray
~Parameter Information Block
~A  Depth       CCL         TT3         AMP3        ATT3         GR     
# ...
   548.0000      0.0000    265.1632     67.7919     -0.9712    101.0279
   548.2500      0.0000    265.1779     67.7468     -0.9731    101.9081
   548.5000      0.0000    265.2028     67.6413     -0.9776    104.9181
   548.7500      0.0000    265.2410     67.4726     -0.9849    109.1828
   549.0000      0.0000    265.2909     67.2687     -0.9936    112.8360
   549.2500      0.0000    265.3462     67.0774     -1.0019    113.8821
   549.5000      0.0000    265.3989     66.9424     -1.0077    111.8065
   549.7500      0.0000    265.4421     66.8852     -1.0102    108.2434
   550.0000      0.0000    265.4704     66.9019     -1.0095    105.7371
   550.2500      0.0000    265.4774     66.9692     -1.0065    105.7127
   550.5000      0.0000    265.4583     67.0553     -1.0028    107.6600
   550.7500      0.0000    265.4130     67.1340     -0.9994    109.9938
   551.0000      0.0000    265.3475     67.1942     -0.9968    111.2621
   551.2500      0.0000    265.2729     67.2367     -0.9950    110.6618
   551.5000      0.0000    265.2025     67.2664     -0.9937    107.9897
   551.7500      0.0000    265.1501     67.2842     -0.9930    103.4661
   552.0000      0.0000    265.1263     67.2827     -0.9930     97.5731
   552.2500      0.0000    265.1350     67.2472     -0.9945     91.0274
   552.5000      0.0000    265.1707     67.1674     -0.9980     84.8914
   552.7500      0.0000    265.2173     67.0505     -1.0030     80.4816
   553.0000      0.0000    265.2532     66.9235     -1.0085     78.7257
   553.2500      0.0000    265.2593     66.8230     -1.0129     79.3787
   553.5000      0.0000    265.2297     66.7812     -1.0147     81.2045
   553.7500      0.0000    265.1758     66.8131     -1.0133     83.3476
   554.0000      0.0000    265.1213     66.9041     -1.0094     86.3374
   554.2500      0.0000    265.0908     67.0082     -1.0049     91.3895
   554.5000      0.0000    265.0978     67.0645     -1.0024     98.7757
   554.7500      0.0000    265.1404     67.0270     -1.0040    107.0090
   555.0000      0.0000    265.2019     66.8916     -1.0099    113.5235
   555.2500      0.0000    265.2590     66.6984     -1.0183    116.3844
   555.5000      0.0000    265.2914     66.5065     -1.0266    115.7150
   555.7500      0.0000    265.2906     66.3583     -1.0331    113.2657
   556.0000      0.0000    265.2619     66.2664     -1.0371    110.4450
   556.2500      0.0000    265.2185     66.2300     -1.0387    107.1561
   556.5000      0.0000    265.1735     66.2556     -1.0376    102.4809
   556.7500      0.0000    265.1365     66.3543     -1.0332     95.7377
   557.0000      0.0000    265.1161     66.5120     -1.0264     86.8072
   557.2500      0.0000    265.1212     66.6696     -1.0195     76.2973
   557.5000      0.0000    265.1582     66.7441     -1.0163     65.8232
   557.7500      0.0000    265.2248     66.6822     -1.0190     57.7122
   558.0000      0.0000    265.3083     66.4986     -1.0270     53.9489
   558.2500      0.0000    265.3908     66.2651     -1.0371     55.1260
   558.5000      0.0000    265.4578     66.0620     -1.0460     60.1284
   558.7500      0.0000    265.5037     65.9390     -1.0514     66.6854
   559.0000      0.0000    265.5313     65.9126     -1.0526     72.4071
   559.2500      0.0000    265.5446     65.9855     -1.0494     75.7778
   559.5000      0.0000    265.5443     66.1594     -1.0418     76.5874
   559.7500      0.0000    265.5269     66.4289     -1.0300     75.5422
   560.0000      0.0000    265.4911     66.7648     -1.0154     73.6278
   560.2500      0.0000    265.4431     67.1086     -1.0005     72.0228
   560.5000      0.0000    265.3951     67.3891     -0.9884     72.1245
   560.7500      0.0000    265.3603     67.5512     -0.9815     74.7441
   561.0000      0.0000    265.3461     67.5807     -0.9802     79.0627
   561.2500      0.0000    265.3513     67.5153     -0.9830     82.8854
   561.5000      0.0000    265.3678     67.4315     -0.9866     84.2688
   561.7500      0.0000    265.3840     67.4033     -0.9878     82.9778
   562.0000      0.0000    265.3878     67.4627     -0.9853     80.3912
   562.2500      0.0000    265.3697     67.5964     -0.9795     78.0847
   562.5000      0.0000    265.3288     67.7721     -0.9720     76.6536
   562.7500      0.0000    265.2754     67.9592     -0.9641     75.8091
   563.0000      0.0000    265.2277     68.1253     -0.9570     75.1662
   563.2500      0.0000    265.2041     68.2275     -0.9526     74.7471
   563.5000      0.0000    265.2144     68.2266     -0.9527     74.9494
   563.7500      0.0000    265.2545     68.1224     -0.9571     76.1816
   564.0000      0.0000    265.3060     67.9664     -0.9637     78.4431
   564.2500      0.0000    265.3448     67.8324     -0.9695     81.2439
   564.5000      0.0000    265.3540     67.7718     -0.9720     84.0057
   564.7500      0.0000    265.3341     67.7928     -0.9712     86.5409
   565.0000      0.0000    265.3018     67.8689     -0.9679     89.0101
   565.2500      0.0000    265.2778     67.9619     -0.9639     91.2984
   565.5000      0.0000    265.2751     68.0403     -0.9606     92.6557
   565.7500      0.0000    265.2956     68.0846     -0.9587     92.3951
   566.0000      0.0000    265.3348     68.0818     -0.9588     90.8462
   566.2500      0.0000    265.3852     68.0255     -0.9612     89.0906
   566.5000      0.0000    265.4357     67.9295     -0.9653     87.8695
   566.7500      0.0000    265.4714     67.8374     -0.9692     87.2787
   567.0000      0.0000    265.4797     67.8039     -0.9707     87.3027
   567.2500      0.0000    265.4605     67.8557     -0.9685     87.9625
   567.5000      0.0000    265.4281     67.9683     -0.9637     89.1179
   567.7500      0.0000    265.4032     68.0806     -0.9589     90.7337
   568.0000      0.0000    265.4017     68.1300     -0.9568     93.1872
   568.2500      0.0000    265.4281     68.0795     -0.9589     96.8892
   568.5000      0.0000    265.4744     67.9317     -0.9652    101.5404
   568.7500      0.0000    265.5227     67.7349     -0.9736    105.7918
   569.0000      0.0000    265.5521     67.5669     -0.9808    107.6616
   569.2500      0.0000    265.5495     67.4968     -0.9838    105.6340
   569.5000      0.0000    265.5167     67.5484     -0.9816     99.9122
   569.7500      0.0000    265.4691     67.6917     -0.9755     92.7864
   570.0000      0.0000    265.4301     67.8550     -0.9685     87.2729
   570.2500      0.0000    265.4208     67.9521     -0.9644     84.7617
   570.5000      0.0000    265.4497     67.9261     -0.9655     84.0305
   570.7500      0.0000    265.5047     67.7924     -0.9712     82.8357
   571.0000      0.0000    265.5580     67.6343     -0.9779     80.2356
   571.2500      0.0000    265.5844     67.5414     -0.9819     77.1219
   571.5000      0.0000    265.5770     67.5484     -0.9816     74.9522
   571.7500      0.0000    265.5499     67.6308     -0.9781     74.4840
   572.0000      0.0000    265.5258     67.7414     -0.9733     75.5225
   572.2500      0.0000    265.5223     67.8433     -0.9690     77.3453
   572.5000      0.0000    265.5435     67.9202     -0.9657     79.1408
   572.7500      0.0000    265.5788     67.9790     -0.9632     80.1898
   573.0000      0.0000    265.6091     68.0447     -0.9604     80.0154
   573.2500      0.0000    265.6173     68.1414     -0.9563     78.6955
   573.5000      0.0000    265.5989     68.2713     -0.9508     77.0475
   573.7500      0.0000    265.5663     68.4114     -0.9449     76.3759
   574.0000      0.0000    265.5410     68.5271     -0.9400     77.7855
   574.2500      0.0000    265.5418     68.5895     -0.9373     81.4144
   574.5000      0.0000    265.5731     68.5906     -0.9373     86.2473
   574.7500      0.0000    265.6216     68.5506     -0.9390     90.8994
   575.0000      0.0000    265.6642     68.5043     -0.9409     94.6978
   575.2500      0.0000    265.6815     68.4780     -0.9420     97.7729
   575.5000      0.0000    265.6671     68.4868     -0.9417    100.0315
   575.7500      0.0000    265.6276     68.5452     -0.9392    100.5749
