~Version Information
VERS.                      2.0: CWLS Log ASCII Standard - VERSION 2.0
WRAP.                       NO: One line per depth step
~Well Information Block
STRT.FT               860.0000: 
STOP.FT              2733.7500: 
STEP.FT                 0.2500: 
NULL.                -999.2500: 
COMP.          Pioneer Natural Resources: COMPANY
WELL.          Beacon 11-18 Tr: WELL
FLD.           Purgatoire River: FIELD
LOC.           409' FNL & 203' FWL: LOCATION
PROV.                 Colorado: PROVINCE
CNTY.               Las Animas: COUNTRY
SRVC.                Patterson: SERVICE COMPANY
DATE.          Sun Jan 16 19:36:19 2005: LOG DATE
UWI.           05 071 08251 00: UNIQUE WELL ID
~Curve Information Block
DEPT.FT            0 000 00 00: Depth
SN.Ohm-m                      : IEL Short Normal
SP.mV                         : IEL Spontaneous Potential
DIR.Ohm-m                     : IEL Induction Resistivity
GR.GAPI                       : Gamma Ray
~Parameter Information Block
~A  Depth        SN          SP         DIR          GR     
# ...
  1094.5000   2000.0000   2000.0000     14.5543    114.8935
  1094.7500   2000.0000   2000.0000     14.6071    115.0320
  1095.0000   2000.0000   2000.0000     14.6860    116.2076
  1095.2500   2000.0000   2000.0000     14.7798    118.0845
  1095.5000   2000.0000   2000.0000     14.8601    122.3898
  1095.7500   2000.0000   2000.0000     14.8929    125.6229
  1096.0000   2000.0000   2000.0000     14.8599    129.9448
  1096.2500   2000.0000   2000.0000     14.7744    132.2557
  1096.5000   2000.0000   2000.0000     14.6775    135.1076
  1096.7500   2000.0000   2000.0000     14.6153    136.8204
  1097.0000   2000.0000   2000.0000     14.6123    139.2670
  1097.2500   2000.0000   2000.0000     14.6623    140.7659
  1097.5000   2000.0000   2000.0000     14.7388    142.6020
  1097.7500   2000.0000   2000.0000     14.8157    143.4438
  1098.0000   2000.0000   2000.0000     14.8803    144.0797
  1098.2500   2000.0000   2000.0000     14.9289    144.0593
  1098.5000   2000.0000   2000.0000     14.9559    143.1214
  1098.7500   2000.0000   2000.0000     14.9501    141.7202
  1099.0000   2000.0000   2000.0000     14.9035    138.4977
  1099.2500   2000.0000   2000.0000     14.8211    135.8565
  1099.5000   2000.0000   2000.0000     14.7216    131.7458
  1099.7500   2000.0000   2000.0000     14.6297    129.1884
  1100.0000   2000.0000   2000.0000     14.5674    125.7010
  1100.2500   2000.0000   2000.0000     14.5512    123.3560
  1100.5000   2000.0000   2000.0000     14.5908    119.3512
  1100.7500   2000.0000   2000.0000     14.6868    116.4095
  1101.0000   2000.0000   2000.0000     14.8272    112.3118
  1101.2500   2000.0000   2000.0000     14.9913    110.3579
  1101.5000   2000.0000   2000.0000     15.1603    109.2329
  1101.7500   2000.0000   2000.0000     15.3293    109.5425
  1102.0000   2000.0000   2000.0000     15.5124    110.3550
  1102.2500   2000.0000   2000.0000     15.7360    110.2542
  1102.5000   2000.0000   2000.0000     16.0263    108.4359
  1102.7500   2000.0000   2000.0000     16.3950    106.3084
  1103.0000   2000.0000   2000.0000     16.8320    102.5389
  1103.2500   2000.0000   2000.0000     17.3065    100.0287
  1103.5000   2000.0000   2000.0000     17.7795     96.6721
  1103.7500   2000.0000   2000.0000     18.2141     94.8806
  1104.0000   2000.0000   2000.0000     18.5768     93.1029
  1104.2500   2000.0000   2000.0000     18.8324     92.6443
  1104.5000   2000.0000   2000.0000     18.9495     93.2734
  1104.7500   2000.0000   2000.0000     18.9222     94.7164
  1105.0000   2000.0000   2000.0000     18.7908     98.4810
  1105.2500   2000.0000   2000.0000     18.6378    101.8462
  1105.5000   2000.0000   2000.0000     18.5531    107.2332
  1105.7500   2000.0000   2000.0000     18.5871    110.2558
  1106.0000   2000.0000   2000.0000     18.7206    112.7939
  1106.2500   2000.0000   2000.0000     18.8700    112.9967
  1106.5000   2000.0000   2000.0000     18.9346    111.7954
  1106.7500   2000.0000   2000.0000     18.8608    110.7548
  1107.0000   2000.0000   2000.0000     18.6781    110.0956
  1107.2500   2000.0000   2000.0000     18.4804    110.6405
  1107.5000   2000.0000   2000.0000     18.3745    112.6214
  1107.7500   2000.0000   2000.0000     18.4325    113.9973
  1108.0000   2000.0000   2000.0000     18.6661    114.3275
  1108.2500   2000.0000   2000.0000     19.0275    112.2969
  1108.5000   2000.0000   2000.0000     19.4370    105.0376
  1108.7500   2000.0000   2000.0000     19.8260     98.0281
  1109.0000   2000.0000   2000.0000     20.1690     86.9089
  1109.2500   2000.0000   2000.0000     20.4798     80.7027
  1109.5000   2000.0000   2000.0000     20.7805     74.7497
  1109.7500   2000.0000   2000.0000     21.0741     72.9700
  1110.0000   2000.0000   2000.0000     21.3403     72.1711
  1110.2500   2000.0000   2000.0000     21.5537     71.8132
  1110.5000   2000.0000   2000.0000     21.7027     70.4018
  1110.7500   2000.0000   2000.0000     21.7902     68.8416
  1111.0000   2000.0000   2000.0000     21.8221     66.1127
  1111.2500   2000.0000   2000.0000     21.7986     64.3462
  1111.5000   2000.0000   2000.0000     21.7205     62.0044
  1111.7500   2000.0000   2000.0000     21.6006     60.6104
  1112.0000   2000.0000   2000.0000     21.4683     58.5650
  1112.2500   2000.0000   2000.0000     21.3618     57.1839
  1112.5000   2000.0000   2000.0000     21.3130     55.3656
  1112.7500   2000.0000   2000.0000     21.3336     54.6406
  1113.0000   2000.0000   2000.0000     21.4089     54.6305
  1113.2500   2000.0000   2000.0000     21.5050     55.2759
  1113.5000   2000.0000   2000.0000     21.5871     56.7698
  1113.7500   2000.0000   2000.0000     21.6387     57.7833
  1114.0000   2000.0000   2000.0000     21.6671     58.8510
  1114.2500   2000.0000   2000.0000     21.6956     59.2009
  1114.5000   2000.0000   2000.0000     21.7465     59.5633
  1114.7500   2000.0000   2000.0000     21.8289     59.9641
  1115.0000   2000.0000   2000.0000     21.9346     60.8083
  1115.2500   2000.0000   2000.0000     22.0412     61.2570
  1115.5000   2000.0000   2000.0000     22.1190     61.2467
  1115.7500   2000.0000   2000.0000     22.1388     60.6806
  1116.0000   2000.0000   2000.0000     22.0798     59.2251
  1116.2500   2000.0000   2000.0000     21.9386     58.1343
  1116.5000   2000.0000   2000.0000     21.7336     56.8225
  1116.7500   2000.0000   2000.0000     21.4978     56.3992
  1117.0000   2000.0000   2000.0000     21.2622     56.6512
  1117.2500   2000.0000   2000.0000     21.0382     57.3316
  1117.5000   2000.0000   2000.0000     20.8134     58.6222
  1117.7500   2000.0000   2000.0000     20.5608     59.3827
  1118.0000   2000.0000   2000.0000     20.2563     60.4719
  1118.2500   2000.0000   2000.0000     19.8925     61.6408
  1118.5000   2000.0000   2000.0000     19.4846     65.3777
  1118.7500   2000.0000   2000.0000     19.0669     70.0522
  1119.0000   2000.0000   2000.0000     18.6803     81.2263
  1119.2500   2000.0000   2000.0000     18.3553     91.0971
  1119.5000   2000.0000   2000.0000     18.0980    107.2601
  1119.7500   2000.0000   2000.0000     17.8892    117.2224
  1120.0000   2000.0000   2000.0000     17.6974    128.6285
  1120.2500   2000.0000   2000.0000     17.4984    133.1691
  1120.5000   2000.0000   2000.0000     17.2874    135.3349
  1120.7500   2000.0000   2000.0000     17.0781    134.3247
  1121.0000   2000.0000   2000.0000     16.8949    130.8982
  1121.2500   2000.0000   2000.0000     16.7664    128.2110
  1121.5000   2000.0000   2000.0000     16.7232    124.1874
  1121.7500   2000.0000   2000.0000     16.7949    121.5179
  1122.0000   2000.0000   2000.0000     17.0046    117.4722
  1122.2500   2000.0000   2000.0000     17.3608    114.7149
  1122.5000   2000.0000   2000.0000     17.8498    110.3674
  1122.7500   2000.0000   2000.0000     18.4345    107.2903
  1123.0000   2000.0000   2000.0000     19.0620    102.5737
  1123.2500   2000.0000   2000.0000     19.6773     99.6093
  1123.5000   2000.0000   2000.0000     20.2350     96.1574
  1123.7500   2000.0000   2000.0000     20.7048     95.0584
  1124.0000   2000.0000   2000.0000     21.0731     95.7971
  1124.2500   2000.0000   2000.0000     21.3427     97.7155
  1124.5000   2000.0000   2000.0000     21.5275    101.6482
  1124.7500   2000.0000   2000.0000     21.6417    104.1465
  1125.0000   2000.0000   2000.0000     21.6914    106.4706
  1125.2500   2000.0000   2000.0000     21.6768    106.7355
  1125.5000   2000.0000   2000.0000     21.6039    105.6976
  1125.7500   2000.0000   2000.0000     21.4919    104.7323
  1126.0000   2000.0000   2000.0000     21.3726    103.4954
  1126.2500   2000.0000   2000.0000     21.2826    102.5137
  1126.5000   2000.0000   2000.0000     21.2547    100.1045
  1126.7500   2000.0000   2000.0000     21.3087     98.0307
  1127.0000   2000.0000   2000.0000     21.4442     95.2485
  1127.2500   2000.0000   2000.0000     21.6391     93.9769
  1127.5000   2000.0000   2000.0000     21.8583     92.6203
  1127.7500   2000.0000   2000.0000     22.0707     91.6494
