~Version Information
VERS.                      2.0: CWLS Log ASCII Standard - VERSION 2.0
WRAP.                       NO: One line per depth step
~Well Information Block
STRT.FT               265.0000: 
STOP.FT              1214.0000: 
STEP.FT                 0.2500: 
NULL.                -999.2500: 
COMP.          Pioneer Natural Resources: COMPANY
WELL.          Pacheco 33-27 Tr: WELL
FLD.           Purgatoire River: FIELD
LOC.           2251' FSL & 2342' FEL: LOCATION
PROV.                 Colorado: PROVINCE
CNTY.               Las Animas: COUNTRY
SRVC.                Patterson: SERVICE COMPANY
DATE.          Fri Jun 10 13:29:04 2005: LOG DATE
UWI.           05 071 08384 00: UNIQUE WELL ID
~Curve Information Block
DEPT.FT            0 000 00 00: Depth
SN.Ohm-m                      : IEL Short Normal
SP.mV                         : IEL Spontaneous Potential
DIR.Ohm-m                     : IEL Induction Resistivity
GR.GAPI                       : Gamma Ray
~Parameter Information Block
~A  Depth        SN          SP         DIR          GR     
# ...
  1002.0000     11.4658     12.5160      9.7582    114.1332
  1002.2500     11.3041     12.7504      9.7198    116.8468
  1002.5000     11.0994     12.8802      9.6443    118.8177
  1002.7500     10.9247     12.9300      9.5335    118.7756
  1003.0000     10.7882     12.9263      9.3913    117.2274
  1003.2500     10.6616     12.8952      9.2261    115.4663
  1003.5000     10.5583     12.8583      9.0508    112.0040
  1003.7500     10.5113     12.8299      8.8803    109.4539
  1004.0000     10.4905     12.8168      8.7272    106.3648
  1004.2500     10.4459     12.8220      8.5980    105.6055
  1004.5000     10.3775     12.8494      8.4923    107.3941
  1004.7500     10.2936     12.9012      8.4054    110.5714
  1005.0000     10.2042     12.9711      8.3315    117.4440
  1005.2500     10.1696     13.0470      8.2655    122.6440
  1005.5000     10.2364     13.1256      8.2034    130.2309
  1005.7500     10.3137     13.2204      8.1421    134.7995
  1006.0000     10.2340     13.3501      8.0793    140.5654
  1006.2500      9.9949     13.5188      8.0125    143.3781
  1006.5000      9.7882     13.7110      7.9401    145.6945
  1006.7500      9.7069     13.9056      7.8622    146.2592
  1007.0000      9.6441     14.0898      7.7831    146.8079
  1007.2500      9.5388     14.2597      7.7116    147.4419
  1007.5000      9.4817     14.4142      7.6585    148.6530
  1007.7500      9.5619     14.5505      7.6316    149.3635
  1008.0000      9.7489     14.6691      7.6322    150.2829
  1008.2500      9.9028     14.7785      7.6555    150.9493
  1008.5000      9.8816     14.8931      7.6940    151.8692
  1008.7500      9.6570     15.0229      7.7420    152.0560
  1009.0000      9.3270     15.1673      7.7961    150.9917
  1009.2500      9.0398     15.3190      7.8540    149.0834
  1009.5000      8.9133     15.4648      7.9129    144.4168
  1009.7500      9.0008     15.5842      7.9693    140.6281
  1010.0000      9.2775     15.6581      8.0204    135.4515
  1010.2500      9.6338     15.6836      8.0658    132.9744
  1010.5000      9.9482     15.6774      8.1087    130.6586
  1010.7500     10.1719     15.6618      8.1556    129.6672
  1011.0000     10.3055     15.6483      8.2153    128.8234
  1011.2500     10.3646     15.6349      8.2951    128.9253
  1011.5000     10.3841     15.6127      8.3984    130.1945
  1011.7500     10.3903     15.5724      8.5234    131.3806
  1012.0000     10.4015     15.5062      8.6647    132.6715
  1012.2500     10.4430     15.4066      8.8159    132.8930
  1012.5000     10.5339     15.2679      8.9736    132.3950
  1012.7500     10.6985     15.0928      9.1407    131.7556
  1013.0000     10.9497     14.8958      9.3264    130.5456
  1013.2500     11.2337     14.6978      9.5429    129.4106
  1013.5000     11.4705     14.5117      9.8006    126.5048
  1013.7500     11.6291     14.3322     10.1046    123.3483
  1014.0000     11.7237     14.1347     10.4558    116.6296
  1014.2500     11.7845     13.8845     10.8536    111.2007
  1014.5000     11.8598     13.5537     11.3011    102.9138
  1014.7500     12.0553     13.1364     11.8079     98.2161
  1015.0000     12.5319     12.6534     12.3908     93.7198
  1015.2500     13.4470     12.1408     13.0707     92.6266
  1015.5000     14.8849     11.6291     13.8660     92.9411
  1015.7500     16.7649     11.1280     14.7837     93.5838
  1016.0000     18.8390     10.6299     15.8098     94.2318
  1016.2500     20.8244     10.1262     16.9049     94.3508
  1016.5000     22.5401      9.6194     18.0108     94.0009
  1016.7500     23.9948      9.1234     19.0676     93.2044
  1017.0000     25.3327      8.6548     20.0326     91.0074
  1017.2500     26.6429      8.2268     20.8896     89.2581
  1017.5000     27.8355      7.8463     21.6403     87.4955
  1017.7500     28.7087      7.5134     22.2791     87.5469
  1018.0000     29.1307      7.2290     22.7702     89.7037
  1018.2500     29.1062      7.0130     23.0560     92.1056
  1018.5000     28.6677      6.9033     23.0995     95.9414
  1018.7500     27.8547      6.9179     22.9223     98.0233
  1019.0000     26.8169      7.0165     22.5981     99.8370
  1019.2500     25.7544      7.1194     22.2049    100.0685
  1019.5000     24.7477      7.1696     21.7842     99.0406
  1019.7500     23.7742      7.1701     21.3357     97.6394
  1020.0000     22.8200      7.1649     20.8399     95.1059
  1020.2500     21.8942      7.1944     20.2866     93.6612
  1020.5000     21.0197      7.2726     19.6873     92.7271
  1020.7500     20.2390      7.3935     19.0666     93.0861
  1021.0000     19.5921      7.5404     18.4461     94.5091
  1021.2500     19.0958      7.6832     17.8370     95.5047
  1021.5000     18.7487      7.7802     17.2453     96.6728
  1021.7500     18.5205      7.7988     16.6804     97.3759
  1022.0000     18.3461      7.7429     16.1574     98.5524
  1022.2500     18.1736      7.6575     15.6931     99.3257
  1022.5000     17.9941      7.5981     15.2997    100.1948
  1022.7500     17.7895      7.5872     14.9816    100.5277
  1023.0000     17.4943      7.6007     14.7356    100.7949
  1023.2500     17.0601      7.5975     14.5537    101.0881
  1023.5000     16.5491      7.5587     14.4255    102.5556
  1023.7500     16.0833      7.4951     14.3432    104.6707
  1024.0000     15.6985      7.4236     14.3052    109.4074
  1024.2500     15.3805      7.3448     14.3179    112.9250
  1024.5000     15.1896      7.2423     14.3935    117.3550
  1024.7500     15.1850      7.1010     14.5404    119.2111
  1025.0000     15.3190      6.9233     14.7563    119.8409
  1025.2500     15.5290      6.7300     15.0273    118.5295
  1025.5000     15.8753      6.5488     15.3372    113.4507
  1025.7500     16.4547      6.4007     15.6770    108.0044
  1026.0000     17.2179      6.2917     16.0478     97.9137
  1026.2500     18.0181      6.2130     16.4526     91.2061
  1026.5000     18.7942      6.1493     16.8851     83.5509
  1026.7500     19.6047      6.0910     17.3230     80.9218
  1027.0000     20.5001      6.0415     17.7327     80.6209
  1027.2500     21.3817      6.0107     18.0792     81.9939
  1027.5000     22.0167      6.0009     18.3334     84.6243
  1027.7500     22.2000      6.0006     18.4695     86.2035
  1028.0000     21.8970      5.9928     18.4599     88.5055
  1028.2500     21.2790      5.9708     18.2736     90.3583
  1028.5000     20.5644      5.9398     17.8882     93.7973
  1028.7500     19.8157      5.8984     17.3087     96.2827
  1029.0000     18.9658      5.8245     16.5779     99.6873
  1029.2500     17.9909      5.6877     15.7657    101.5741
  1029.5000     16.9979      5.4755     14.9422    104.1350
  1029.7500     16.1371      5.2061     14.1554    106.0199
  1030.0000     15.4328      4.9182     13.4262    109.3740
  1030.2500     14.8114      4.6557     12.7588    111.7451
  1030.5000     14.2648      4.4574     12.1542    114.8766
  1030.7500     13.8195      4.3520     11.6172    116.4619
  1031.0000     13.4288      4.3496     11.1551    118.1553
  1031.2500     13.0309      4.4326     10.7731    119.0528
  1031.5000     12.6306      4.5595     10.4706    120.4141
  1031.7500     12.2630      4.6892     10.2413    121.3828
  1032.0000     11.9423      4.8050     10.0749    122.7810
  1032.2500     11.6853      4.9188      9.9566    123.5672
  1032.5000     11.5042      5.0598      9.8676    124.3319
  1032.7500     11.3191      5.2594      9.7872    124.4583
  1033.0000     10.9849      5.5390      9.6991    124.0998
  1033.2500     10.4915      5.9009      9.5992    123.6597
  1033.5000     10.0326      6.3255      9.4985    122.9242
  1033.7500      9.8360      6.7771      9.4190    122.3960
  1034.0000      9.9676      7.2159      9.3846    121.6432
  1034.2500     10.2978      7.6136      9.4153    121.4565
  1034.5000     10.6565      7.9627      9.5247    122.4293
  1034.7500     10.9981      8.2740      9.7199    124.1379
  1035.0000     11.4189      8.5610      9.9991    127.4237
  1035.2500     12.0019      8.8230     10.3489    128.9053
