~Version Information
VERS.                      2.0: CWLS Log ASCII Standard - VERSION 2.0
WRAP.                       NO: One line per depth step
~Well Information Block
STRT.FT               750.0000: 
STOP.FT              2433.0000: 
STEP.FT                 0.2500: 
NULL.                -999.2500: 
COMP.          Petrogulf Corporation: COMPANY
WELL.           McDaniel 9-34V: WELL
FLD.           Purgatorie River: FIELD
LOC.           620' FSL & 1800' FEL: LOCATION
PROV.                 Colorado: PROVINCE
CNTY.               Las Animas: COUNTRY
SRVC.                Patterson: SERVICE COMPANY
DATE.          Tue Sep 27 19:56:11 2005: LOG DATE
UWI.                          : UNIQUE WELL ID
~Curve Information Block
DEPT.FT            0 000 00 00: Depth
SP.mV                         : DIL Spontaneous Potential
RILD.Ohm-m                    : DIL Deep Resistivity
RILM.Ohm-m                    : DIL Medium Resistivity
RLL3.Ohm-m                    : DIL Shallow Resistivity
GR.GAPI                       : Gamma Ray
~Parameter Information Block
~A  Depth        SP         RILD        RILM        RLL3         GR     
# ...
  1618.0000    123.4833      7.4584      7.4931      8.6776    174.6143
  1618.2500    123.7421      7.3807      7.3861      8.6746    175.2719
  1618.5000    123.8588      7.3294      7.3052      8.7758    174.3087
  1618.7500    123.8050      7.3080      7.2500      8.9366    172.5358
  1619.0000    123.5685      7.3209      7.2218      9.1074    168.7288
  1619.2500    123.1539      7.3718      7.2240      9.2308    165.8568
  1619.5000    122.5823      7.4619      7.2622      9.2451    161.6699
  1619.7500    121.8903      7.5892      7.3431      9.1229    159.0833
  1620.0000    121.1281      7.7484      7.4736      8.9351    155.3033
  1620.2500    120.3561      7.9322      7.6590      8.8777    152.8311
  1620.5000    119.6381      8.1326      7.9020      9.2154    149.8265
  1620.7500    119.0326      8.3428      8.2005     10.1676    148.6651
  1621.0000    118.5834      8.5578      8.5463     11.8132    147.7039
  1621.2500    118.3116      8.7774      8.9259     14.0577    146.6397
  1621.5000    118.2132      9.0081      9.3214     16.6317    142.5468
  1621.7500    118.2628      9.2646      9.7156     19.0805    137.3987
  1622.0000    118.4224      9.5677     10.0982     20.7974    126.1379
  1622.2500    118.6532      9.9390     10.4704     21.2136    117.4937
  1622.5000    118.9258     10.3931     10.8479     20.1227    106.3817
  1622.7500    119.2257     10.9292     11.2579     17.9191    102.1995
  1623.0000    119.5524     11.5248     11.7332     15.5363    102.2762
  1623.2500    119.9137     12.1362     12.3048     14.1295    105.9566
  1623.5000    120.3185     12.7057     12.9938     14.7688    113.8703
  1623.7500    120.7690     13.1762     13.8024     18.2853    118.6021
  1624.0000    121.2576     13.5062     14.7044     25.0898    121.9468
  1624.2500    121.7674     13.6806     15.6370     34.7279    120.6911
  1624.5000    122.2749     13.7121     16.4996     45.3972    113.6106
  1624.7500    122.7550     13.6328     17.1684     54.1387    106.6877
  1625.0000    123.1855     13.4818     17.5286     58.0831     96.4873
  1625.2500    123.5507     13.2930     17.5144     56.0519     91.5019
  1625.5000    123.8430     13.0892     17.1333     49.2048     87.8512
  1625.7500    124.0637     12.8812     16.4592     40.1830     87.8904
  1626.0000    124.2224     12.6713     15.6020     31.5323     91.2551
  1626.2500    124.3345     12.4568     14.6722     24.6296     95.4469
  1626.5000    124.4185     12.2332     13.7591     19.6364    104.1985
  1626.7500    124.4913     11.9969     12.9228     16.1017    111.4580
  1627.0000    124.5646     11.7471     12.1971     13.5607    124.0781
  1627.2500    124.6415     11.4877     11.5963     11.7821    133.1977
  1627.5000    124.7157     11.2273     11.1217     10.7152    146.5993
  1627.7500    124.7731     10.9783     10.7673     10.3312    154.2180
  1628.0000    124.7957     10.7544     10.5241     10.5030    161.6492
  1628.2500    124.7660     10.5686     10.3825     10.9949    163.3022
  1628.5000    124.6718     10.4336     10.3342     11.5721    161.3450
  1628.7500    124.5079     10.3619     10.3727     12.1477    158.0122
  1629.0000    124.2766     10.3666     10.4939     12.8178    151.5159
  1629.2500    123.9847     10.4599     10.6957     13.7185    146.7324
  1629.5000    123.6413     10.6507     10.9780     14.8371    139.2163
  1629.7500    123.2547     10.9427     11.3425     15.9836    134.0303
  1630.0000    122.8322     11.3332     11.7925     16.9524    126.4848
  1630.2500    122.3812     11.8123     12.3332     17.6811    122.3520
  1630.5000    121.9126     12.3633     12.9706     18.2425    118.9018
  1630.7500    121.4446     12.9611     13.7100     18.7407    118.5778
  1631.0000    121.0049     13.5706     14.5519     19.3002    119.6034
  1631.2500    120.6314     14.1460     15.4846     20.2081    120.0584
  1631.5000    120.3684     14.6333     16.4742     22.0916    119.2020
  1631.7500    120.2603     14.9821     17.4528     25.9334    117.5619
  1632.0000    120.3424     15.1603     18.3141     32.6980    113.5569
  1632.2500    120.6321     15.1669     18.9262     42.4629    109.8344
  1632.5000    121.1224     15.0312     19.1690     53.4277    103.4681
  1632.7500    121.7797     14.8019     18.9858     61.8567     99.7890
  1633.0000    122.5482     14.5304     18.4145     63.8102     96.7753
  1633.2500    123.3580     14.2584     17.5734     57.8273     96.6472
  1633.5000    124.1361     14.0116     16.6120     46.1705     98.6495
  1633.7500    124.8172     13.7986     15.6618     33.2571    101.0898
  1634.0000    125.3517     13.6134     14.8117     22.7688    106.5367
  1634.2500    125.7102     13.4403     14.1069     16.0509    111.7587
  1634.5000    125.8834     13.2582     13.5594     12.5864    122.1337
  1634.7500    125.8799     13.0464     13.1595     11.2700    129.8628
  1635.0000    125.7226     12.7904     12.8853     11.1827    139.5710
  1635.2500    125.4451     12.4859     12.7074     11.7023    143.0333
  1635.5000    125.0884     12.1406     12.5927     12.4219    143.0337
  1635.7500    124.6988     11.7718     12.5066     13.1577    140.7490
  1636.0000    124.3246     11.4010     12.4152     13.9588    136.5816
  1636.2500    124.0124     11.0488     12.2878     14.9715    133.9903
  1636.5000    123.8012     10.7298     12.1010     16.1963    129.8407
  1636.7500    123.7165     10.4513     11.8422     17.3393    126.3998
  1637.0000    123.7645     10.2127     11.5118     17.9101    120.1269
  1637.2500    123.9297     10.0066     11.1229     17.5219    115.6848
  1637.5000    124.1778      9.8207     10.6975     16.1603    110.3167
  1637.7500    124.4615      9.6405     10.2610     14.2013    108.8304
  1638.0000    124.7311      9.4511      9.8356     12.1834    111.3060
  1638.2500    124.9438      9.2402      9.4372     10.5336    116.2313
  1638.5000    125.0716      9.0006      9.0736      9.4358    127.1751
  1638.7500    125.1042      8.7326      8.7458      8.8652    135.3848
  1639.0000    125.0481      8.4441      8.4498      8.6894    146.5613
  1639.2500    124.9233      8.1493      8.1798      8.7481    152.2728
  1639.5000    124.7574      7.8650      7.9305      8.8930    157.3136
  1639.7500    124.5815      7.6062      7.6985      9.0081    158.0857
  1640.0000    124.4253      7.3838      7.4834      9.0210    155.7684
  1640.2500    124.3139      7.2028      7.2869      8.9041    152.7715
  1640.5000    124.2641      7.0625      7.1120      8.6681    148.1639
  1640.7500    124.2814      6.9582      6.9619      8.3568    146.1789
  1641.0000    124.3580      6.8825      6.8387      8.0399    146.4001
  1641.2500    124.4724      6.8273      6.7433      7.7951    149.1830
  1641.5000    124.5920      6.7861      6.6745      7.6808    156.7127
  1641.7500    124.6792      6.7549      6.6300      7.7135    162.4692
  1642.0000    124.6987      6.7329      6.6067      7.8641    168.7907
  1642.2500    124.6249      6.7219      6.6014      8.0735    170.4701
  1642.5000    124.4472      6.7251      6.6116      8.2730    170.6655
  1642.7500    124.1714      6.7464      6.6364      8.4047    170.8815
  1643.0000    123.8172      6.7885      6.6761      8.4416    172.1489
  1643.2500    123.4128      6.8532      6.7328      8.4004    172.5730
  1643.5000    122.9890      6.9405      6.8093      8.3317    170.5080
  1643.7500    122.5736      7.0491      6.9085      8.2937    167.2919
  1644.0000    122.1887      7.1765      7.0331      8.3300    161.8148
  1644.2500    121.8502      7.3200      7.1849      8.4605    159.1695
  1644.5000    121.5676      7.4774      7.3646      8.6844    157.4508
  1644.7500    121.3454      7.6475      7.5721      8.9925    157.0251
  1645.0000    121.1832      7.8308      7.8065      9.3750    155.5102
  1645.2500    121.0754      8.0279      8.0665      9.8175    153.2023
  1645.5000    121.0119      8.2390      8.3504     10.2950    147.5458
  1645.7500    120.9799      8.4630      8.6562     10.7800    142.6991
