~Version Information
VERS.                      2.0: CWLS Log ASCII Standard - VERSION 2.0
WRAP.                       NO: One line per depth step
~Well Information Block
STRT.FT               563.6000: 
STOP.FT              2133.0000: 
STEP.FT                 0.1000: 
NULL.                -999.2500: 
COMP.          Petrogulf Corporation: COMPANY
WELL.             State 16-43V: WELL
FLD.           Purgatorie River: FIELD
LOC.           2437' FSL & 734' FEL: LOCATION
CNTY.               Las Animas: COUNTY
SRVC.                         : SERVICE COMPANY
DATE.          Mon Dec 06 06:01:26 2004: LOG DATE
UWI.           05 071 08015 00: UNIQUE WELL ID
STAT.                 Colorado: STATE
~Curve Information Block
DEPT.FT            0 000 00 00: Depth
DCAL.in                       : CDL Caliper
RHOB.g/cc                     : CDL Bulk Density
RHOC.g/cc                     : CDL Density Correction
DPOR.pu                       : CDL Density Porosity
GR.GAPI                       : Gamma Ray
NPOR.pu                       : Neutron Porosity
~Parameter Information Block
~A  Depth       DCAL        RHOB        RHOC        DPOR         GR         NPOR    
# ...
   890.0000      8.3406      2.4581      0.0490     11.6312    113.6440     23.6524
   890.1000      8.3406      2.4774      0.1157     10.4631    113.5410     23.2957
   890.2000      8.3406      2.4754      0.0691     10.5804    117.0927     22.6645
   890.3000      8.3855      2.4517      0.0752     12.0152    124.1839     22.0209
   890.4000      8.3855      2.4120      0.0173     14.4236    131.3463     21.6173
   890.5000      8.3952      2.3661      0.0073     17.2087    133.5537     21.4477
   890.6000      8.3952      2.3261     -0.0260     19.6330    130.6535     21.2934
   890.7000      8.3952      2.2926      0.0255     21.6632    126.7146     21.2665
   890.8000      8.3556      2.2585     -0.0177     23.7246    127.0434     21.5715
   890.9000      8.3556      2.2326     -0.0283     25.2954    132.5569     21.9432
   891.0000      8.3402      2.2363     -0.0492     25.0728    137.2074     22.0874
   891.1000      8.3402      2.2687      0.0512     23.1076    135.1405     22.0440
   891.2000      8.3402      2.2982      0.0781     21.3206    128.9816     21.8364
   891.3000      8.3135      2.3072      0.0644     20.7785    122.9414     21.5891
   891.4000      8.3135      2.3069      0.0547     20.7954    121.2903     21.5397
   891.5000      8.3409      2.3036      0.0626     20.9961    126.1732     21.4313
   891.6000      8.3409      2.2838      0.0722     22.1924    130.3013     20.8057
   891.7000      8.3409      2.2326      0.0540     25.2948    128.6805     19.9918
   891.8000      8.3375      2.1602     -0.0465     29.6836    126.3938     19.7468
   891.9000      8.3375      2.0930     -0.0948     33.7569    125.7645     20.1286
   892.0000      8.3822      2.0354     -0.0682     37.2457    124.1034     20.4475
   892.1000      8.3822      1.9821     -0.0712     40.4812    123.2332     20.2729
   892.2000      8.3822      1.9474     -0.0541     42.5825    124.9753     20.0336
   892.3000      8.3976      1.9505     -0.0316     42.3915    124.5994     20.1783
   892.4000      8.3976      1.9928      0.0911     39.8333    120.2900     20.3847
   892.5000      8.3986      2.0606      0.0991     35.7235    117.9242     20.1403
   892.6000      8.3986      2.1399      0.1772     30.9161    120.1662     19.7142
   892.7000      8.3986      2.2167      0.2291     26.2625    121.7268     19.6614
   892.8000      8.3662      2.2788      0.2152     22.4966    118.6977     20.0376
   892.9000      8.3662      2.3285      0.2181     19.4844    113.6500     20.6273
   893.0000      8.3839      2.3692      0.3499     17.0170    112.2232     21.2155
   893.1000      8.3839      2.3847      0.4064     16.0812    115.2310     21.7895
   893.2000      8.3839      2.3658      0.3319     17.2254    120.0162     21.9865
   893.3000      8.3280      2.3371      0.1886     18.9664    124.8010     21.3475
   893.4000      8.3280      2.3197      0.1689     20.0205    125.9125     20.3853
   893.5000      8.3013      2.2959      0.1003     21.4604    123.6801     19.5842
   893.6000      8.3013      2.2344      0.0795     25.1902    123.0340     18.6627
   893.7000      8.3013      2.1291      0.0130     31.5693    124.2495     17.4847
   893.8000      8.3288      2.0095     -0.0735     38.8165    124.4869     16.3330
   893.9000      8.3288      1.8962     -0.0054     45.6835    124.7589     15.3850
   894.0000      8.3546      1.7877     -0.0979     52.2591    125.3291     14.5878
   894.1000      8.3546      1.7015     -0.0930     57.4863    125.4465     13.9067
   894.2000      8.3546      1.6461     -0.0306     60.8412    127.1620     13.3915
   894.3000      8.3240      1.6031     -0.0169     63.4481    128.8452     13.0481
   894.4000      8.3240      1.5703      0.0514     65.4373    127.7339     13.0470
   894.5000      8.3339      1.5663      0.1043     65.6804    125.1444     13.5633
   894.6000      8.3339      1.6036      0.1721     63.4168    121.5275     14.3243
   894.7000      8.3339      1.6791      0.2058     58.8423    116.2581     15.0949
   894.8000      8.3631      1.7699      0.2725     53.3405    109.0024     16.0290
   894.9000      8.3631      1.8461      0.2440     48.7242     99.2063     17.2178
   895.0000      8.5087      1.9051      0.1265     45.1469     93.0406     18.4743
   895.1000      8.5087      1.9687      0.0913     41.2910     98.7915     19.7905
   895.2000      8.5087      2.0484      0.1413     36.4588    110.5681     21.3942
   895.3000      8.3916      2.1445      0.1939     30.6352    116.1023     23.2672
   895.4000      8.3916      2.2500      0.2402     24.2412    115.4740     25.1033
   895.5000      8.3400      2.3352      0.2807     19.0813    115.3101     26.3624
   895.6000      8.3400      2.3693      0.1879     17.0131    118.8121     26.6996
   895.7000      8.3400      2.3591      0.0829     17.6319    124.8275     26.4897
   895.8000      8.3415      2.3297      0.1041     19.4126    127.1170     26.3759
   895.9000      8.3415      2.2981      0.0296     21.3296    124.0600     26.4752
   896.0000      8.3646      2.2806      0.0079     22.3899    125.2732     26.4472
   896.1000      8.3646      2.2908     -0.0215     21.7719    136.5545     26.1951
   896.2000      8.3646      2.3295      0.0174     19.4268    149.9172     25.9196
   896.3000      8.3561      2.3793      0.0510     16.4077    154.0113     25.7231
   896.4000      8.3561      2.4247      0.0982     13.6519    147.0902     25.3402
   896.5000      8.3429      2.4743      0.1012     10.6455    139.6296     24.4886
   896.6000      8.3429      2.5397      0.2300      6.6837    141.1688     23.6357
   896.7000      8.3429      2.6084      0.3324      2.5236    147.7619     23.2956
   896.8000      8.3245      2.6563      0.3784     -0.3801    151.3270     23.2392
   896.9000      8.3245      2.6681      0.3669     -1.0975    153.5617     23.2410
   897.0000      8.4076      2.6458      0.2843      0.2564    157.6627     23.4644
   897.1000      8.4076      2.6073      0.2520      2.5868    160.5022     23.8294
   897.2000      8.4076      2.5659      0.1668      5.0976    159.5156     24.0477
   897.3000      8.5437      2.5312      0.1019      7.1991    156.9198     24.0899
   897.4000      8.5437      2.5204      0.0724      7.8517    154.4770     24.3016
   897.5000      8.4743      2.5337      0.1499      7.0495    151.3731     25.1647
   897.6000      8.4743      2.5546      0.1304      5.7841    149.1524     26.3643
   897.7000      8.4743      2.5721      0.1721      4.7241    147.9108     27.1206
   897.8000      8.3916      2.5741      0.1708      4.5989    146.9120     27.4195
   897.9000      8.3916      2.5735      0.0647      4.6351    148.0353     27.6724
   898.0000      8.3607      2.6080      0.0586      2.5439    148.8555     27.8654
   898.1000      8.3607      2.6671      0.2151     -1.0370    146.9706     27.7218
   898.2000      8.3607      2.6990      0.2180     -2.9703    147.2584     27.4868
   898.3000      8.3840      2.6871      0.1955     -2.2509    152.5916     27.7103
   898.4000      8.3840      2.6458      0.1792      0.2545    157.2233     28.3151
   898.5000      8.2870      2.5989      0.0881      3.0965    158.5203     28.6578
   898.6000      8.2870      2.5726      0.0493      4.6902    159.4404     28.5303
   898.7000      8.2870      2.5656      0.0768      5.1129    160.5759     28.2736
   898.8000      8.2557      2.5576      0.0414      5.5990    161.1090     27.6523
   898.9000      8.2557      2.5489     -0.0247      6.1265    160.6987     26.5084
   899.0000      8.2355      2.5458      0.0381      6.3141    159.5134     25.6362
   899.1000      8.2355      2.5324      0.0242      7.1277    157.8256     25.3013
   899.2000      8.2355      2.5005     -0.0026      9.0596    151.5906     24.7466
   899.3000      8.2242      2.4614     -0.0147     11.4328    141.0596     23.7090
   899.4000      8.2242      2.4213     -0.0347     13.8614    133.4905     22.7865
   899.5000      8.2219      2.3784     -0.0270     16.4578    132.8747     22.3193
