~Version Information
VERS.                      2.0: CWLS Log ASCII Standard - VERSION 2.0
WRAP.                       NO: One line per depth step
~Well Information Block
STRT.FT                15.0000: 
STOP.FT              2620.5000: 
STEP.FT                 0.2500: 
NULL.                -999.2500: 
COMP.          Pioneer Natural Resources: COMPANY
WELL.               Zink 44-10: WELL
FLD.           Purgatoire River: FIELD
LOC.           548' FSL & 473' FEL: LOCATION
PROV.                 Colorado: PROVINCE
CNTY.               Las Animas: COUNTRY
SRVC.                Patterson: SERVICE COMPANY
DATE.          Tue Jun 21 13:36:23 2005: LOG DATE
UWI.           05 071 08380 00: UNIQUE WELL ID
~Curve Information Block
DEPT.FT            0 000 00 00: Depth
GR.GAPI                       : Gamma Ray
CCL.                          : Casing Collar Locator
TT3.usec                      : CBL 3' Travel Time
AMP3.mV                       : CBL 3' Amplitude
~Parameter Information Block
~A  Depth        GR         CCL         TT3         AMP3    
# ...
  1388.5000    147.3596      0.0000    266.4097     72.7478
  1388.7500    155.5465      0.0000    266.3860     72.7971
  1389.0000    160.5673      0.0000    266.3700     72.8064
  1389.2500    161.6226      0.0000    266.3684     72.7090
  1389.5000    159.2922      0.0000    266.3752     72.4600
  1389.7500    155.0341      0.0000    266.3792     72.0229
  1390.0000    150.5303      0.0000    266.3774     71.3395
  1390.2500    147.4374      0.0000    266.3818     70.3258
  1390.5000    147.0181      0.0000    266.4121     68.9208
  1390.7500    149.1775      0.0000    266.4824     67.1509
  1391.0000    151.9412      0.0000    266.5936     65.1350
  1391.2500    152.5981      0.0000    266.7400     63.0083
  1391.5000    149.7387      0.0000    266.9193     60.8235
  1391.7500    144.0944      0.0000    267.1353     58.5122
  1392.0000    137.4621      0.0000    267.3935     55.9501
  1392.2500    131.1191      0.0000    267.6972     53.0916
  1392.5000    125.3435      0.0000    268.0422     50.0792
  1392.7500    120.0602      0.0000    268.4054     47.2467
  1393.0000    115.4438      0.0000    268.7338     45.0167
  1393.2500    111.7571      0.0000    268.9539     43.7555
  1393.5000    108.8875      0.0000    269.0078     43.6414
  1393.7500    106.4264      0.0000    268.8913     44.5949
  1394.0000    104.2378      0.0000    268.6631     46.3009
  1394.2500    102.5881      0.0000    268.4102     48.3201
  1394.5000    101.6056      0.0000    268.1959     50.2567
  1394.7500    100.9938      0.0000    268.0292     51.9216
  1395.0000    100.5850      0.0000    267.8773     53.4020
  1395.2500    100.9375      0.0000    267.7022     54.9890
  1395.5000    102.9780      0.0000    267.4887     57.0010
  1395.7500    107.0772      0.0000    267.2477     59.5886
  1396.0000    112.6866      0.0000    267.0048     62.6035
  1396.2500    118.7782      0.0000    266.7878     65.6185
  1396.5000    124.4055      0.0000    266.6209     68.1276
  1396.7500    128.8790      0.0000    266.5182     69.8094
  1397.0000    131.6744      0.0000    266.4771     70.6669
  1397.2500    132.3969      0.0000    266.4763     70.9557
  1397.5000    130.9979      0.0000    266.4885     70.9885
  1397.7500    127.9383      0.0000    266.4975     70.9756
  1398.0000    123.9045      0.0000    266.5029     70.9912
  1398.2500    119.4620      0.0000    266.5099     71.0363
  1398.5000    115.1670      0.0000    266.5162     71.1113
  1398.7500    111.7104      0.0000    266.5112     71.2355
  1399.0000    109.6285      0.0000    266.4893     71.4186
  1399.2500    108.9548      0.0000    266.4587     71.6345
  1399.5000    109.2927      0.0000    266.4348     71.8344
  1399.7500    110.1179      0.0000    266.4250     71.9866
  1400.0000    110.9567      0.0000    266.4227     72.0968
  1400.2500    111.4575      0.0000    266.4176     72.1878
  1400.5000    111.4688      0.0000    266.4081     72.2649
  1400.7500    110.8939      0.0000    266.4036     72.3062
  1401.0000    109.3138      0.0000    266.4156     72.2865
  1401.2500    106.0534      0.0000    266.4456     72.2065
  1401.5000    100.9769      0.0000    266.4814     72.0934
  1401.7500     95.0947      0.0000    266.5052     71.9630
  1402.0000     90.0914      0.0000    266.5100     71.7647
  1402.2500     87.2417      0.0000    266.5110     71.3439
  1402.5000     86.8452      0.0000    266.5467     70.4364
  1402.7500     88.4318      0.0000    266.7319     68.6860
  1403.0000     91.1582      0.0000    267.4150     65.6995
  1403.2500     94.0549      0.0000    269.6830     61.1710
  1403.5000     96.4268      0.0000    276.3264     55.0606
  1403.7500     98.4429      0.0000    292.9651     47.7179
  1404.0000    101.2559      0.0000    327.6950     39.8290
  1404.2500    105.9749      0.0000    386.9121     32.1752
  1404.5000    112.0781      0.0000    468.1048     25.3498
  1404.7500    117.0877      0.0000    556.6534     19.6210
  1405.0000    118.3934      0.0000    633.1379     14.9982
  1405.2500    115.3012      0.0000    685.8793     11.3871
  1405.5000    109.0237      0.0000    715.9824      8.6947
  1405.7500    101.1957      0.0000    731.4496      6.8355
  1406.0000     93.0299      0.0000    738.9946      5.6972
  1406.2500     85.5918      0.0000    740.9838      5.1358
  1406.5000     80.1180      0.0000    737.4041      5.0233
  1406.7500     77.7362      0.0000    729.1039      5.3075
  1407.0000     78.9587      0.0000    718.3357      6.0301
  1407.2500     83.6173      0.0000    704.8906      7.2973
  1407.5000     91.2988      0.0000    681.8764      9.2499
  1407.7500    101.4380      0.0000    638.3796     12.0456
  1408.0000    112.6051      0.0000    569.6956     15.8068
  1408.2500    122.0869      0.0000    485.2854     20.5249
  1408.5000    127.0457      0.0000    404.3140     25.9981
  1408.7500    126.4843      0.0000    342.4880     31.8592
  1409.0000    122.0140      0.0000    303.8508     37.6630
  1409.2500    116.8022      0.0000    283.3798     42.9974
  1409.5000    113.8670      0.0000    273.8516     47.6090
  1409.7500    114.8607      0.0000    269.8502     51.4829
  1410.0000    119.5648      0.0000    268.2798     54.8066
  1410.2500    126.1700      0.0000    267.6270     57.8434
  1410.5000    132.6407      0.0000    267.2661     60.8120
  1410.7500    138.3230      0.0000    266.9870     63.8071
  1411.0000    143.8434      0.0000    266.7538     66.7427
  1411.2500    149.1805      0.0000    266.5731     69.3611
  1411.5000    152.6200      0.0000    266.4491     71.3822
  1411.7500    152.3784      0.0000    266.3745     72.7123
  1412.0000    148.7961      0.0000    266.3344     73.4960
  1412.2500    144.1491      0.0000    266.3151     73.9603
  1412.5000    140.4543      0.0000    266.3054     74.2548
  1412.7500    138.0821      0.0000    266.2956     74.4422
  1413.0000    136.3394      0.0000    266.2807     74.5621
  1413.2500    134.6793      0.0000    266.2654     74.6480
  1413.5000    133.1849      0.0000    266.2597     74.7070
  1413.7500    132.2567      0.0000    266.2686     74.7235
  1414.0000    132.0328      0.0000    266.2863     74.6900
  1414.2500    132.2870      0.0000    266.3032     74.6217
  1414.5000    133.0292      0.0000    266.3138     74.5461
  1414.7500    134.8385      0.0000    266.3175     74.4791
  1415.0000    138.1204      0.0000    266.3153     74.4102
  1415.2500    142.2574      0.0000    266.3088     74.3065
  1415.5000    145.9715      0.0000    266.3024     74.1353
  1415.7500    148.3752      0.0000    266.3038     73.8894
  1416.0000    149.3480      0.0000    266.3180     73.5962
  1416.2500    149.2966      0.0000    266.3427     73.3020
  1416.5000    149.0262      0.0000    266.3697     73.0455
  1416.7500    149.5089      0.0000    266.3929     72.8395
  1417.0000    151.3342      0.0000    266.4110     72.6748
  1417.2500    154.3972      0.0000    266.4238     72.5378
  1417.5000    158.0494      0.0000    266.4295     72.4209
  1417.7500    161.2800      0.0000    266.4281     72.3185
  1418.0000    162.8717      0.0000    266.4241     72.2260
  1418.2500    161.8955      0.0000    266.4218     72.1479
  1418.5000    158.3467      0.0000    266.4214     72.1003
  1418.7500    153.2146      0.0000    266.4196     72.0948
  1419.0000    147.7884      0.0000    266.4149     72.1156
  1419.2500    143.0171      0.0000    266.4092     72.1091
  1419.5000    139.6655      0.0000    266.4112     71.9852
  1419.7500    138.7388      0.0000    266.4491     71.5990
  1420.0000    141.0371      0.0000    266.5897     70.6867
  1420.2500    146.1327      0.0000    266.9538     68.8017
  1420.5000    152.2127      0.0000    267.6880     65.4471
  1420.7500    157.1597      0.0000    268.8617     60.5125
  1421.0000    159.8094      0.0000    270.3517     54.6536
  1421.2500    160.3094      0.0000    271.8633     49.0353
  1421.5000    159.4461      0.0000    273.1123     44.5576
  1421.7500    157.6419      0.0000    273.9873     41.4169
