~Version Information
VERS.                      2.0: CWLS Log ASCII Standard - VERSION 2.0
WRAP.                       NO: One line per depth step
~Well Information Block
STRT.FT               998.8000: 
STOP.FT              2235.5000: 
STEP.FT                 0.1000: 
NULL.                -999.2500: 
COMP.          Petrogulf Corporation: COMPANY
WELL.          Latiluppe 8-13R: WELL
FLD.           Purgatorie River: FIELD
LOC.           1495' FSL & 946' FWL: LOCATION
CNTY.               Las Animas: COUNTY
SRVC.                         : SERVICE COMPANY
DATE.          Wed Apr 21 10:46:16 2004: LOG DATE
UWI.           05 071 08035 00: UNIQUE WELL ID
STAT.                 Colorado: STATE
~Curve Information Block
DEPT.FT            0 000 00 00: Depth
DCAL.in                       : CDL Caliper
RHOB.g/cc                     : CDL Bulk Density
RHOC.g/cc                     : CDL Density Correction
DPOR.pu                       : CDL Density Porosity
NPOR.pu                       : Neutron Porosity
GR.GAPI                       : Gamma Ray
~Parameter Information Block
~A  Depth       DCAL        RHOB        RHOC        DPOR        NPOR         GR     
# ...
  1565.2000      7.7767      2.4237      0.1030     13.7166     16.5235    117.5178
  1565.3000      7.7828      2.4610      0.0762     11.4573     17.2423    115.4729
  1565.4000      7.7828      2.4763      0.0324     10.5265     17.9901    113.6679
  1565.5000      7.7809      2.4737     -0.0175     10.6856     18.6717    115.3184
  1565.6000      7.7809      2.4712     -0.0070     10.8352     18.9632    119.5757
  1565.7000      7.7809      2.4839     -0.0142     10.0686     18.9853    123.5727
  1565.8000      7.7798      2.5059      0.0623      8.7326     19.1549    121.5996
  1565.9000      7.7798      2.5158      0.1037      8.1345     19.6095    113.5946
  1566.0000      7.7832      2.5093      0.0641      8.5295     20.1179    107.5140
  1566.1000      7.7832      2.5046      0.0213      8.8129     20.3610    106.3006
  1566.2000      7.7832      2.5158     -0.0131      8.1314     20.4729    106.5474
  1566.3000      7.7811      2.5408      0.0394      6.6201     20.6849    107.7921
  1566.4000      7.7811      2.5625      0.0231      5.3018     20.8666    109.2722
  1566.5000      7.7758      2.5686      0.0467      4.9347     21.0596    108.1625
  1566.6000      7.7758      2.5727     -0.0021      4.6833     21.5619    106.1502
  1566.7000      7.7758      2.5942      0.0517      3.3825     22.4589    107.5797
  1566.8000      7.7752      2.6167      0.0951      2.0206     23.5444    113.3649
  1566.9000      7.7752      2.6171      0.0711      1.9953     24.4189    118.1503
  1567.0000      7.7754      2.6086      0.0156      2.5106     24.6448    116.7479
  1567.1000      7.7754      2.6124      0.0558      2.2812     24.3716    113.0917
  1567.2000      7.7754      2.6282      0.0357      1.3195     24.2613    114.3054
  1567.3000      7.7723      2.6463      0.0734      0.2267     24.4259    119.1175
  1567.4000      7.7723      2.6522      0.0879     -0.1342     24.4245    121.4809
  1567.5000      7.7725      2.6409      0.0824      0.5516     24.3010    120.0068
  1567.6000      7.7725      2.6237      0.0525      1.5962     24.3585    116.6807
  1567.7000      7.7725      2.6054      0.0725      2.7056     24.5417    113.8047
  1567.8000      7.7660      2.5838     -0.0129      4.0104     24.6268    111.8538
  1567.9000      7.7660      2.5696     -0.0005      4.8751     24.4092    110.6530
  1568.0000      7.7234      2.5665      0.0443      5.0600     23.7832    109.7965
  1568.1000      7.7234      2.5617      0.0544      5.3522     22.9015    109.4409
  1568.2000      7.7234      2.5495      0.0304      6.0932     22.1189    110.1020
  1568.3000      7.7621      2.5392      0.0453      6.7154     21.8440    110.2363
  1568.4000      7.7621      2.5349      0.0340      6.9747     21.9074    109.1251
  1568.5000      7.7704      2.5274      0.0323      7.4307     21.5895    109.5590
  1568.6000      7.7704      2.5132      0.0303      8.2885     21.0505    112.3032
  1568.7000      7.7704      2.5033      0.0027      8.8926     20.9396    113.9882
  1568.8000      7.7647      2.5050      0.0187      8.7906     21.0721    113.4000
  1568.9000      7.7647      2.5176      0.0104      8.0223     21.0945    112.0182
  1569.0000      7.7700      2.5421      0.0252      6.5406     20.9758    112.6427
  1569.1000      7.7700      2.5729      0.0428      4.6752     20.7841    116.3968
  1569.2000      7.7700      2.5962      0.0846      3.2578     20.7671    118.8957
  1569.3000      7.7699      2.6053      0.0498      2.7073     21.0885    117.4617
  1569.4000      7.7699      2.6038      0.0813      2.8005     21.4130    115.9848
  1569.5000      7.7676      2.5924      0.0505      3.4896     21.4392    117.5925
  1569.6000      7.7676      2.5745      0.0236      4.5732     21.3728    121.9622
  1569.7000      7.7676      2.5607      0.0102      5.4118     21.2476    126.3748
  1569.8000      7.7672      2.5547      0.0388      5.7744     21.0291    128.5909
  1569.9000      7.7672      2.5498      0.0104      6.0721     21.0772    128.6233
  1570.0000      7.7511      2.5382      0.0353      6.7777     21.2907    126.8502
  1570.1000      7.7511      2.5213      0.0011      7.8027     21.1068    125.2850
  1570.2000      7.7511      2.5113      0.0091      8.4080     20.6199    125.8920
  1570.3000      7.7687      2.5168      0.0098      8.0713     20.2976    127.5599
  1570.4000      7.7687      2.5391     -0.0057      6.7204     20.3578    127.3138
  1570.5000      7.7691      2.5667      0.0896      5.0501     20.9415    124.4449
  1570.6000      7.7691      2.5811      0.0754      4.1748     21.9432    123.1132
  1570.7000      7.7691      2.5813      0.0764      4.1661     22.7599    127.1973
  1570.8000      7.7689      2.5733      0.0243      4.6495     22.9348    131.2989
  1570.9000      7.7689      2.5577      0.0425      5.5912     22.9497    129.9377
  1571.0000      7.7595      2.5410     -0.0047      6.6037     23.5032    129.8195
  1571.1000      7.7595      2.5383      0.0004      6.7710     24.5103    132.5132
  1571.2000      7.7595      2.5517     -0.0013      5.9596     25.2850    131.3129
  1571.3000      7.7504      2.5654      0.0603      5.1258     25.7243    128.5556
  1571.4000      7.7504      2.5710      0.0265      4.7868     26.3206    130.8939
  1571.5000      7.7550      2.5726      0.0490      4.6906     27.1542    137.8126
  1571.6000      7.7550      2.5722      0.0231      4.7144     27.8687    143.6551
  1571.7000      7.7550      2.5698      0.0442      4.8579     28.5188    146.6348
  1571.8000      7.7422      2.5631      0.0400      5.2661     29.1369    149.4558
  1571.9000      7.7422      2.5555      0.0247      5.7293     29.2607    151.6019
  1572.0000      7.7421      2.5541      0.0301      5.8101     28.9480    150.3203
  1572.1000      7.7421      2.5534      0.0599      5.8570     28.9707    145.2730
  1572.2000      7.7421      2.5497      0.0347      6.0801     29.5936    137.3475
  1572.3000      7.7420      2.5534      0.0594      5.8519     30.2298    130.1090
  1572.4000      7.7420      2.5673      0.0979      5.0145     30.3258    128.5479
  1572.5000      7.7436      2.5736      0.0913      4.6321     30.0312    132.5186
  1572.6000      7.7436      2.5621      0.0445      5.3253     29.7982    139.1066
  1572.7000      7.7436      2.5511      0.0378      5.9951     29.4307    146.1637
  1572.8000      7.7424      2.5570      0.0372      5.6347     28.5812    148.2388
  1572.9000      7.7424      2.5750      0.0697      4.5449     27.6271    143.2472
  1573.0000      7.7452      2.5932      0.0846      3.4404     27.0055    137.7530
  1573.1000      7.7452      2.6046      0.0848      2.7511     26.6323    135.5854
  1573.2000      7.7452      2.6086      0.0418      2.5070     26.3141    136.0951
  1573.3000      7.7447      2.6104      0.0343      2.4004     26.1902    138.3433
  1573.4000      7.7447      2.6060      0.1053      2.6686     26.4024    138.3932
  1573.5000      7.7427      2.5851      0.0216      3.9305     26.6672    134.3194
  1573.6000      7.7427      2.5572      0.0275      5.6236     26.6550    130.0537
  1573.7000      7.7427      2.5385      0.0080      6.7576     26.3888    129.8217
  1573.8000      7.7435      2.5331      0.0384      7.0837     26.0370    132.3210
  1573.9000      7.7435      2.5378      0.0121      6.8007     25.6489    132.5553
  1574.0000      7.7535      2.5511      0.0078      5.9935     25.2979    128.1368
  1574.1000      7.7535      2.5660      0.0816      5.0926     24.8744    121.6422
  1574.2000      7.7535      2.5731      0.0624      4.6624     24.0020    116.4946
  1574.3000      7.7673      2.5745      0.0773      4.5770     22.6572    111.5683
  1574.4000      7.7673      2.5743      0.0901      4.5882     21.3777    107.4341
  1574.5000      7.7413      2.5769      0.0735      4.4311     20.6948    108.2959
  1574.6000      7.7413      2.5770      0.1086      4.4256     20.4914    111.8862
  1574.7000      7.7413      2.5574      0.0619      5.6109     20.3041    111.6302
