~Version Information
VERS.                      2.0: CWLS Log ASCII Standard - VERSION 2.0
WRAP.                       NO: One line per depth step
~Well Information Block
STRT.FT               650.0000: 
STOP.FT              1999.0000: 
STEP.FT                 0.2500: 
NULL.                -999.2500: 
COMP.          Pioneer Natural Resources: COMPANY
WELL.           Firehawk 34-26: WELL
FLD.           Purgatoire River: FIELD
LOC.           1196' FSL & 1595' FEL--: LOCATION
STAT.                 Colorado: State
CNTY.               Las Animas: COUNTY
CTRY. USA : Country
SECT. 26 : Section
TOWN. 32S : Township
RANG. 66W : Range
SRVC.                Patterson: SERVICE COMPANY
DATE.          Sun Oct 16 16:57:28 2005: LOG DATE
API.           05 071 08389 00: UNIQUE WELL ID
~Curve Information Block
DEPT.FT            0 000 00 00: Depth
SN.Ohm-m                      : IEL Short Normal
SP.mV                         : IEL Spontaneous Potential
DIR.Ohm-m                     : IEL Induction Resistivity
GR.GAPI                       : Gamma Ray
~Parameter Information Block
~A  Depth        SN          SP         DIR          GR     
# ...
  1688.5000     17.4633     64.1829     15.3055    116.2772
  1688.7500     17.7307     64.2889     15.5340    115.4539
  1689.0000     17.9221     64.4452     15.7599    114.2943
  1689.2500     18.0607     64.6284     15.9806    113.7378
  1689.5000     18.2267     64.7994     16.1943    113.1208
  1689.7500     18.4927     64.9313     16.4024    112.7912
  1690.0000     18.8787     65.0204     16.6102    112.4162
  1690.2500     19.3438     65.0683     16.8253    112.2297
  1690.5000     19.8166     65.0629     17.0570    112.0672
  1690.7500     20.2583     64.9909     17.3152    112.1352
  1691.0000     20.6875     64.8678     17.6091    112.4626
  1691.2500     21.1372     64.7396     17.9440    112.4357
  1691.5000     21.6101     64.6497     18.3170    110.9953
  1691.7500     22.0968     64.6087     18.7171    108.7982
  1692.0000     22.6156     64.6011     19.1291    104.0633
  1692.2500     23.2014     64.6120     19.5399    100.4599
  1692.5000     23.8591     64.6365     19.9415     95.0648
  1692.7500     24.5557     64.6695     20.3285     91.7567
  1693.0000     25.2596     64.6977     20.6987     87.6841
  1693.2500     25.9747     64.7027     21.0560     85.6517
  1693.5000     26.7330     64.6674     21.4166     83.1473
  1693.7500     27.5553     64.5831     21.8081     81.3947
  1694.0000     28.4096     64.4612     22.2576     78.2738
  1694.2500     29.2159     64.3387     22.7715     75.9619
  1694.5000     29.8943     64.2640     23.3168     72.3508
  1694.7500     30.4178     64.2715     23.8192     69.7627
  1695.0000     30.8335     64.3654     24.1795     65.3135
  1695.2500     31.2057     64.5234     24.3033     62.0390
  1695.5000     31.5135     64.7158     24.1260     57.4160
  1695.7500     31.6499     64.9260     23.6260     55.0675
  1696.0000     31.5358     65.1573     22.8240     53.0278
  1696.2500     31.1783     65.4218     21.7732     52.4569
  1696.5000     30.6063     65.7286     20.5448     52.3662
  1696.7500     29.7807     66.0829     19.2151     53.0344
  1697.0000     28.5664     66.4919     17.8558     56.4271
  1697.2500     26.7961     66.9587     16.5269     60.9925
  1697.5000     24.4209     67.4670     15.2716     71.2337
  1697.7500     21.6442     67.9745     14.1150     79.5396
  1698.0000     18.8677     68.4303     13.0651     92.6497
  1698.2500     16.4566     68.8003     12.1173    101.1951
  1698.5000     14.5608     69.0815     11.2609    112.9199
  1698.7500     13.1392     69.2975     10.4837    119.4861
  1699.0000     12.0784     69.4788      9.7750    126.7873
  1699.2500     11.2673     69.6381      9.1272    129.9871
  1699.5000     10.6233     69.7613      8.5360    132.9360
  1699.7500     10.0987     69.8240      8.0018    134.0568
  1700.0000      9.6597     69.8183      7.5287    134.8647
  1700.2500      9.2694     69.7679      7.1223    134.9546
  1700.5000      8.9086     69.7233      6.7867    134.5714
  1700.7500      8.5888     69.7408      6.5228    134.0520
  1701.0000      8.3314     69.8490      6.3283    133.1616
  1701.2500      8.1452     70.0242      6.1980    132.7828
  1701.5000      8.0233     70.2028      6.1247    133.0705
  1701.7500      7.9594     70.3271      6.1007    134.0058
  1702.0000      7.9541     70.3813      6.1177    136.3107
  1702.2500      7.9924     70.3925      6.1666    137.8831
  1702.5000      8.0412     70.4057      6.2367    138.5388
  1702.7500      8.0809     70.4627      6.3161    136.8017
  1703.0000      8.1091     70.6012      6.3945    130.7351
  1703.2500      8.1020     70.8607      6.4670    125.5309
  1703.5000      8.0008     71.2721      6.5352    118.6083
  1703.7500      7.7546     71.8325      6.6051    115.4320
  1704.0000      7.3785     72.4897      6.6828    112.8858
  1704.2500      6.9767     73.1610      6.7703    112.4233
  1704.5000      6.7132     73.7687      6.8650    113.3742
  1704.7500      6.7363     74.2663      6.9602    115.1373
  1705.0000      7.0761     74.6448      7.0468    119.4212
  1705.2500      7.5970     74.9253      7.1141    123.0583
  1705.5000      8.0799     75.1447      7.1506    128.9496
  1705.7500      8.3651     75.3412      7.1459    132.9390
  1706.0000      8.4206     75.5442      7.0945    138.8097
  1706.2500      8.3147     75.7663      6.9997    142.2570
  1706.5000      8.1513     76.0034      6.8735    145.6419
  1706.7500      8.0064     76.2440      6.7334    146.3455
  1707.0000      7.8978     76.4815      6.5962    145.4734
  1707.2500      7.8082     76.7125      6.4742    144.1282
  1707.5000      7.7263     76.9278      6.3738    141.3324
  1707.7500      7.6561     77.1132      6.2968    138.7990
  1708.0000      7.6054     77.2650      6.2433    134.0555
  1708.2500      7.5749     77.3998      6.2135    130.8475
  1708.5000      7.5610     77.5417      6.2085    127.4135
  1708.7500      7.5693     77.6998      6.2293    126.6377
  1709.0000      7.6087     77.8559      6.2756    127.9323
  1709.2500      7.6698     77.9679      6.3448    130.1415
  1709.5000      7.7249     77.9848      6.4318    134.5478
  1709.7500      7.7491     77.8779      6.5312    137.5182
  1710.0000      7.7357     77.6746      6.6388    140.8457
  1710.2500      7.7055     77.4600      6.7522    141.9213
  1710.5000      7.7063     77.3237      6.8703    142.1701
  1710.7500      7.7900     77.2994      6.9917    142.1311
  1711.0000      7.9659     77.3535      7.1134    142.9843
  1711.2500      8.1833     77.4267      7.2305    144.3980
  1711.5000      8.3736     77.4745      7.3368    147.0347
  1711.7500      8.4972     77.4742      7.4255    148.2538
  1712.0000      8.5561     77.4098      7.4906    147.9405
  1712.2500      8.5754     77.2632      7.5281    146.0108
  1712.5000      8.5723     77.0219      7.5355    140.9427
  1712.7500      8.5525     76.6962      7.5122    136.8783
  1713.0000      8.5204     76.3313      7.4602    131.7630
  1713.2500      8.4719     75.9997      7.3843    129.9485
  1713.5000      8.3904     75.7713      7.2912    129.4185
  1713.7500      8.2622     75.6783      7.1884    129.5204
  1714.0000      8.0929     75.7041      7.0829    129.0379
  1714.2500      7.9064     75.8125      6.9817    128.4550
  1714.5000      7.7324     75.9865      6.8910    128.3034
  1714.7500      7.5966     76.2370      6.8161    128.9368
  1715.0000      7.5103     76.5749      6.7599    130.1358
  1715.2500      7.4611     76.9814      6.7235    130.4307
  1715.5000      7.4260     77.4045      6.7066    129.9847
  1715.7500      7.4027     77.7760      6.7092    129.5140
  1716.0000      7.4134     78.0391      6.7315    129.0004
  1716.2500      7.4781     78.1799      6.7736    128.7658
  1716.5000      7.5954     78.2366      6.8361    128.7846
  1716.7500      7.7504     78.2640      6.9201    129.3440
  1717.0000      7.9357     78.2869      7.0277    130.9383
  1717.2500      8.1526     78.3033      7.1626    131.9300
  1717.5000      8.3924     78.3234      7.3296    132.2192
  1717.7500      8.6416     78.3728      7.5344    131.3801
  1718.0000      8.8995     78.4373      7.7833    128.8392
  1718.2500      9.1754     78.4234      8.0821    126.6896
  1718.5000      9.4715     78.2034      8.4344    123.9857
  1718.7500      9.7835     77.7092      8.8418    123.3698
  1719.0000     10.1197     76.9847      9.3033    124.7301
  1719.2500     10.5069     76.1498      9.8183    126.4641
  1719.5000     10.9810     75.3231     10.3888    128.0625
  1719.7500     11.5888     74.5772     11.0205    127.3376
  1720.0000     12.3931     73.9560     11.7197    122.9068
  1720.2500     13.4566     73.5169     12.4897    118.0764
  1720.5000     14.8106     73.3347     13.3275    109.2533
  1720.7500     16.4390     73.4321     14.2267    103.0188
  1721.0000     18.2832     73.7034     15.1826     94.0098
  1721.2500     20.2676     73.9415     16.1958     88.7092
  1721.5000     22.3306     73.9744     17.2685     82.8528
  1721.7500     24.4344     73.7791     18.3942     80.8862
