~Version Information
VERS.                      2.0: CWLS Log ASCII Standard - VERSION 2.0
WRAP.                       NO: One line per depth step
~Well Information Block
STRT.FT               430.0000: 
STOP.FT              1910.2000: 
STEP.FT                 0.1000: 
NULL.                -999.2500: 
COMP.          Pioneer Natural Resources: COMPANY
WELL.          Formula 23-11 Tr: WELL
FLD.           Purgatoire River: FIELD
LOC.           1976' FSL & 1935' FWL--: LOCATION
PROV.                 Colorado: PROVINCE
CNTY.               Las Animas: COUNTRY
SRVC.                Patterson: SERVICE COMPANY
DATE.          Mon Jun 13 07:32:15 2005: LOG DATE
UWI.           05 071 08399 00: UNIQUE WELL ID
~Curve Information Block
DEPT.FT            0 000 00 00: Depth
DCAL.in                       : CDL Caliper
RHOB.g/cc                     : CDL Bulk Density
RHOC.g/cc                     : CDL Density Correction
DPOR.pu                       : CDL Density Porosity
NPOR.pu                       : Neutron Porosity
GR.GAPI                       : Gamma Ray
~Parameter Information Block
~A  Depth       DCAL        RHOB        RHOC        DPOR        NPOR         GR     
# ...
  1006.0000      8.0285      2.4798      0.0573     10.3126     18.5832     68.0182
  1006.1000      8.0285      2.4611      0.0474     11.4470     18.0687     66.8770
  1006.2000      8.0285      2.4450      0.0800     12.4248     17.8783     67.3041
  1006.3000      8.0280      2.4257      0.0240     13.5935     18.1977     71.0621
  1006.4000      8.0280      2.4131      0.0244     14.3546     18.7843     74.7740
  1006.5000      8.0280      2.4208      0.0115     13.8907     19.1239     72.1490
  1006.6000      8.0280      2.4463      0.0731     12.3483     19.1015     66.5250
  1006.7000      8.0280      2.4726      0.0814     10.7530     18.8259     62.6049
  1006.8000      8.0296      2.4885      0.1031      9.7889     18.1153     58.0695
  1006.9000      8.0296      2.4920      0.1155      9.5751     17.3793     53.1206
  1007.0000      8.0304      2.4866      0.1029      9.9013     17.2496     51.4393
  1007.1000      8.0304      2.4821      0.0866     10.1777     17.4101     53.1531
  1007.2000      8.0304      2.4813      0.1008     10.2222     17.2429     56.5444
  1007.3000      8.0289      2.4777      0.0811     10.4439     16.9825     62.2116
  1007.4000      8.0289      2.4700      0.0759     10.9062     17.4236     68.8977
  1007.5000      8.0266      2.4632      0.0835     11.3236     18.3489     71.0197
  1007.6000      8.0266      2.4580      0.0560     11.6354     18.8745     67.2346
  1007.7000      8.0266      2.4508      0.0774     12.0752     19.0596     62.2235
  1007.8000      8.0271      2.4376      0.0488     12.8724     19.2719     57.9731
  1007.9000      8.0271      2.4295      0.0447     13.3655     19.4162     54.8772
  1008.0000      8.0299      2.4419      0.0344     12.6122     19.5000     55.0498
  1008.1000      8.0299      2.4634      0.0838     11.3120     19.7418     59.1185
  1008.2000      8.0299      2.4661      0.1083     11.1480     19.8971     62.5150
  1008.3000      8.0310      2.4528      0.0526     11.9531     19.6288     62.1134
  1008.4000      8.0310      2.4517      0.0787     12.0162     19.3320     60.1759
  1008.5000      8.0295      2.4674      0.0925     11.0675     19.4249     58.2415
  1008.6000      8.0295      2.4841      0.0646     10.0525     19.7765     59.7771
  1008.7000      8.0295      2.4922      0.0949      9.5634     19.9469     66.6991
  1008.8000      8.0280      2.4836      0.0828     10.0826     20.0997     73.1456
  1008.9000      8.0280      2.4549      0.0641     11.8221     20.4605     72.9856
  1009.0000      8.0270      2.4198      0.0545     13.9544     20.5342     68.4309
  1009.1000      8.0270      2.3977      0.0307     15.2886     20.1322     65.2064
  1009.2000      8.0270      2.3891      0.0719     15.8149     19.4032     66.3421
  1009.3000      8.0266      2.3875      0.0332     15.9115     18.7961     68.8731
  1009.4000      8.0266      2.3988      0.0381     15.2266     18.7911     66.5870
  1009.5000      8.0265      2.4163      0.0894     14.1649     19.1394     63.0149
  1009.6000      8.0265      2.4234      0.0676     13.7305     19.3631     65.1050
  1009.7000      8.0265      2.4245      0.0355     13.6676     19.2151     69.8852
  1009.8000      8.0286      2.4313      0.0371     13.2563     18.9246     69.0911
  1009.9000      8.0286      2.4379      0.0454     12.8569     19.1688     61.7473
  1010.0000      8.0325      2.4326      0.0784     13.1784     20.0672     56.0029
  1010.1000      8.0325      2.4222      0.0296     13.8070     20.9560     55.4737
  1010.2000      8.0325      2.4291      0.0482     13.3860     21.2725     56.8316
  1010.3000      8.0334      2.4553      0.0706     11.8018     21.1269     57.1972
  1010.4000      8.0334      2.4740      0.0928     10.6674     21.0813     55.9076
  1010.5000      8.0320      2.4664      0.0953     11.1293     21.1386     54.5104
  1010.6000      8.0320      2.4425      0.0398     12.5771     20.8811     55.2268
  1010.7000      8.0320      2.4225      0.0807     13.7860     20.4169     57.6970
  1010.8000      8.0311      2.4171      0.0554     14.1122     20.1037     59.6290
  1010.9000      8.0311      2.4277      0.0711     13.4732     20.0057     59.9180
  1011.0000      8.0310      2.4385      0.0768     12.8155     19.9234     59.5313
  1011.1000      8.0310      2.4356      0.0410     12.9959     19.7949     61.9947
  1011.2000      8.0310      2.4340      0.0274     13.0918     19.7162     65.3687
  1011.3000      8.0315      2.4486      0.0511     12.2066     19.6451     63.1947
  1011.4000      8.0315      2.4693      0.0740     10.9518     19.4684     57.3918
  1011.5000      8.0311      2.4926      0.0678      9.5409     19.5912     54.9649
  1011.6000      8.0311      2.5273      0.0976      7.4341     20.2941     57.1531
  1011.7000      8.0311      2.5666      0.1177      5.0536     21.1220     59.1424
  1011.8000      8.0298      2.5933      0.1158      3.4341     22.0088     58.4166
  1011.9000      8.0298      2.6027      0.1293      2.8659     23.0246     56.2303
  1012.0000      8.0294      2.6006      0.1040      2.9911     23.6764     54.5993
  1012.1000      8.0294      2.5923      0.0972      3.4976     23.6465     55.3803
  1012.2000      8.0294      2.5867      0.0315      3.8392     23.1317     58.5642
  1012.3000      8.0304      2.5926      0.0143      3.4804     22.5275     63.3345
  1012.4000      8.0304      2.5969      0.0308      3.2154     22.4654     67.0626
  1012.5000      8.0306      2.5860     -0.0146      3.8797     22.9973     68.0658
  1012.6000      8.0306      2.5720     -0.0249      4.7262     23.2419     69.0214
  1012.7000      8.0306      2.5645      0.0457      5.1829     22.9880     70.5076
  1012.8000      8.0292      2.5530      0.1021      5.8773     22.6732     72.6432
  1012.9000      8.0292      2.5342      0.0692      7.0192     22.4748     78.0054
  1013.0000      8.0285      2.5270      0.0239      7.4571     22.4466     85.4500
  1013.1000      8.0285      2.5450      0.0511      6.3644     22.4097     91.8134
  1013.2000      8.0285      2.5726      0.0739      4.6879     22.1228     97.6340
  1013.3000      8.0301      2.5896      0.0927      3.6622     21.6007    101.4184
  1013.4000      8.0301      2.5989      0.0927      3.0948     21.1164    101.9385
  1013.5000      8.0320      2.6124      0.0771      2.2768     21.1255    102.2560
  1013.6000      8.0320      2.6211      0.1222      1.7542     21.6647    102.0350
  1013.7000      8.0320      2.6112      0.0635      2.3515     22.1773     98.7547
  1013.8000      8.0334      2.5877      0.0903      3.7747     22.4620     92.6318
  1013.9000      8.0334      2.5612      0.0643      5.3834     22.7959     87.0751
  1014.0000      8.0325      2.5388      0.0264      6.7377     22.9321     83.8802
  1014.1000      8.0325      2.5248      0.0544      7.5874     22.4650     81.4620
  1014.2000      8.0325      2.5225      0.0235      7.7284     22.0996     79.3622
  1014.3000      8.0288      2.5347      0.0550      6.9891     22.3587     79.1690
  1014.4000      8.0288      2.5505      0.1126      6.0295     22.6893     79.5301
  1014.5000      8.0275      2.5594      0.0902      5.4890     22.7400     77.7106
  1014.6000      8.0275      2.5727      0.1024      4.6861     22.7023     77.2562
  1014.7000      8.0275      2.5949      0.1062      3.3413     22.9119     80.5771
  1014.8000      8.0328      2.6089      0.1203      2.4928     23.6446     82.0304
  1014.9000      8.0328      2.6026      0.1139      2.8754     24.6244     79.6469
  1015.0000      8.0444      2.5851      0.0749      3.9361     25.2893     78.9389
  1015.1000      8.0444      2.5706      0.0891      4.8133     25.5734     83.4374
  1015.2000      8.0444      2.5614      0.0659      5.3684     25.6571     90.4294
  1015.3000      8.0527      2.5595      0.0569      5.4863     25.6001     99.6239
  1015.4000      8.0527      2.5762      0.0525      4.4710     25.2560    112.0421
  1015.5000      8.0539      2.6152      0.0782      2.1062     24.5178    122.3019
