~Version Information
VERS.                      2.0: CWLS Log ASCII Standard - VERSION 2.0
WRAP.                       NO: One line per depth step
~Well Information Block
STRT.FT                -7.5000: 
STOP.FT              1716.7500: 
STEP.FT                 0.2500: 
NULL.                -999.2500: 
COMP.          Pioneer Natural Resources: COMPANY
WELL.          Lookout Point 31-23 Tr: WELL
FLD.           Purgatorie River: FIELD
LOC.           541' FNL & 1786' FEL--------: LOCATION
PROV.                       CO: PROVINCE
CNTY.               Las Animas: COUNTRY
SRVC.                         : SERVICE COMPANY
DATE.          Fri Jan 28 08:30:47 2005: LOG DATE
UWI.         005 071 08260 : UNIQUE WELL ID
~Curve Information Block
DEPT.FT            0 000 00 00: Depth
CCL.                          : Casing Collar Locator
TT3.usec                      : CBL 3' Travel Time
AMP3.mV                       : CBL 3' Amplitude
GR.GAPI                       : Gamma Ray
~Parameter Information Block
~A  Depth       CCL         TT3         AMP3         GR     
# ...
    93.0000      0.0000    784.6688      3.8574    102.1663
    93.2500      0.0000    769.1031      3.8110    102.8792
    93.5000      0.0000    746.6782      3.7400    102.2102
    93.7500      0.0000    722.0918      3.6673    101.9076
    94.0000      0.0000    702.8294      3.5872    102.5714
    94.2500      0.0000    695.2542      3.5006    103.7997
    94.5000      0.0000    701.4652      3.4469    105.0720
    94.7500      0.0000    718.4285      3.4763    106.4518
    95.0000      0.0000    739.2402      3.6012    108.6159
    95.2500      0.0000    756.4577      3.7877    112.0348
    95.5000      0.0000    766.1316      3.9967    116.0064
    95.7500      0.0000    769.3088      4.2202    118.7685
    96.0000      0.0000    769.6442      4.4618    118.7482
    96.2500      0.0000    769.8948      4.6839    115.6519
    96.5000      0.0000    770.9645      4.8047    110.3214
    96.7500      0.0000    773.2437      4.7674    103.7602
    97.0000      0.0000    777.2155      4.5977     96.5755
    97.2500      0.0000    782.6323      4.3844     89.4294
    97.5000      0.0000    788.2344      4.2161     83.8396
    97.7500      0.0000    792.6348      4.1380     82.0639
    98.0000      0.0000    795.1406      4.1458     85.6190
    98.2500      0.0000    795.7978      4.2019     93.6877
    98.5000      0.0000    795.0996      4.2526    103.0345
    98.7500      0.0000    793.8066      4.2466    109.6034
    99.0000      0.0000    792.7509      4.1632    110.8793
    99.2500      0.0000    792.4166      4.0370    107.5283
    99.5000      0.0000    792.5372      3.9278    102.7891
    99.7500      0.0000    792.1240      3.8581     99.8949
   100.0000      0.0000    790.1487      3.8003     99.8735
   100.2500      0.0000    786.6157      3.7289    101.5674
   100.5000      0.0000    783.1072      3.6492    103.2804
   100.7500      0.0000    781.7964      3.5660    104.0388
   101.0000      0.0000    783.5455      3.4592    103.4634
   101.2500      0.0000    787.2406      3.3213    101.1977
   101.5000      0.0000    791.0736      3.2010     97.1608
   101.7500      0.0000    793.9869      3.1782     92.2598
   102.0000      0.0000    795.7804      3.2907     88.1450
   102.2500      0.0000    796.4377      3.5008     85.9445
   102.5000      0.0000    795.6666      3.7360     85.5954
   102.7500      0.0000    792.9841      3.9553     86.6210
   103.0000      0.0000    788.4058      4.1688     88.9927
   103.2500      0.0000    783.3186      4.3996     92.6123
   103.5000      0.0000    780.2690      4.6304     96.2284
   103.7500      0.0000    781.1066      4.7982     97.7106
   104.0000      0.0000    785.2862      4.8505     95.7920
   104.2500      0.0000    790.4175      4.7971     91.2674
   104.5000      0.0000    794.3228      4.6941     86.2662
   104.7500      0.0000    796.1743      4.5910     82.5717
   105.0000     -2.0000    795.9662      4.5035     80.7289
   105.2500      0.0000    793.6379      4.4192     80.3685
   105.5000      0.0000    789.1077      4.3257     80.8736
   105.7500      0.0000    783.0716      4.2444     81.4426
   106.0000      0.0000    777.2969      4.2262     80.8208
   106.2500      0.0000    773.6143      4.2896     77.8013
   106.5000      0.0000    772.5364      4.3809     72.4752
   106.7500      0.0000    773.1102      4.4308     66.8304
   107.0000      0.0000    773.9277      4.4257     63.6643
   107.2500      0.0000    773.9725      4.3947     64.4900
   107.5000      0.0000    772.9110      4.3656     68.3661
   107.7500      0.0000    771.3881      4.3613     72.8334
   108.0000      0.0000    771.0413      4.4063     76.0134
   108.2500      0.0000    773.4063      4.4982     77.8555
   108.5000      0.0000    778.3692      4.5896     79.7400
   108.7500      0.0000    784.0033      4.6239     83.1805
   109.0000      0.0000    788.1295      4.5835     88.6600
   109.2500      0.0000    789.9540      4.4875     95.2593
   109.5000      0.0000    790.2931      4.3545    101.1628
   109.7500      0.0000    790.5289      4.1916    104.5658
   110.0000      0.0000    791.4878      4.0207    104.5766
   110.2500      0.0000    792.9935      3.8785    101.8895
   110.5000      0.0000    794.0393      3.7746     98.5543
   110.7500      0.0000    793.2020      3.6767     96.5097
   111.0000      0.0000    789.3066      3.5590     96.0397
   111.2500      0.0000    782.6161      3.4440     95.8664
   111.5000      0.0000    775.8011      3.3778     94.9053
   111.7500      0.0000    772.7520      3.3844     93.7076
   112.0000      0.0000    775.1586      3.4661     93.8060
   112.2500      0.0000    780.3962      3.6228     95.6895
   112.5000      0.0000    783.4238      3.8369     97.9390
   112.7500      0.0000    780.6023      4.0516     98.6196
   113.0000      0.0000    771.8101      4.1999     97.3160
   113.2500      0.0000    759.9048      4.2607     95.5153
   113.5000      0.0000    748.6037      4.2643     94.9048
   113.7500      0.0000    740.3362      4.2421     95.5912
   114.0000      0.0000    735.4485      4.1959     96.4197
   114.2500      0.0000    732.9180      4.1184     96.6680
   114.5000      0.0000    731.4864      4.0186     96.5006
   114.7500      0.0000    730.2037      3.9173     95.8836
   115.0000      0.0000    728.3511      3.8324     94.0998
   115.2500      0.0000    725.2595      3.7715     90.6879
   115.5000      0.0000    720.6443      3.7287     86.3237
   115.7500      0.0000    715.4013      3.6935     82.5110
   116.0000      0.0000    711.7448      3.6702     80.5537
   116.2500      0.0000    711.7963      3.6782     80.6973
   116.5000      0.0000    715.8346      3.7270     82.0489
   116.7500      0.0000    722.3931      3.8059     83.4605
   117.0000      0.0000    730.0621      3.9019     84.5341
   117.2500      0.0000    738.4711      4.0058     85.6562
   117.5000      0.0000    747.1913      4.0995     87.2761
   117.7500      0.0000    754.3574      4.1631     89.4336
   118.0000      0.0000    757.3335      4.1945     91.7161
   118.2500      0.0000    755.0632      4.2019     93.3018
   118.5000      0.0000    749.4386      4.1841     93.2803
   118.7500      0.0000    744.0002      4.1395     91.3758
   119.0000      0.0000    741.1923      4.0829     88.4892
   119.2500      0.0000    740.7693      4.0371     86.4698
   119.5000      0.0000    740.6612      4.0194     87.1099
   119.7500      0.0000    739.2267      4.0473     90.8908
   120.0000      0.0000    736.5949      4.1366     96.3132
   120.2500      0.0000    734.0188      4.2764    100.6156
   120.5000      0.0000    732.4506      4.4193    101.7630
   120.7500      0.0000    731.9558      4.5145    100.0880
   121.0000      0.0000    732.1211      4.5465     97.9611
   121.2500      0.0000    732.6797      4.5341     97.8608
   121.5000      0.0000    733.8186      4.5048    100.6211
   121.7500      0.0000    735.9636      4.4822    105.1384
   122.0000      0.0000    739.0893      4.4810    109.5652
   122.2500      0.0000    742.1630      4.5002    112.8758
   122.5000      0.0000    743.6333      4.5280    115.2332
   122.7500      0.0000    742.7808      4.5584    116.9528
   123.0000      0.0000    740.4141      4.5909    117.7383
   123.2500      0.0000    738.0391      4.6173    117.1197
   123.5000      0.0000    736.5902      4.6230    115.1301
   123.7500      0.0000    736.0751      4.6056    112.3658
   124.0000      0.0000    736.0343      4.5743    109.5633
   124.2500      0.0000    736.0046      4.5360    107.0696
   124.5000      0.0000    735.7072      4.4976    104.6161
   124.7500      0.0000    735.0997      4.4811    101.7489
   125.0000      0.0000    734.3310      4.5072     98.5050
   125.2500      0.0000    733.5834      4.5645     95.6021
   125.5000      0.0000    732.9573      4.6182     94.0479
   125.7500      0.0000    732.4778      4.6526     94.4633
   126.0000      0.0000    732.1658      4.6836     96.4703
   126.2500      0.0000    732.1166      4.7311     98.6387
