~Version Information
VERS.                      2.0: CWLS Log ASCII Standard - VERSION 2.0
WRAP.                       NO: One line per depth step
~Well Information Block
STRT.FT               451.7500: 
STOP.FT              1387.0000: 
STEP.FT                 0.2500: 
NULL.                -999.2500: 
COMP.          Petrogulf Corporation: COMPANY
WELL.          Great Plains 22-22R: WELL
FLD.           Purgatoire River: FIELD
LOC.           2042' FNL & 1657' FWL--: LOCATION
PROV.                 Colorado: PROVINCE
CNTY.               Las Animas: COUNTRY
SRVC.                Patterson: SERVICE COMPANY
DATE.          Fri Sep 09 10:42:01 2005: LOG DATE
UWI.           05 071 08028 00: UNIQUE WELL ID
~Curve Information Block
DEPT.FT            0 000 00 00: Depth
SP.mV                         : DIL Spontaneous Potential
RILD.Ohm-m                    : DIL Deep Resistivity
RILM.Ohm-m                    : DIL Medium Resistivity
RLL3.Ohm-m                    : DIL Shallow Resistivity
GR.GAPI                       : Gamma Ray
~Parameter Information Block
~A  Depth        SP         RILD        RILM        RLL3         GR     
# ...
  1291.7500     61.4825     24.5100     26.3505     27.9751     58.7134
  1292.0000     61.3741     24.8601     27.1105     29.2592     58.9304
  1292.2500     61.2641     25.2335     27.9611     30.6347     59.5073
  1292.5000     61.1453     25.6345     28.8816     31.9974     60.6583
  1292.7500     61.0141     26.0635     29.8335     33.2630     61.2907
  1293.0000     60.8797     26.5113     30.7668     34.3748     61.8956
  1293.2500     60.7682     26.9593     31.6386     35.2836     62.3222
  1293.5000     60.7199     27.3860     32.4309     35.9444     63.3999
  1293.7500     60.7844     27.7712     33.1450     36.3527     64.2427
  1294.0000     61.0169     28.0941     33.7742     36.5689     64.8569
  1294.2500     61.4792     28.3298     34.2817     36.6666     64.5496
  1294.5000     62.2374     28.4513     34.6054     36.6400     63.5067
  1294.7500     63.3530     28.4394     34.6861     36.3916     63.0017
  1295.0000     64.8586     28.2877     34.4933     35.8297     63.0973
  1295.2500     66.7215     27.9965     34.0316     34.9819     63.7270
  1295.5000     68.8096     27.5653     33.3283     34.0350     65.4449
  1295.7500     70.8948     26.9982     32.4159     33.2945     67.1816
  1296.0000     72.7198     26.3189     31.3175     33.0678     70.9358
  1296.2500     74.1020     25.5776     30.0455     33.4648     74.4456
  1296.5000     75.0063     24.8365     28.6174     34.1960     81.7809
  1296.7500     75.5330     24.1442     27.0832     34.5531     88.3146
  1297.0000     75.8392     23.5181     25.5407     33.7107    100.3623
  1297.2500     76.0600     22.9477     24.1201     31.2698    109.0693
  1297.5000     76.2744     22.4130     22.9422     27.6909    120.4786
  1297.7500     76.5118     21.9015     22.0778     24.1947    125.2906
  1298.0000     76.7753     21.4123     21.5280     22.0795    127.1111
  1298.2500     77.0633     20.9463     21.2257     21.9288    125.5842
  1298.5000     77.3797     20.4969     21.0571     23.3100    122.3338
  1298.7500     77.7331     20.0506     20.8993     25.1222    121.2115
  1299.0000     78.1283     19.5968     20.6662     26.2610    122.2852
  1299.2500     78.5601     19.1378     20.3383     26.1700    124.4173
  1299.5000     79.0132     18.6902     19.9544     25.0656    127.8359
  1299.7500     79.4692     18.2780     19.5715     23.8050    129.1880
  1300.0000     79.9139     17.9241     19.2224     23.3952    129.2969
  1300.2500     80.3390     17.6454     18.8977     24.2906    128.7595
  1300.5000     80.7377     17.4525     18.5574     25.9368    129.2826
  1300.7500     81.0980     17.3493     18.1655     27.0456    131.7195
  1301.0000     81.4015     17.3327     17.7259     26.5207    138.6080
  1301.2500     81.6291     17.3928     17.2951     24.2643    143.8570
  1301.5000     81.7692     17.5132     16.9632     21.1700    148.9149
  1301.7500     81.8227     17.6731     16.8199     18.4389    148.8179
  1302.0000     81.8004     17.8489     16.9273     16.9428    142.9779
  1302.2500     81.7165     18.0174     17.3075     17.0770    136.0007
  1302.5000     81.5835     18.1630     17.9381     18.9295    122.9649
  1302.7500     81.4112     18.2841     18.7525     22.3653    113.9853
  1303.0000     81.2090     18.3941     19.6475     26.8580    102.4121
  1303.2500     80.9870     18.5150     20.5066     31.3292     96.8751
  1303.5000     80.7556     18.6668     21.2362     34.4663     92.1254
  1303.7500     80.5227     18.8593     21.7965     35.5477     90.7845
  1304.0000     80.2925     19.0889     22.2035     35.0281     90.0127
  1304.2500     80.0639     19.3413     22.4989     34.1599     89.6723
  1304.5000     79.8318     19.5980     22.7101     33.9691     89.5000
  1304.7500     79.5905     19.8427     22.8279     34.5626     90.3211
  1305.0000     79.3382     20.0629     22.8186     35.2228     94.2181
  1305.2500     79.0787     20.2476     22.6591     34.9839     98.6036
  1305.5000     78.8213     20.3859     22.3688     33.2712    106.0269
  1305.7500     78.5773     20.4692     22.0111     30.3086    109.8153
  1306.0000     78.3561     20.4956     21.6664     27.0218    111.6365
  1306.2500     78.1618     20.4712     21.4033     24.4309    110.4208
  1306.5000     77.9931     20.4056     21.2636     23.0128    107.1871
  1306.7500     77.8477     20.3040     21.2652     22.5752    105.3676
  1307.0000     77.7281     20.1626     21.4086     22.6639    103.7458
  1307.2500     77.6450     19.9728     21.6815     23.0532    103.1266
  1307.5000     77.6128     19.7292     22.0561     23.9013    102.6362
  1307.7500     77.6440     19.4357     22.4821     25.5233    102.6608
  1308.0000     77.7434     19.1030     22.8803     28.0413    102.9083
  1308.2500     77.9070     18.7432     23.1460     31.1984    102.7451
  1308.5000     78.1222     18.3677     23.1663     34.4349    101.7361
  1308.7500     78.3703     17.9910     22.8544     37.1059    101.0780
  1309.0000     78.6291     17.6338     22.1879     38.6327    101.6115
  1309.2500     78.8760     17.3186     21.2256     38.5217    103.6574
  1309.5000     79.0919     17.0614     20.0901     36.4393    109.5657
  1309.7500     79.2649     16.8624     18.9253     32.4838    114.9544
  1310.0000     79.3927     16.7030     17.8562     27.4028    123.4167
  1310.2500     79.4818     16.5522     16.9660     22.3791    128.0121
  1310.5000     79.5431     16.3814     16.2920     18.4821    131.6097
  1310.7500     79.5875     16.1801     15.8312     16.2696    131.4147
  1311.0000     79.6226     15.9642     15.5504     15.7661    128.0122
  1311.2500     79.6516     15.7682     15.4006     16.5866    125.0274
  1311.5000     79.6726     15.6299     15.3367     18.0080    122.2686
  1311.7500     79.6780     15.5790     15.3378     19.1526    122.3501
  1312.0000     79.6567     15.6334     15.4194     19.4740    123.9616
  1312.2500     79.5990     15.8041     15.6307     19.2707    124.0915
  1312.5000     79.5026     16.0973     16.0380     19.6510    119.9340
  1312.7500     79.3765     16.5113     16.7051     21.7806    113.8926
  1313.0000     79.2408     17.0278     17.6767     25.9650    101.9611
  1313.2500     79.1225     17.6045     18.9656     31.3378     94.0288
  1313.5000     79.0484     18.1770     20.5420     36.4445     84.6820
  1313.7500     79.0380     18.6718     22.3250     40.2856     80.5825
  1314.0000     79.0997     19.0237     24.1747     42.9902     77.1048
  1314.2500     79.2328     19.1862     25.8816     45.5690     76.2031
  1314.5000     79.4323     19.1337     27.1659     48.9427     76.9532
  1314.7500     79.6944     18.8617     27.7156     52.9851     79.0557
  1315.0000     80.0151     18.3898     27.2969     56.2682     84.7854
  1315.2500     80.3864     17.7609     25.8945     56.7661     90.2868
  1315.5000     80.7927     17.0313     23.7609     53.1656    100.9566
  1315.7500     81.2138     16.2552     21.3021     45.8375    109.4980
  1316.0000     81.6300     15.4728     18.8939     36.6264    123.5773
  1316.2500     82.0236     14.7071     16.7707     27.6899    133.0667
  1316.5000     82.3796     13.9688     15.0215     20.4636    146.3066
  1316.7500     82.6859     13.2642     13.6392     15.4089    153.9851
  1317.0000     82.9356     12.5987     12.5721     12.3080    163.1498
  1317.2500     83.1276     11.9770     11.7572     10.6431    167.3582
  1317.5000     83.2627     11.4015     11.1378      9.8720    170.2790
  1317.7500     83.3422     10.8721     10.6691      9.5823    169.7905
  1318.0000     83.3704     10.3878     10.3176      9.5519    165.8488
  1318.2500     83.3602      9.9482     10.0559      9.7542    161.8553
  1318.5000     83.3333      9.5547      9.8575     10.3095    155.5214
  1318.7500     83.3117      9.2106      9.6932     11.3354    151.8981
  1319.0000     83.3100      8.9202      9.5321     12.7226    148.2092
  1319.2500     83.3335      8.6870      9.3493     14.0187    147.1866
  1319.5000     83.3828      8.5121      9.1343     14.6209    148.0961
