~Version Information
VERS.                      2.0: CWLS Log ASCII Standard - VERSION 2.0
WRAP.                       NO: One line per depth step
~Well Information Block
STRT.FT                -5.5000: 
STOP.FT              1979.7500: 
STEP.FT                 0.2500: 
NULL.                -999.2500: 
COMP.          Pioneer Natural Resources: COMPANY
WELL.          Bucksnort 41-35: WELL
FLD.           Purgatorie River: FIELD
LOC.           117' FNL & 463' FEL: LOCATION
PROV.                 Colorado: PROVINCE
CNTY.               Las Animas: COUNTRY
SRVC.                Patterson: SERVICE COMPANY
DATE.          Fri Jul 29 10:31:46 2005: LOG DATE
UWI.                          : UNIQUE WELL ID
~Curve Information Block
DEPT.FT            0 000 00 00: Depth
GR.GAPI                       : Gamma Ray
CCL.                          : Casing Collar Locator
TT3.usec                      : CBL 3' Travel Time
AMP3.mV                       : CBL 3' Amplitude
~Parameter Information Block
~A  Depth        GR         CCL         TT3         AMP3    
# ...
   396.5000    101.8999      0.0000    799.8597      8.8308
   396.7500    101.2294      0.0000    801.4142      8.7709
   397.0000    101.5353      0.0000    807.0728      8.7261
   397.2500    103.6800      0.0000    823.1194      8.7225
   397.5000    107.2909      0.0000    850.7980      8.7424
   397.7500    110.6387      0.0000    875.1819      8.7301
   398.0000    111.4280      0.0000    875.1028      8.6851
   398.2500    108.2692      0.0000    850.6090      8.6974
   398.5000    101.8965      0.0000    822.1552      8.8253
   398.7500     94.8538      0.0000    801.4310      8.9900
   399.0000     89.5550      0.0000    782.4656      9.0777
   399.2500     86.6345      0.0000    761.7789      9.0838
   399.5000     85.2874      0.0000    751.4036      9.0764
   399.7500     84.9052      0.0000    760.9820      9.0965
   400.0000     85.8627      0.0000    780.1315      9.1357
   400.2500     88.5226      0.0000    793.7592      9.1665
   400.5000     91.8721      0.0000    798.6707      9.1745
   400.7500     93.9175      0.0000    797.4228      9.1648
   401.0000     93.6517      0.0000    789.9280      9.1508
   401.2500     92.1856      0.0000    775.9630      9.1200
   401.5000     91.7114      0.0000    761.3226      9.0188
   401.7500     93.5450      0.0000    754.3687      8.8321
   402.0000     97.1591      0.0000    755.2148      8.6422
   402.2500    100.8018      0.0000    758.3322      8.5375
   402.5000    102.9593      0.0000    766.3434      8.5237
   402.7500    103.3021      0.0000    786.1431      8.5589
   403.0000    102.2558      0.0000    810.5038      8.6234
   403.2500     99.9964      0.0000    822.5797      8.7227
   403.5000     96.2748      0.0000    818.9359      8.8513
   403.7500     91.0605      0.0000    810.3978      8.9726
   404.0000     84.9559      0.0000    805.0377      9.0387
   404.2500     78.9670      0.0000    803.0656      9.0341
   404.5000     74.0666      0.0000    802.4943      8.9920
   404.7500     70.8781      0.0000    802.4000      8.9701
   405.0000     69.4326      0.0000    802.6003      9.0008
   405.2500     69.1767      0.0000    802.9685      9.0671
   405.5000     69.4376      0.0000    803.3188      9.1398
   405.7500     69.9594      0.0000    803.5662      9.2104
   406.0000     70.8636      0.0000    803.7922      9.2793
   406.2500     72.1044      0.0000    804.0801      9.3476
   406.5000     73.1874      0.0000    804.3694      9.4209
   406.7500     73.5377      0.0000    804.5538      9.4951
   407.0000     73.0325      0.0000    804.6246      9.5422
   407.2500     72.1636      0.0000    804.6448      9.5318
   407.5000     71.6655      0.0000    804.6210      9.4768
   407.7500     71.9457      0.0000    804.5115      9.4250
   408.0000     72.8729      0.0000    804.3602      9.3981
   408.2500     73.9531      0.0000    804.2142      9.3781
   408.5000     74.5015      0.0000    803.8521      9.3483
   408.7500     73.8438      0.0000    802.5676      9.3230
   409.0000     71.8757      0.0000    799.4874      9.3296
   409.2500     69.4805      0.0000    795.3729      9.3623
   409.5000     67.9145      0.0000    793.6193      9.3863
   409.7500     67.5321      0.0000    796.3734      9.3840
   410.0000     67.4210      0.0000    801.0723      9.3670
   410.2500     66.5939      0.0000    804.1732      9.3588
   410.5000     65.3337      0.0000    805.1324      9.3766
   410.7500     64.9473      0.0000    804.6919      9.4235
   411.0000     66.1542      0.0000    801.9370      9.4870
   411.2500     68.0567      0.0000    794.7480      9.5428
   411.5000     68.8694      0.0000    784.6971      9.5811
   411.7500     67.5535      0.0000    779.6208      9.6176
   412.0000     64.6367      0.0000    784.6383      9.6535
   412.2500     61.5841      0.0000    794.1242      9.6642
   412.5000     59.5533      0.0000    799.5984      9.6474
   412.7500     58.7741      0.0000    798.1740      9.6375
   413.0000     58.9174      0.0000    791.4214      9.6457
   413.2500     59.6916      0.0000    783.8894      9.6421
   413.5000     60.8914      0.0000    780.4902      9.6099
   413.7500     62.1296      0.0000    781.3857      9.5569
   414.0000     62.9100      0.0000    783.2939      9.4899
   414.2500     62.9948      0.0000    784.5762      9.4279
   414.5000     62.5450      0.0000    784.9677      9.4087
   414.7500     61.8686      0.0000    782.5333      9.4508
   415.0000     61.0829      0.0000    775.3597      9.5261
   415.2500     60.0723      0.0000    766.8276      9.5855
   415.5000     58.8262      0.0000    763.5001      9.6011
   415.7500     57.8035      0.0000    768.8284      9.5756
   416.0000     57.8677      0.0000    781.1458      9.5296
   416.2500     59.6377      0.0000    794.1137      9.4956
   416.5000     62.8732      0.0000    802.1957      9.4985
   416.7500     66.6455      0.0000    805.2616      9.5382
   417.0000     70.0562      0.0000    805.7394      9.5969
   417.2500     72.5871      0.0000    805.2626      9.6490
   417.5000     73.8072      0.0000    804.4988      9.6752
   417.7500     73.1602      0.0000    803.3575      9.6817
   418.0000     70.4270      0.0000    800.2006      9.6911
   418.2500     66.3461      0.0000    791.8264      9.7118
   418.5000     62.4437      0.0000    777.5504      9.7350
   418.7500     60.0857      0.0000    763.4935      9.7555
   419.0000     59.6836      0.0000    756.5836      9.7709
   419.2500     60.7132      0.0000    755.0983      9.7729
   419.5000     62.2974      0.0000    751.8217      9.7611
   419.7500     63.6763      0.0000    743.5930      9.7458
   420.0000     64.3329      0.0000    734.3374      9.7294
   420.2500     64.0170      0.0000    729.2996      9.7134
   420.5000     62.8660      0.0000    728.3345      9.7049
   420.7500     61.4048      0.0000    729.5928      9.6949
   421.0000     60.1782      0.0000    734.6547      9.6649
   421.2500     59.3315      0.0000    742.7314      9.6084
   421.5000     58.6858      0.0000    747.8105      9.5246
   421.7500     58.2862      0.0000    747.0651      9.4199
   422.0000     58.6992      0.0000    744.6928      9.3199
   422.2500     60.6000      0.0000    744.0966      9.2568
   422.5000     64.0298      0.0000    743.8287      9.2439
   422.7500     68.0673      0.0000    744.0451      9.2720
   423.0000     71.2417      0.0000    747.2723      9.3278
   423.2500     72.5041      0.0000    752.4210      9.4104
   423.5000     72.0525      0.0000    756.2164      9.5318
   423.7500     71.1625      0.0000    757.4584      9.7040
   424.0000     71.1234      0.0000    756.2833      9.9193
   424.2500     72.4846      0.0000    752.8565     10.1624
   424.5000     75.2757      0.0000    749.3271     10.4324
   424.7500     79.3773      0.0000    751.1678     10.7138
   425.0000     84.3098      0.0000    761.4718     10.9581
   425.2500     89.0595      0.0000    775.3803     11.1233
   425.5000     92.5236      0.0000    785.0358     11.1939
   425.7500     94.0569      0.0000    785.6320     11.1757
   426.0000     93.5681      0.0000    776.6498     11.0978
   426.2500     91.4540      0.0000    761.6843     10.9904
   426.5000     88.5467      0.0000    744.7994     10.8610
   426.7500     85.8503      0.0000    729.0435     10.6953
   427.0000     84.0654      0.0000    717.9408     10.4638
   427.2500     83.2916      0.0000    713.6934     10.1455
   427.5000     83.1141      0.0000    715.9298      9.7556
   427.7500     83.0065      0.0000    722.6450      9.3497
   428.0000     82.8713      0.0000    731.2622      8.9973
   428.2500     83.3845      0.0000    741.9637      8.7450
   428.5000     85.6309      0.0000    758.5625      8.6260
   428.7500     90.1141      0.0000    782.2251      8.6894
   429.0000     96.1385      0.0000    806.5604      8.9461
   429.2500    102.1416      0.0000    821.2764      9.2835
   429.5000    106.2638      0.0000    820.3312      9.5392
   429.7500    106.7597      0.0000    807.3881      9.6594
