~Version Information
VERS.                      2.0: CWLS Log ASCII Standard - VERSION 2.0
WRAP.                       NO: One line per depth step
~Well Information Block
STRT.FT               500.0000: 
STOP.FT              2732.5000: 
STEP.FT                 0.2500: 
NULL.                -999.2500: 
COMP.          Pioneer Natural Resources: COMPANY
WELL.          Dude Canyon 22-32: WELL
FLD.           Purgatoire River: FIELD
LOC.           1662' FNL & 2446' FWL----: LOCATION
PROV.                 Colorado: PROVINCE
CNTY.               Las Animas: COUNTRY
SRVC.                Patterson: SERVICE COMPANY
DATE.          Thu Mar 10 07:15:42 2005: LOG DATE
UWI.           05 071 08257 00: UNIQUE WELL ID
~Curve Information Block
DEPT.FT            0 000 00 00: Depth
DIR.Ohm-m                     : IEL Induction Resistivity
GR.GAPI                       : Gamma Ray
SN.Ohm-m                      : IEL Short Normal
SP.mV                         : IEL Spontaneous Potential
~Parameter Information Block
~A  Depth       DIR          GR          SN          SP     
# ...
  1974.0000     23.6211     68.1057     27.7807   -104.0910
  1974.2500     23.6333     64.6569     28.0695   -103.9342
  1974.5000     23.6604     61.2646     28.3347   -103.7722
  1974.7500     23.7432     60.0913     28.5919   -103.5933
  1975.0000     23.8913     59.1743     28.8436   -103.3906
  1975.2500     24.0895     58.8912     29.0893   -103.1617
  1975.5000     24.3095     58.8850     29.3213   -102.9075
  1975.7500     24.5237     58.9458     29.5181   -102.6316
  1976.0000     24.7164     58.5719     29.6524   -102.3403
  1976.2500     24.8865     58.0110     29.7074   -102.0420
  1976.5000     25.0420     57.3613     29.6887   -101.7471
  1976.7500     25.1865     57.2980     29.6242   -101.4670
  1977.0000     25.3101     57.4088     29.5528   -101.2127
  1977.2500     25.3936     57.4703     29.5059   -100.9933
  1977.5000     25.4241     58.3710     29.4902   -100.8145
  1977.7500     25.4053     60.1566     29.4858   -100.6789
  1978.0000     25.3506     63.9052     29.4638   -100.5863
  1978.2500     25.2667     65.4565     29.4118   -100.5348
  1978.5000     25.1479     63.8124     29.3472   -100.5218
  1978.7500     24.9892     60.1518     29.3072   -100.5450
  1979.0000     24.8026     53.4709     29.3245   -100.6023
  1979.2500     24.6179     50.0583     29.4089   -100.6926
  1979.5000     24.4672     48.2996     29.5477   -100.8153
  1979.7500     24.3681     49.1983     29.7180   -100.9709
  1980.0000     24.3218     51.4062     29.8980   -101.1615
  1980.2500     24.3210     51.7824     30.0718   -101.3892
  1980.5000     24.3589     49.4877     30.2353   -101.6544
  1980.7500     24.4301     46.7857     30.3977   -101.9521
  1981.0000     24.5295     43.1668     30.5745   -102.2680
  1981.2500     24.6503     41.7358     30.7697   -102.5769
  1981.5000     24.7858     40.7817     30.9624   -102.8439
  1981.7500     24.9283     40.4881     31.1082   -103.0308
  1982.0000     25.0671     40.2071     31.1509   -103.1039
  1982.2500     25.1869     40.2209     31.0373   -103.0426
  1982.5000     25.2710     41.0294     30.7364   -102.8452
  1982.7500     25.3089     42.5411     30.2608   -102.5301
  1983.0000     25.3038     47.2847     29.6819   -102.1312
  1983.2500     25.2769     52.6142     29.1222   -101.6923
  1983.5000     25.2621     63.9095     28.7208   -101.2589
  1983.7500     25.2880     72.9255     28.5837   -100.8729
  1984.0000     25.3573     86.6823     28.7426   -100.5667
  1984.2500     25.4410     95.0818     29.1419   -100.3593
  1984.5000     25.4958    105.8748     29.6614   -100.2517
  1984.7500     25.4988    111.4935     30.1721   -100.2226
  1985.0000     25.4731    115.8484     30.6033   -100.2260
  1985.2500     25.4853    114.8027     30.9747   -100.1918
  1985.5000     25.6154    106.9617     31.3552   -100.0331
  1985.7500     25.9170     99.0538     31.7680    -99.6605
  1986.0000     26.3810     87.2703     32.1130    -99.0021
  1986.2500     26.9154     81.1687     32.1767    -98.0225
  1986.5000     27.3538     74.8529     31.7367    -96.7346
  1986.7500     27.5031     71.7017     30.6976    -95.1987
  1987.0000     27.2188     67.7705     29.1621    -93.5086
  1987.2500     26.4607     66.2377     27.3851    -91.7712
  1987.5000     25.2945     67.5900     25.6416    -90.0868
  1987.7500     23.8457     71.8582     24.1008    -88.5367
  1988.0000     22.2484     83.3806     22.7853    -87.1803
  1988.2500     20.6145     93.5345     21.6190    -86.0563
  1988.5000     19.0275    109.7816     20.5114    -85.1859
  1988.7500     17.5456    119.7747     19.4174    -84.5742
  1989.0000     16.2068    132.3482     18.3462    -84.2106
  1989.2500     15.0321    139.2940     17.3378    -84.0707
  1989.5000     14.0289    147.7634     16.4347    -84.1196
  1989.7500     13.1951    151.5249     15.6670    -84.3174
  1990.0000     12.5222    153.1066     15.0465    -84.6237
  1990.2500     11.9973    151.8189     14.5652    -85.0005
  1990.5000     11.6038    149.5890     14.1950    -85.4111
  1990.7500     11.3218    150.1177     13.8927    -85.8207
  1991.0000     11.1290    154.9842     13.6067    -86.1973
  1991.2500     11.0012    159.1894     13.2847    -86.5160
  1991.5000     10.9124    162.3286     12.8825    -86.7643
  1991.7500     10.8352    161.1403     12.3759    -86.9446
  1992.0000     10.7433    156.7982     11.7708    -87.0734
  1992.2500     10.6169    154.4467     11.1043    -87.1757
  1992.5000     10.4488    153.2372     10.4352    -87.2783
  1992.7500     10.2448    153.2829      9.8355    -87.4053
  1993.0000     10.0187    152.9595      9.3856    -87.5757
  1993.2500      9.7863    152.2059      9.1626    -87.8046
  1993.5000      9.5628    151.3057      9.2105    -88.1048
  1993.7500      9.3626    151.9514      9.5096    -88.4861
  1994.0000      9.1988    156.0081      9.9729    -88.9528
  1994.2500      9.0839    160.4272     10.4804    -89.4996
  1994.5000      9.0292    167.4595     10.9333    -90.1084
  1994.7500      9.0469    171.1066     11.2936    -90.7484
  1995.0000      9.1503    173.7712     11.5832    -91.3808
  1995.2500      9.3530    173.4464     11.8483    -91.9650
  1995.5000      9.6670    169.7191     12.1228    -92.4673
  1995.7500     10.0985    165.0590     12.4170    -92.8674
  1996.0000     10.6446    154.9125     12.7284    -93.1629
  1996.2500     11.2905    146.6111     13.0613    -93.3697
  1996.5000     12.0117    134.2097     13.4379    -93.5192
  1996.7500     12.7775    127.2843     13.8944    -93.6532
  1997.0000     13.5566    118.7930     14.4628    -93.8178
  1997.2500     14.3181    113.3742     15.1515    -94.0579
  1997.5000     15.0310    105.5360     15.9388    -94.4118
  1997.7500     15.6675    102.1020     16.7856    -94.9061
  1998.0000     16.2095    102.5902     17.6478    -95.5516
  1998.2500     16.6548    106.9522     18.4715    -96.3412
  1998.5000     17.0158    117.5240     19.1897    -97.2510
  1998.7500     17.3145    125.5452     19.7458    -98.2440
  1999.0000     17.5786    136.3338     20.1306    -99.2752
  1999.2500     17.8412    141.3284     20.3975   -100.2968
  1999.5000     18.1393    143.6091     20.6457   -101.2624
  1999.7500     18.5087    141.0027     20.9883   -102.1319
  2000.0000     18.9750    131.2776     21.5111   -102.8767
  2000.2500     19.5471    122.2693     22.2293   -103.4857
  2000.5000     20.2112    108.6497     23.0663   -103.9684
  2000.7500     20.9268    101.6439     23.8813   -104.3535
  2001.0000     21.6271     96.6750     24.5353   -104.6833
  2001.2500     22.2295     97.3150     24.9515   -105.0038
  2001.5000     22.6601    102.2144     25.1302   -105.3549
  2001.7500     22.8807    105.9829     25.1216   -105.7639
  2002.0000     22.8998    109.4990     24.9876   -106.2431
  2002.2500     22.7604    110.1291     24.7801   -106.7906
  2002.5000     22.5161    109.5800     24.5367   -107.3927
  2002.7500     22.2155    108.7364     24.2856   -108.0270
  2003.0000     21.8996    106.9912     24.0529   -108.6650
  2003.2500     21.6029    105.6450     23.8667   -109.2750
  2003.5000     21.3517    103.6902     23.7493   -109.8268
  2003.7500     21.1594    102.4850     23.6982   -110.2962
  2004.0000     21.0255    100.8619     23.6762   -110.6697
  2004.2500     20.9412    100.2329     23.6297   -110.9458
  2004.5000     20.8955    100.8817     23.5222   -111.1341
  2004.7500     20.8783    102.5155     23.3553   -111.2492
  2005.0000     20.8810    105.7366     23.1605   -111.3035
  2005.2500     20.8958    107.5395     22.9729   -111.3002
  2005.5000     20.9150    109.0027     22.8084   -111.2329
  2005.7500     20.9251    109.1601     22.6511   -111.0881
  2006.0000     20.8984    108.3024     22.4511   -110.8541
  2006.2500     20.7908    107.1180     22.1390   -110.5276
  2006.5000     20.5576    104.9874     21.6635   -110.1178
  2006.7500     20.1816    103.7158     21.0380   -109.6453
  2007.0000     19.6908    102.1834     20.3570   -109.1365
  2007.2500     19.1495    101.1840     19.7583   -108.6158
