~Version Information
VERS.                      2.0: CWLS Log ASCII Standard - VERSION 2.0
WRAP.                       NO: One line per depth step
~Well Information Block
STRT.FT               350.0000: 
STOP.FT              2531.5000: 
STEP.FT                 0.1000: 
NULL.                -999.2500: 
COMP.          Pioneer Natural Resources: COMPANY
WELL.          Cock-a-doodle-doo: WELL
FLD.           Purgatoire River: FIELD
LOC.           163' FSL & 54' FEL: LOCATION
PROV.                 Colorado: PROVINCE
CNTY.               Las Animas: COUNTRY
SRVC.                Patterson: SERVICE COMPANY
DATE.          Fri Jul 01 09:34:59 2005: LOG DATE
UWI.           05 071 08429 00: UNIQUE WELL ID
~Curve Information Block
DEPT.FT            0 000 00 00: Depth
DCAL.in                       : CDL Caliper
RHOB.g/cc                     : CDL Bulk Density
RHOC.g/cc                     : CDL Density Correction
DPOR.pu                       : CDL Density Porosity
GR.GAPI                       : Gamma Ray
NPOR.pu                       : Neutron Porosity
~Parameter Information Block
~A  Depth       DCAL        RHOB        RHOC        DPOR         GR         NPOR    
# ...
  2519.6000      7.8009      2.5884      0.0743      3.7333   -999.2500   -999.2500
  2519.7000      7.8009      2.6087      0.1092      2.5046   -999.2500   -999.2500
  2519.8000      7.8054      2.6108      0.0611      2.3749   -999.2500   -999.2500
  2519.9000      7.8054      2.5971      0.0701      3.2062   -999.2500   -999.2500
  2520.0000      7.8052      2.5776      0.0563      4.3855   -999.2500   -999.2500
  2520.1000      7.8052      2.5582      0.0466      5.5620   -999.2500   -999.2500
  2520.2000      7.8052      2.5450      0.0384      6.3634   -999.2500   -999.2500
  2520.3000      7.8006      2.5365      0.0347      6.8797   -999.2500   -999.2500
  2520.4000      7.8006      2.5243      0.0382      7.6207   -999.2500   -999.2500
  2520.5000      7.8046      2.5107      0.0342      8.4407   -999.2500   -999.2500
  2520.6000      7.8046      2.5082     -0.0048      8.5945   -999.2500   -999.2500
  2520.7000      7.8046      2.5205      0.0343      7.8492   -999.2500   -999.2500
  2520.8000      7.8088      2.5426      0.0284      6.5102   -999.2500   -999.2500
  2520.9000      7.8088      2.5703      0.0450      4.8300   -999.2500   -999.2500
  2521.0000      7.8091      2.5897      0.1129      3.6571   -999.2500   -999.2500
  2521.1000      7.8091      2.5823      0.0706      4.1035   -999.2500   -999.2500
  2521.2000      7.8091      2.5601      0.0273      5.4458   -999.2500   -999.2500
  2521.3000      7.8194      2.5569     -0.0054      5.6399   -999.2500   -999.2500
  2521.4000      7.8194      2.5812      0.0186      4.1693   -999.2500   -999.2500
  2521.5000      7.8276      2.6030      0.0913      2.8481   -999.2500   -999.2500
  2521.6000      7.8276      2.5943      0.0479      3.3781   -999.2500   -999.2500
  2521.7000      7.8276      2.5676     -0.0048      4.9928   -999.2500   -999.2500
  2521.8000      7.8218      2.5483      0.0573      6.1621   -999.2500   -999.2500
  2521.9000      7.8218      2.5453      0.0285      6.3448   -999.2500   -999.2500
  2522.0000      7.8241      2.5569      0.0650      5.6408   -999.2500   -999.2500
  2522.1000      7.8241      2.5666      0.0708      5.0523   -999.2500   -999.2500
  2522.2000      7.8241      2.5661      0.0765      5.0837   -999.2500   -999.2500
  2522.3000      7.8132      2.5712      0.0381      4.7735   -999.2500   -999.2500
  2522.4000      7.8132      2.5949      0.0804      3.3372   -999.2500   -999.2500
  2522.5000      7.8022      2.6311      0.0667      1.1437   -999.2500   -999.2500
  2522.6000      7.8022      2.6668      0.1059     -1.0202   -999.2500   -999.2500
  2522.7000      7.8022      2.6873      0.1398     -2.2623   -999.2500   -999.2500
  2522.8000      7.7930      2.6884      0.1549     -2.3265   -999.2500   -999.2500
  2522.9000      7.7930      2.6850      0.1377     -2.1231   -999.2500   -999.2500
  2523.0000      7.7361      2.6938      0.0892     -2.6551   -999.2500   -999.2500
  2523.1000      7.7361      2.7067      0.1709     -3.4358   -999.2500   -999.2500
  2523.2000      7.7361      2.6994      0.1097     -2.9930   -999.2500   -999.2500
  2523.3000      7.6955      2.6702      0.0875     -1.2259   -999.2500   -999.2500
  2523.4000      7.6955      2.6298      0.0804      1.2227   -999.2500   -999.2500
  2523.5000      7.7044      2.5846      0.0247      3.9617   -999.2500   -999.2500
  2523.6000      7.7044      2.5513      0.0209      5.9828   -999.2500   -999.2500
  2523.7000      7.7044      2.5389      0.0335      6.7308   -999.2500   -999.2500
  2523.8000      7.7681      2.5360      0.0434      6.9097   -999.2500   -999.2500
  2523.9000      7.7681      2.5343      0.0461      7.0098   -999.2500   -999.2500
  2524.0000      7.7832      2.5413      0.0498      6.5849   -999.2500   -999.2500
  2524.1000      7.7832      2.5654      0.0578      5.1301   -999.2500   -999.2500
  2524.2000      7.7832      2.6039      0.0994      2.7949   -999.2500   -999.2500
  2524.3000      7.7691      2.6390      0.1625      0.6679   -999.2500   -999.2500
  2524.4000      7.7691      2.6487      0.2117      0.0800   -999.2500   -999.2500
  2524.5000      7.7191      2.6366      0.1798      0.8117   -999.2500   -999.2500
  2524.6000      7.7191      2.6254      0.2063      1.4892   -999.2500   -999.2500
  2524.7000      7.7191      2.6299      0.1749      1.2196   -999.2500   -999.2500
  2524.8000      7.6459      2.6466      0.1869      0.2061   -999.2500   -999.2500
  2524.9000      7.6459      2.6536      0.1911     -0.2201   -999.2500   -999.2500
  2525.0000      7.4694      2.6406      0.1600      0.5724   -999.2500   -999.2500
  2525.1000      7.4694      2.6102      0.1953      2.4146   -999.2500   -999.2500
  2525.2000      7.4694      2.5410      0.2250      6.6051   -999.2500   -999.2500
  2525.3000      7.4223      2.4079      0.1932     14.6755   -999.2500   -999.2500
  2525.4000      7.4223      2.2393      0.0531     24.8908   -999.2500   -999.2500
  2525.5000      7.2504      2.1114      0.0178     32.6419   -999.2500   -999.2500
  2525.6000      7.2504      2.0732      0.0267     34.9573   -999.2500   -999.2500
  2525.7000      7.2504      2.1109      0.0476     32.6753   -999.2500   -999.2500
  2525.8000      6.3698      2.1896      0.1174     27.9055   -999.2500   -999.2500
  2525.9000      6.3698      2.2840      0.2118     22.1839   -999.2500   -999.2500
  2526.0000      5.2496      2.3639      0.3116     17.3370   -999.2500   -999.2500
  2526.1000      5.2496      2.3986      0.4024     15.2365   -999.2500   -999.2500
  2526.2000      5.2496      2.3806      0.3941     16.3276   -999.2500   -999.2500
  2526.3000      5.1115      2.3338      0.3644     19.1652   -999.2500   -999.2500
  2526.4000      5.1115      2.2989      0.3191     21.2813   -999.2500   -999.2500
  2526.5000      5.1130      2.2989      0.3228     21.2790   -999.2500   -999.2500
  2526.6000      5.1130      2.3228      0.3468     19.8304   -999.2500   -999.2500
  2526.7000      5.1130      2.3520      0.3569     18.0594   -999.2500   -999.2500
  2526.8000      5.1103      2.3802      0.3832     16.3514   -999.2500   -999.2500
  2526.9000      5.1103      2.4034      0.4024     14.9466   -999.2500   -999.2500
  2527.0000      5.1141      2.4156      0.4127     14.2034   -999.2500   -999.2500
  2527.1000      5.1141      2.4171      0.4137     14.1123   -999.2500   -999.2500
  2527.2000      5.1141      2.4120      0.3823     14.4254   -999.2500   -999.2500
  2527.3000      5.1093      2.3873      0.4136     15.9192   -999.2500   -999.2500
  2527.4000      5.1093      2.3096      0.3733     20.6294   -999.2500   -999.2500
  2527.5000      5.1124      2.1661      0.3167     29.3245   -999.2500   -999.2500
  2527.6000      5.1124      1.9964      0.2537     39.6106   -999.2500   -999.2500
  2527.7000      5.1124      1.8654      0.2424     47.5534   -999.2500   -999.2500
  2527.8000      5.1070      1.8391      0.1927     49.1442   -999.2500   -999.2500
  2527.9000      5.1070      2.0600      0.2364     35.7570   -999.2500   -999.2500
  2528.0000      5.1074      2.7634      0.2557     -6.8756   -999.2500   -999.2500
  2528.1000      5.1074      3.7094      0.6965    -64.2090   -999.2500   -999.2500
  2528.2000      5.1074      3.7126      1.9659    -64.3998   -999.2500   -999.2500
  2528.3000      5.1082      2.3042      0.0200     20.9556   -999.2500   -999.2500
  2528.4000      5.1082      0.8147   -999.2500    111.2311   -999.2500   -999.2500
  2528.5000      5.1027      0.1578   -999.2500    151.0403   -999.2500   -999.2500
  2528.6000      5.1027      0.0164   -999.2500    159.6097   -999.2500   -999.2500
  2528.7000      5.1027      0.0009   -999.2500    160.5514   -999.2500   -999.2500
  2528.8000      5.0941      0.0000   -999.2500    160.6061   -999.2500   -999.2500
  2528.9000      5.0941   -999.2500   -999.2500   -999.2500   -999.2500   -999.2500
  2529.0000      5.0930   -999.2500   -999.2500   -999.2500   -999.2500   -999.2500
  2529.1000      5.0930   -999.2500   -999.2500   -999.2500   -999.2500   -999.2500
