~Version Information
VERS.                      2.0: CWLS Log ASCII Standard - VERSION 2.0
WRAP.                       NO: One line per depth step
~Well Information Block
STRT.FT               260.0000: 
STOP.FT              1199.2000: 
STEP.FT                 0.1000: 
NULL.                -999.2500: 
COMP.          Evergreen Operating Corporation: COMPANY
WELL.             Justin 32-10: WELL
FLD.           Purgatorie River: FIELD
LOC.           2994' FNL & 1449' FEL: LOCATION
PROV.                 Colorado: PROVINCE
CNTY.               Las Animas: COUNTRY
SRVC.                         : SERVICE COMPANY
DATE.          Mon Aug 30 07:14:35 2004: LOG DATE
UWI.           05 071 08053 00: UNIQUE WELL ID
~Curve Information Block
DEPT.FT            0 000 00 00: Depth
LTEN.lb                       : Surface Line Tension
DCAL.in                       : CDL Caliper
RHOB.g/cc                     : CDL Bulk Density
RHOC.g/cc                     : CDL Density Correction
DPOR.pu                       : CDL Density Porosity
GR.GAPI                       : Gamma Ray
NPOR.pu                       : Neutron Porosity
~Parameter Information Block
~A  Depth       LTEN        DCAL        RHOB        RHOC        DPOR         GR         NPOR    
# ...
   629.6000    908.7650      7.9945      2.4810      0.1175     10.2420    164.8518     20.1310
   629.7000    908.7650      7.9945      2.3992      0.1148     15.1997    159.8769     19.3438
   629.8000    889.8716      8.0030      2.3062      0.0619     20.8351    161.3022     19.0092
   629.9000    889.8716      8.0030      2.1870      0.0315     28.0605    162.5701     19.6120
   630.0000    941.8389      7.9877      2.0509     -0.0188     36.3106    152.3296     20.4776
   630.1000    941.8389      7.9877      1.9347     -0.0915     43.3512    134.7566     21.2092
   630.2000    941.8389      7.9877      1.8727     -0.0454     47.1105    125.0251     21.9509
   630.3000    950.8834      7.9927      1.8714     -0.0149     47.1893    127.6451     22.7130
   630.4000    950.8834      7.9927      1.9106      0.1003     44.8148    133.8204     23.3920
   630.5000    976.8727      7.9845      1.9638      0.1447     41.5899    136.0538     23.9067
   630.6000    976.8727      7.9845      2.0270      0.1584     37.7597    133.5262     24.4097
   630.7000    976.8727      7.9845      2.1091      0.2218     32.7801    129.6612     25.3188
   630.8000    938.4611      7.9842      2.2010      0.2734     27.2127    128.8472     26.5847
   630.9000    938.4611      7.9842      2.2835      0.2773     22.2113    130.8228     27.5498
   631.0000    892.4987      7.9669      2.3506      0.2138     18.1434    132.5026     27.9130
   631.1000    892.4987      7.9669      2.4050      0.1072     14.8456    132.8755     28.0763
   631.2000    892.4987      7.9669      2.4433      0.0809     12.5303    129.1194     28.2718
   631.3000    854.0723      7.9780      2.4605      0.0900     11.4869    120.1017     28.1529
   631.4000    854.0723      7.9780      2.4735      0.0399     10.6955    112.3136     27.3503
   631.5000    871.3863      7.9794      2.5054      0.0936      8.7640    111.7575     26.1975
   631.6000    871.3863      7.9794      2.5420      0.1405      6.5426    115.1422     25.5662
   631.7000    871.3863      7.9794      2.5534      0.1285      5.8541    116.7864     25.6402
   631.8000    928.9533      7.9704      2.5428      0.0902      6.5000    117.4093     25.6183
   631.9000    928.9533      7.9704      2.5283      0.1051      7.3748    116.1613     25.1322
   632.0000    919.8932      7.9433      2.5100      0.1114      8.4858    110.5892     24.7988
   632.1000    919.8932      7.9433      2.4905      0.0368      9.6649    103.3306     24.7878
   632.2000    919.8932      7.9433      2.4828      0.0277     10.1361     99.0954     24.6580
   632.3000    907.6611      7.9465      2.4876      0.0457      9.8453    101.2086     24.3564
   632.4000    907.6611      7.9465      2.4993      0.0172      9.1319    108.6342     24.1721
   632.5000    882.7590      7.9822      2.5126      0.0455      8.3272    115.7171     24.2895
   632.6000    882.7590      7.9822      2.5215      0.0500      7.7859    118.6698     24.5003
   632.7000    882.7590      7.9822      2.5272      0.0571      7.4400    120.8647     24.5335
   632.8000    898.7366      7.9563      2.5307      0.0614      7.2283    123.4322     24.6305
   632.9000    898.7366      7.9563      2.5288      0.0550      7.3432    121.2024     24.9715
   633.0000    830.3237      7.9578      2.5273      0.0436      7.4361    116.3777     25.0509
   633.1000    830.3237      7.9578      2.5356      0.0531      6.9361    117.1109     24.5138
   633.2000    830.3237      7.9578      2.5505      0.0637      6.0276    125.2351     24.0319
   633.3000    836.6109      7.9575      2.5659      0.0591      5.0968    137.9869     24.2922
   633.4000    836.6109      7.9575      2.5777      0.0964      4.3796    146.8253     25.0048
   633.5000    882.9142      7.9547      2.5830      0.0769      4.0615    144.7489     25.5667
   633.6000    882.9142      7.9547      2.5877      0.0886      3.7783    137.4641     25.6867
   633.7000    882.9142      7.9547      2.5998      0.0661      3.0442    133.1045     25.6925
   633.8000    897.5906      7.9755      2.6177      0.0790      1.9582    131.3065     26.1386
   633.9000    897.5906      7.9755      2.6234      0.1355      1.6134    127.0535     26.7163
   634.0000    920.2175      7.9848      2.6006      0.0825      2.9964    121.1055     26.7977
   634.1000    920.2175      7.9848      2.5662      0.0308      5.0759    120.5380     26.4938
   634.2000    920.2175      7.9848      2.5484      0.0277      6.1603    125.0141     26.0469
   634.3000    947.1216      7.9635      2.5468      0.0419      6.2530    125.4285     25.3943
   634.4000    947.1216      7.9635      2.5460      0.0172      6.3044    120.9111     24.5172
   634.5000    913.4035      7.9629      2.5422      0.0270      6.5331    117.4256     23.7116
   634.6000    913.4035      7.9629      2.5421      0.0195      6.5369    116.1460     23.3931
   634.7000    913.4035      7.9629      2.5472      0.0548      6.2289    115.6620     23.5653
   634.8000    920.5936      7.9627      2.5483      0.0543      6.1634    116.1095     23.7769
   634.9000    920.5936      7.9627      2.5396      0.0435      6.6895    117.0847     23.8731
   635.0000    945.6454      7.9633      2.5320     -0.0144      7.1517    115.9651     24.0104
   635.1000    945.6454      7.9633      2.5360      0.0259      6.9068    111.6961     24.1957
   635.2000    945.6454      7.9633      2.5439      0.0252      6.4322    107.4587     24.6400
   635.3000    917.7790      7.9606      2.5445      0.0536      6.3932    106.8241     25.2626
   635.4000    917.7790      7.9606      2.5367      0.0358      6.8660    109.6403     25.3435
   635.5000    935.8370      7.9604      2.5246      0.0437      7.5986    110.9134     24.7268
   635.6000    935.8370      7.9604      2.5112      0.0094      8.4102    107.5945     24.1168
   635.7000    935.8370      7.9604      2.5038     -0.0138      8.8582    105.8971     23.9334
   635.8000    934.7783      7.9790      2.5080      0.0327      8.6089    110.7074     23.9102
   635.9000    934.7783      7.9790      2.5174      0.0146      8.0337    116.5866     23.9952
   636.0000    940.4740      7.9915      2.5245      0.0545      7.6044    116.6786     24.3774
   636.1000    940.4740      7.9915      2.5296      0.0305      7.2965    112.9458     24.6035
   636.2000    940.4740      7.9915      2.5389      0.0513      6.7315    110.5400     24.3381
   636.3000    930.2997      7.9774      2.5475      0.0709      6.2130    111.4454     23.9468
   636.4000    930.2997      7.9774      2.5430      0.0773      6.4862    112.3624     23.7665
   636.5000    873.8044      7.9554      2.5260      0.0684      7.5128    109.8619     23.7958
   636.6000    873.8044      7.9554      2.5091      0.0672      8.5406    106.4362     23.9008
   636.7000    873.8044      7.9554      2.5019      0.0573      8.9754    104.2745     24.0278
   636.8000    877.2217      7.9770      2.5089      0.0281      8.5530    102.1968     24.2199
   636.9000    877.2217      7.9770      2.5278      0.0673      7.4044    102.8560     24.2564
   637.0000    926.3716      7.9778      2.5531      0.0796      5.8698    109.4315     23.9167
   637.1000    926.3716      7.9778      2.5795      0.1235      4.2713    117.3662     23.7359
   637.2000    926.3716      7.9778      2.6006      0.1596      2.9934    122.7722     24.2169
   637.3000    937.0806      7.9552      2.6136      0.1658      2.2044    126.8215     24.8323
   637.4000    937.0806      7.9552      2.6199      0.1761      1.8239    130.0020     25.1640
   637.5000    939.6358      7.9647      2.6186      0.1591      1.9014    131.3477     25.5743
   637.6000    939.6358      7.9647      2.6046      0.1078      2.7492    128.0840     26.1351
   637.7000    939.6358      7.9647      2.5771      0.1149      4.4198    121.7557     26.5742
   637.8000    909.9594      7.9892      2.5489      0.0515      6.1261    120.3655     26.8818
   637.9000    909.9594      7.9892      2.5348      0.0887      6.9796    125.3736     26.8725
