~Version Information
VERS.                      2.0: CWLS Log ASCII Standard - VERSION 2.0
WRAP.                       NO: One line per depth step
~Well Information Block
STRT.FT               580.0000: 
STOP.FT              1756.0000: 
STEP.FT                 0.1000: 
NULL.                -999.2500: 
COMP.          Pioneer Natural Resources: COMPANY
WELL.          Lookout Point 31-23 Tr: WELL
FLD.           Purgatoire River: FIELD
LOC.           541' FNL & 1768' FEL: LOCATION
PROV.                 Colorado: PROVINCE
CNTY.               Las Animas: COUNTRY
SRVC.                Patterson: SERVICE COMPANY
DATE.          Mon Jan 24 07:20:20 2005: LOG DATE
UWI.           05 071 08260 00: UNIQUE WELL ID
~Curve Information Block
DEPT.FT            0 000 00 00: Depth
DCAL.in                       : CDL Caliper
DPOR.pu                       : CDL Density Porosity
GR.GAPI                       : Gamma Ray
NPOR.pu                       : Neutron Porosity
RHOB.g/cc                     : CDL Bulk Density
RHOC.g/cc                     : CDL Density Correction
~Parameter Information Block
~A  Depth       DCAL        DPOR         GR         NPOR        RHOB        RHOC    
# ...
  1568.8000      7.6808      9.6481    125.3713     22.9099      2.4908      0.0258
  1568.9000      7.6808     10.0756    129.3939     22.6367      2.4838      0.0579
  1569.0000      7.6876     10.9181    130.1473     22.3336      2.4699      0.0168
  1569.1000      7.6876     12.6819    131.1991     22.1905      2.4407      0.0210
  1569.2000      7.6876     14.3476    130.3780     22.0919      2.4133     -0.0066
  1569.3000      7.6885     14.6673    129.7360     22.0287      2.4080     -0.0209
  1569.4000      7.6885     13.7400    136.1813     22.2709      2.4233      0.0229
  1569.5000      7.6910     12.5627    146.9222     22.9849      2.4427      0.0668
  1569.6000      7.6910     11.9573    148.4761     23.7506      2.4527      0.0607
  1569.7000      7.6910     12.5833    139.7797     24.0901      2.4424      0.0785
  1569.8000      7.6960     14.1156    135.2671     23.9905      2.4171      0.0485
  1569.9000      7.6960     15.3595    139.3329     23.6925      2.3966      0.0328
  1570.0000      7.7004     16.2520    141.4641     23.5453      2.3818      0.0560
  1570.1000      7.7004     15.2362    137.1674     25.4719      2.3986      0.0333
  1570.2000      7.7004     17.4351    130.6163     25.5432      2.3623      0.0291
  1570.3000      7.7044     18.9508    124.3396     25.2568      2.3373     -0.0086
  1570.4000      7.7044     19.2764    117.9714     25.2739      2.3319      0.0281
  1570.5000      7.7054     19.4344    113.2250     25.8528      2.3293      0.0180
  1570.6000      7.7054     19.9498    114.6070     26.2912      2.3208      0.0289
  1570.7000      7.7054     20.3985    120.3625     25.8285      2.3134      0.0068
  1570.8000      7.7069     20.5389    124.7165     24.7660      2.3111      0.0408
  1570.9000      7.7069     20.6858    126.8128     24.2175      2.3087      0.0302
  1571.0000      7.7069     21.4125    128.3684     24.5892      2.2967      0.0684
  1571.1000      7.7069     22.7237    131.7397     25.2231      2.2751      0.0453
  1571.2000      7.7069     23.7807    134.3538     25.4287      2.2576      0.0337
  1571.3000      7.7038     23.9725    130.0720     25.2367      2.2545      0.0554
  1571.4000      7.7038     23.0593    121.7100     24.8787      2.2695      0.0058
  1571.5000      7.6951     21.0757    116.4073     24.0074      2.3023      0.0588
  1571.6000      7.6951     18.7836    113.0421     22.5231      2.3401      0.0488
  1571.7000      7.6951     16.4486    107.2017     21.1678      2.3786      0.0756
  1571.8000      7.6841     13.6021    100.8157     20.5935      2.4256      0.0913
  1571.9000      7.6841     10.2232     98.6256     20.6448      2.4813      0.1055
  1572.0000      7.6781      6.8589     99.6767     20.6230      2.5368      0.1646
  1572.1000      7.6781      3.9727     98.9801     20.2863      2.5845      0.1721
  1572.2000      7.6781      1.7061     94.4789     20.0987      2.6218      0.1430
  1572.3000      7.6787      0.4755     87.7473     20.2118      2.6422      0.1350
  1572.4000      7.6787      0.0504     81.9111     20.1128      2.6492      0.0785
  1572.5000      7.6820     -0.1795     82.3520     19.8199      2.6530      0.0849
  1572.6000      7.6820      1.1224     91.4544     19.7178      2.6315      0.0807
  1572.7000      7.6820      4.7962    102.1636     19.7256      2.5709      0.0109
  1572.8000      7.6856      8.0736    108.3257     19.7652      2.5168     -0.0619
  1572.9000      7.6856      8.2345    110.3992     19.8388      2.5141     -0.0170
  1573.0000      7.6894      6.0083    110.9817     20.0279      2.5509      0.0402
  1573.1000      7.6894      3.7167    114.5260     20.4061      2.5887      0.0777
  1573.2000      7.6894      2.8913    119.6546     20.7580      2.6023      0.0659
  1573.3000      7.6998      3.5047    121.6747     21.1581      2.5922      0.0567
  1573.4000      7.6998      4.6791    120.7397     21.7358      2.5728      0.0786
  1573.5000      7.7179      5.9527    117.5795     21.8896      2.5518      0.0854
  1573.6000      7.7179      7.0196    114.7296     21.0665      2.5342      0.0611
  1573.7000      7.7179      7.2381    115.9735     19.7137      2.5306      0.0321
  1573.8000      7.7260      6.6670    123.3023     18.8426      2.5400      0.0695
  1573.9000      7.7260      6.0173    138.5629     18.7737      2.5507      0.0579
  1574.0000      7.7227      5.4143    151.2961     19.1748      2.5607      0.0216
  1574.1000      7.7227      5.1960    147.9204     19.6018      2.5643      0.0933
  1574.2000      7.7227      5.7881    136.7634     19.9836      2.5545      0.0359
  1574.3000      7.7196      6.2786    131.9381     20.5261      2.5464      0.0302
  1574.4000      7.7196      5.9953    133.8622     21.1290      2.5511      0.0459
  1574.5000      7.7205      5.5733    138.4583     21.9056      2.5580      0.0389
  1574.6000      7.7205      5.5435    140.1540     22.9443      2.5585      0.0615
  1574.7000      7.7205      5.3747    134.3776     23.3750      2.5613      0.0356
  1574.8000      7.7249      4.7743    127.4239     22.2378      2.5712      0.0891
  1574.9000      7.7249      4.7702    127.6233     20.1464      2.5713      0.0565
  1575.0000      7.7282      5.7352    130.3773     18.7063      2.5554      0.0277
  1575.1000      7.7282      6.6142    130.0809     18.5184      2.5409      0.0661
  1575.2000      7.7282      6.6846    132.2583     19.1682      2.5397      0.0378
  1575.3000      7.7267      6.4007    137.3566     20.0127      2.5444      0.0652
  1575.4000      7.7267      6.6164    136.4252     20.1580      2.5408      0.0600
  1575.5000      7.7229      7.2955    128.2809     19.5578      2.5296      0.0344
  1575.6000      7.7229      7.8762    120.9464     19.3253      2.5200      0.0320
  1575.7000      7.7229      8.3509    120.5436     19.9256      2.5122      0.0528
  1575.8000      7.7211      8.6564    127.9094     20.6453      2.5072      0.0106
  1575.9000      7.7211      8.5348    137.0263     20.7982      2.5092      0.0571
  1576.0000      7.7213      8.4991    139.3383     20.3825      2.5098      0.0316
  1576.1000      7.7213      9.0226    134.6904     20.0147      2.5011      0.0198
  1576.2000      7.7213      9.7813    128.8084     20.0987      2.4886      0.0014
  1576.3000      7.7209     10.1795    122.5497     20.3618      2.4820      0.0095
  1576.4000      7.7209      9.9617    113.6708     20.8924      2.4856     -0.0154
  1576.5000      7.7190      9.3798    107.8492     21.8826      2.4952      0.0068
  1576.6000      7.7190      8.7850    112.6130     22.5521      2.5050      0.0198
  1576.7000      7.7190      7.9265    123.7509     22.3133      2.5192      0.0306
  1576.8000      7.7180      6.6727    129.8242     21.6611      2.5399      0.0166
  1576.9000      7.7180      5.8878    126.2408     21.0985      2.5529      0.0428
  1577.0000      7.7174      6.3536    119.2267     20.6764      2.5452      0.0356
  1577.1000      7.7174      7.7923    113.0885     20.3250      2.5214      0.0279
  1577.2000      7.7174      9.0625    107.2018     20.0549      2.5005     -0.0013
  1577.3000      7.7160      8.6867    102.0180     19.9405      2.5067     -0.0387
  1577.4000      7.7160      6.5717     96.7833     20.0350      2.5416      0.0404
  1577.5000      7.7147      4.5772     91.0956     20.2401      2.5745      0.0756
  1577.6000      7.7147      3.9545     88.6255     20.3036      2.5848      0.0858
  1577.7000      7.7147      4.2796     91.1709     20.0888      2.5794      0.0776
  1577.8000      7.7149      4.7525     95.9805     19.7490      2.5716      0.0811
  1577.9000      7.7149      4.9344    100.6949     19.5164      2.5686      0.0879
  1578.0000      7.7157      4.8087    104.5947     19.2409      2.5707      0.0788
  1578.1000      7.7157      4.6282    107.6277     18.6633      2.5736      0.0749
  1578.2000      7.7157      4.4894    110.7974     18.0227      2.5759      0.0314
  1578.3000      7.7186      4.2314    109.9065     17.7710      2.5802      0.0165
