~Version Information
VERS.                      2.0: CWLS Log ASCII Standard - VERSION 2.0
WRAP.                       NO: One line per depth step
~Well Information Block
STRT.FT               -11.5000: 
STOP.FT              2395.2500: 
STEP.FT                 0.2500: 
NULL.                -999.2500: 
COMP.          Petrogulf Corporation: COMPANY
WELL.            Montoya 7-21V: WELL
FLD.           Purgatorie River: FIELD
LOC.           738' FSL & 2070' FWL--: LOCATION
CNTY.               Las Animas: COUNTY
SRVC.                         : SERVICE COMPANY
DATE.          Mon Aug 30 15:10:00 2004: LOG DATE
UWI.                          : UNIQUE WELL ID
STAT.                       CO: STATE
~Curve Information Block
DEPT.FT            0 000 00 00: Depth
CCL.                          : Casing Collar Locator
TT3.usec                      : CBL 3' Travel Time
AMP3.mV                       : CBL 3' Amplitude
GR.GAPI                       : Gamma Ray
~Parameter Information Block
~A  Depth       CCL         TT3         AMP3         GR     
# ...
  1563.0000      0.0000    707.4578      6.9570     62.3104
  1563.2500      0.0000    714.2722      6.9433     62.1091
  1563.5000      0.0000    722.5890      7.0354     64.3445
  1563.7500      0.0000    730.6174      7.2117     68.0327
  1564.0000      0.0000    736.1008      7.4041     71.5442
  1564.2500      0.0000    737.4418      7.5314     73.5388
  1564.5000      0.0000    734.8819      7.5455     73.8935
  1564.7500      0.0000    730.2386      7.4680     73.9315
  1565.0000      0.0000    725.0847      7.3848     75.2995
  1565.2500      0.0000    718.7393      7.3972     78.3628
  1565.5000      0.0000    707.1678      7.5763     82.0245
  1565.7500      0.0000    684.0189      7.9525     85.3809
  1566.0000      0.0000    645.7393      8.5207     89.3211
  1566.2500      0.0000    598.6891      9.2378     96.2025
  1566.5000      0.0000    558.2135     10.0331    107.7887
  1566.7500      0.0000    534.0864     10.8524    123.4243
  1567.0000      0.0000    517.4113     11.7107    140.1869
  1567.2500      0.0000    489.2328     12.6819    154.9857
  1567.5000      0.0000    442.6647     13.8191    166.7106
  1567.7500      0.0000    389.9475     15.0956    176.0722
  1568.0000      0.0000    347.8882     16.4284    183.2396
  1568.2500      0.0000    323.0172     17.7525    186.6604
  1568.5000      0.0000    311.1292     19.0835    185.1382
  1568.7500      0.0000    304.8526     20.5241    180.2535
  1569.0000      0.0000    298.9718     22.1835    175.4721
  1569.2500      0.0000    291.6009     24.0551    173.1300
  1569.5000      0.0000    283.4078     25.9679    173.0824
  1569.7500      0.0000    276.1244     27.6834    173.7971
  1570.0000      0.0000    271.0118     29.0477    173.8538
  1570.2500      0.0000    268.2230     30.0339    172.7346
  1570.5000      0.0000    267.2827     30.6387    170.8542
  1570.7500      0.0000    267.9380     30.7806    169.0296
  1571.0000      0.0000    270.5114     30.3194    167.7682
  1571.2500      0.0000    275.4968     29.1635    166.7866
  1571.5000      0.0000    282.7175     27.3676    165.1149
  1571.7500      0.0000    290.8655     25.1601    162.0224
  1572.0000      0.0000    298.0874     22.8706    158.0145
  1572.2500      0.0000    303.1604     20.7934    154.8919
  1572.5000      0.0000    306.0509     19.1056    154.9512
  1572.7500      0.0000    307.4684     17.9183    159.7010
  1573.0000      0.0000    308.1319     17.3531    168.3203
  1573.2500      0.0000    308.4333     17.4926    177.3783
  1573.5000      0.0000    308.5030     18.2461    183.2062
  1573.7500      0.0000    308.3762     19.3297    184.9382
  1574.0000      0.0000    308.0531     20.4210    184.6383
  1574.2500      0.0000    307.4181     21.3417    184.5229
  1574.5000      0.0000    306.0747     22.1219    184.6369
  1574.7500      0.0000    303.2941     22.9345    183.2336
  1575.0000      0.0000    298.3536     23.9669    178.6971
  1575.2500      0.0000    291.2555     25.3060    170.6329
  1575.5000      0.0000    283.1702     26.8871    159.6227
  1575.7500      0.0000    275.9026     28.5211    146.9284
  1576.0000      0.0000    270.7416     29.9792    134.3898
  1576.2500      0.0000    267.8767     31.0730    123.4970
  1576.5000      0.0000    266.8553     31.6868    114.2763
  1576.7500      0.0000    267.4184     31.7594    105.7909
  1577.0000      0.0000    269.8813     31.2579     97.8147
  1577.2500      0.0000    274.7495     30.1935     91.4552
  1577.5000      0.0000    281.8588     28.6792     88.1345
  1577.7500      0.0000    289.8882     26.9491     88.3661
  1578.0000      0.0000    296.9503     25.2595     91.4640
  1578.2500      0.0000    301.8169     23.7371     96.1014
  1578.5000      0.0000    304.5657     22.3247    100.8847
  1578.7500      0.0000    306.4336     20.8714    104.4564
  1579.0000      0.0000    309.8169     19.2615    105.5402
  1579.2500      0.0000    319.1409     17.4824    103.3888
  1579.5000      0.0000    341.4413     15.6207     98.4130
  1579.7500      0.0000    383.9861     13.8075     92.3607
  1580.0000      0.0000    448.3580     12.1391     87.5081
  1580.2500      0.0000    526.0286     10.6425     85.1948
  1580.5000      0.0000    601.7830      9.3250     85.1109
  1580.7500      0.0000    663.1276      8.2424     86.0543
  1581.0000      0.0000    706.1333      7.4804     87.1264
  1581.2500      0.0000    732.8533      7.0637     87.9878
  1581.5000      0.0000    745.8157      6.9065     88.2820
  1581.7500      0.0000    746.8746      6.8656     87.3629
  1582.0000      0.0000    740.0132      6.8279     84.8442
  1582.2500      0.0000    732.2106      6.7384     81.1897
  1582.5000      0.0000    729.7874      6.5734     77.3625
  1582.7500      0.0000    734.1713      6.3241     74.0108
  1583.0000      0.0000    741.6634      6.0055     71.3674
  1583.2500      0.0000    747.0239      5.6597     69.7268
  1583.5000      0.0000    747.1111      5.3357     69.4930
  1583.7500      0.0000    742.1428      5.0612     70.7968
  1584.0000      0.0000    734.9736      4.8277     73.3665
  1584.2500      0.0000    729.3508      4.5945     76.6246
  1584.5000      0.0000    727.6456      4.3135     79.6624
  1584.7500      0.0000    729.4224      3.9741     81.3513
  1585.0000      0.0000    732.2374      3.6375     80.8429
  1585.2500      0.0000    733.8098      3.4197     78.1446
  1585.5000      0.0000    733.2944      3.4259     74.1636
  1585.7500      0.0000    730.9031      3.6885     70.2201
  1586.0000      0.0000    727.0540      4.1565     67.7702
  1586.2500      0.0000    722.2740      4.7360     68.3498
  1586.5000      0.0000    717.5141      5.3353     72.7073
  1586.7500      0.0000    713.7133      5.8696     79.5229
  1587.0000      0.0000    710.8187      6.2481     85.7662
  1587.2500      0.0000    708.0426      6.4007     88.9904
  1587.5000      0.0000    705.4855      6.3369     88.9638
  1587.7500      0.0000    704.7620      6.1596     86.9175
  1588.0000      0.0000    707.4497      5.9864     83.8090
  1588.2500      0.0000    713.1148      5.8449     79.8216
  1588.5000      0.0000    719.0342      5.6557     75.2599
  1588.7500      0.0000    721.8660      5.3291     71.2486
  1589.0000      0.0000    719.8867      4.8707     69.0724
  1589.2500      0.0000    714.1417      4.3830     68.9162
  1589.5000      0.0000    707.5923      3.9813     69.6924
  1589.7500      0.0000    702.8509      3.7224     70.2991
  1590.0000      0.0000    700.3333      3.5959     70.6698
  1590.2500      0.0000    698.4740      3.5551     71.2259
  1590.5000      0.0000    695.7075      3.5484     71.5585
  1590.7500      0.0000    692.0277      3.5373     70.3602
  1591.0000      0.0000    688.6100      3.5155     67.0221
  1591.2500      0.0000    686.5020      3.5189     62.8322
  1591.5000      0.0000    686.1288      3.6008     59.9407
  1591.7500      0.0000    687.7366      3.7817     59.1774
  1592.0000      0.0000    691.7775      4.0263     59.3830
  1592.2500      0.0000    698.6181      4.2765     59.0823
  1592.5000      0.0000    707.8485      4.5073     58.4992
  1592.7500      0.0000    717.9478      4.7576     59.4051
  1593.0000      0.0000    726.9122      5.1199     62.8118
  1593.2500      0.0000    733.0170      5.6959     67.2935
  1593.5000      0.0000    734.3420      6.5271     70.0930
  1593.7500      0.0000    727.5437      7.5399     69.6607
  1594.0000      0.0000    708.9338      8.5605     66.7261
  1594.2500      0.0000    679.3914      9.3969     63.3209
  1594.5000      0.0000    647.7638      9.9129     61.3254
  1594.7500      0.0000    625.8445     10.0497     61.5191
  1595.0000      0.0000    618.7942      9.8160     63.2588
  1595.2500      0.0000    623.4359      9.2748     65.1032
  1595.5000      0.0000    635.3513      8.5196     66.2488
  1595.7500      0.0000    652.3430      7.6355     67.3463
  1596.0000      0.0000    671.1439      6.6801     69.5997
  1596.2500      0.0000    686.6498      5.7071     73.1349
