~Version Information
VERS.                      2.0: CWLS Log ASCII Standard - VERSION 2.0
WRAP.                       NO: One line per depth step
~Well Information Block
STRT.FT               375.0000: 
STOP.FT              1727.7000: 
STEP.FT                 0.1000: 
NULL.                -999.2500: 
COMP.          Pioneer Natural Resources: COMPANY
WELL.          Warrior 33-1 Tr: WELL
FLD.           Purgatoire River: FIELD
LOC.           2648' FSL & 2341' FEL--: LOCATION
PROV.                 Colorado: PROVINCE
CNTY.               Las Animas: COUNTRY
SRVC.                Patterson: SERVICE COMPANY
DATE.          Sat Jun 18 07:53:12 2005: LOG DATE
UWI.           05 071 08412 00: UNIQUE WELL ID
~Curve Information Block
DEPT.FT            0 000 00 00: Depth
DCAL.in                       : CDL Caliper
RHOB.g/cc                     : CDL Bulk Density
RHOC.g/cc                     : CDL Density Correction
DPOR.pu                       : CDL Density Porosity
NPOR.pu                       : Neutron Porosity
GR.GAPI                       : Gamma Ray
~Parameter Information Block
~A  Depth       DCAL        RHOB        RHOC        DPOR        NPOR         GR     
# ...
   730.2000      8.2052      2.5893      0.0761      3.6775     28.0009     78.6824
   730.3000      8.1903      2.5850      0.0477      3.9410     28.8508     85.4220
   730.4000      8.1903      2.5861      0.0734      3.8705     29.6569     91.7875
   730.5000      8.1742      2.5817      0.0585      4.1401     29.7585     97.3545
   730.6000      8.1742      2.5649      0.0447      5.1575     28.9567    101.6067
   730.7000      8.1742      2.5329      0.0186      7.0959     27.9374    103.0923
   730.8000      8.1643      2.4922      0.0297      9.5647     27.5524    102.3396
   730.9000      8.1643      2.4607      0.0184     11.4708     28.0253    100.6329
   731.0000      8.1687      2.4541      0.0625     11.8744     29.0265    103.2302
   731.1000      8.1687      2.4642      0.0994     11.2614     29.7962    111.4838
   731.2000      8.1687      2.4674      0.1282     11.0691     30.0433    115.9994
   731.3000      8.1819      2.4636      0.0462     11.2971     30.0751    114.4725
   731.4000      8.1819      2.4818      0.0363     10.1951     29.8469    115.7385
   731.5000      8.1915      2.5234      0.1583      7.6704     29.2032    120.9771
   731.6000      8.1915      2.5571      0.1148      5.6284     28.3717    123.5268
   731.7000      8.1915      2.5740      0.1174      4.6072     27.8971    121.6922
   731.8000      8.1999      2.5894      0.0933      3.6727     28.1543    117.7899
   731.9000      8.1999      2.6131      0.1082      2.2362     28.8233    114.4742
   732.0000      8.2088      2.6457      0.1056      0.2607     29.3293    109.8944
   732.1000      8.2088      2.6841      0.1131     -2.0683     29.5333    102.3582
   732.2000      8.2088      2.7164      0.1277     -4.0223     29.7717     97.2335
   732.3000      8.2135      2.7234      0.1222     -4.4505     29.9894     97.5390
   732.4000      8.2135      2.6986      0.0764     -2.9462     29.6879    100.5934
   732.5000      8.2146      2.6618      0.0210     -0.7144     28.7612    101.1241
   732.6000      8.2146      2.6400     -0.0188      0.6066     28.0421     96.4717
   732.7000      8.2146      2.6361      0.0105      0.8419     28.2304     92.1368
   732.8000      8.2149      2.6306      0.0556      1.1728     28.7180     92.8130
   732.9000      8.2149      2.6116      0.0362      2.3294     28.8307     96.0488
   733.0000      8.2146      2.5833     -0.0124      4.0427     28.9549     96.1636
   733.1000      8.2146      2.5548     -0.0435      5.7704     29.4434     92.5832
   733.2000      8.2146      2.5293      0.0181      7.3167     29.8383     90.6792
   733.3000      8.2155      2.4995      0.0218      9.1242     29.7413     92.4825
   733.4000      8.2155      2.4634     -0.0082     11.3067     29.4480     96.4982
   733.5000      8.2168      2.4292      0.0515     13.3832     29.3624     99.9105
   733.6000      8.2168      2.4034      0.0420     14.9458     29.4464    101.2422
   733.7000      8.2168      2.3942      0.0356     15.5015     29.4290    103.9075
   733.8000      8.2172      2.4054      0.0616     14.8230     29.5314    110.9548
   733.9000      8.2172      2.4275      0.1012     13.4833     29.8100    118.6816
   734.0000      8.2176      2.4455      0.1254     12.3925     29.9047    119.8945
   734.1000      8.2176      2.4510      0.1424     12.0609     29.7448    112.9312
   734.2000      8.2176      2.4497      0.0844     12.1401     29.4663    102.7185
   734.3000      8.2166      2.4552      0.0772     11.8090     29.3204     94.4436
   734.4000      8.2166      2.4697      0.0643     10.9254     29.4713     92.5106
   734.5000      8.2109      2.4802      0.1027     10.2931     29.3701     98.4727
   734.6000      8.2109      2.4792      0.0713     10.3544     28.5983    106.3177
   734.7000      8.2109      2.4844      0.0544     10.0348     28.0087    108.0756
   734.8000      8.2005      2.5171      0.0637      8.0539     28.2117    105.9609
   734.9000      8.2005      2.5654      0.1171      5.1260     28.5048    106.8419
   735.0000      8.1922      2.6004      0.1256      3.0066     28.4073    108.1524
   735.1000      8.1922      2.6144      0.1119      2.1576     28.2115    105.8989
   735.2000      8.1922      2.6137      0.1379      2.2024     28.1233    103.0761
   735.3000      8.1898      2.6103      0.0844      2.4074     28.1405    100.9558
   735.4000      8.1898      2.6163      0.1318      2.0414     28.1942     96.1219
   735.5000      8.1914      2.6212      0.1537      1.7454     28.3141     88.9735
   735.6000      8.1914      2.6097      0.0974      2.4437     28.4455     85.0566
   735.7000      8.1914      2.5918      0.0282      3.5268     28.4627     85.7234
   735.8000      8.1930      2.5807      0.0617      4.2009     28.3746     88.2925
   735.9000      8.1930      2.5612      0.0424      5.3840     28.0893     91.8755
   736.0000      8.1937      2.5212     -0.0210      7.8037     27.6033     94.5971
   736.1000      8.1937      2.4847     -0.0742     10.0192     27.1340     94.4033
   736.2000      8.1937      2.4792     -0.0159     10.3532     26.9767     91.8365
   736.3000      8.1942      2.5008      0.0435      9.0432     27.3777     89.0494
   736.4000      8.1942      2.5294      0.0602      7.3073     27.9373     90.0103
   736.5000      8.1937      2.5482      0.0852      6.1684     28.2951     96.0519
   736.6000      8.1937      2.5474      0.1048      6.2193     28.6060    102.3354
   736.7000      8.1937      2.5319      0.0608      7.1606     28.6947    105.5154
   736.8000      8.1923      2.5184      0.0316      7.9767     28.5419    105.5365
   736.9000      8.1923      2.5202      0.0149      7.8648     28.5779    103.0732
   737.0000      8.1915      2.5333      0.0777      7.0736     28.7975    101.3907
   737.1000      8.1915      2.5445      0.0487      6.3920     28.8615    102.6666
   737.2000      8.1915      2.5540      0.0642      5.8211     28.9206    103.6904
   737.3000      8.1911      2.5617      0.0958      5.3488     29.0909    104.0962
   737.4000      8.1911      2.5567      0.0895      5.6525     29.1177    107.8422
   737.5000      8.1907      2.5350      0.0755      6.9710     28.9860    113.5153
   737.6000      8.1907      2.5068      0.0654      8.6778     28.7001    115.6627
   737.7000      8.1907      2.4942     -0.0149      9.4395     28.4836    111.8567
   737.8000      8.1898      2.5104      0.0255      8.4582     28.6876    103.5729
   737.9000      8.1898      2.5358      0.0412      6.9194     29.0384     96.4085
   738.0000      8.1899      2.5475      0.0623      6.2092     29.0345     97.2592
   738.1000      8.1899      2.5538      0.0375      5.8330     28.8366    102.8186
   738.2000      8.1899      2.5675      0.0617      5.0016     28.8358    103.9736
   738.3000      8.1907      2.5785      0.0603      4.3349     28.9169    102.1941
   738.4000      8.1907      2.5682      0.1082      4.9604     29.2004    103.4003
   738.5000      8.1910      2.5314      0.0579      7.1855     29.8767    105.0253
   738.6000      8.1910      2.4840      0.0541     10.0589     30.6524    103.2132
   738.7000      8.1910      2.4376      0.0181     12.8737     31.2651    101.1425
   738.8000      8.1932      2.3870      0.0025     15.9378     31.6719    102.2347
   738.9000      8.1932      2.3342     -0.0276     19.1396     31.9482    105.6641
   739.0000      8.2006      2.2979     -0.0707     21.3402     32.1180    109.5297
   739.1000      8.2006      2.2869     -0.0134     22.0035     32.0717    111.8005
   739.2000      8.2006      2.2917      0.0046     21.7147     31.9525    111.8436
   739.3000      8.2111      2.3073      0.0139     20.7687     32.1030    111.7092
   739.4000      8.2111      2.3318      0.0791     19.2825     32.5476    112.4972
   739.5000      8.2169      2.3515      0.1112     18.0932     32.9389    113.7905
   739.6000      8.2169      2.3528      0.0859     18.0152     32.8936    115.8480
   739.7000      8.2169      2.3321      0.0858     19.2652     32.6119    117.6259
