~Version Information
VERS.                      2.0: CWLS Log ASCII Standard - VERSION 2.0
WRAP.                       NO: One line per depth step
~Well Information Block
STRT.FT                -6.2500: 
STOP.FT              2316.0000: 
STEP.FT                 0.2500: 
NULL.                -999.2500: 
COMP.          Pioneer Natural Resources: COMPANY
WELL.             Trimax 44-23: WELL
FLD.           Purgatorie River: FIELD
LOC.           527' FSL & 1064' FEL------: LOCATION
PROV.                       CO: PROVINCE
CNTY.               Las Animas: COUNTRY
SRVC.          Patterson Wireline: SERVICE COMPANY
DATE.          Sat Mar 19 11:18:53 2005: LOG DATE
UWI.           05 071 08326 00: UNIQUE WELL ID
~Curve Information Block
DEPT.FT            0 000 00 00: Depth
CCL.                          : Casing Collar Locator
TT3.usec                      : CBL 3' Travel Time
AMP3.mV                       : CBL 3' Amplitude
GR.GAPI                       : Gamma Ray
~Parameter Information Block
~A  Depth       CCL         TT3         AMP3         GR     
# ...
  2104.2500      0.0000    727.8706      9.4006     89.4863
  2104.5000      0.0000    721.0468      9.1132     90.4944
  2104.7500      0.0000    706.2007      8.6747     91.3584
  2105.0000      0.0000    686.3357      8.1944     92.3910
  2105.2500      0.0000    666.6967      7.7993     92.6797
  2105.5000      0.0000    654.0581      7.6031     90.8850
  2105.7500      0.0000    654.4463      7.6653     86.4811
  2106.0000      0.0000    668.8742      7.9622     80.2295
  2106.2500      0.0000    691.0695      8.3978     73.7323
  2106.5000      0.0000    710.7886      8.8569     68.4729
  2106.7500      0.0000    720.4684      9.2597     65.1187
  2107.0000      0.0000    719.6078      9.5654     63.6287
  2107.2500      0.0000    714.0980      9.7343     63.6945
  2107.5000      0.0000    711.7469      9.7199     64.8843
  2107.7500      0.0000    717.0015      9.5116     66.7417
  2108.0000      0.0000    727.9512      9.1642     69.0471
  2108.2500      0.0000    737.7208      8.7580     71.7972
  2108.5000      0.0000    739.3504      8.3403     74.7559
  2108.7500      0.0000    730.3897      7.9303     77.1796
  2109.0000      0.0000    714.0225      7.5824     78.2317
  2109.2500      0.0000    696.7685      7.4020     77.7898
  2109.5000      0.0000    684.8262      7.4639     76.7934
  2109.7500      0.0000    681.0767      7.7316     76.6266
  2110.0000      0.0000    684.3539      8.0881     78.1068
  2110.2500      0.0000    691.3065      8.4365     81.1203
  2110.5000      0.0000    699.0862      8.7448     85.1134
  2110.7500      0.0000    706.3975      9.0062     89.6008
  2111.0000      0.0000    712.6970      9.2043     94.1308
  2111.2500      0.0000    717.4503      9.3294     98.0075
  2111.5000      0.0000    720.3414      9.3981    100.3677
  2111.7500      0.0000    721.5899      9.4324    100.9408
  2112.0000      0.0000    721.7720      9.4303    100.8801
  2112.2500      0.0000    721.4685      9.3683    102.2894
  2112.5000      0.0000    721.0922      9.2258    106.3236
  2112.7500      0.0000    720.9304      8.9976    111.9307
  2113.0000      0.0000    721.2532      8.6966    117.1364
  2113.2500      0.0000    722.3025      8.3559    121.5020
  2113.5000      0.0000    723.9611      8.0122    126.2223
  2113.7500      0.0000    725.4219      7.6806    131.4854
  2114.0000      0.0000    725.5675      7.3624    135.0421
  2114.2500      0.0000    724.1157      7.0749    134.2189
  2114.5000      0.0000    722.3260      6.8479    128.5643
  2114.7500      0.0000    722.2981      6.6985    120.0377
  2115.0000      0.0000    725.4302      6.6405    111.4932
  2115.2500      0.0000    731.3945      6.7033    105.3806
  2115.5000      0.0000    738.2916      6.9065    102.9463
  2115.7500      0.0000    743.6768      7.2176    103.7991
  2116.0000      0.0000    745.5552      7.5585    106.2313
  2116.2500      0.0000    742.9872      7.8394    108.2205
  2116.5000      0.0000    736.6157      7.9712    108.3359
  2116.7500      0.0000    728.5894      7.8728    105.9925
  2117.0000      0.0000    721.2216      7.5064    101.3671
  2117.2500      0.0000    715.6517      6.9080     95.3660
  2117.5000      0.0000    712.2448      6.1723     89.3066
  2117.7500      0.0000    711.6985      5.4086     84.1669
  2118.0000      0.0000    714.8216      4.6977     80.0412
  2118.2500      0.0000    721.2318      4.0741     76.2908
  2118.5000      0.0000    728.4929      3.5421     72.1186
  2118.7500      0.0000    732.5696      3.1099     67.2249
  2119.0000      0.0000    729.9929      2.7936     62.2709
  2119.2500      0.0000    720.8031      2.5927     58.6246
  2119.5000      0.0000    709.4286      2.4805     57.3757
  2119.7500      0.0000    702.0400      2.4247     58.6740
  2120.0000      0.0000    702.8671      2.4101     62.0453
  2120.2500      0.0000    712.5998      2.4475     66.9386
  2120.5000      0.0000    728.5450      2.5699     72.7418
  2120.7500      0.0000    744.9314      2.8145     78.6618
  2121.0000      0.0000    754.6190      3.2024     83.8111
  2121.2500      0.0000    753.4973      3.7364     87.2784
  2121.5000      0.0000    743.8561      4.4098     88.3414
  2121.7500      0.0000    731.8965      5.1985     86.9608
  2122.0000      0.0000    721.8068      6.0519     83.8028
  2122.2500      0.0000    713.3999      6.9185     79.5723
  2122.5000      0.0000    705.2183      7.7773     74.7722
  2122.7500      0.0000    698.1951      8.6118     70.1819
  2123.0000      0.0000    695.2167      9.3594     66.8309
  2123.2500      0.0000    697.8748      9.9249     65.2602
  2123.5000      0.0000    705.0159     10.2464     65.3456
  2123.7500      0.0000    714.3924     10.3232     66.9132
  2124.0000      0.0000    724.3609     10.1888     70.0003
  2124.2500      0.0000    733.5776      9.8841     74.3440
  2124.5000      0.0000    740.4395      9.4611     78.9628
  2124.7500      0.0000    743.8022      8.9852     82.4405
  2125.0000      0.0000    743.4750      8.5075     83.6705
  2125.2500      0.0000    739.3666      8.0345     82.6132
  2125.5000      0.0000    731.0686      7.5522     80.4441
  2125.7500      0.0000    719.1194      7.0874     78.7299
  2126.0000      0.0000    706.0583      6.7282     78.3007
  2126.2500      0.0000    695.3321      6.5788     78.8532
  2126.5000      0.0000    689.1586      6.7005     79.4049
  2126.7500      0.0000    687.5029      7.0713     79.0516
  2127.0000      0.0000    688.6483      7.5629     77.5725
  2127.2500      0.0000    690.7087      7.9602     75.5525
  2127.5000      0.0000    693.2382      8.0524     73.7730
  2127.7500      0.0000    697.5125      7.7570     72.3155
  2128.0000      0.0000    704.7344      7.1794     70.3503
  2128.2500      0.0000    713.8452      6.5598     67.0746
  2128.5000      0.0000    721.6472      6.1469     63.1402
  2128.7500      0.0000    725.3552      6.0836     61.0255
  2129.0000      0.0000    724.9566      6.3610     63.2674
  2129.2500      0.0000    723.2111      6.8436     69.9390
  2129.5000      0.0000    723.5906      7.3368     78.2878
  2129.7500      0.0000    727.9583      7.6776     85.0460
  2130.0000      0.0000    735.4903      7.8020     88.7455
  2130.2500      0.0000    743.3944      7.7428     89.7912
  2130.5000      0.0000    748.7704      7.5728     88.9852
  2130.7500      0.0000    750.0701      7.3709     86.7432
  2131.0000      0.0000    747.2341      7.2397     83.7996
  2131.2500      0.0000    741.1240      7.2986     81.8363
  2131.5000      0.0000    733.0076      7.5952     82.5587
  2131.7500      0.0000    724.0028      8.0261     86.2549
  2132.0000      0.0000    714.6531      8.3768     91.7257
  2132.2500      0.0000    705.2460      8.4660     97.3942
  2132.5000      0.0000    696.6221      8.2661    102.1074
  2132.7500      0.0000    690.2500      7.9090    105.3089
  2133.0000      0.0000    687.2577      7.5925    107.1784
  2133.2500      0.0000    687.4131      7.4676    108.5493
  2133.5000      0.0000    689.0359      7.5680    110.1284
  2133.7500      0.0000    689.9971      7.8003    111.5198
  2134.0000      0.0000    689.1411      7.9975    111.1540
  2134.2500      0.0000    686.9029      8.0237    107.4751
  2134.5000      0.0000    684.5451      7.8709    100.5080
  2134.7500      0.0000    682.9736      7.6717     92.2527
  2135.0000      0.0000    682.3206      7.5950     85.3983
  2135.2500      0.0000    682.3102      7.6985     81.7449
  2135.5000      0.0000    682.7300      7.8726     81.7671
  2135.7500      0.0000    683.6896      7.9454     85.0137
  2136.0000      0.0000    685.6128      7.8533     90.3698
  2136.2500      0.0000    688.8858      7.6976     96.1965
  2136.5000      0.0000    693.3643      7.6269    100.8136
  2136.7500      0.0000    698.2330      7.6743    103.2635
  2137.0000      0.0000    702.3593      7.7313    103.8624
  2137.2500      0.0000    704.7381      7.6862    103.9013
  2137.5000      0.0000    704.8095      7.5602    104.3938
