~Version Information
 VERS.                                  2.0 : CWLS LAS VERSION
 WRAP.                                   NO : WRAPING MODE
 SWARE .                 MController 2.5.0J : SOFTWARE VERSION
~Well Information
 WELL.                     Kristin 22-23 TR : WELL
 COMP.        Pioneer Natural Resources Inc : COMPANY
 FLD.                      Purgatoire River : FIELD
 LOC.                SE/NW Sec 23 T33S R67W : LOCATION
 DATE.                           1/19-20/05 : DATE(S) LOGGED
 SRVC.       Blanco Geological Services LLC : SERVICE COMPANY
 STAT.                                   CO : STATE
 CNTY.                           Las Animas : COUNTY
 CTRY.                                  USA : COUNTRY
 API.                       05-071-08259-00 : API NUMBER
 STRT.FT                             499.00 : START DEPTH
 STOP.FT                            1575.00 : STOP DEPTH
 STEP.FT                               1.00 : DEPTH INCREMENT
 NULL.                                -9999 : NULL VALUE
~Curve information
 DEPTH.FT                                   :
 ROP.MIN/FT                                 :
 GAS.UNITS                                  :
~ASCII Log data
# ...
      1299.0         0.33        684.3 
      1300.0         0.23        644.7 
      1301.0         0.23        632.4 
      1302.0         0.27        607.3 
      1303.0         0.33        607.6 
      1304.0         0.37        629.2 
      1305.0         0.37        640.2 
      1306.0         0.38        641.1 
      1307.0         0.33        643.1 
      1308.0         0.23        642.8 
      1309.0         0.27        638.2 
      1310.0         0.27        615.7 
      1311.0         0.23        608.6 
      1312.0         0.30        604.7 
      1313.0         0.33        676.9 
      1314.0         0.33        728.5 
      1315.0         0.33       1179.6 
      1316.0         0.23       1247.0 
      1317.0         0.20       1382.4 
      1318.0         0.23       1388.8 
      1319.0         0.20       1344.3 
      1320.0         0.30       1335.0 
      1321.0         0.30       1247.6 
      1322.0         0.27       1118.4 
      1323.0         0.32        989.2 
      1324.0         0.23        876.4 
      1325.0         0.37        782.9 
      1326.0         0.20        739.4 
      1327.0         0.23        730.7 
      1328.0         0.23        720.4 
      1329.0         0.20        707.2 
      1330.0         0.23        703.3 
      1331.0         0.20        685.9 
      1332.0         0.20        676.9 
      1333.0         0.20        670.8 
      1334.0         0.23        661.1 
      1335.0         0.20        661.1 
      1336.0         0.23        658.9 
      1337.0         0.20        656.6 
      1338.0         0.22        655.3 
      1339.0         0.23        653.7 
      1340.0         0.20        650.8 
      1341.0         0.23        646.9 
      1342.0         0.20        983.4 
      1343.0         0.23        983.4 
      1344.0         0.27       1351.1 
      1345.0         0.20       1419.1 
      1346.0         0.27       1302.4 
      1347.0         0.37       1263.8 
      1348.0         0.47       1188.3 
      1349.0         0.37       1086.2 
      1350.0         0.37        925.1 
      1351.0         0.33        806.1 
      1352.0         0.27        774.2 
      1353.0         0.20        742.0 
      1354.0         0.25        741.0 
      1355.0         0.17        726.2 
      1356.0         0.17        726.2 
      1357.0         0.17        711.4 
      1358.0         0.17        698.5 
      1359.0         0.17        686.3 
      1360.0         0.13        686.3 
      1361.0         0.13        669.2 
      1362.0         0.23        660.8 
      1363.0         0.23        650.8 
      1364.0         0.20        646.9 
      1365.0         0.20        644.7 
      1366.0         0.23        646.9 
      1367.0         0.20        647.3 
      1368.0         0.23        645.0 
      1369.0         0.20        646.9 
      1370.0         0.27        649.5 
      1371.0         0.25       1047.8 
      1372.0         0.23       1047.8 
      1373.0         0.17       1047.8 
      1374.0         0.27       1358.2 
      1375.0         0.40       1409.7 
      1376.0         0.38       1293.1 
      1377.0         0.43       1218.6 
      1378.0         0.37       1095.5 
      1379.0         0.23        899.0 
      1380.0         0.23        877.4 
      1381.0         0.20        788.7 
      1382.0         0.17        781.3 
      1383.0         0.23        752.0 
      1384.0         0.20        743.6 
      1385.0         0.20        730.7 
      1386.0         0.27        720.1 
      1387.0         0.20        709.1 
      1388.0         0.20        697.9 
      1389.0         0.20        682.1 
      1390.0         0.28        670.1 
      1391.0         0.23        660.8 
      1392.0         0.20        656.0 
      1393.0         0.20        645.3 
      1394.0         0.20        638.2 
      1395.0         0.20        637.0 
      1396.0         0.20        637.6 
      1397.0         0.17        637.3 
      1398.0         0.23        638.6 
      1399.0         0.20        639.9 
      1400.0         0.17        639.9 
      1401.0         0.17        632.4 
      1402.0         0.20       1460.0 
      1403.0         0.20       1460.0 
      1404.0         0.23       1753.9 
      1405.0         0.27       1773.3 
      1406.0         0.35       1636.9 
      1407.0         0.27       1549.0 
      1408.0         0.30       1413.6 
      1409.0         0.20       1216.4 
      1410.0         0.30       1130.7 
      1411.0         0.32        898.0 
      1412.0         0.33        885.4 
      1413.0         0.27        792.3 
      1414.0         0.27        767.5 
      1415.0         0.23        761.0 
      1416.0         0.17        749.1 
      1417.0         0.20        745.2 
      1418.0         0.23        732.0 
      1419.0         0.23        722.7 
      1420.0         0.23        720.1 
      1421.0         0.30        684.6 
      1422.0         0.23        673.4 
      1423.0         0.30        666.6 
      1424.0         0.35        661.8 
      1425.0         0.27        660.5 
      1426.0         0.23        657.9 
      1427.0         0.23        661.1 
      1428.0         0.20        658.2 
      1429.0         0.20        653.7 
      1430.0         0.20        649.8 
      1431.0         0.20        649.5 
      1432.0         0.23        817.1 
      1433.0         0.20        817.1 
      1434.0         0.20        939.2 
      1435.0         0.20       1076.2 
      1436.0         0.27       1338.8 
      1437.0         0.30       1584.7 
      1438.0         0.33       1545.7 
      1439.0         0.37       1421.7 
      1440.0         0.30       1317.9 
      1441.0         0.37       1231.5 
      1442.0         0.38       1093.3 
      1443.0         0.23        890.3 
      1444.0         0.20        820.6 
      1445.0         0.27        796.8 
      1446.0         0.23        773.3 
      1447.0         0.17        764.6 
      1448.0         0.17        753.3 
      1449.0         0.17        732.7 
      1450.0         0.37        717.8 
      1451.0         0.27        714.9 
      1452.0         0.17        689.8 
      1453.0         0.13        682.4 
      1454.0         0.27        677.2 
      1455.0         0.20        676.3 
      1456.0         0.17        675.6 
      1457.0         0.17        670.8 
      1458.0         0.18        668.9 
      1459.0         0.17        663.4 
      1460.0         0.20        663.7 
      1461.0         0.17        661.1 
      1462.0         0.17        530.6 
      1463.0         0.17        586.7 
      1464.0         0.13        599.2 
      1465.0         0.17        833.5 
      1466.0         0.27       1124.5 
      1467.0         0.27       1308.6 
      1468.0         0.32       1672.4 
      1469.0         0.40       1921.5 
      1470.0         0.37       1780.7 
      1471.0         0.27       1594.4 
      1472.0         0.27       1356.2 
      1473.0         0.23       1197.7 
      1474.0         0.23       1002.1 
      1475.0         0.20        917.0 
      1476.0         0.17        894.4 
      1477.0         0.17        816.5 
      1478.0         0.13        802.9 
      1479.0         0.20        767.1 
      1480.0         0.13        752.0 
      1481.0         0.20        738.5 
      1482.0         0.18        722.0 
      1483.0         0.20        719.8 
      1484.0         0.17        712.7 
      1485.0         0.17        705.9 
      1486.0         0.13        691.1 
      1487.0         0.13        662.4 
      1488.0         0.27        645.3 
      1489.0         0.13        626.0 
      1490.0         0.17       1029.1 
      1491.0         0.17       1029.1 
      1492.0         0.17       1260.9 
      1493.0         0.20       1499.3 
      1494.0         0.17       1558.3 
      1495.0         0.20       1568.6 
      1496.0         0.27       1385.6 
      1497.0         0.20       1318.5 
      1498.0         0.23       1244.1 
