~Version Information
VERS.                      2.0: CWLS Log ASCII Standard - VERSION 2.0
WRAP.                       NO: One line per depth step
~Well Information Block
STRT.FT               -12.5000: 
STOP.FT              2200.2500: 
STEP.FT                 0.2500: 
NULL.                -999.2500: 
COMP.          Pioneer Natural Resources: COMPANY
WELL.           Ogallela 44-12: WELL
FLD.           Purgatorie River: FIELD
LOC.           610' FSL & 671' FEL------: LOCATION
PROV.                       CO: PROVINCE
CNTY.               Las Animas: COUNTRY
SRVC.          Patterson Wireline: SERVICE COMPANY
DATE.          Tue Mar 22 17:18:22 2005: LOG DATE
UWI.           05 071 08283 00: UNIQUE WELL ID
~Curve Information Block
DEPT.FT            0 000 00 00: Depth
CCL.                          : Casing Collar Locator
TT3.usec                      : CBL 3' Travel Time
AMP3.mV                       : CBL 3' Amplitude
GR.GAPI                       : Gamma Ray
~Parameter Information Block
~A  Depth       CCL         TT3         AMP3         GR     
# ...
   858.5000      0.0000    267.9082     68.6886     82.6625
   858.7500      0.0000    267.8893     68.7018     76.0905
   859.0000      0.0000    267.8839     68.6928     69.8826
   859.2500      0.0000    267.8872     68.6647     64.3696
   859.5000      0.0000    267.8914     68.6405     59.7945
   859.7500      0.0000    267.8902     68.6513     56.1463
   860.0000      0.0000    267.8800     68.7231     53.2757
   860.2500      0.0000    267.8615     68.8610     51.0160
   860.5000      0.0000    267.8396     69.0434     49.2091
   860.7500      0.0000    267.8215     69.2382     47.9216
   861.0000      0.0000    267.8121     69.4199     47.7351
   861.2500      0.0000    267.8129     69.5663     49.4532
   861.5000      0.0000    267.8240     69.6525     53.1261
   861.7500      0.0000    267.8446     69.6619     57.4184
   862.0000      0.0000    267.8713     69.5962     60.2964
   862.2500      0.0000    267.8997     69.4630     60.6204
   862.5000      0.0000    267.9276     69.2573     59.2653
   862.7500      0.0000    267.9565     68.9685     58.7676
   863.0000      0.0000    267.9868     68.6060     61.5708
   863.2500      0.0000    268.0146     68.2062     68.1352
   863.5000      0.0000    268.0330     67.8193     76.6615
   863.7500      0.0000    268.0345     67.4962     84.7230
   864.0000      0.0000    268.0150     67.2766     91.0022
   864.2500      0.0000    267.9778     67.1651     95.4708
   864.5000      0.0000    267.9355     67.1218     98.4911
   864.7500      0.0000    267.9042     67.0931    100.4470
   865.0000      0.0000    267.8925     67.0609    102.1536
   865.2500      0.0000    267.8953     67.0535    104.7302
   865.5000      0.0000    267.9004     67.1115    108.5358
   865.7500      0.0000    267.8993     67.2489    112.6251
   866.0000      0.0000    267.8928     67.4400    115.6230
   866.2500      0.0000    267.8892     67.6255    116.8358
   866.5000      0.0000    267.8966     67.7392    116.3329
   866.7500      0.0000    267.9167     67.7477    114.6275
   867.0000      0.0000    267.9426     67.6769    112.8650
   867.2500      0.0000    267.9644     67.5974    112.6543
   867.5000      0.0000    267.9759     67.5763    114.7610
   867.7500      0.0000    267.9776     67.6329    118.2140
   868.0000      0.0000    267.9738     67.7310    121.3708
   868.2500      0.0000    267.9685     67.8120    123.6529
   868.5000      0.0000    267.9637     67.8387    125.7379
   868.7500      0.0000    267.9604     67.8126    128.1782
   869.0000      0.0000    267.9587     67.7555    130.4587
   869.2500      0.0000    267.9623     67.6724    131.7204
   869.5000      0.0000    267.9948     67.5094    131.9586
   869.7500      0.0000    268.1297     67.0891    131.9771
   870.0000      0.0000    268.5363     66.0384    132.4211
   870.2500      0.0000    269.5065     63.8539    133.4254
   870.5000      0.0000    271.4005     60.2404    135.1518
   870.7500      0.0000    274.4310     55.5167    138.1097
   871.0000      0.0000    278.2856     50.6168    142.4935
   871.2500      0.0000    281.9045     46.5868    147.1902
   871.5000      0.0000    283.9409     44.0274    149.8199
   871.7500      0.0000    283.8039     42.9019    148.2275
   872.0000      0.0000    282.2180     42.7189    142.0274
   872.2500      2.0000    280.6348     42.8630    132.6435
   872.5000      2.0000    280.2913     42.8521    122.2542
   872.7500      0.0000    281.8385     42.4432    112.9902
   873.0000      0.0000    285.2149     41.7769    106.5814
   873.2500      0.0000    289.2456     41.5863    103.8976
   873.5000      0.0000    291.6775     43.0207    104.7339
   873.7500      0.0000    290.5464     46.7966    108.3048
   874.0000      0.0000    285.9020     52.4176    113.6370
   874.2500      0.0000    279.8294     58.4615    119.2961
   874.5000      0.0000    274.6661     63.6077    123.5718
   874.7500      0.0000    271.4521     67.2559    125.6585
   875.0000      0.0000    269.9229     69.4278    126.2196
   875.2500      0.0000    269.3618     70.4542    126.2844
   875.5000      0.0000    269.2128     70.7431    125.9795
   875.7500      0.0000    269.1960     70.6316    124.8849
   876.0000      0.0000    269.2047     70.3383    123.3750
   876.2500      0.0000    269.2067     70.0014    122.8161
   876.5000      0.0000    269.1980     69.7157    124.1545
   876.7500      0.0000    269.1863     69.5195    126.6792
   877.0000      0.0000    269.1803     69.3932    128.4858
   877.2500      0.0000    269.1847     69.2964    127.9958
   877.5000      0.0000    269.2024     69.2099    125.0818
   877.7500      0.0000    269.2347     69.1311    121.2136
   878.0000      0.0000    269.2784     69.0448    118.4593
   878.2500      0.0000    269.3223     68.9246    117.7748
   878.5000      0.0000    269.3530     68.7578    118.3470
   878.7500      0.0000    269.3638     68.5516    118.9929
   879.0000      0.0000    269.3585     68.3270    119.7293
   879.2500      0.0000    269.3450     68.1205    121.4957
   879.5000      0.0000    269.3297     67.9843    124.7305
   879.7500      0.0000    269.3167     67.9605    128.4844
   880.0000      0.0000    269.3087     68.0573    130.7246
   880.2500      0.0000    269.3058     68.2491    129.7552
   880.5000      0.0000    269.3055     68.4875    125.9056
   880.7500      0.0000    269.3065     68.7124    121.7609
   881.0000      0.0000    269.3122     68.8780    120.4637
   881.2500      0.0000    269.3283     68.9792    123.6125
   881.5000      0.0000    269.3576     69.0422    130.0778
   881.7500      0.0000    269.3966     69.0857    136.2195
   882.0000      0.0000    269.4377     69.1035    137.8729
   882.2500      0.0000    269.4749     69.0903    133.1851
   882.5000      0.0000    269.5046     69.0754    123.7876
   882.7500      0.0000    269.5228     69.1185    113.1877
   883.0000      0.0000    269.5224     69.2648    104.2555
   883.2500      0.0000    269.4991     69.5020     98.0000
   883.5000      0.0000    269.4587     69.7522     93.7382
   883.7500      0.0000    269.4146     69.9165     89.9181
   884.0000      0.0000    269.3781     69.9370     85.4501
   884.2500      0.0000    269.3521     69.8244     80.9979
   884.5000      0.0000    269.3352     69.6350     78.9225
   884.7500      0.0000    269.3279     69.4356     81.4911
   885.0000      0.0000    269.3324     69.2782     88.8913
   885.2500      0.0000    269.3471     69.1828     98.8123
   885.5000      0.0000    269.3637     69.1311    107.8849
   885.7500      0.0000    269.3693     69.0835    113.8694
   886.0000      0.0000    269.3533     69.0123    116.8526
   886.2500      0.0000    269.3135     68.9283    118.4370
   886.5000      0.0000    269.2575     68.8737    119.9958
   886.7500      0.0000    269.1989     68.8853    121.9141
   887.0000      0.0000    269.1512     68.9634    124.0686
   887.2500      0.0000    269.1220     69.0703    126.3536
   887.5000      0.0000    269.1108     69.1549    128.7431
   887.7500      0.0000    269.1117     69.1852    131.2316
   888.0000      0.0000    269.1192     69.1661    133.6433
   888.2500      0.0000    269.1294     69.1280    135.2491
   888.5000      0.0000    269.1396     69.0974    134.9824
   888.7500      0.0000    269.1466     69.0812    132.7830
   889.0000      0.0000    269.1466     69.0812    130.5845
   889.2500      0.0000    269.1372     69.1073    131.0097
   889.5000      0.0000    269.1187     69.1628    134.8884
   889.7500      0.0000    269.0965     69.2257    140.6617
   890.0000      0.0000    269.0799     69.2637    146.0897
   890.2500      0.0000    269.0764     69.2678    149.6438
   890.5000      0.0000    269.0858     69.2630    150.2656
   890.7500      0.0000    269.1003     69.2820    146.9611
   891.0000      0.0000    269.1121     69.3377    139.6300
   891.2500      0.0000    269.1188     69.4235    130.1355
   891.5000      0.0000    269.1223     69.5366    121.6628
   891.7500      0.0000    269.1251     69.6888    116.5395
