~Version Information
VERS.                      2.0: CWLS Log ASCII Standard - VERSION 2.0
WRAP.                       NO: One line per depth step
~Well Information Block
STRT.FT               -11.0000: 
STOP.FT              1896.2500: 
STEP.FT                 0.2500: 
NULL.                -999.2500: 
COMP.          Pioneer Natural Resources: COMPANY
WELL.            Summers 21-19: WELL
FLD.           Purgatoire River: FIELD
LOC.           900' FNL & 1950' FWL--: LOCATION
PROV.                 Colorado: PROVINCE
CNTY.               Las Animas: COUNTRY
SRVC.                Patterson: SERVICE COMPANY
DATE.          Thu Oct 20 15:06:00 2005: LOG DATE
UWI.           05 071 08315 00: UNIQUE WELL ID
~Curve Information Block
DEPT.FT            0 000 00 00: Depth
GR.GAPI                       : Gamma Ray
CCL.                          : Casing Collar Locator
TT3.usec                      : CBL 3' Travel Time
AMP3.mV                       : CBL 3' Amplitude
~Parameter Information Block
~A  Depth        GR         CCL         TT3         AMP3    
# ...
  1362.5000    157.7797      0.0000    721.6571      4.9251
  1362.7500    161.5300      0.0000    719.2860      4.9433
  1363.0000    164.2447      0.0000    718.8466      4.9649
  1363.2500    167.3062      0.0000    721.1903      4.9765
  1363.5000    171.2030      0.0000    725.5632      4.9725
  1363.7500    174.8425      0.0000    730.1794      4.9503
  1364.0000    176.7213      0.0000    733.6373      4.9058
  1364.2500    176.5261      0.0000    735.6254      4.8389
  1364.5000    175.0105      0.0000    736.5493      4.7616
  1364.7500    172.5319      0.0000    736.8910      4.6952
  1365.0000    168.4414      0.0000    736.9430      4.6580
  1365.2500    162.0565      0.0000    736.8667      4.6522
  1365.5000    153.9034      0.0000    736.7751      4.6621
  1365.7500    145.8744      0.0000    736.7318      4.6680
  1366.0000    140.1747      0.0000    736.7404      4.6658
  1366.2500    137.8296      0.0000    736.7508      4.6689
  1366.5000    137.7769      0.0000    736.6361      4.6871
  1366.7500    137.4562      0.0000    736.1116      4.7113
  1367.0000    134.7777      0.0000    734.7333      4.7255
  1367.2500    129.8207      0.0000    732.2048      4.7267
  1367.5000    124.7113      0.0000    728.9141      4.7253
  1367.7500    121.8294      0.0000    725.9988      4.7357
  1368.0000    121.9288      0.0000    724.4753      4.7702
  1368.2500    123.7405      0.0000    724.2736      4.8326
  1368.5000    125.2081      0.0000    724.4937      4.9119
  1368.7500    125.1159      0.0000    724.5947      4.9876
  1369.0000    123.8524      0.0000    724.9390      5.0405
  1369.2500    122.8629      0.0000    726.1521      5.0572
  1369.5000    123.2805      0.0000    728.2607      5.0299
  1369.7500    124.9561      0.0000    730.5280      4.9629
  1370.0000    126.9874      0.0000    731.9362      4.8769
  1370.2500    129.1460      0.0000    731.7379      4.7999
  1370.5000    132.3226      0.0000    729.8394      4.7497
  1370.7500    137.4845      0.0000    727.0972      4.7258
  1371.0000    144.6415      0.0000    725.1600      4.7136
  1371.2500    152.7783      0.0000    725.3950      4.6961
  1371.5000    160.3149      0.0000    727.6406      4.6694
  1371.7500    165.6031      0.0000    730.2817      4.6509
  1372.0000    167.5141      0.0000    731.7761      4.6661
  1372.2500    166.2521      0.0000    731.9821      4.7213
  1372.5000    163.9331      0.0000    731.9586      4.7938
  1372.7500    163.7881      0.0000    732.6735      4.8522
  1373.0000    167.8315      0.0000    734.1310      4.8841
  1373.2500    175.0436      0.0000    735.6639      4.8970
  1373.5000    182.1242      0.0000    736.7151      4.8981
  1373.7500    185.9640      0.0000    737.1862      4.8839
  1374.0000    185.2981      0.0000    737.2672      4.8469
  1374.2500    180.6606      0.0000    737.1719      4.7870
  1374.5000    173.6978      0.0000    737.0193      4.7107
  1374.7500    166.4452      0.0000    736.8448      4.6251
  1375.0000    160.4675      0.0000    736.6598      4.5351
  1375.2500    156.2387      0.0000    736.4968      4.4450
  1375.5000    153.3339      0.0000    736.4085      4.3612
  1375.7500    151.1075      0.0000    736.4410      4.2925
  1376.0000    149.1483      0.0000    736.6077      4.2455
  1376.2500    147.3605      0.0000    736.8749      4.2204
  1376.5000    145.9580      0.0000    737.1587      4.2112
  1376.7500    145.3333      0.0000    737.3549      4.2109
  1377.0000    145.5862      0.0000    737.3995      4.2141
  1377.2500    146.1939      0.0000    737.2977      4.2156
  1377.5000    146.5224      0.0000    737.0802      4.2103
  1377.7500    146.6208      0.0000    736.7432      4.1945
  1378.0000    146.9574      0.0000    736.2125      4.1650
  1378.2500    147.3425      0.0000    735.3132      4.1181
  1378.5000    146.7813      0.0000    733.7153      4.0521
  1378.7500    144.6759      0.0000    731.0578      3.9732
  1379.0000    141.6196      0.0000    727.4833      3.8957
  1379.2500    138.6084      0.0000    724.1652      3.8330
  1379.5000    135.8229      0.0000    722.8157      3.7877
  1379.7500    132.6128      0.0000    724.1265      3.7528
  1380.0000    128.5682      0.0000    726.9257      3.7210
  1380.2500    124.1944      0.0000    729.3096      3.6918
  1380.5000    120.4529      0.0000    730.3682      3.6713
  1380.7500    118.0699      0.0000    730.3767      3.6670
  1381.0000    117.4898      0.0000    729.5662      3.6793
  1381.2500    118.9433      0.0000    727.4240      3.6996
  1381.5000    121.9442      0.0000    723.4853      3.7178
  1381.7500    124.8915      0.0000    718.3690      3.7325
  1382.0000    125.8502      0.0000    713.5372      3.7497
  1382.2500    124.1045      0.0000    710.1359      3.7740
  1382.5000    120.7269      0.0000    708.3696      3.8047
  1382.7500    117.5180      0.0000    707.9197      3.8410
  1383.0000    115.5308      0.0000    708.6629      3.8860
  1383.2500    114.6177      0.0000    710.9248      3.9426
  1383.5000    114.2141      0.0000    715.1050      4.0087
  1383.7500    114.3909      0.0000    720.9967      4.0805
  1384.0000    115.8811      0.0000    727.4813      4.1584
  1384.2500    118.9786      0.0000    733.0582      4.2475
  1384.5000    122.7212      0.0000    736.7762      4.3508
  1384.7500    125.4924      0.0000    738.6383      4.4635
  1385.0000    126.3619      0.0000    739.2425      4.5731
  1385.2500    125.6404      0.0000    739.2219      4.6665
  1385.5000    124.3531      0.0000    738.9742      4.7364
  1385.7500    123.5462      0.0000    738.6793      4.7824
  1386.0000    123.9545      0.0000    738.4050      4.8079
  1386.2500    125.7422      0.0000    738.1822      4.8163
  1386.5000    128.3293      0.0000    738.0306      4.8133
  1386.7500    130.7519      0.0000    737.9590      4.8080
  1387.0000    132.3301      0.0000    737.9592      4.8084
  1387.2500    132.9547      0.0000    737.9948      4.8148
  1387.5000    132.7728      0.0000    738.0018      4.8219
  1387.7500    131.8631      0.0000    737.8961      4.8282
  1388.0000    130.3987      0.0000    737.5342      4.8394
  1388.2500    128.7953      0.0000    736.5979      4.8612
  1388.5000    127.3373      0.0000    734.5313      4.8914
  1388.7500    125.9683      0.0000    730.7877      4.9229
  1389.0000    124.6451      0.0000    725.4188      4.9504
  1389.2500    123.4459      0.0000    719.4774      4.9748
  1389.5000    122.2089      0.0000    714.6471      5.0016
  1389.7500    120.6428      0.0000    712.2931      5.0354
  1390.0000    118.9633      0.0000    712.6978      5.0768
  1390.2500    117.8940      0.0000    714.9420      5.1233
  1390.5000    117.8751      0.0000    717.3030      5.1734
  1390.7500    118.6897      0.0000    718.0038      5.2290
  1391.0000    119.9185      0.0000    716.2306      5.2909
  1391.2500    121.3851      0.0000    712.8123      5.3504
  1391.5000    123.1027      0.0000    709.4797      5.3892
  1391.7500    125.1128      0.0000    706.9053      5.3931
  1392.0000    127.4498      0.0000    703.8885      5.3609
  1392.2500    129.9504      0.0000    698.8608      5.2937
  1392.5000    132.0429      0.0000    691.4943      5.1799
  1392.7500    133.1567      0.0000    682.5552      4.9965
  1393.0000    133.4883      0.0000    673.2237      4.7339
  1393.2500    133.8326      0.0000    665.4267      4.4269
  1393.5000    134.4026      0.0000    662.2874      4.1490
  1393.7500    134.3828      0.0000    666.6980      3.9517
  1394.0000    132.8742      0.0000    678.2051      3.8179
  1394.2500    129.8310      0.0000    691.6420      3.6986
  1394.5000    125.9286      0.0000    700.3899      3.5794
  1394.7500    121.9012      0.0000    701.8211      3.4840
  1395.0000    118.1039      0.0000    699.0355      3.4293
  1395.2500    114.6217      1.8884    697.1767      3.4051
  1395.5000    111.7951      0.0000    698.7697      3.3895
  1395.7500    110.4341      0.0000    702.1433      3.3780
