~Version Information
VERS.                      2.0: CWLS Log ASCII Standard - VERSION 2.0
WRAP.                       NO: One line per depth step
~Well Information Block
STRT.FT               620.0000: 
STOP.FT              2663.2500: 
STEP.FT                 0.2500: 
NULL.                -999.2500: 
COMP.          Evergreen Operating Corporation: COMPANY
WELL.             Carbon 34-21: WELL
FLD.           Purgatoire River: FIELD
LOC.           56' FSL & 2304' FEL: LOCATION
PROV.                 Colorado: PROVINCE
CNTY.               Las Animas: COUNTRY
SRVC.                Patterson: SERVICE COMPANY
DATE.          Mon Sep 13 11:41:04 2004: LOG DATE
UWI.           05 071 08117 00: UNIQUE WELL ID
~Curve Information Block
DEPT.FT            0 000 00 00: Depth
DIR.Ohm-m                     : IEL Induction Resistivity
SN.Ohm-m                      : IEL Short Normal
SP.mV                         : IEL Spontaneous Potential
GR.GAPI                       : Gamma Ray
~Parameter Information Block
~A  Depth       DIR          SN          SP          GR     
   620.0000      1.3469   2000.0000   2000.0000     85.8521
   620.2500      1.3552   2000.0000   2000.0000     84.8632
   620.5000      1.3693   2000.0000   2000.0000     83.3213
   620.7500      1.3863   2000.0000   2000.0000     82.5890
   621.0000      1.4038   2000.0000   2000.0000     82.1247
   621.2500      1.4197   2000.0000   2000.0000     82.2546
   621.5000      1.4338   2000.0000   2000.0000     82.9655
   621.7500      1.4471   2000.0000   2000.0000     83.5454
   622.0000      1.4609   2000.0000   2000.0000     83.9227
   622.2500      1.4748   2000.0000   2000.0000     83.4600
   622.5000      1.4859   2000.0000   2000.0000     81.5029
   622.7500      1.4891   2000.0000   2000.0000     79.6804
   623.0000      1.4787   2000.0000   2000.0000     77.1090
   623.2500      1.4517   2000.0000   2000.0000     75.8686
   623.5000      1.4096   2000.0000   2000.0000     74.6545
   623.7500      1.3595   2000.0000   2000.0000     73.9606
   624.0000      1.3110   2000.0000   2000.0000     72.6051
   624.2500      1.2725   2000.0000   2000.0000     71.4360
   624.5000      1.2487   2000.0000   2000.0000     69.4665
   624.7500      1.2413   2000.0000   2000.0000     68.0778
   625.0000      1.2492   2000.0000   2000.0000     65.8545
   625.2500      1.2683   2000.0000   2000.0000     64.3407
   625.5000      1.2909   2000.0000   2000.0000     62.3893
   625.7500      1.3068   2000.0000   2000.0000     61.5312
   626.0000      1.3072   2000.0000   2000.0000     61.0025
   626.2500      1.2900   2000.0000   2000.0000     60.9972
   626.5000      1.2596   2000.0000   2000.0000     61.0395
   626.7500      1.2228   2000.0000   2000.0000     60.8451
   627.0000      1.1849   2000.0000   2000.0000     59.9565
   627.2500      1.1495   2000.0000   2000.0000     58.9094
   627.5000      1.1201   2000.0000   2000.0000     56.7481
   627.7500      1.1010   2000.0000   2000.0000     55.1028
   628.0000      1.0966   2000.0000   2000.0000     52.6808
   628.2500      1.1106   2000.0000   2000.0000     51.1331
   628.5000      1.1437   2000.0000   2000.0000     48.7648
   628.7500      1.1934   2000.0000   2000.0000     47.1903
   629.0000      1.2544   2000.0000   2000.0000     45.2212
   629.2500      1.3196   2000.0000   2000.0000     44.3691
   629.5000      1.3812   2000.0000   2000.0000     43.7313
   629.7500      1.4308   2000.0000   2000.0000     43.5226
   630.0000      1.4611   2000.0000   2000.0000     43.2131
   630.2500      1.4683   2000.0000   2000.0000     42.9506
   630.5000      1.4549   2000.0000   2000.0000     42.4334
   630.7500      1.4278   2000.0000   2000.0000     41.9344
   631.0000      1.3941   2000.0000   2000.0000     40.9097
   631.2500      1.3598   2000.0000   2000.0000     40.1862
   631.5000      1.3322   2000.0000   2000.0000     39.4480
   631.7500      1.3235   2000.0000   2000.0000     39.3059
   632.0000      1.3547   2000.0000   2000.0000     39.3631
   632.2500      1.4594   2000.0000   2000.0000     39.2748
   632.5000      1.6942   2000.0000   2000.0000     38.7531
   632.7500      2.1672   2000.0000   2000.0000     38.4431
   633.0000      3.1099   2000.0000   2000.0000     38.8489
   633.2500      5.0838   2000.0000   2000.0000     39.8931
   633.5000      9.8149   2000.0000   2000.0000     42.2060
   633.7500     27.9923   2000.0000   2000.0000     43.8741
   634.0000 100000.0000   2000.0000   2000.0000     46.2482
   634.2500 100000.0000   2000.0000   2000.0000     47.6930
   634.5000 100000.0000   2000.0000   2000.0000     49.4362
   634.7500 100000.0000   2000.0000   2000.0000     50.1347
   635.0000 100000.0000   2000.0000   2000.0000     50.4592
   635.2500     10.8770   2000.0000   2000.0000     50.4526
   635.5000      4.4455   2000.0000   2000.0000     50.7073
   635.7500      2.9494   2000.0000   2000.0000     51.2345
   636.0000      2.5814   2000.0000   2000.0000     52.6133
   636.2500      2.8181   2000.0000   2000.0000     54.0284
   636.5000      3.8108   2000.0000   2000.0000     57.1787
   636.7500      6.7691   2000.0000   2000.0000     59.8915
   637.0000     22.5528   2000.0000   2000.0000     64.1970
   637.2500 100000.0000   2000.0000   2000.0000     66.8102
   637.5000 100000.0000   2000.0000   2000.0000     70.1119
   637.7500 100000.0000   2000.0000   2000.0000     71.9919
   638.0000 100000.0000   2000.0000   2000.0000     74.4838
   638.2500 100000.0000   2000.0000   2000.0000     75.8988
   638.5000 100000.0000   2000.0000   2000.0000     77.5154
   638.7500    260.1115   2000.0000   2000.0000     78.2850
   639.0000     54.5490   2000.0000   2000.0000     79.3788
   639.2500     37.1552   2000.0000   2000.0000     80.3780
   639.5000     32.3281   2000.0000   2000.0000     82.4896
   639.7500     31.3494   2000.0000   2000.0000     84.1010
   640.0000     32.0273   2000.0000   2000.0000     86.0589
   640.2500     33.0001   2000.0000   2000.0000     86.6000
   640.5000     33.0069   2000.0000   2000.0000     85.8557
   640.7500     31.6876   2000.0000   2000.0000     84.4024
   641.0000     30.0256   2000.0000   2000.0000     81.4506
   641.2500     29.4111   2000.0000   2000.0000     79.5230
   641.5000     30.9032   2000.0000   2000.0000     77.4878
   641.7500     35.2689   2000.0000   2000.0000     76.9505
   642.0000     42.6209   2000.0000   2000.0000     77.6864
   642.2500     50.2475   2000.0000   2000.0000     79.4726
   642.5000     51.4607   2000.0000   2000.0000     84.4573
   642.7500     44.2298   2000.0000   2000.0000     89.2164
   643.0000     34.7218   2000.0000   2000.0000     97.6635
   643.2500     27.2505   2000.0000   2000.0000    103.3955
   643.5000     22.2876   2000.0000   2000.0000    110.7770
   643.7500     19.1802   2000.0000   2000.0000    114.4426
   644.0000     17.3077   2000.0000   2000.0000    118.4949
   644.2500     16.2365   2000.0000   2000.0000    120.9880
   644.5000     15.6687   2000.0000   2000.0000    125.2312
   644.7500     15.3935   2000.0000   2000.0000    128.1059
   645.0000     15.2663   2000.0000   2000.0000    131.2927
   645.2500     15.2008   2000.0000   2000.0000    132.2288
   645.5000     15.1593   2000.0000   2000.0000    131.9201
   645.7500     15.1355   2000.0000   2000.0000    130.8823
   646.0000     15.1345   2000.0000   2000.0000    128.8293
   646.2500     15.1555   2000.0000   2000.0000    127.6110
   646.5000     15.1843   2000.0000   2000.0000    126.5155
   646.7500     15.1968   2000.0000   2000.0000    126.2564
   647.0000     15.1711   2000.0000   2000.0000    126.2632
   647.2500     15.0986   2000.0000   2000.0000    126.4097
   647.5000     14.9852   2000.0000   2000.0000    126.8696
   647.7500     14.8433   2000.0000   2000.0000    127.3464
   648.0000     14.6820   2000.0000   2000.0000    127.9900
   648.2500     14.5052   2000.0000   2000.0000    128.0815
   648.5000     14.3161   2000.0000   2000.0000    127.7385
   648.7500     14.1217   2000.0000   2000.0000    127.7423
   649.0000     13.9335   2000.0000   2000.0000    129.4097
   649.2500     13.7644   2000.0000   2000.0000    131.9919
   649.5000     13.6234   2000.0000   2000.0000    137.4421
   649.7500     13.5129   2000.0000   2000.0000    141.3360
   650.0000     13.4319   2000.0000   2000.0000    146.3857
   650.2500     13.3819   2000.0000   2000.0000    148.7737
   650.5000     13.3702   2000.0000   2000.0000    150.2943
   650.7500     13.4057   2000.0000   2000.0000    149.7318
   651.0000     13.4893   2000.0000   2000.0000    146.8127
   651.2500     13.6069   2000.0000   2000.0000    144.0487
   651.5000     13.7308   2000.0000   2000.0000    139.9595
   651.7500     13.8281   2000.0000   2000.0000    138.0233
   652.0000     13.8713   2000.0000   2000.0000    137.2537
   652.2500     13.8447   2000.0000   2000.0000    138.2196
   652.5000     13.7470   2000.0000   2000.0000    140.8302
   652.7500     13.5896   2000.0000   2000.0000    142.3423
   653.0000     13.3934   2000.0000   2000.0000    142.9686
   653.2500     13.1834   2000.0000   2000.0000    142.2292
