~Version Information
 VERS.                2.0:  CWLS LOG ASCII STANDARD -VERSION 2.0
 WRAP.                 NO:  ONE LINE PER DEPTH STEP
~WELL INFORMATION BLOCK
#MNEM.UNIT       DATA		            DESCRIPTION OF MNEMONIC
#---------    -------------            ------------------------
 STRT.FT  0.500                          :START DEPTH
 STOP.FT  1812.700                       :STOP DEPTH
 STEP.FT  0.100                          :STEP    UP_HOLE  
 NULL.    -999.25                        :NULL VALUE
 COMP.              EL PASO PRODUCTIONS  :COMPANY
 WELL.                     COREHOLE #38  :WELL
 FLD .                 PURGATOIRE RIVER  :FIELD
 LOC .      15   35S   65W               :LOCATION
 CNTY.                           COLFAX  :COUNTY
 STAT.                     NM            :STATE
 CTRY.                                   :
 SRVC.     O'DRISCOLL                    :SERVICE COMPANY
 DATE.   04/28/05                        :LOG DATE
 API .                                   :API NUMBER
 LIC .                                   :LICENSE NUMBER
~Curve Information Block
#MNEM.UNIT      API CODE     Curve Description
#---------    -------------  ------------------------
 DEPT     .FT        00 001 00 00          :  1  DEPTH   
 GAMMA    .API-GR    00 310 00 00          :  2                GAMMA
 TEMP     .DEG F     00 660 00 00          :  3                 TEMP
 RES(16N) .OHM-M     00 040 00 00          :  4             RES(16N)
 RES(64N) .OHM-M     00 060 00 00          :  5             RES(64N)
 RES      .OHM       00 000 00 00          :  6                  RES
 LATERAL  .OHM-M     00 070 00 00          :  7              LATERAL
 NEUTRON  .API-N     00 000 00 00          :  8              NEUTRON
 POR(NEU) .PERCENT   00 330 00 00          :  9             POR(NEU)
 SANGB    .DEG       00 631 00 00          : 10                SANGB
 DEL_TEMP .DEG F     00 000 00 00          : 11             DEL_TEMP
 SANG     .DEG       00 620 00 00          : 12                 SANG
 SP       .MV        00 010 00 00          : 13                   SP
 TIME     .MINUTES   00 000 00 00          : 14                 TIME
~Parameter Information Block
#MNEM.UNIT   Information     Description
#---------- ---------------  ------------------------
 FILE.      ORIGINAL           :File Type
 FIID.      9057A              :File Type Identifier
 VERS.      3.58G              :System Version
 SER .      1                  :System Serial Number
 TRUK.      .498775            :Truck Calibration Number
 TOOL.        1061             :Tool Serial Number
 TIME.      1335               :Time    HrHrMinMin
 LAT .       36 59'            :Latitude
 LON .       104 39'           :Longitude
 LMF .            GL           :Log Measured From
 DMF .            GL           :Driller Measured From
 PD  .            GL           :Permanent Data
 PDEV.                         :Elevation Permanent Data
 EKB .M                        :Elevation Kelly Bushing
 ELEV.DF                       :Elevation DF
 EGL .M        7777            :Elevation Ground Level
 DRDP.          1825           :Driller's Depth
 CASD.       10.               :Casing Diameter
 CASB.           300           :Casing Bottom
 CASX.         STEEL           :Casing Type
 CAST.                         :Casing Thickness
 TNOC.                         :Time Circulation Stopped
 LOGU.        108              :Logging Unit
 RECB.           R.SIPES       :Recorded By
 OSR1.          9139           :Other Services
 OSR2.                         :Other Services
 OSR3.                         :Other Services
 BS  .MM         3.5           :Bit Size
 MST .                         :Mean Surface Temperature
 TGRD.                         :Temperature Gradiant
 MAGN.            12           :Magnetic Declination
 MDEN.       2.7               :Density Matrix
 MATR.      SANDSTONE          :Neutron Matrix
 DTMT.            54           :Delta T Matrix
 DTFL.                         :Delta T Fluid
 MUDS.                         :Mud Sample Source
 MRS .                         :Mud Resistivity
 MTP .                         :Mud Temperature
 MFRS.                         :Resistivity Mud Filtrate
 MFTP.                         :Temperature Mud Filtrate
 MCRS.                         :Resistivity Mud Cake
 MCTP.                         :Temperature Mud Cake
 FTYP.                         :Fluid Type
 FD  .K/M3                     :Fluid Density
 DFV .S                        :Fluid Viscosity
 FPH .                         :Fuild PH
 ELCO.       50000             :Electron Cutoff
~Other Information
#MNEM.UNIT  Information      Description
#---------- ---------------  ------------------------
# -------------------------- 
~A DEPTH  GAMMA    TEMP  RES(16N) RES(64N) RES      LATERAL  NEUTRON  POR(NEU) SANGB  DEL_TEMP SANG   SP    TIME    
# ...
 367.100    102.7  57.4      4.5      7.7     13.4      3.0    770.9  42.3  331.91 -0.02  3.37  -1319.6 0.20000 
 367.200    106.4  57.4      3.9      7.7     13.5      2.4    775.6  42.6  331.91 0.00  3.37  -1319.6 0.10000 
 367.300    108.5  57.4     -0.7      8.1     13.9     -3.1    780.3  43.2  359.29 0.00  3.37  -1319.6 0.20000 
 367.400    107.5  57.4      0.8      8.2     13.8     -1.8    741.2  43.7  348.87 0.00  3.39  -1319.7 0.20000 
 367.500    108.0  57.4      4.2      8.5     13.4      3.9    722.5  44.3  347.08 -0.03  3.36  -1319.7 0.20000 
 367.600    109.0  57.4      4.3      9.1     13.4      1.8    688.1  44.3  347.08 0.07  3.36  -1319.7 0.20000 
 367.700    111.2  57.4      1.8      9.7     13.9     -0.6    692.7  44.6  347.06 -0.04  3.36  -1319.7 0.20000 
 367.800    109.6  57.4      0.9     10.3     13.6     -1.2    675.5  45.2  297.63 0.06  3.36  -1319.8 0.19900 
 367.900    108.0  57.4      2.4     10.4     13.2      1.0    669.3  45.7  295.91 0.00  3.44  -1319.8 0.20000 
 368.000    110.6  57.4      2.7     10.4     13.3      0.5    652.1  46.4  294.33 -0.06  3.41  -1319.8 0.20000 
 368.100    112.8  57.4      0.4     10.6     13.3     -3.5    655.2  47.3  294.51 -0.02  3.41  -1319.8 0.10000 
 368.200    113.8  57.4     -1.0     10.8     13.5     -5.6    647.4  48.3  345.28 0.13  3.41  -1319.8 0.20100 
 368.300    115.4  57.4      0.5     10.9     13.9     -4.7    642.7  49.0  10.64  -0.04  3.47  -1320.0 0.19900 
 368.400    114.9  57.4      2.1     10.5     13.4     -2.7    649.0  50.0   9.31  -0.17  3.45  -1320.0 0.20100 
 368.500    116.5  57.4     -1.0     10.7     14.0     -6.7    656.8  50.0   9.31  0.09  3.45  -1320.0 0.19900 
 368.600    117.5  57.4     -1.0     11.0     14.0     -4.5    656.8  50.9  351.01 0.04  3.45  -1320.0 0.20000 
 368.700    120.2  57.4      0.6     11.4     14.1     -2.1    614.6  51.1  343.89 -0.01  3.51  -1319.5 0.20000 
 368.800    123.9  57.4      1.1     11.6     13.2     -1.7    591.1  50.8  342.83 -0.01  3.50  -1319.5 0.20000 
 368.900    121.2  57.4      1.7     11.4     13.8     -1.4    563.0  51.1  342.83 -0.04  3.50  -1319.5 0.20000 
 369.000    122.3  57.4     -1.5     11.4     14.0     -4.2    536.4  51.3  291.32 0.03  3.50  -1319.5 0.20000 
 369.100    118.6  57.4      1.0     11.3     14.1     -0.8    533.2  53.8  274.54 -0.03  3.49  -1319.5 0.10100 
 369.200    123.3  57.4      2.9     11.0     13.6      0.2    536.4  54.5  271.23 0.03  3.45  -1319.5 0.20000 
 369.300    124.9  57.4      0.9     10.7     13.5     -2.8    556.7  54.6  271.23 0.01  3.45  -1319.5 0.20000 
 369.400    120.2  57.4     -1.5     10.7     13.7     -6.5    592.7  55.3  293.96 -0.01  3.45  -1319.5 0.20000 
 369.500    123.9  57.4     -1.3     10.7     13.8     -5.8    598.9  55.2  341.26 0.04  3.50  -1319.5 0.20000 
 369.600    126.0  57.4      1.8     10.5     13.5     -0.7    591.1  55.6  339.00 -0.04  3.54  -1319.8 0.20000 
 369.700    129.2  57.4      0.9     10.7     13.3     -3.0    563.0  54.8  339.00 0.03  3.54  -1319.8 0.20000 
 369.800    137.6  57.4     -2.0     11.1     13.5     -7.5    537.9  53.9  339.01 -0.06  3.54  -1319.8 0.20000 
 369.900    136.6  57.4     -0.4     11.3     13.0     -4.7    527.0  54.0   4.79  0.04  3.54  -1319.8 0.20000 
 370.000    139.2  57.4      1.6     11.4     12.5     -1.7    522.3  53.8   7.46  -0.01  3.53  -1319.9 0.19900 
 370.100    131.3  57.4      1.7     11.4     12.1     -0.9    534.8  53.6   5.09  0.00  3.54  -1319.9 0.10000 
 370.200    134.5  57.4     -0.6     11.3     12.1     -3.4    550.4  54.2   5.11  -0.04  3.54  -1319.9 0.20000 
 370.300    141.3  57.4      0.7     11.4     11.6     -1.5    592.7  55.2  336.72 0.01  3.54  -1319.9 0.20000 
 370.400    133.4  57.4      3.3     11.5     11.3      0.1    602.0  55.1  318.25 0.03  3.51  -1319.7 0.20000 
 370.500    135.5  57.4      3.8     11.3     10.4      0.8    597.4  54.3  316.31 0.00  3.53  -1319.7 0.20000 
 370.600    131.3  57.4     -0.4     11.1     10.0     -4.1    600.5  52.5  316.31 -0.01  3.53  -1319.7 0.20000 
 370.700    129.7  57.4     -0.2     11.0      9.8     -4.2    620.8  52.2  310.83 -0.01  3.53  -1319.7 0.20000 
 370.800    129.2  57.4      2.6     11.0     11.8     -0.6    581.7  51.8  330.68 0.03  3.55  -1319.8 0.20000 
 370.900    131.3  57.4      1.8     10.9     10.2     -1.6    544.2  51.9  330.05 -0.03  3.56  -1319.9 0.20000 
 371.000    138.2  57.5      0.5     10.6     10.2     -3.6    558.3  51.5  329.92 0.04  3.56  -1319.9 0.20000 
 371.100    138.7  57.5     -2.1     10.8     10.2     -6.3    580.2  51.4   5.81  -0.10  3.56  -1319.9 0.20000 
 371.200    135.5  57.5      0.9     10.5     10.4     -2.3    577.0  52.5  18.57  0.09  3.53  -1319.8 0.20000 
 371.300    137.6  57.5      2.4     10.2      9.5     -0.4    583.3  53.2  17.21  -0.04  3.55  -1319.8 0.20000 
 371.400    137.1  57.5      2.5     10.1      9.8     -0.4    633.3  52.8  17.21  -0.03  3.55  -1319.8 0.20000 
 371.500    139.2  57.5      0.1      9.9      9.6     -3.5    620.8  52.5  21.23  0.04  3.55  -1319.8 0.20000 
 371.600    138.7  57.5      2.1      9.7      9.9      0.2    614.6  52.5  317.17 0.01  3.55  -1319.8 0.10000 
 371.700    141.9  57.5      3.9      9.5     10.0      3.9    600.5  51.9  316.37 0.08  3.55  -1320.1 0.20100 
 371.800    145.0  57.4      4.1      9.1     10.9      2.0    586.4  51.3  316.37 -0.13  3.55  -1320.1 0.19900 
 371.900    147.2  57.4      0.7      9.0     10.3     -2.3    544.2  51.7  316.67 0.08  3.55  -1320.1 0.20000 
 372.000    145.6  57.5      0.8      9.0     11.2     -1.5    556.7  52.5  253.36 -0.07  3.55  -1320.1 0.20000 
 372.100    149.8  57.5      2.9      8.8     11.0      1.1    550.4  52.7  253.13 -0.01  3.53  -1319.6 0.20000 
 372.200    151.4  57.5      1.4      8.5     10.9     -1.4    567.6  53.2  253.13 0.01  3.53  -1319.6 0.20000 
 372.300    146.1  57.5     -0.6      8.4     11.5     -3.7    602.0  55.2  253.05 0.03  3.53  -1319.6 0.10000 
 372.400    146.1  57.5      0.4      8.5     12.0     -2.6    614.6  54.8  326.35 -0.07  3.53  -1319.6 0.20000 
 372.500    147.2  57.5      2.1      9.0     11.8      0.4    602.0  57.8   7.85  0.08  3.54  -1319.7 0.20000 
 372.600    140.8  57.5      2.5      9.0     11.7      0.3    578.6  59.3   7.54  -0.05  3.54  -1319.8 0.20000 
 372.700    142.9  57.5      1.4      8.8     11.0     -1.5    567.6  60.2   7.52  -0.05  3.54  -1319.8 0.20000 
 372.800    135.0  57.5     -0.2      9.1     11.6     -2.8    531.7  62.0   1.06  0.09  3.54  -1319.8 0.20000 
 372.900    131.8  57.5      0.9      9.5     11.7     -1.0    497.3  65.1  25.38  0.01  3.55  -1319.7 0.20000 
 373.000    124.4  57.5      2.3      9.8     11.0     -0.0    511.4  66.5  25.53  0.01  3.56  -1319.5 0.20000 
 373.100    122.8  57.5      1.4     10.2     11.3     -1.2    480.1  66.5  25.53  -0.01  3.56  -1319.5 0.20000 
 373.200    124.9  57.5     -0.9     10.6     11.1     -5.2    453.5  67.2  37.57  -0.04  3.56  -1319.5 0.10000 
 373.300    120.2  57.5      1.0     11.2     11.2     -1.6    439.4  67.9  335.84 -0.01  3.55  -1319.6 0.20000 
 373.400    120.7  57.5      2.7     11.6     10.3      1.0    434.7  68.6  335.38 0.04  3.53  -1319.7 0.20000 
 373.500    117.5  57.5      2.6     12.0     10.0     -0.2    380.0  68.9  335.38 0.01  3.53  -1319.7 0.20000 
 373.600    110.6  57.5     -1.2     12.4      9.8     -6.8    392.5  69.9  332.72 -0.02  3.53  -1319.7 0.20000 
 373.700    119.6  57.5     -2.5     12.8     10.2     -8.3    426.9  69.4  307.47 0.04  3.53  -1319.6 0.20000 
 373.800    126.0  57.5      0.5     13.2      9.7     -4.1    448.8  68.9  306.67 -0.08  3.51  -1319.6 0.20000 
 373.900    130.8  57.5      1.5     13.6      9.5     -3.0    466.0  69.3  306.17 0.06  3.52  -1319.6 0.20000 
 374.000    129.7  57.5     -1.0     13.6      9.2     -6.8    492.6  68.1  303.96 0.04  3.52  -1319.6 0.20000 
 374.100    132.3  57.5     -1.4     13.6      9.2     -7.1    503.5  66.3  347.08 -0.04  3.52  -1319.7 0.10000 
 374.200    132.3  57.5      0.8     13.8      9.8     -3.9    475.4  66.3  357.76 -0.03  3.46  -1319.7 0.20000 
