~Version Information
VERS.                      2.0: CWLS Log ASCII Standard - VERSION 2.0
WRAP.                       NO: One line per depth step
~Well Information Block
STRT.FT                -8.5000: 
STOP.FT              1968.0000: 
STEP.FT                 0.2500: 
NULL.                -999.2500: 
COMP.          Pioneer Natural Resources: COMPANY
WELL.           Firehawk 34-26: WELL
FLD.           Purgatorie River: FIELD
LOC.           1196' FSL & 1595' FEL--: LOCATION
STAT.                       CO: State
CNTY.               Las Animas: COUNTY
CTRY. USA : Country
SECT. 26 : Section
TOWN. 32S : Township
RANG. 66W : Range 
SRVC.          Patterson Wireline: SERVICE COMPANY
DATE.          Tue Oct 25 14:45:07 2005: LOG DATE
API.           05 071 08389 00: UNIQUE WELL ID
~Curve Information Block
DEPT.FT            0 000 00 00: Depth
CCL.                          : Casing Collar Locator
TT3.usec                      : CBL 3' Travel Time
AMP3.mV                       : CBL 3' Amplitude
GR.GAPI                       : Gamma Ray
~Parameter Information Block
~A  Depth       CCL         TT3         AMP3         GR     
# ...
  1532.5000      0.0000    430.5002      5.6221    111.4584
  1532.7500      0.0000    454.4695      5.9761    116.8399
  1533.0000      0.0000    471.5787      6.3605    123.1905
  1533.2500      0.0000    475.1503      6.7027    129.7898
  1533.5000      0.0000    466.4717      6.9537    134.5313
  1533.7500      0.0000    452.5593      7.0909    136.0502
  1534.0000      0.0000    439.9393      7.1105    135.2863
  1534.2500      0.0000    431.3935      7.0199    134.4662
  1534.5000      0.0000    426.7053      6.8394    134.7732
  1534.7500      0.0000    424.4931      6.6141    135.5448
  1535.0000      0.0000    423.4343      6.4139    135.9539
  1535.2500      0.0000    422.7840      6.3067    136.7847
  1535.5000      0.0000    422.4097      6.3178    139.5145
  1535.7500      0.0000    422.7069      6.4126    143.8429
  1536.0000      0.0000    424.9294      6.5233    147.4401
  1536.2500      0.0000    431.8191      6.5952    148.5031
  1536.5000      0.0000    447.3010      6.6090    147.6664
  1536.7500      0.0000    473.3149      6.5591    147.0288
  1537.0000      0.0000    504.9933      6.4189    148.1378
  1537.2500      0.0000    530.7124      6.1420    151.2120
  1537.5000      0.0000    541.4145      5.7071    155.4875
  1537.7500      0.0000    540.8453      5.1620    159.7542
  1538.0000      0.0000    543.4233      4.6215    162.8776
  1538.2500      0.0000    561.3202      4.2101    164.0182
  1538.5000      0.0000    596.2592      3.9887    162.3963
  1538.7500      0.0000    642.8854      3.9334    157.3473
  1539.0000      0.0000    695.2036      3.9945    149.2710
  1539.2500      0.0000    747.9765      4.1509    140.5211
  1539.5000      0.0000    794.9420      4.3786    134.7399
  1539.7500      0.0000    829.2438      4.5986    134.4904
  1540.0000      2.0000    847.3769      4.7072    139.1646
  1540.2500      0.0000    852.1744      4.6637    145.4989
  1540.5000      0.0000    849.3035      4.5343    150.3008
  1540.7500      0.0000    840.0558      4.4470    152.2722
  1541.0000      0.0000    820.7280      4.4855    151.7187
  1541.2500      0.0000    790.1142      4.6122    149.8958
  1541.5000      0.0000    753.6968      4.7076    148.7258
  1541.7500      0.0000    718.2438      4.7047    149.7961
  1542.0000      0.0000    685.0290      4.6703    153.1099
  1542.2500      0.0000    650.5289      4.7290    157.1306
  1542.5000      0.0000    612.7137      4.9191    159.8248
  1542.7500      0.0000    574.9601      5.1506    159.3836
  1543.0000      0.0000    543.7048      5.3015    154.6395
  1543.2500      0.0000    523.3616      5.3326    145.7804
  1543.5000      0.0000    514.2761      5.3028    134.9002
  1543.7500      0.0000    514.7108      5.2923    125.2098
  1544.0000      0.0000    523.2104      5.3325    119.1062
  1544.2500      0.0000    538.4396      5.4015    116.7996
  1544.5000      0.0000    556.8957      5.4645    116.5506
  1544.7500      0.0000    571.4112      5.5049    115.9582
  1545.0000      0.0000    574.4651      5.5265    113.5020
  1545.2500      0.0000    566.0935      5.5405    109.6554
  1545.5000      0.0000    557.4040      5.5551    106.7206
  1545.7500      0.0000    561.5824      5.5692    107.2033
  1546.0000      0.0000    580.2740      5.5630    111.9682
  1546.2500      0.0000    601.5368      5.4916    119.5716
  1546.5000      0.0000    610.6088      5.3039    127.0701
  1546.7500      0.0000    599.9651      4.9917    131.7571
  1547.0000      0.0000    571.4783      4.6309    132.8614
  1547.2500      0.0000    534.4901      4.3604    132.0680
  1547.5000      0.0000    502.3230      4.2946    132.4717
  1547.7500      0.0000    486.3545      4.4418    136.5119
  1548.0000      0.0000    490.0565      4.7100    144.0361
  1548.2500      0.0000    508.2449      4.9946    152.0434
  1548.5000      0.0000    532.6206      5.2487    156.8499
  1548.7500      0.0000    558.4458      5.4640    156.8758
  1549.0000      0.0000    585.7567      5.6077    153.0339
  1549.2500      0.0000    614.6563      5.6103    146.7425
  1549.5000      0.0000    641.6703      5.4254    138.6909
  1549.7500      0.0000    661.9517      5.0964    129.6400
  1550.0000      0.0000    672.6888      4.7505    121.2209
  1550.2500      0.0000    672.3125      4.5174    115.2104
  1550.5000      0.0000    658.8000      4.4448    112.4329
  1550.7500      0.0000    632.1266      4.4898    112.8106
  1551.0000      0.0000    597.6212      4.5778    116.1020
  1551.2500      0.0000    564.0737      4.6612    121.8890
  1551.5000      0.0000    538.0463      4.7303    128.8187
  1551.7500      0.0000    520.9993      4.7939    134.5674
  1552.0000      0.0000    511.1453      4.8606    137.2076
  1552.2500      0.0000    506.5587      4.9298    136.6161
  1552.5000      0.0000    506.7768      4.9877    134.2197
  1552.7500      0.0000    513.0773      5.0095    131.4820
  1553.0000      0.0000    527.7511      4.9766    128.9722
  1553.2500      0.0000    552.1350      4.8978    126.6239
  1553.5000      0.0000    584.1713      4.8085    124.2169
  1553.7500      0.0000    617.8855      4.7447    121.5783
  1554.0000      0.0000    646.2500      4.7174    118.7216
  1554.2500      0.0000    665.2813      4.7116    115.8927
  1554.5000      0.0000    675.5038      4.7072    113.3405
  1554.7500      0.0000    679.9841      4.6957    111.0006
  1555.0000      0.0000    681.6567      4.6786    108.5332
  1555.2500      0.0000    682.1686      4.6548    105.7059
  1555.5000      0.0000    682.1125      4.6140    102.6582
  1555.7500      0.0000    681.6320      4.5455     99.8372
  1556.0000      0.0000    680.7543      4.4530     97.8503
  1556.2500      0.0000    679.3089      4.3569     97.2965
  1556.5000      0.0000    676.5856      4.2786     98.2497
  1556.7500      0.0000    671.1471      4.2267     99.6505
  1557.0000      0.0000    661.2651      4.2010     99.5333
  1557.2500      0.0000    645.7970      4.2068     96.3309
  1557.5000      0.0000    624.6057      4.2523     90.0540
  1557.7500      0.0000    598.3985      4.3325     82.2928
  1558.0000      0.0000    569.1752      4.4255     75.4887
  1558.2500      0.0000    540.9867      4.5099     72.1748
  1558.5000      0.0000    518.5932      4.5802     73.8725
  1558.7500      0.0000    504.1504      4.6428     79.7140
  1559.0000      0.0000    495.7242      4.7004     86.4115
  1559.2500      0.0000    489.4055      4.7482     90.4539
  1559.5000      0.0000    482.4699      4.7819     90.5588
  1559.7500      0.0000    474.6974      4.8004     87.8998
  1560.0000      0.0000    467.4683      4.8010     84.5327
  1560.2500      0.0000    462.0754      4.7773     81.9858
  1560.5000      0.0000    458.7889      4.7230     80.6583
  1560.7500      0.0000    457.0693      4.6364     79.8081
  1561.0000      0.0000    456.2741      4.5221     78.1112
  1561.2500      0.0000    456.2170      4.3948     74.5469
  1561.5000      0.0000    457.4849      4.2809     69.0874
  1561.7500      0.0000    461.4691      4.2078     62.8962
  1562.0000      0.0000    469.6928      4.1895     57.8457
  1562.2500      0.0000    482.3836      4.2195     55.5777
  1562.5000      0.0000    497.8605      4.2760     56.7128
  1562.7500      0.0000    514.3927      4.3358     60.5838
  1563.0000      0.0000    532.3671      4.3828     65.6093
  1563.2500      0.0000    552.5001      4.4077     70.2119
  1563.5000      0.0000    571.5994      4.4014     73.6317
  1563.7500      0.0000    582.8233      4.3570     75.8358
  1564.0000      0.0000    581.9569      4.2769     76.8894
  1564.2500      0.0000    572.7497      4.1771     76.8413
  1564.5000      0.0000    565.2615      4.0847     76.1181
  1564.7500      0.0000    568.6698      4.0300     75.5069
  1565.0000      0.0000    585.0608      4.0325     75.5218
  1565.2500      0.0000    609.3732      4.0868     76.0133
  1565.5000      0.0000    634.2974      4.1641     76.5620
  1565.7500      0.0000    654.7231      4.2319     77.1073
