~Version Information
VERS.                      2.0: CWLS Log ASCII Standard - VERSION 2.0
WRAP.                       NO: One line per depth step
~Well Information Block
STRT.FT                -9.0000: 
STOP.FT              2518.0000: 
STEP.FT                 0.2500: 
NULL.                -999.2500: 
COMP.          Petrogulf Corporation: COMPANY
WELL.            Montoya 7-12V: WELL
FLD.           Purgatorie River: FIELD
LOC.           1764' FNL & 728' FWL: LOCATION
CNTY.               Las Animas: COUNTY
SRVC.                         : SERVICE COMPANY
DATE.          Mon Mar 08 16:11:04 2004: LOG DATE
UWI.           05-071-07887-00: UNIQUE WELL ID
STAT.                 Colorado: STATE
~Curve Information Block
DEPT.FT            0 000 00 00: Depth
GR.GAPI                       : Gamma Ray
CCL.                          : Casing Collar Locator
TT3.usec                      : CBL 3' Travel Time
AMP3.mV                       : CBL 3' Amplitude
~Parameter Information Block
~A  Depth        GR         CCL         TT3         AMP3    
# ...
   996.0000    117.9013      0.0000    269.6255     71.5570
   996.2500    115.8132      0.0000    269.4688     71.5475
   996.5000    114.8693      0.0000    269.3745     71.5279
   996.7500    114.8108      0.0000    269.3542     71.5367
   997.0000    114.5559      0.0000    269.3670     71.5922
   997.2500    112.8528      0.0000    269.4329     71.6338
   997.5000    109.0139      0.0000    269.5161     71.5745
   997.7500    103.6127      0.0000    269.4941     71.4188
   998.0000     98.7236      0.0000    269.3594     71.2636
   998.2500     97.0638      0.0000    269.2559     71.1979
   998.5000    100.3222      0.0000    269.2652     71.2484
   998.7500    108.0810      0.0000    269.3182     71.3822
   999.0000    118.3758      0.0000    269.3594     71.5255
   999.2500    129.1990      0.0000    269.4318     71.6101
   999.5000    139.3497      0.0000    269.5160     71.6361
   999.7500    147.9011      0.0000    269.4941     71.6578
  1000.0000    153.3185      0.0000    269.3594     71.6822
  1000.2500    153.8048      0.0000    269.2558     71.6492
  1000.5000    149.0563      0.0000    269.2642     71.5375
  1000.7500    141.5379      0.0000    269.3107     71.4108
  1001.0000    135.2195      0.0000    269.3246     71.3470
  1001.2500    132.5006      0.0000    269.3310     71.3738
  1001.5000    132.6257      0.0000    269.3456     71.4663
  1001.7500    133.2625      0.0000    269.3660     71.5691
  1002.0000    133.0114      0.0000    269.4338     71.6252
  1002.2500    132.1026      0.0000    269.5237     71.6069
  1002.5000    131.4767      0.0000    269.5301     71.5436
  1002.7500    131.8556      0.0000    269.4688     71.4957
  1003.0000    133.2370      0.0000    269.4688     71.4742
  1003.2500    134.6302      0.0000    269.5301     71.4369
  1003.5000    134.5241      0.0000    269.5237     71.3657
  1003.7500    132.1396      0.0000    269.4338     71.2972
  1004.0000    128.0974      0.0000    269.3660     71.2888
  1004.2500    123.3780      0.0000    269.3456     71.3610
  1004.5000    117.7541      0.0000    269.3321     71.4709
  1004.7500    109.7914      0.0000    269.3321     71.5571
  1005.0000     98.5470      0.0000    269.3456     71.5820
  1005.2500     85.0258      0.0000    269.3660     71.5415
  1005.5000     71.9329      0.0000    269.4337     71.4791
  1005.7500     62.0067      0.0000    269.5226     71.4596
  1006.0000     56.3410      0.0000    269.5226     71.4818
  1006.2500     54.1230      0.0000    269.4338     71.4658
  1006.5000     53.8406      0.0000    269.3670     71.3674
  1006.7500     54.4238      0.0000    269.3532     71.2398
  1007.0000     55.2069      0.0000    269.3680     71.1665
  1007.2500     55.4925      0.0000    269.4414     71.1890
  1007.5000     54.7998      0.0000    269.5587     71.2753
  1007.7500     53.3229      0.0000    269.6330     71.3411
  1008.0000     51.6062      0.0000    269.6543     71.3460
  1008.2500     49.7346      0.0000    269.6680     71.3384
  1008.5000     47.2032      0.0000    269.6690     71.3557
  1008.7500     43.7535      0.0000    269.6619     71.3673
  1009.0000     40.0746      0.0000    269.6690     71.3499
  1009.2500     37.4538      0.0000    269.6680     71.3225
  1009.5000     36.9788      0.0000    269.6543     71.3073
  1009.7500     39.1824      0.0000    269.6331     71.3013
  1010.0000     43.8952      0.0000    269.5597     71.2862
  1010.2500     50.0212      0.0000    269.4489     71.2506
  1010.5000     55.7852      0.0000    269.4031     71.2041
  1010.7500     59.6647      0.0000    269.4561     71.1903
  1011.0000     61.1052      0.0000    269.5525     71.2537
  1011.2500     60.3772      0.0000    269.6330     71.3661
  1011.5000     58.1572      0.0000    269.6604     71.4429
  1011.7500     55.4572      0.0000    269.6532     71.4246
  1012.0000     53.4924      0.0000    269.6330     71.3181
  1012.2500     53.0658      0.0000    269.5597     71.1952
  1012.5000     54.0477      0.0000    269.4489     71.1281
  1012.7500     55.7314      0.0000    269.4030     71.1221
  1013.0000     57.6789      0.0000    269.4551     71.1348
  1013.2500     59.8836      0.0000    269.5449     71.1407
  1013.5000     62.1189      0.0000    269.5971     71.1676
  1013.7500     63.5990      0.0000    269.5521     71.2617
  1014.0000     63.5741      0.0000    269.4479     71.4092
  1014.2500     62.2028      0.0000    269.4030     71.5364
  1014.5000     60.6877      0.0000    269.4561     71.5780
  1014.7500     60.5058      0.0000    269.5525     71.5198
  1015.0000     62.5369      0.0000    269.6331     71.4065
  1015.2500     67.0025      0.0000    269.6615     71.3090
  1015.5000     74.0699      0.0000    269.6608     71.2832
  1015.7500     84.1906      0.0000    269.6690     71.3261
  1016.0000     97.5731      0.0000    269.6691     71.3744
  1016.2500    113.1504      0.0000    269.6619     71.4163
  1016.5000    128.2395      0.0000    269.6691     71.5142
  1016.7500    139.7406      0.0000    269.6691     71.6591
  1017.0000    146.0743      0.0000    269.6619     71.7615
  1017.2500    147.9883      0.0000    269.6691     71.7885
  1017.5000    147.6712      0.0000    269.6690     71.7824
  1017.7500    147.3508      0.0000    269.6608     71.7853
  1018.0000    148.3984      0.0000    269.6615     71.8100
  1018.2500    150.9802      0.0000    269.6330     71.8380
  1018.5000    154.2235      0.0000    269.5516     71.8293
  1018.7500    156.9033      0.0000    269.4496     71.7738
  1019.0000    158.0201      0.0000    269.3760     71.7094
  1019.2500    156.8651      0.0000    269.3868     71.6373
  1019.5000    153.0158      0.0000    269.5216     71.4001
  1019.7500    146.5795      0.0000    269.8497     70.6158
  1020.0000    138.2484      0.0000    270.5167     68.7928
  1020.2500    128.9524      0.0000    271.6029     65.6052
  1020.5000    119.7073      0.0000    272.9706     61.2628
  1020.7500    111.9503      0.0000    274.3095     56.9217
  1021.0000    107.6324      0.0000    275.3427     54.1043
  1021.2500    108.3188      0.0000    275.9869     53.1432
  1021.5000    114.0420     -5.0000    276.3119     53.0875
  1021.7500    123.2447     -5.0000    276.4224     53.0363
  1022.0000    133.8492      0.0000    276.4095     52.6826
  1022.2500    144.0906      0.0000    276.3515     51.9592
  1022.5000    152.4645      0.0000    276.2776     50.8949
  1022.7500    157.5128      0.0000    276.0347     50.1526
  1023.0000    158.0997      0.0000    275.2964     51.3478
  1023.2500    154.1208      0.0000    273.9083     55.4709
  1023.5000    147.1728      0.0000    272.2381     61.0493
  1023.7500    140.3513      0.0000    270.9309     65.5487
  1024.0000    136.7941      0.0000    270.2616     67.9902
  1024.2500    138.0734      0.0000    270.0154     68.9792
  1024.5000    143.8369      0.0000    269.8898     69.3504
  1024.7500    152.3558      0.0000    269.7515     69.5194
  1025.0000    160.8458      0.0000    269.6237     69.5017
  1025.2500    165.8583      0.0000    269.5664     69.2624
  1025.5000    164.7590      0.0000    269.5877     69.0176
  1025.7500    157.5015      0.0000    269.6340     69.0705
  1026.0000    146.6453      0.0000    269.6330     69.4602
  1026.2500    135.3540      0.0000    269.5790     69.9783
  1026.5000    125.5940      0.0000    269.5227     70.4401
  1026.7500    118.0523      0.0000    269.4773     70.8103
  1027.0000    112.9912      0.0000    269.4210     71.1567
  1027.2500    110.8016      0.0000    269.3671     71.5631
  1027.5000    112.0950      0.0000    269.3670     72.0290
  1027.7500    117.3791      0.0000    269.4200     72.4058
  1028.0000    126.2729      0.0000    269.4706     72.4941
  1028.2500    136.9948      0.0000    269.4933     72.2610
  1028.5000    147.0076      0.0000    269.4991     71.8749
  1028.7500    154.3383      0.0000    269.5009     71.4961
  1029.0000    158.2912      0.0000    269.5067     71.1758
  1029.2500    159.2331      0.0000    269.5294     70.9425
