~Version Information
VERS.                      2.0: CWLS Log ASCII Standard - VERSION 2.0
WRAP.                       NO: One line per depth step
~Well Information Block
STRT.FT                -7.0000: 
STOP.FT               867.2500: 
STEP.FT                 0.2500: 
NULL.                -999.2500: 
COMP.          Pioneer Natural Resources: COMPANY
WELL.          Claim Jumper 41-22: WELL
FLD.           Purgatorie River: FIELD
LOC.           1120' FNL & 977' FEL--: LOCATION
PROV.                       CO: PROVINCE
CNTY.               Las Animas: COUNTRY
SRVC.          Patterson Wireline: SERVICE COMPANY
DATE.          Mon Jun 27 12:47:30 2005: LOG DATE
UWI.           05 071 08405 00: UNIQUE WELL ID
~Curve Information Block
DEPT.FT            0 000 00 00: Depth
CCL.                          : Casing Collar Locator
TT3.usec                      : CBL 3' Travel Time
AMP3.mV                       : CBL 3' Amplitude
GR.GAPI                       : Gamma Ray
~Parameter Information Block
~A  Depth       CCL         TT3         AMP3         GR     
# ...
   261.0000      0.0000    744.8698     10.3838     89.5546
   261.2500      0.0000    730.1142     10.4720     85.9625
   261.5000      0.0000    725.8215     10.5910     81.5268
   261.7500      0.0000    730.8120     10.7349     76.3373
   262.0000      0.0000    742.0259     10.8773     72.0529
   262.2500      0.0000    754.9399     10.9825     70.4714
   262.5000      0.0000    764.5096     11.0274     71.9623
   262.7500      0.0000    767.2928     11.0121     75.4316
   263.0000      0.0000    763.4705     10.9549     79.6520
   263.2500      0.0000    757.0977     10.8786     84.3035
   263.5000      0.0000    753.9872     10.7972     89.5570
   263.7500      0.0000    757.8377     10.7110     95.0597
   264.0000      0.0000    766.6085     10.6153     99.8712
   264.2500      0.0000    772.7296     10.5110    103.2172
   264.5000      0.0000    769.2049     10.4071    104.8698
   264.7500      0.0000    757.0377     10.3137    104.9065
   265.0000      0.0000    745.4218     10.2347    103.4745
   265.2500      0.0000    743.6947     10.1689    100.7809
   265.5000      0.0000    753.6475     10.1204     97.0847
   265.7500      0.0000    769.6982     10.1026     92.6339
   266.0000      0.0000    785.2996     10.1291     87.6796
   266.2500      0.0000    798.1171     10.1997     82.6011
   266.5000      0.0000    809.0010     10.3016     78.0097
   266.7500      0.0000    817.3162     10.4248     74.7171
   267.0000      0.0000    819.5976     10.5666     73.5323
   267.2500      0.0000    813.6832     10.7193     74.9114
   267.5000      0.0000    802.1403     10.8578     78.5258
   267.7500      0.0000    789.6116     10.9489     82.9570
   268.0000      0.0000    778.1606     10.9743     86.1598
   268.2500      0.0000    767.3753     10.9434     87.0381
   268.5000      0.0000    757.7579     10.8839     86.6392
   268.7500      0.0000    751.7523     10.8194     87.0214
   269.0000      0.0000    751.6011     10.7552     88.7757
   269.2500      0.0000    757.3428     10.6788     90.3184
   269.5000      0.0000    766.5103     10.5756     89.8559
   269.7500      0.0000    775.4960     10.4441     87.5130
   270.0000      0.0000    781.9676     10.2927     85.1657
   270.2500      0.0000    786.6678     10.1210     84.4299
   270.5000      0.0000    792.8573      9.9140     85.2883
   270.7500      0.0000    803.3928      9.6629     86.7717
   271.0000      0.0000    817.7329      9.3882     88.3512
   271.2500      0.0000    831.9225      9.1339     90.1441
   271.5000      0.0000    841.8516      8.9417     92.0724
   271.7500      0.0000    846.3934      8.8273     93.2890
   272.0000      0.0000    847.3681      8.7764     92.4384
   272.2500      0.0000    846.7233      8.7576     88.7433
   272.5000      0.0000    843.8945      8.7401     83.1183
   272.7500      0.0000    836.2178      8.7041     77.7789
   273.0000      0.0000    822.0136      8.6434     74.3981
   273.2500      0.0000    803.2636      8.5612     72.9864
   273.5000      0.0000    785.0980      8.4644     72.5269
   273.7500      0.0000    772.1781      8.3606     72.1367
   274.0000      0.0000    765.0323      8.2619     71.6319
   274.2500      0.0000    760.0098      8.1858     71.3559
   274.5000      0.0000    753.0468      8.1472     71.4691
   274.7500      0.0000    743.2384      8.1475     71.5040
   275.0000      0.0000    733.0067      8.1727     70.9731
   275.2500      0.0000    725.7542      8.2019     70.2364
   275.5000      0.0000    723.3992      8.2172     70.0852
   275.7500      0.0000    725.1875      8.2104     70.5000
   276.0000      0.0000    728.3154      8.1829     70.4922
   276.2500      0.0000    729.8587      8.1456     69.3271
   276.5000      0.0000    728.5396      8.1169     67.4764
   276.7500      0.0000    725.3412      8.1155     66.2607
   277.0000      0.0000    722.7629      8.1479     66.8149
   277.2500      0.0000    722.9918      8.2050     69.4200
   277.5000      0.0000    726.2170      8.2713     73.3656
   277.7500      0.0000    730.6910      8.3343     77.1100
   278.0000      0.0000    734.3399      8.3822     78.9459
   278.2500      0.0000    736.0292      8.3991     78.1657
   278.5000      0.0000    735.6125      8.3716     75.5408
   278.7500      0.0000    733.6323      8.3034     72.3401
   279.0000      0.0000    731.2867      8.2192     69.2323
   279.2500      0.0000    730.0651      8.1497     66.5285
   279.5000      0.0000    730.7450      8.1118     64.8644
   279.7500      0.0000    732.7873      8.1019     64.9069
   280.0000      0.0000    734.9597      8.1036     66.5985
   280.2500      0.0000    736.4158      8.1026     69.1762
   280.5000      0.0000    737.0685      8.0947     71.6994
   280.7500      0.0000    737.2380      8.0851     73.2203
   281.0000      0.0000    737.2377      8.0818     72.9039
   281.2500      0.0000    737.2267      8.0886     70.5760
   281.5000      0.0000    737.2477      8.1009     67.0136
   281.7500      0.0000    737.2985      8.1059     63.5380
   282.0000      0.0000    737.3712      8.0936     61.4994
   282.2500      0.0000    737.4490      8.0693     61.9000
   282.5000      0.0000    737.5136      8.0520     64.7092
   282.7500      0.0000    737.5403      8.0570     68.3696
   283.0000      0.0000    737.4394      8.0877     70.5850
   283.2500      0.0000    736.9606      8.1444     70.0599
   283.5000      0.0000    735.7554      8.2310     67.5039
   283.7500      0.0000    733.7803      8.3466     64.9231
   284.0000      0.0000    731.7532      8.4763     63.8005
   284.2500      0.0000    730.9125      8.5972     63.7605
   284.5000      0.0000    731.9578      8.6912     63.0377
   284.7500      0.0000    734.3320      8.7510     60.4273
   285.0000      0.0000    736.7474      8.7788     56.6819
   285.2500      0.0000    738.1780      8.7828     53.7707
   285.5000      0.0000    738.1237      8.7738     52.9256
   285.7500      0.0000    736.3801      8.7592     53.7167
   286.0000      0.0000    733.3235      8.7325     54.7552
   286.2500      0.0000    730.9265      8.6606     54.8855
   286.5000      0.0000    733.2235      8.4927     53.8073
   286.7500      0.0000    745.0459      8.2056     51.9771
   287.0000      0.0000    769.8071      7.8444     50.1063
   287.2500      0.0000    807.5282      7.4868     48.7274
   287.5000      0.0000    852.9222      7.1693     48.0354
   287.7500      0.0000    895.2361      6.8842     47.9190
   288.0000      0.0000    924.0229      6.6363     48.1254
   288.2500      0.0000    938.2802      6.4528     48.5114
   288.5000      0.0000    947.0155      6.3422     49.1358
   288.7500      0.0000    957.5793      6.2858     50.0869
   289.0000      0.0000    965.3136      6.2718     51.2458
   289.2500      0.0000    957.8232      6.3208     52.1981
   289.5000      0.0000    928.9753      6.4780     52.5116
   289.7500      0.0000    886.3301      6.7757     52.2579
   290.0000      0.0000    844.1353      7.1840     52.0510
   290.2500      0.0000    810.8953      7.6009     52.2867
   290.5000      0.0000    785.7504      7.9174     52.5003
   290.7500      0.0000    765.5542      8.0876     51.8853
   291.0000      0.0000    751.0469      8.1311     50.3274
   291.2500      0.0000    744.9569      8.0928     48.5502
   291.5000      0.0000    747.5280      8.0184     47.3915
   291.7500      0.0000    755.5613      7.9455     47.3080
   292.0000      0.0000    764.0787      7.8955     48.3528
   292.2500      0.0000    768.8745      7.8770     50.1674
   292.5000      0.0000    769.6521      7.8929     51.9836
   292.7500      0.0000    771.5012      7.9374     52.9222
   293.0000      0.0000    781.7360      7.9893     52.5019
   293.2500      0.0000    804.2485      8.0214     51.0252
   293.5000      0.0000    835.8805      8.0204     49.4903
   293.7500      0.0000    866.5562      7.9958     48.9042
   294.0000      0.0000    882.8365      7.9662     49.5299
   294.2500      0.0000    875.0856      7.9384     50.8035
