~Version Information
VERS.                      2.0: CWLS Log ASCII Standard - VERSION 2.0
WRAP.                       NO: One line per depth step
~Well Information Block
STRT.FT               472.0000: 
STOP.FT              2428.5000: 
STEP.FT                 0.1000: 
NULL.                -999.2500: 
COMP.          Pioneer Natural Resources: COMPANY
WELL.          Flying Horse 12-11: WELL
FLD.           Purgatoire River: FIELD
LOC.           2428' FNL & 308' FWL: LOCATION
PROV.                 Colorado: PROVINCE
CNTY.               Las Animas: COUNTRY
SRVC.                Patterson: SERVICE COMPANY
DATE.          Mon May 30 06:06:20 2005: LOG DATE
UWI.           05 071 08378 00: UNIQUE WELL ID
~Curve Information Block
DEPT.FT            0 000 00 00: Depth
DCAL.in                       : CDL Caliper
RHOB.g/cc                     : CDL Bulk Density
RHOC.g/cc                     : CDL Density Correction
DPOR.pu                       : CDL Density Porosity
GR.GAPI                       : Gamma Ray
NPOR.pu                       : Neutron Porosity
~Parameter Information Block
~A  Depth       DCAL        RHOB        RHOC        DPOR         GR         NPOR    
# ...
  1249.6000      8.4699      2.3389      0.0269     18.8575    184.3618     28.5365
  1249.7000      8.4699      2.3115      0.0382     20.5125    181.5229     29.5693
  1249.8000      8.3693      2.3077      0.0821     20.7483    178.9440     29.4594
  1249.9000      8.3693      2.3265      0.0737     19.6074    175.4474     28.9837
  1250.0000      8.2262      2.3643      0.1358     17.3147    172.0616     29.1153
  1250.1000      8.2262      2.4097      0.1578     14.5611    169.9522     29.4917
  1250.2000      8.2262      2.4466      0.2723     12.3264    167.3212     29.5905
  1250.3000      8.2049      2.4545      0.3156     11.8470    161.6557     29.5507
  1250.4000      8.2049      2.4317      0.2521     13.2316    155.9648     29.5207
  1250.5000      8.1654      2.4042      0.1802     14.8944    156.7732     29.3832
  1250.6000      8.1654      2.3971      0.1186     15.3280    164.9572     28.6831
  1250.7000      8.1654      2.4115      0.1122     14.4525    174.8487     27.9672
  1250.8000      8.1486      2.4361      0.0901     12.9627    182.2841     28.4308
  1250.9000      8.1486      2.4644      0.1084     11.2484    186.1741     29.4193
  1251.0000      8.1519      2.5004      0.0964      9.0642    187.0722     29.8374
  1251.1000      8.1519      2.5538      0.1403      5.8314    189.1085     30.0161
  1251.2000      8.1519      2.6161      0.3036      2.0555    192.3004     29.8871
  1251.3000      8.1348      2.6542      0.3253     -0.2519    189.9110     29.1888
  1251.4000      8.1348      2.6426      0.3063      0.4469    182.8530     28.4458
  1251.5000      8.1467      2.5946      0.1451      3.3572    176.4801     27.8774
  1251.6000      8.1467      2.5473      0.0883      6.2270    173.2276     27.5377
  1251.7000      8.1467      2.5154      0.0326      8.1597    175.3165     27.1927
  1251.8000      8.2191      2.4909      0.0506      9.6437    178.2202     26.7142
  1251.9000      8.2191      2.4759     -0.0273     10.5505    175.4415     26.5412
  1252.0000      8.2542      2.4764      0.0534     10.5237    169.0801     26.8217
  1252.1000      8.2542      2.4836      0.0047     10.0821    167.2302     26.8192
  1252.2000      8.2542      2.4942      0.0045      9.4448    170.2590     25.6251
  1252.3000      8.2475      2.5103      0.0138      8.4658    168.3245     23.7444
  1252.4000      8.2475      2.5259      0.1011      7.5199    156.2175     22.4333
  1252.5000      8.2382      2.5453      0.0330      6.3439    140.0297     22.0676
  1252.6000      8.2382      2.5866      0.0856      3.8412    130.8129     22.2373
  1252.7000      8.2382      2.6343      0.1834      0.9510    132.1860     22.4716
  1252.8000      8.2355      2.6517      0.1957     -0.1022    136.4590     22.5007
  1252.9000      8.2355      2.6450      0.1244      0.3023    134.5675     21.9004
  1253.0000      8.2146      2.6498      0.1281      0.0140    127.2560     20.9985
  1253.1000      8.2146      2.6691      0.1528     -1.1562    122.5726     21.1100
  1253.2000      8.2146      2.6777      0.1535     -1.6768    122.7073     22.3093
  1253.3000      8.1398      2.6653      0.1263     -0.9266    123.7528     23.2871
  1253.4000      8.1398      2.6423      0.1128      0.4665    125.2363     23.1983
  1253.5000      8.0619      2.6248      0.0885      1.5279    127.9237     22.4604
  1253.6000      8.0619      2.6255      0.0384      1.4841    129.5973     22.0678
  1253.7000      8.0619      2.6338      0.0647      0.9803    127.4511     22.1658
  1253.8000      8.0504      2.6185      0.1073      1.9081    122.3823     22.2808
  1253.9000      8.0504      2.5805      0.0110      4.2136    117.5359     22.3109
  1254.0000      8.0526      2.5561     -0.0086      5.6892    115.2892     22.5113
  1254.1000      8.0526      2.5545      0.0277      5.7890    117.1184     23.2271
  1254.2000      8.0526      2.5576      0.0611      5.5988    124.1127     24.0461
  1254.3000      8.0579      2.5578      0.0559      5.5890    131.6002     24.4435
  1254.4000      8.0579      2.5530      0.0949      5.8814    134.6074     24.9239
  1254.5000      8.0603      2.5438      0.0378      6.4335    135.0476     25.2414
  1254.6000      8.0603      2.5405      0.0509      6.6365    136.2989     24.7534
  1254.7000      8.0603      2.5540      0.0017      5.8160    141.2521     24.7370
  1254.8000      8.0546      2.5876      0.0335      3.7800    145.6713     25.9774
  1254.9000      8.0546      2.6224      0.0860      1.6740    141.4668     27.0950
  1255.0000      8.0681      2.6371      0.0721      0.7799    133.0823     26.9370
  1255.1000      8.0681      2.6347      0.1287      0.9278    132.3416     25.9307
  1255.2000      8.0681      2.6220      0.0322      1.6970    138.3608     25.0125
  1255.3000      8.0737      2.6009      0.0527      2.9766    140.6153     24.6380
  1255.4000      8.0737      2.5758     -0.0021      4.4977    139.3743     24.5581
  1255.5000      8.0843      2.5537      0.0107      5.8388    141.9289     24.5684
  1255.6000      8.0843      2.5321      0.0303      7.1472    146.6846     24.9011
  1255.7000      8.0843      2.5069     -0.0480      8.6744    148.5052     25.2454
  1255.8000      8.1403      2.4882     -0.0590      9.8091    145.5703     25.0162
  1255.9000      8.1403      2.4857     -0.0102      9.9581    141.0350     24.9279
  1256.0000      8.1914      2.4962      0.0193      9.3229    140.2587     25.5974
  1256.1000      8.1914      2.5155     -0.0125      8.1529    142.9083     26.3217
  1256.2000      8.1914      2.5418      0.0147      6.5577    144.9035     26.3401
  1256.3000      8.2393      2.5631      0.0246      5.2680    146.6724     25.5321
  1256.4000      8.2393      2.5645     -0.0206      5.1799    147.5571     24.3142
  1256.5000      8.2967      2.5501     -0.0397      6.0556    142.8580     23.5788
  1256.6000      8.2967      2.5399      0.0029      6.6747    134.4735     23.8663
  1256.7000      8.2967      2.5401      0.0022      6.6610    127.1668     24.9575
  1256.8000      8.3431      2.5372     -0.0174      6.8373    122.7948     25.8098
  1256.9000      8.3431      2.5304     -0.0153      7.2485    124.7390     25.6348
  1257.0000      8.3681      2.5236      0.0306      7.6599    132.5802     25.2638
  1257.1000      8.3681      2.5064     -0.0102      8.7006    137.8597     25.7308
  1257.2000      8.3681      2.4885     -0.1079      9.7869    137.0324     26.6213
  1257.3000      8.3773      2.4999     -0.0318      9.1000    138.3185     27.1167
  1257.4000      8.3773      2.5374      0.0716      6.8268    146.8611     26.9250
  1257.5000      8.3364      2.5688      0.0173      4.9190    154.3532     25.9746
  1257.6000      8.3364      2.5840     -0.0021      4.0007    152.7968     24.6689
  1257.7000      8.3364      2.5935      0.0047      3.4271    146.8267     24.2052
  1257.8000      8.2856      2.5997      0.0652      3.0498    145.0293     24.9336
  1257.9000      8.2856      2.5969      0.0171      3.2167    148.3751     25.6527
  1258.0000      8.2302      2.5910      0.0344      3.5783    150.1927     25.6264
  1258.1000      8.2302      2.5880      0.0113      3.7560    144.7787     25.2928
  1258.2000      8.2302      2.5841      0.0117      3.9961    137.1900     25.0877
  1258.3000      8.1716      2.5747     -0.0330      4.5664    133.0699     24.9930
  1258.4000      8.1716      2.5561      0.0356      5.6921    130.8316     25.1696
  1258.5000      8.1177      2.5330     -0.0633      7.0888    129.5222     25.6579
  1258.6000      8.1177      2.5194     -0.0449      7.9174    128.4905     25.3326
  1258.7000      8.1177      2.5185     -0.0555      7.9668    124.9171     24.0953
  1258.8000      8.0968      2.5370     -0.0096      6.8457    121.5227     23.9811
  1258.9000      8.0968      2.5885     -0.0191      3.7285    127.1031     25.7330
  1259.0000      8.0746      2.6610      0.0730     -0.6680    142.6934     27.6509
  1259.1000      8.0746      2.7209      0.0792     -4.2990    158.0752     28.0437
