~Version Information
VERS.                      2.0: CWLS Log ASCII Standard - VERSION 2.0
WRAP.                       NO: One line per depth step
~Well Information Block
STRT.FT               360.0000: 
STOP.FT              1622.7500: 
STEP.FT                 0.2500: 
NULL.                -999.2500: 
COMP.          Pioneer Natural Resources: COMPANY
WELL.                Eric 42-9: WELL
FLD.           Purgatoire River: FIELD
LOC.           2050' FNL & 850' FEL: LOCATION
PROV.                 Colorado: PROVINCE
CNTY.               Las Animas: COUNTRY
SRVC.                Patterson: SERVICE COMPANY
DATE.          Sun Oct 31 17:26:46 2004: LOG DATE
UWI.           05 071 07999 00: UNIQUE WELL ID
~Curve Information Block
DEPT.FT            0 000 00 00: Depth
SN.Ohm-m                      : IEL Short Normal
SP.mV                         : IEL Spontaneous Potential
DIR.Ohm-m                     : IEL Induction Resistivity
GR.GAPI                       : Gamma Ray
~Parameter Information Block
~A  Depth        SN          SP         DIR          GR     
# ...
   929.5000     29.1296     49.6521     21.8781    109.3884
   929.7500     28.8085     49.8297     21.6243    113.3389
   930.0000     28.4735     50.0391     21.3968    123.3455
   930.2500     28.0627     50.2620     21.1652    130.7633
   930.5000     27.5048     50.4793     20.8941    139.2188
   930.7500     26.7787     50.6757     20.5667    141.8941
   931.0000     25.9527     50.8438     20.1980    142.2034
   931.2500     25.1679     50.9829     19.8271    141.3261
   931.5000     24.5696     51.0963     19.4958    140.1414
   931.7500     24.2383     51.1865     19.2343    139.4588
   932.0000     24.1684     51.2533     19.0602    137.6985
   932.2500     24.2978     51.2940     18.9832    135.7344
   932.5000     24.5592     51.3064     19.0084    131.7598
   932.7500     24.9180     51.2923     19.1345    128.5445
   933.0000     25.3736     51.2590     19.3492    122.7188
   933.2500     25.9226     51.2193     19.6282    117.9597
   933.5000     26.5134     51.1897     19.9389    109.4082
   933.7500     27.0332     51.1884     20.2500    103.1240
   934.0000     27.3374     51.2341     20.5359     94.1880
   934.2500     27.3044     51.3456     20.7673     89.3884
   934.5000     26.8918     51.5385     20.8950     84.7038
   934.7500     26.1607     51.8221     20.8451     83.4582
   935.0000     25.2328     52.1951     20.5441     84.9392
   935.2500     24.2111     52.6430     19.9607     88.5698
   935.5000     23.1418     53.1401     19.1285     98.3732
   935.7500     22.0441     53.6538     18.1332    107.7214
   936.0000     20.9459     54.1516     17.0760    125.1316
   936.2500     19.8825     54.6075     16.0433    137.9143
   936.5000     18.8814     55.0055     15.0948    155.8005
   936.7500     17.9640     55.3395     14.2652    164.8051
   937.0000     17.1611     55.6115     13.5719    171.5716
   937.2500     16.5176     55.8273     13.0223    171.7233
   937.5000     16.0833     55.9933     12.6204    168.1940
   937.7500     15.8977     56.1141     12.3703    165.3801
   938.0000     15.9749     56.1923     12.2772    162.3815
   938.2500     16.2976     56.2283     12.3464    161.0730
   938.5000     16.8282     56.2224     12.5825    158.9837
   938.7500     17.5359     56.1769     12.9887    156.8272
   939.0000     18.4192     56.0988     13.5683    151.2101
   939.2500     19.5058     56.0011     14.3254    145.1009
   939.5000     20.8352     55.9029     15.2667    131.8719
   939.7500     22.4327     55.8271     16.3973    121.0976
   940.0000     24.2794     55.7956     17.7113    105.0635
   940.2500     26.2900     55.8245     19.1730     96.4494
   940.5000     28.3215     55.9195     20.6983     88.4895
   940.7500     30.2171     56.0738     22.1491     86.2213
   941.0000     31.8573     56.2705     23.3550     85.4516
   941.2500     33.1805     56.4877     24.1697     85.5751
   941.5000     34.1694     56.7047     24.5441     85.9769
   941.7500     34.8267     56.9065     24.5679     86.6516
   942.0000     35.1634     57.0851     24.4331     88.8053
   942.2500     35.2034     57.2375     24.3388     90.7870
   942.5000     34.9922     57.3632     24.4073     93.5077
   942.7500     34.6020     57.4622     24.6569     94.6315
   943.0000     34.1213     57.5354     25.0266     94.8292
   943.2500     33.6342     57.5852     25.4238     93.7887
   943.5000     33.2002     57.6159     25.7664     90.4792
   943.7500     32.8472     57.6324     26.0077     87.6171
   944.0000     32.5772     57.6386     26.1419     83.8992
   944.2500     32.3769     57.6356     26.1937     82.5512
   944.5000     32.2318     57.6214     26.1950     82.3773
   944.7500     32.1364     57.5915     26.1636     82.9159
   945.0000     32.0945     57.5415     26.1005     83.2357
   945.2500     32.1075     57.4692     26.0044     82.5593
   945.5000     32.1661     57.3753     25.8880     80.4913
   945.7500     32.2536     57.2639     25.7753     79.1525
   946.0000     32.3560     57.1407     25.6821     78.3522
   946.2500     32.4646     57.0118     25.5993     78.7686
   946.5000     32.5717     56.8824     25.4996     80.2967
   946.7500     32.6715     56.7565     25.3634     81.5950
   947.0000     32.7659     56.6369     25.2016     83.9600
   947.2500     32.8660     56.5252     25.0502     85.9847
   947.5000     32.9817     56.4230     24.9400     89.4995
   947.7500     33.1111     56.3314     24.8657     91.5926
   948.0000     33.2392     56.2518     24.7808     93.3108
   948.2500     33.3424     56.1864     24.6279     93.4049
   948.5000     33.3892     56.1391     24.3842     92.8106
   948.7500     33.3359     56.1166     24.0844     92.5333
   949.0000     33.1230     56.1286     23.7978     92.6439
   949.2500     32.6801     56.1876     23.5824     92.8237
   949.5000     31.9406     56.3064     23.4490     92.7040
   949.7500     30.8641     56.4957     23.3530     92.3101
   950.0000     29.4577     56.7602     23.2054     91.7683
   950.2500     27.7892     57.0963     22.9017     91.9368
   950.5000     25.9807     57.4909     22.3610     93.8028
   950.7500     24.1753     57.9218     21.5650     96.4768
   951.0000     22.4894     58.3601     20.5734    102.9551
   951.2500     20.9808     58.7740     19.5010    108.9605
   951.5000     19.6560     59.1328     18.4725    120.3775
   951.7500     18.5010     59.4119     17.5826    129.2739
   952.0000     17.5103     59.5964     16.8811    142.9730
   952.2500     16.6925     59.6835     16.3762    150.7972
   952.5000     16.0565     59.6828     16.0486    157.9446
   952.7500     15.5955     59.6146     15.8646    158.9214
   953.0000     15.2816     59.5062     15.7854    155.3640
   953.2500     15.0689     59.3877     15.7733    150.8459
   953.5000     14.9008     59.2872     15.7935    143.2557
   953.7500     14.7232     59.2268     15.8140    138.6557
   954.0000     14.5004     59.2202     15.8005    132.7880
   954.2500     14.2296     59.2712     15.7142    129.2236
   954.5000     13.9411     59.3745     15.5185    124.1850
   954.7500     13.6807     59.5175     15.1959    121.4312
   955.0000     13.4820     59.6832     14.7612    118.8342
   955.2500     13.3453     59.8534     14.2551    117.7889
   955.5000     13.2391     60.0123     13.7238    115.7506
   955.7500     13.1185     60.1495     13.2028    113.5680
   956.0000     12.9472     60.2621     12.7158    109.7994
   956.2500     12.7172     60.3546     12.2813    107.7815
   956.5000     12.4642     60.4362     11.9164    105.9333
   956.7500     12.2667     60.5174     11.6367    105.0867
   957.0000     12.2142     60.6052     11.4550    103.7946
   957.2500     12.3562     60.7010     11.3807    102.9923
   957.5000     12.6819     60.8002     11.4202    102.3104
   957.7500     13.1475     60.8936     11.5767    102.3554
   958.0000     13.7149     60.9701     11.8490    103.1800
   958.2500     14.3615     61.0200     12.2318    104.0769
   958.5000     15.0727     61.0363     12.7168    105.3731
   958.7500     15.8384     61.0151     13.2936    105.8625
   959.0000     16.6532     60.9556     13.9500    105.7928
   959.2500     17.5145     60.8586     14.6692    105.1878
   959.5000     18.4200     60.7263     15.4267    103.0983
   959.7500     19.3702     60.5633     16.1931    100.5410
   960.0000     20.3712     60.3765     16.9457     94.7127
   960.2500     21.4325     60.1766     17.6791     89.8631
   960.5000     22.5587     59.9764     18.4033     82.3818
   960.7500     23.7339     59.7887     19.1279     78.0403
   961.0000     24.9059     59.6240     19.8497     73.6533
   961.2500     25.9872     59.4885     20.5550     72.6014
   961.5000     26.8842     59.3838     21.2287     73.9665
   961.7500     27.5400     59.3084     21.8557     76.4183
   962.0000     27.9543     59.2598     22.4148     80.8973
   962.2500     28.1709     59.2355     22.8822     83.3189
   962.5000     28.2514     59.2334     23.2527     84.6627
   962.7500     28.2578     59.2502     23.5564     83.8720
