~Version Information
VERS.                      2.0: CWLS Log ASCII Standard - VERSION 2.0
WRAP.                       NO: One line per depth step
~Well Information Block
STRT.FT               481.5000: 
STOP.FT              2033.5000: 
STEP.FT                 0.2500: 
NULL.                -999.2500: 
COMP.          Petrogulf Corporation: COMPANY
WELL.            Montoya 7-12R: WELL
FLD.           Purgatorie River: FIELD
LOC.           1769' FNL & 658' FWL: LOCATION
CNTY.               Las Animas: COUNTY
SRVC.                         : SERVICE COMPANY
DATE.          Sat Nov 20 02:31:05 2004: LOG DATE
UWI.           05 071 08240 00: UNIQUE WELL ID
STAT.                 Colorado: STATE
~Curve Information Block
DEPT.FT            0 000 00 00: Depth
SP.mV                         : DIL Spontaneous Potential
RILD.Ohm-m                    : DIL Deep Resistivity
RILM.Ohm-m                    : DIL Medium Resistivity
RLL3.Ohm-m                    : DIL Shallow Resistivity
GR.GAPI                       : Gamma Ray
~Parameter Information Block
~A  Depth        SP         RILD        RILM        RLL3         GR     
# ...
  1209.5000   -106.2507     30.7665     40.6602     80.7388     87.2984
  1209.7500   -105.8929     30.1970     39.6509     83.7000     84.4429
  1210.0000   -106.0536     29.4512     38.2736     84.8908     81.0039
  1210.2500   -106.6548     28.6024     36.6390     83.6079     79.6057
  1210.5000   -107.5700     27.7210     34.8588     79.5764     79.7688
  1210.7500   -108.6690     26.8649     33.0389     73.0667     82.2501
  1211.0000   -109.8568     26.0761     31.2725     64.8405     90.6483
  1211.2500   -111.0955     25.3807     29.6358     55.9441     99.0473
  1211.5000   -112.3872     24.7911     28.1829     47.4319    113.2894
  1211.7500   -113.7507     24.3082     26.9472     40.1292    121.9664
  1212.0000   -115.1850     23.9238     25.9426     34.5100    131.7010
  1212.2500   -116.6478     23.6234     25.1669     30.7040    135.8592
  1212.5000   -118.0503     23.3883     24.6063     28.5924    139.1280
  1212.7500   -119.2719     23.1981     24.2389     27.9245    139.6278
  1213.0000   -120.1862     23.0346     24.0382     28.4047    138.5998
  1213.2500   -120.6882     22.8849     23.9758     29.7297    137.2832
  1213.5000   -120.7161     22.7436     24.0237     31.5897    134.5969
  1213.7500   -120.2687     22.6150     24.1563     33.6609    131.9433
  1214.0000   -119.4049     22.5122     24.3509     35.6146    126.5142
  1214.2500   -118.2329     22.4554     24.5885     37.1514    122.7412
  1214.5000   -116.8791     22.4674     24.8532     38.0495    118.9702
  1214.7500   -115.4584     22.5704     25.1318     38.2085    118.4645
  1215.0000   -114.0503     22.7829     25.4145     37.6693    120.5795
  1215.2500   -112.6927     23.1167     25.6964     36.6009    123.3727
  1215.5000   -111.3938     23.5749     25.9798     35.2559    128.7153
  1215.7500   -110.1557     24.1500     26.2749     33.9147    132.4763
  1216.0000   -109.0027     24.8233     26.6021     32.8364    136.9694
  1216.2500   -107.9935     25.5657     26.9890     32.2338    138.2492
  1216.5000   -107.2130     26.3391     27.4682     32.2735    137.0281
  1216.7500   -106.7626     27.1003     28.0713     33.0913    134.8037
  1217.0000   -106.7307     27.8073     28.8237     34.7980    131.3348
  1217.2500   -107.1761     28.4260     29.7386     37.4599    129.6191
  1217.5000   -108.1165     28.9344     30.8120     41.0498    127.5178
  1217.7500   -109.5161     29.3267     32.0188     45.3922    125.6237
  1218.0000   -111.2904     29.6118     33.3085     50.1324    120.9703
  1218.2500   -113.3019     29.8099     34.6099     54.7609    116.6772
  1218.5000   -115.3727     29.9471     35.8351     58.6979    109.4911
  1218.7500   -117.3047     30.0507     36.8909     61.4181    104.9840
  1219.0000   -118.9102     30.1437     37.6932     62.5736     99.6726
  1219.2500   -120.0448     30.2425     38.1834     62.0753     97.5459
  1219.5000   -120.6295     30.3540     38.3372     60.1053     97.2871
  1219.7500   -120.6653     30.4746     38.1685     57.0595     99.4165
  1220.0000   -120.2231     30.5908     37.7234     53.4428    105.5867
  1220.2500   -119.4232     30.6814     37.0686     49.7517    110.5688
  1220.5000   -118.4141     30.7197     36.2773     46.3791    116.8974
  1220.7500   -117.3418     30.6784     35.4171     43.5636    119.4404
  1221.0000   -116.3330     30.5354     34.5394     41.3852    120.7494
  1221.2500   -115.4900     30.2774     33.6772     39.7944    120.5289
  1221.5000   -114.8799     29.9037     32.8444     38.6547    119.5043
  1221.7500   -114.5370     29.4261     32.0399     37.7846    118.6422
  1222.0000   -114.4605     28.8662     31.2528     36.9971    117.3802
  1222.2500   -114.6208     28.2516     30.4683     36.1349    116.8525
  1222.5000   -114.9566     27.6110     29.6723     35.1017    117.1368
  1222.7500   -115.3935     26.9700     28.8559     33.8806    118.1461
  1223.0000   -115.8464     26.3489     28.0187     32.5316    120.4065
  1223.2500   -116.2311     25.7617     27.1677     31.1646    121.9885
  1223.5000   -116.4754     25.2161     26.3173     29.8977    124.0601
  1223.7500   -116.5258     24.7159     25.4874     28.8167    125.2070
  1224.0000   -116.3567     24.2623     24.6995     27.9544    126.6240
  1224.2500   -115.9750     23.8544     23.9752     27.2951    127.3615
  1224.5000   -115.4214     23.4919     23.3330     26.7985    128.1439
  1224.7500   -114.7646     23.1745     22.7871     26.4280    128.5038
  1225.0000   -114.0940     22.9038     22.3471     26.1699    128.9096
  1225.2500   -113.5128     22.6824     22.0174     26.0359    129.0566
  1225.5000   -113.1233     22.5152     21.7987     26.0512    128.8535
  1225.7500   -113.0155     22.4086     21.6878     26.2372    128.3296
  1226.0000   -113.2538     22.3710     21.6792     26.6000    127.0688
  1226.2500   -113.8557     22.4104     21.7654     27.1294    126.1519
  1226.5000   -114.7825     22.5341     21.9381     27.8099    125.0623
  1226.7500   -115.9305     22.7462     22.1888     28.6375    124.5207
  1227.0000   -117.1414     23.0454     22.5091     29.6352    123.6326
  1227.2500   -118.2285     23.4232     22.8913     30.8590    122.9157
  1227.5000   -119.0126     23.8625     23.3265     32.3879    121.9781
  1227.7500   -119.3571     24.3396     23.8042     34.2964    121.5678
  1228.0000   -119.2026     24.8251     24.3107     36.6136    120.7808
  1228.2500   -118.5719     25.2898     24.8274     39.2820    119.5784
  1228.5000   -117.5643     25.7105     25.3305     42.1363    116.0076
  1228.7500   -116.3302     26.0758     25.7922     44.9178    112.4375
  1229.0000   -115.0394     26.3894     26.1852     47.3245    106.3327
  1229.2500   -113.8429     26.6710     26.4876     49.0841    102.8507
  1229.5000   -112.8492     26.9520     26.6897     50.0327    100.1571
  1229.7500   -112.1082     27.2716     26.7991     50.1888    100.2709
  1230.0000   -111.6033     27.6710     26.8428     49.8093    102.3854
  1230.2500   -111.2655     28.1872     26.8652     49.4440    104.3642
  1230.5000   -110.9927     28.8501     26.9236     49.9882    107.5718
  1230.7500   -110.6871     29.6784     27.0816     52.7065    109.8398
  1231.0000   -110.2797     30.6774     27.4047     59.1859    112.9777
  1231.2500   -109.7598     31.8350     27.9558     71.1561    114.0064
  1231.5000   -109.1820     33.1221     28.7942     90.1712    111.8181
  1231.7500   -108.6507     34.4914     29.9737    117.2150    106.8939
  1232.0000   -108.2958     35.8854     31.5398    152.3376     93.9723
  1232.2500   -108.2336     37.2421     33.5276    194.4377     82.3776
  1232.5000   -108.5371     38.5098     35.9521    241.2802     63.0860
  1232.7500   -109.2156     39.6576     38.7980    289.7550     50.8888
  1233.0000   -110.2105     40.6816     42.0025    336.3088     36.4928
  1233.2500   -111.4048     41.6027     45.4454    377.4288     30.3323
  1233.5000   -112.6492     42.4590     48.9403    410.0585     25.7661
  1233.7500   -113.7922     43.2910     52.2533    431.8636     24.7340
  1234.0000   -114.7041     44.1320     55.1388    441.3586     24.0010
  1234.2500   -115.3013     44.9965     57.3988    437.9748     23.1887
  1234.5000   -115.5568     45.8797     58.9315    422.1945     21.3211
  1234.7500   -115.5030     46.7562     59.7569    395.8273     20.2281
  1235.0000   -115.2163     47.5902     60.0077    362.3419     20.1711
  1235.2500   -114.7994     48.3435     59.8844    326.9965     21.6841
  1235.5000   -114.3562     48.9942     59.6116    296.4733     26.1431
  1235.7500   -113.9734     49.5442     59.3964    277.8678     29.8991
  1236.0000   -113.7064     50.0279     59.4046    277.1980     34.7833
  1236.2500   -113.5753     50.5061     59.7472    297.8748     36.3237
  1236.5000   -113.5723     51.0561     60.4734    339.6771     34.8797
  1236.7500   -113.6685     51.7611     61.5693    398.6454     31.6735
  1237.0000   -113.8207     52.6908     62.9576    467.9759     25.2427
  1237.2500   -113.9846     53.8966     64.5063    539.6452     21.0068
