~Version Information
VERS.                      2.0: CWLS Log ASCII Standard - VERSION 2.0
WRAP.                       NO: One line per depth step
~Well Information Block
STRT.FT               545.0000: 
STOP.FT              1922.0000: 
STEP.FT                 0.2500: 
NULL.                -999.2500: 
COMP.          Pioneer Natural Resources: COMPANY
WELL.            Summers 21-19: WELL
FLD.           Purgatoire River: FIELD
LOC.           900' FNL & 1950' FWL: LOCATION
PROV.                 Colorado: PROVINCE
CNTY.               Las Animas: COUNTRY
SRVC.                Patterson: SERVICE COMPANY
DATE.          Sat Oct 15 03:34:13 2005: LOG DATE
UWI.           05 071 08315 00: UNIQUE WELL ID
~Curve Information Block
DEPT.FT            0 000 00 00: Depth
SN.Ohm-m                      : IEL Short Normal
SP.mV                         : IEL Spontaneous Potential
DIR.Ohm-m                     : IEL Induction Resistivity
GR.GAPI                       : Gamma Ray
~Parameter Information Block
~A  Depth        SN          SP         DIR          GR     
# ...
  1081.0000     18.6459   -113.9116     17.1899    101.7561
  1081.2500     18.4187   -114.1029     17.2802    101.9974
  1081.5000     18.3323   -114.2837     17.4381    105.3411
  1081.7500     18.3929   -114.4496     17.6279    109.7893
  1082.0000     18.4869   -114.5967     17.8106    118.6901
  1082.2500     18.5709   -114.7204     17.9630    124.8117
  1082.5000     18.6531   -114.8174     18.0841    131.6562
  1082.7500     18.7086   -114.8892     18.1868    133.4774
  1083.0000     18.7140   -114.9434     18.2849    131.7528
  1083.2500     18.6965   -114.9930     18.3857    128.4118
  1083.5000     18.7031   -115.0519     18.4903    121.8801
  1083.7500     18.7695   -115.1299     18.5988    117.2329
  1084.0000     18.9436   -115.2311     18.7130    110.7126
  1084.2500     19.2569   -115.3542     18.8356    107.1762
  1084.5000     19.6648   -115.4942     18.9667    103.5294
  1084.7500     20.0722   -115.6483     19.1020    102.0017
  1085.0000     20.3757   -115.8251     19.2336    100.4895
  1085.2500     20.4955   -116.0490     19.3498     99.9510
  1085.5000     20.4291   -116.3543     19.4383    100.1483
  1085.7500     20.2389   -116.7737     19.4932    100.9845
  1086.0000     20.0034   -117.3276     19.5234    102.7905
  1086.2500     19.8283   -118.0175     19.5524    103.9040
  1086.5000     19.8068   -118.8234     19.6069    104.8478
  1086.7500     19.9213   -119.7078     19.7002    104.8846
  1087.0000     20.0645   -120.6285     19.8236    104.1937
  1087.2500     20.1840   -121.5526     19.9502    103.4192
  1087.5000     20.3227   -122.4639     20.0481    102.1074
  1087.7500     20.4875   -123.3599     20.0957    101.2639
  1088.0000     20.6221   -124.2455     20.0920    100.0731
  1088.2500     20.6952   -125.1271     20.0553     99.1470
  1088.5000     20.6908   -126.0097     20.0102     96.9655
  1088.7500     20.5996   -126.8961     19.9728     94.8425
  1089.0000     20.4642   -127.7847     19.9423     91.3776
  1089.2500     20.3522   -128.6673     19.9048     89.5420
  1089.5000     20.3034   -129.5266     19.8449     87.8739
  1089.7500     20.3276   -130.3358     19.7564     87.2036
  1090.0000     20.4019   -131.0601     19.6478     86.5268
  1090.2500     20.4630   -131.6644     19.5402     86.5344
  1090.5000     20.4553   -132.1255     19.4598     88.0749
  1090.7500     20.3658   -132.4431     19.4292     90.3918
  1091.0000     20.1658   -132.6398     19.4596     95.0780
  1091.2500     19.8215   -132.7540     19.5478     97.9113
  1091.5000     19.4242   -132.8272     19.6784     99.8953
  1091.7500     19.1878   -132.8914     19.8292     99.4026
  1092.0000     19.2627   -132.9589     19.9749     96.8377
  1092.2500     19.5861   -133.0232     20.0888     94.7080
  1092.5000     19.9152   -133.0719     20.1494     91.7818
  1092.7500     20.0625   -133.1017     20.1493     90.2100
  1093.0000     20.0637   -133.1219     20.1010     88.6389
  1093.2500     20.0078   -133.1462     20.0274     88.2617
  1093.5000     19.8723   -133.1809     19.9468     88.7118
  1093.7500     19.6492   -133.2209     19.8656     89.4645
  1094.0000     19.4385   -133.2552     19.7839     90.7971
  1094.2500     19.3297   -133.2774     19.7066     91.6897
  1094.5000     19.3195   -133.2923     19.6435     93.0211
  1094.7500     19.3340   -133.3125     19.5977     93.9128
  1095.0000     19.2817   -133.3494     19.5550     95.3083
  1095.2500     19.1535   -133.4057     19.4895     96.3050
  1095.5000     19.0384   -133.4749     19.3833     97.6346
  1095.7500     19.0009   -133.5495     19.2433     98.0086
  1096.0000     19.0100   -133.6271     19.1005     97.2918
  1096.2500     18.9792   -133.7109     18.9928     96.2360
  1096.5000     18.8820   -133.8026     18.9482     95.2201
  1096.7500     18.8211   -133.8957     18.9773     95.6408
  1097.0000     18.8787   -133.9735     19.0724     97.5833
  1097.2500     18.9685   -134.0118     19.2116     98.6745
  1097.5000     18.9652   -133.9860     19.3662     98.2266
  1097.7500     18.8869   -133.8772     19.5105     96.3720
  1098.0000     18.8394   -133.6739     19.6302     92.5842
  1098.2500     18.8555   -133.3690     19.7233     90.4892
  1098.5000     18.8929   -132.9531     19.7928     89.1611
  1098.7500     18.9481   -132.4089     19.8343     89.4259
  1099.0000     19.0523   -131.7177     19.8329     90.5794
  1099.2500     19.1616   -130.8766     19.7717     91.2893
  1099.5000     19.1909   -129.9107     19.6473     91.8989
  1099.7500     19.1455   -128.8669     19.4799     92.0352
  1100.0000     19.0762   -127.7977     19.3098     91.9259
  1100.2500     18.9735   -126.7559     19.1845     91.7182
  1100.5000     18.8424   -125.7968     19.1435     91.6792
  1100.7500     18.7735   -124.9785     19.2077     92.2737
  1101.0000     18.8062   -124.3473     19.3723     94.4715
  1101.2500     18.8489   -123.9170     19.6055     96.5324
  1101.5000     18.8252   -123.6603     19.8561     99.4560
  1101.7500     18.7763   -123.5238     20.0727    100.6668
  1102.0000     18.7701   -123.4553     20.2285    100.6850
  1102.2500     18.8333   -123.4262     20.3301     99.4211
  1102.5000     18.9805   -123.4345     20.4008     96.0708
  1102.7500     19.1746   -123.4893     20.4543     93.3339
  1103.0000     19.2986   -123.5904     20.4853     89.1271
  1103.2500     19.2905   -123.7208     20.4835     86.4091
  1103.5000     19.2320   -123.8611     20.4515     82.4846
  1103.7500     19.2490   -124.0026     20.4083     80.1097
  1104.0000     19.3718   -124.1459     20.3777     77.6892
  1104.2500     19.5239   -124.2865     20.3775     77.3690
  1104.5000     19.6364   -124.4096     20.4164     78.9191
  1104.7500     19.7087   -124.5003     20.4958     80.6769
  1105.0000     19.7310   -124.5574     20.6118     83.0080
  1105.2500     19.6696   -124.5985     20.7564     84.0126
  1105.5000     19.5757   -124.6515     20.9219     85.0250
  1105.7500     19.5808   -124.7386     21.1049     85.6028
  1106.0000     19.7731   -124.8635     21.3075     86.2429
  1106.2500     20.1106   -125.0093     21.5300     86.4295
  1106.5000     20.4297   -125.1491     21.7614     86.5549
  1106.7500     20.5932   -125.2605     21.9792     86.6691
  1107.0000     20.6380   -125.3360     22.1664     86.6333
  1107.2500     20.7116   -125.3877     22.3277     86.1365
  1107.5000     20.8797   -125.4415     22.4877     84.4520
  1107.7500     21.0696   -125.5214     22.6695     83.0059
  1108.0000     21.2071   -125.6328     22.8734     81.3253
  1108.2500     21.3181   -125.7587     23.0766     80.9151
  1108.5000     21.4613   -125.8725     23.2504     81.0918
  1108.7500     21.6678   -125.9553     23.3828     81.2128
  1109.0000     21.9483   -126.0039     23.4885     80.8030
  1109.2500     22.2820   -126.0298     23.6028     80.2492
  1109.5000     22.6274   -126.0508     23.7637     79.6628
  1109.7500     22.9617   -126.0803     23.9915     79.7718
  1110.0000     23.2954   -126.1226     24.2749     80.8226
  1110.2500     23.6586   -126.1763     24.5681     81.8429
  1110.5000     24.0303   -126.2418     24.8053     82.8123
  1110.7500     24.3108   -126.3249     24.9298     82.4841
  1111.0000     24.4606   -126.4355     24.9245     80.4790
  1111.2500     24.5784   -126.5791     24.8233     78.7404
  1111.5000     24.7748   -126.7469     24.6943     76.6378
  1111.7500     25.0639   -126.9139     24.6066     75.7851
  1112.0000     25.3775   -127.0515     24.6000     75.2451
  1112.2500     25.6338   -127.1421     24.6709     75.4414
  1112.5000     25.8196   -127.1828     24.7756     76.8480
  1112.7500     25.9768   -127.1775     24.8471     78.4290
  1113.0000     26.0855   -127.1275     24.8204     80.9041
  1113.2500     26.0831   -127.0282     24.6569     82.0215
  1113.5000     25.9612   -126.8747     24.3580     82.3416
  1113.7500     25.7293   -126.6695     23.9608     81.6437
  1114.0000     25.4386   -126.4267     23.5248     79.6253
  1114.2500     25.2327   -126.1667     23.1166     78.1176
