~Version Information
VERS.                      2.0: CWLS Log ASCII Standard - VERSION 2.0
WRAP.                       NO: One line per depth step
~Well Information Block
STRT.FT               550.0000: 
STOP.FT              1577.7500: 
STEP.FT                 0.2500: 
NULL.                -999.2500: 
COMP.          Pioneer Natural Resources: COMPANY
WELL.          Kristin 22-23 Tr: WELL
FLD.           Purgatoire River: FIELD
LOC.           2273' FNL & 2029' FWL: LOCATION
PROV.                 Colorado: PROVINCE
CNTY.               Las Animas: COUNTRY
SRVC.                Patterson: SERVICE COMPANY
DATE.          Thu Jan 20 21:18:23 2005: LOG DATE
UWI.           05 071 08259 00: UNIQUE WELL ID
~Curve Information Block
DEPT.FT            0 000 00 00: Depth
SN.Ohm-m                      : IEL Short Normal
SP.mV                         : IEL Spontaneous Potential
DIR.Ohm-m                     : IEL Induction Resistivity
GR.GAPI                       : Gamma Ray
~Parameter Information Block
~A  Depth        SN          SP         DIR          GR     
# ...
   617.0000     16.5430   -322.1454 100000.0000    140.4012
   617.2500     16.5793   -323.5487 100000.0000    139.7084
   617.5000     16.7408   -325.4663 100000.0000    138.7934
   617.7500     17.0430   -327.8732 100000.0000    138.2724
   618.0000     17.4903   -330.6157 100000.0000    137.3099
   618.2500     18.0775   -333.4454     86.6914    136.3811
   618.5000     18.7873   -336.1151     26.0538    134.7810
   618.7500     19.5846   -338.5065     16.3399    133.9565
   619.0000     20.4089   -340.7389     12.6968    133.5619
   619.2500     21.1746   -343.2008     10.7867    133.8069
   619.5000     21.7815   -346.4575      9.5174    134.3454
   619.7500     22.1336   -351.0347      8.6658    134.3708
   620.0000     22.1502   -357.1577      8.3965    133.2457
   620.2500     21.7609   -364.5808      9.2267    131.3998
   620.5000     20.8974   -372.6163     13.1104    126.4565
   620.7500     19.5026   -380.3642     44.8010    121.5902
   621.0000     17.5655   -387.0259 100000.0000    112.9850
   621.2500     15.1621   -392.1406 100000.0000    107.9346
   621.5000     12.4731   -395.6532 100000.0000    104.4512
   621.7500      9.7550   -397.8129 100000.0000    105.9085
   622.0000      7.2675   -399.0008 100000.0000    113.7241
   622.2500      5.1915   -399.5874    308.2381    121.8982
   622.5000      3.5844   -399.8458      3.3558    136.4150
   622.7500      2.3981   -399.9490      1.2026    145.9666
   623.0000      1.5390   -399.9854      0.5956    157.5205
   623.2500      0.9241   -399.9965      0.3407    162.7224
   623.5000      0.4999   -400.0002      0.2208    167.5107
   623.7500      0.2271   -400.0003      0.1717    169.3866
   624.0000      0.0619   -400.0003      0.1711    170.0444
   624.2500     -0.0387   -400.0003      0.2222    168.2169
   624.5000     -0.1015   -400.0003      0.3624    160.9959
   624.7500     -0.1332   -400.0003      0.7169    153.2124
   625.0000     -0.1358   -400.0003      2.0176    137.8904
   625.2500     -0.1188   -400.0003 100000.0000    126.0736
   625.5000     -0.0911   -400.0003 100000.0000    108.1836
   625.7500     -0.0254   -400.0003 100000.0000     97.7578
   626.0000      0.2109   -400.0003 100000.0000     86.6159
   626.2500      0.9689   -400.0003 100000.0000     82.7138
   626.5000      2.9417   -400.0003 100000.0000     81.6251
   626.7500      7.1465   -400.0003 100000.0000     83.1433
   627.0000     14.5953   -400.0003     19.5643     86.5936
   627.2500     25.7280   -400.0003      2.8804     88.4298
   627.5000     40.0375   -400.0003      1.5772     89.3731
   627.7500     56.2673   -400.0003      1.2756     89.0555
   628.0000     73.0331   -400.0003      1.3964     88.6758
   628.2500     89.3453   -400.0003      2.1501     89.3462
   628.5000    104.7191   -400.0003      6.6606     92.1907
   628.7500    118.9992   -400.0003 100000.0000     94.8655
   629.0000    132.1693   -400.0003 100000.0000     98.5508
   629.2500    144.2589   -400.0003 100000.0000     99.9444
   629.5000    155.3161   -400.0003 100000.0000     99.7300
   629.7500    165.3901   -400.0003 100000.0000     98.1989
   630.0000    174.5149   -400.0003 100000.0000     94.8180
   630.2500    182.7055   -400.0003 100000.0000     92.6281
   630.5000    189.9667   -400.0003 100000.0000     90.5889
   630.7500    196.3034   -400.0003 100000.0000     90.3605
   631.0000    201.7266   -400.0003 100000.0000     91.4952
   631.2500    206.2574   -400.0003 100000.0000     92.8515
   631.5000    209.9317   -400.0003 100000.0000     95.0403
   631.7500    212.7995   -400.0003    721.3302     96.2373
   632.0000    214.9138   -400.0003    156.4984     97.2737
   632.2500    216.3173   -400.0003    112.8108     97.4227
   632.5000    217.0454   -400.0003     89.3970     97.2066
   632.7500    217.1426   -400.0003     74.0072     97.3430
   633.0000    216.6787   -400.0003     70.4770     99.2953
   633.2500    215.7501   -400.0003     89.7240    102.2007
   633.5000    214.4628   -400.0003    275.9574    108.1653
   633.7500    212.9069   -400.0003 100000.0000    111.8459
   634.0000    211.1370   -400.0003 100000.0000    114.3191
   634.2500    209.1691   -400.0003 100000.0000    113.2235
   634.5000    206.9918   -400.0003 100000.0000    108.4150
   634.7500    204.5847   -400.0003 100000.0000    104.3194
   635.0000    201.9373   -400.0003 100000.0000     98.1254
   635.2500    199.0657   -400.0003     88.0370     93.8686
   635.5000    196.0252   -400.0003     46.3118     86.8531
   635.7500    192.9115   -400.0003     36.4948     82.0882
   636.0000    189.8417   -400.0003     34.8811     76.2841
   636.2500    186.9190   -400.0003     37.4527     73.9329
   636.5000    184.2007   -400.0003     42.7285     72.2933
   636.7500    181.6922   -400.0003     48.7183     71.6417
   637.0000    179.3658   -400.0003     52.0781     70.3547
   637.2500    177.1855   -400.0003     50.4036     69.3659
   637.5000    175.1203   -400.0003     45.1082     68.4869
   637.7500    173.1417   -400.0003     39.5148     68.7890
   638.0000    171.2179   -400.0003     35.8851     71.1181
   638.2500    169.3194   -400.0003     35.4170     73.9151
   638.5000    167.4326   -400.0003     39.8753     79.0983
   638.7500    165.5625   -400.0003     55.8301     82.3360
   639.0000    163.7165   -400.0003    134.6605     85.6357
   639.2500    161.8815   -400.0003 100000.0000     86.6268
   639.5000    160.0169   -400.0003 100000.0000     86.8039
   639.7500    158.0690   -400.0003 100000.0000     86.4749
   640.0000    155.9881   -400.0003 100000.0000     85.8607
   640.2500    153.7299   -400.0003 100000.0000     85.5143
   640.5000    151.2408   -400.0003 100000.0000     84.9664
   640.7500    148.4514   -400.0003 100000.0000     84.4103
   641.0000    145.2956   -400.0003 100000.0000     83.3335
   641.2500    141.7433   -400.0003 100000.0000     82.7801
   641.5000    137.8233   -400.0003 100000.0000     82.7277
   641.7500    133.6101   -400.0003 100000.0000     83.1413
   642.0000    129.1846   -400.0003   1552.6302     83.7331
   642.2500    124.6404   -400.0003    164.7301     83.7334
   642.5000    120.1794   -400.0003    170.4505     82.9142
   642.7500    116.1447   -400.0003 100000.0000     81.7677
   643.0000    112.8256   -400.0003 100000.0000     79.0410
   643.2500    110.1913   -400.0003 100000.0000     76.6910
   643.5000    107.8624   -400.0003 100000.0000     73.1455
   643.7500    105.3067   -400.0003 100000.0000     71.3177
   644.0000    101.9976   -400.0003 100000.0000     69.9957
   644.2500     97.4476   -400.0003 100000.0000     70.0896
   644.5000     91.2318   -400.0003 100000.0000     71.1817
   644.7500     83.0741   -400.0003 100000.0000     72.1115
   645.0000     72.9641   -400.0003 100000.0000     73.3628
   645.2500     61.2488   -400.0003 100000.0000     74.1023
   645.5000     48.6544   -400.0003 100000.0000     75.0823
   645.7500     36.2054   -400.0003      4.2789     75.3791
   646.0000     25.0238   -400.0003      1.6803     74.4115
   646.2500     16.0090   -400.0003      1.0483     72.4175
   646.5000      9.5246   -400.0003      0.8073     67.2719
   646.7500      5.3175   -400.0003      0.7108     62.5770
   647.0000      2.7604   -400.0003      0.6906     54.4248
   647.2500      1.2184   -400.0003      0.7341     49.2375
   647.5000      0.2658   -400.0003      0.8690     44.3146
   647.7500     -0.3178   -400.0003      1.1884     44.2444
   648.0000     -0.6491   -400.0003      1.9816     49.5978
   648.2500     -0.8158   -400.0003      4.3767     55.9386
   648.5000     -0.8909   -400.0003     12.9417     66.6599
   648.7500     -0.9230   -400.0003     14.5052     72.8263
   649.0000     -0.9333   -400.0003      5.0849     78.7790
   649.2500     -0.9287   -400.0003      2.3599     80.6074
   649.5000     -0.9148   -400.0002      1.5315     82.2431
   649.7500     -0.8990   -399.9988      1.3006     84.4838
   650.0000     -0.8856   -399.9929      1.3540     91.9338
   650.2500     -0.8734   -399.9740      1.5068     99.5882
