~Version Information
VERS.                      2.0: CWLS Log ASCII Standard - VERSION 2.0
WRAP.                       NO: One line per depth step
~Well Information Block
STRT.FT               970.5000: 
STOP.FT              2720.0000: 
STEP.FT                 0.1000: 
NULL.                -999.2500: 
COMP.          Petrogulf Corporation: COMPANY
WELL.             Burson 8-31V: WELL
FLD.           Purgatorie River: FIELD
LOC.           1113' FNL & 2152' FEL: LOCATION
CNTY.               Las Animas: COUNTY
SRVC.                         : SERVICE COMPANY
DATE.          Wed Nov 12 14:59:14 2003: LOG DATE
UWI.                          : UNIQUE WELL ID
STAT.                 Colorado: STATE
~Curve Information Block
DEPT.FT            0 000 00 00: Depth
DCAL.in                       : CDL Caliper
DPOR.pu                       : CDL Density Porosity
NEU.NAPI                      : Neutron
NPOR.pu                       : Neutron Porosity
RHOB.g/cc                     : CDL Bulk Density
RHOC.g/cc                     : CDL Density Correction
GR.GAPI                       : Gamma Ray
~Parameter Information Block
~A  Depth       DCAL        DPOR        NEU         NPOR        RHOB        RHOC         GR     
# ...
  2255.7000      7.9362      5.8266    199.2652     28.3501      2.5539      0.1129    124.9015
  2255.8000      7.9535      8.3857    198.5502     28.4226      2.5116      0.0355    134.2861
  2255.9000      7.9535     11.5996    201.8226     28.0911      2.4586     -0.0828    134.2861
  2256.0000      7.9532     12.8379    207.5789     27.5098      2.4382     -0.0527    137.5411
  2256.1000      7.9532     12.4989    214.3493     26.8293      2.4438      0.0086    137.5411
  2256.2000      7.9532     12.1241    219.8796     26.2761      2.4500      0.0249    137.5411
  2256.3000      7.9572     11.7156    221.8376     26.0809      2.4567      0.0021    129.4752
  2256.4000      7.9572     10.8559    219.2954     26.3344      2.4709      0.0046    129.4752
  2256.5000      7.9574      9.3304    215.6276     26.7012      2.4960      0.0050    109.3958
  2256.6000      7.9574      7.3731    219.3648     26.3275      2.5283      0.1012    109.3958
  2256.7000      7.9574      5.7850    233.4289     24.9321      2.5545      0.0448    109.3958
  2256.8000      7.9617      4.6960    245.8697     23.7137      2.5725      0.0102    153.0198
  2256.9000      7.9617      4.3144    248.8029     23.4288      2.5788      0.0615    153.0198
  2257.0000      7.9678      5.3348    244.8801     23.8100      2.5620      0.0747    148.9008
  2257.1000      7.9678      7.1727    236.7320     24.6071      2.5317      0.0643    148.9008
  2257.2000      7.9678      8.2122    232.3695     25.0366      2.5145     -0.0332    148.9008
  2257.3000      7.9708      7.6230    239.0868     24.3760      2.5242      0.0073    148.7814
  2257.4000      7.9708      5.9375    250.7439     23.2408      2.5520      0.0241    148.7814
  2257.5000      7.9406      4.5129    256.9441     22.6432      2.5755      0.0881    123.6447
  2257.6000      7.9406      4.0524    257.8802     22.5534      2.5831      0.0618    123.6447
  2257.7000      7.9406      4.1588    260.4160     22.3105      2.5814      0.1168    123.6447
  2257.8000      7.9362      4.7085    267.3634     21.6492      2.5723      0.0714    143.5015
  2257.9000      7.9362      5.3365    276.7525     20.7654      2.5619      0.0367    143.5015
  2258.0000      7.9399      5.5808    286.7570     19.8368      2.5579      0.0501    129.7848
  2258.1000      7.9399      5.9568    293.9543     19.1777      2.5517      0.0713    129.7848
  2258.2000      7.9399      6.5439    295.2713     19.0579      2.5420      0.0412    129.7848
  2258.3000      7.9332      6.3902    294.4797     19.1299      2.5446      0.0808    114.3932
  2258.4000      7.9332      5.1445    292.9953     19.2651      2.5651      0.0505    114.3932
  2258.5000      7.9121      3.7882    286.7107     19.8411      2.5875      0.0989     97.6675
  2258.6000      7.9121      3.4979    277.7899     20.6684      2.5923      0.1023     97.6675
  2258.7000      7.9121      3.9163    273.5305     21.0674      2.5854      0.0525     97.6675
  2258.8000      7.8550      4.0080    273.5586     21.0647      2.5839      0.0754    111.0988
  2258.9000      7.8550      3.5079    271.3083     21.2764      2.5921      0.0124    111.0988
  2259.0000      7.8373      2.9612    262.1923     22.1409      2.6011      0.0993    111.3776
  2259.1000      7.8373      3.1825    248.4175     23.4662      2.5975      0.0832    111.3776
  2259.2000      7.8373      3.6976    239.6069     24.3251      2.5890      0.0345    111.3776
  2259.3000      7.8616      3.4952    241.4494     24.1448      2.5923      0.0805    107.3279
  2259.4000      7.8616      2.3934    247.4887     23.5564      2.6105      0.0726    107.3279
  2259.5000      7.8685      1.2174    249.1810     23.3922      2.6299      0.1427    121.3648
  2259.6000      7.8685      1.5131    250.2120     23.2923      2.6250      0.0979    121.3648
  2259.7000      7.8685      3.6035    256.2150     22.7132      2.5905      0.0482    121.3648
  2259.8000      7.8941      6.0119    260.3267     22.3190      2.5508      0.0316    116.5843
  2259.9000      7.8941      6.8331    257.4869     22.5911      2.5373     -0.0117    116.5843
  2260.0000      7.9096      6.1702    253.8248     22.9433      2.5482      0.0853    105.7678
  2260.1000      7.9096      6.0542    253.6256     22.9625      2.5501      0.0639    105.7678
  2260.2000      7.9096      6.9821    254.1682     22.9102      2.5348     -0.0051    105.7678
  2260.3000      7.9313      7.6372    253.0465     23.0184      2.5240      0.0199    114.4733
  2260.4000      7.9313      7.3994    253.2595     22.9978      2.5279      0.0349    114.4733
  2260.5000      7.9245      7.0519    257.6167     22.5786      2.5336      0.0181    104.4409
  2260.6000      7.9245      6.4875    262.2703     22.1334      2.5430      0.0098    104.4409
  2260.7000      7.9245      3.8033    262.1482     22.1451      2.5872      0.0334    104.4409
  2260.8000      7.9152     -0.7699    256.0163     22.7323      2.6627      0.1556     91.8566
  2260.9000      7.9152     -3.9880    246.1948     23.6821      2.7158      0.1861     91.8566
  2261.0000      7.9225     -4.7460    238.9623     24.3882      2.7283      0.1512     83.0136
  2261.1000      7.9225     -4.4998    239.0220     24.3824      2.7242      0.2099     83.0136
  2261.2000      7.9225     -3.6861    243.4796     23.9465      2.7108      0.2307     83.0136
  2261.3000      7.9224     -2.4340    247.2522     23.5793      2.6902      0.0937     96.4545
  2261.4000      7.9224     -1.6484    249.1213     23.3980      2.6772      0.0557     96.4545
  2261.5000      7.8992     -1.6099    247.4913     23.5561      2.6766      0.0579     93.5419
  2261.6000      7.8992     -1.7796    239.2312     24.3619      2.6794      0.0790     93.5419
  2261.7000      7.8992     -2.2868    228.6135     25.4078      2.6877     -0.0005     93.5419
  2261.8000      7.8476     -3.3992    223.6356     25.9019      2.7061      0.0706     85.4704
  2261.9000      7.8476     -3.4883    223.4826     25.9171      2.7076      0.1436     85.4704
  2262.0000      7.8702     -1.1943    222.1549     26.0493      2.6697      0.0922    107.6189
  2262.1000      7.8702      1.9425    216.9111     26.5727      2.6179      0.0319    107.6189
  2262.2000      7.8702      3.9925    208.8642     27.3804      2.5841      0.0333    107.6189
  2262.3000      7.8317      5.3831    202.0391     28.0692      2.5612      0.0521    117.8033
  2262.4000      7.8317      7.7388    201.5847     28.1152      2.5223      0.0887    117.8033
  2262.5000      7.8128     10.9537    205.5042     27.7191      2.4693     -0.0477    104.8085
  2262.6000      7.8128     13.5036    205.8582     27.6833      2.4272      0.0361    104.8085
  2262.7000      7.8128     15.7150    201.1350     28.1607      2.3907      0.0754    104.8085
  2262.8000      7.8387     18.5892    194.6833     28.8152      2.3433     -0.0224    127.9767
  2262.9000      7.8387     21.3425    187.9444     29.5016      2.2978     -0.0646    127.9767
  2263.0000      7.9122     22.5957    183.7035     29.9349      2.2772     -0.0362    133.7997
  2263.1000      7.9122     22.0355    185.1498     29.7871      2.2864     -0.0379    133.7997
  2263.2000      7.9122     20.1525    191.6669     29.1221      2.3175      0.0173    133.7997
  2263.3000      7.9343     17.6009    201.1128     28.1630      2.3596      0.0399    132.0689
  2263.4000      7.9343     15.3839    210.2314     27.2428      2.3962      0.1361    132.0689
  2263.5000      7.9398     14.2806    214.7588     26.7882      2.4144      0.1023    155.5595
  2263.6000      7.9398     13.9285    216.3567     26.6282      2.4202      0.0842    155.5595
  2263.7000      7.9398     13.6499    219.9288     26.2712      2.4248      0.0482    155.5595
  2263.8000      7.9345     13.5006    224.9761     25.7686      2.4272      0.0832    146.5117
  2263.9000      7.9345     13.5705    231.1839     25.1536      2.4261      0.0369    146.5117
  2264.0000      7.9359     13.3120    238.5913     24.4246      2.4304      0.0305    138.5614
