~Version Information
VERS.                      2.0: CWLS Log ASCII Standard - VERSION 2.0
WRAP.                       NO: One line per depth step
~Well Information Block
STRT.FT               400.0000: 
STOP.FT              2201.0000: 
STEP.FT                 0.1000: 
NULL.                -999.2500: 
COMP.          Evergreen Operating Corporation: COMPANY
WELL.            Triumph 13-10: WELL
FLD.           Purgatorie River: FIELD
LOC.           1551' FSL & 522' FWL: LOCATION
PROV.                 Colorado: PROVINCE
CNTY.               Las Animas: COUNTRY
SRVC.                Patterson: SERVICE COMPANY
DATE.          Mon Jul 26 07:55:18 2004: LOG DATE
UWI.           05 071 08108 00: UNIQUE WELL ID
~Curve Information Block
DEPT.FT            0 000 00 00: Depth
DCAL.in                       : CDL Caliper
RHOB.g/cc                     : CDL Bulk Density
RHOC.g/cc                     : CDL Density Correction
DPOR.pu                       : CDL Density Porosity
NPOR.pu                       : Neutron Porosity
GR.GAPI                       : Gamma Ray
~Parameter Information Block
~A  Depth       DCAL        RHOB        RHOC        DPOR        NPOR         GR     
# ...
  2166.4000      7.7455      2.5014     -0.0347      9.0074     15.9141     82.7071
  2166.5000      7.7358      2.4875      0.0495      9.8469     16.6914     83.8907
  2166.6000      7.7358      2.4821      0.0052     10.1768     17.3239     86.8227
  2166.7000      7.7358      2.4764      0.0065     10.5183     17.2535     83.1072
  2166.8000      7.7398      2.4764      0.0199     10.5221     16.6049     63.3654
  2166.9000      7.7398      2.4872      0.0612      9.8667     16.1620     33.1699
  2167.0000      7.7396      2.5044      0.0555      8.8249     15.8911     10.6568
  2167.1000      7.7396      2.5137      0.0836      8.2601     15.5053      1.9605
  2167.2000      7.7396      2.5075      0.0427      8.6351     15.4397      0.1985
  2167.3000      7.7396      2.4921      0.0339      9.5690     15.6746      0.0106
  2167.4000      7.7396      2.4764      0.0418     10.5190     15.4156      0.0000
  2167.5000      7.7403      2.4687      0.0134     10.9902     14.7739   -999.2500
  2167.6000      7.7403      2.4736      0.0576     10.6881     14.5453   -999.2500
  2167.7000      7.7403      2.4896      0.0227      9.7207     14.7406   -999.2500
  2167.8000      7.7392      2.5142      0.0333      8.2332     15.0043   -999.2500
  2167.9000      7.7392      2.5357      0.0585      6.9302     15.3921   -999.2500
  2168.0000      7.7429      2.5355      0.0727      6.9399     15.9226   -999.2500
  2168.1000      7.7429      2.5103      0.0673      8.4663     16.2528   -999.2500
  2168.2000      7.7429      2.4731      0.0283     10.7187     16.2909   -999.2500
  2168.3000      7.7375      2.4462     -0.0360     12.3513     16.2824   -999.2500
  2168.4000      7.7375      2.4482      0.0229     12.2299     16.3117   -999.2500
  2168.5000      7.7346      2.4667      0.0153     11.1081     16.4281   -999.2500
  2168.6000      7.7346      2.4768      0.0382     10.4982     16.6161   -999.2500
  2168.7000      7.7346      2.4753      0.0346     10.5899     16.6816   -999.2500
  2168.8000      7.7367      2.4672      0.0664     11.0815     16.6383   -999.2500
  2168.9000      7.7367      2.4575      0.0087     11.6653     16.6031   -999.2500
  2169.0000      7.7166      2.4535      0.0354     11.9075     16.5234   -999.2500
  2169.1000      7.7166      2.4484      0.0454     12.2158     16.4174   -999.2500
  2169.2000      7.7166      2.4377      0.0044     12.8665     16.3680   -999.2500
  2169.3000      7.7313      2.4314      0.0458     13.2476     16.0871   -999.2500
  2169.4000      7.7313      2.4367      0.0311     12.9297     15.4165   -999.2500
  2169.5000      7.7130      2.4572      0.0251     11.6859     14.8579   -999.2500
  2169.6000      7.7130      2.4854      0.1027      9.9735     14.8050   -999.2500
  2169.7000      7.7130      2.5006      0.0907      9.0556     15.1415   -999.2500
  2169.8000      7.7140      2.4936      0.0862      9.4771     15.5717   -999.2500
  2169.9000      7.7140      2.4768      0.0275     10.4941     15.9925   -999.2500
  2170.0000      7.7098      2.4655      0.0915     11.1839     16.1825   -999.2500
  2170.1000      7.7098      2.4664      0.0332     11.1269     15.8763   -999.2500
  2170.2000      7.7098      2.4788      0.0563     10.3748     15.4832   -999.2500
  2170.3000      7.7171      2.4849      0.0943     10.0047     15.4807   -999.2500
  2170.4000      7.7171      2.4753      0.0395     10.5903     15.7438   -999.2500
  2170.5000      7.7296      2.4697     -0.0148     10.9246     15.9304   -999.2500
  2170.6000      7.7296      2.4799      0.0530     10.3087     15.7644   -999.2500
  2170.7000      7.7296      2.4932      0.0284      9.5026     15.2587   -999.2500
  2170.8000      7.7408      2.4988      0.0518      9.1635     14.9031   -999.2500
  2170.9000      7.7408      2.4927      0.0540      9.5310     15.0297   -999.2500
  2171.0000      7.7502      2.4795     -0.0228     10.3322     15.4860   -999.2500
  2171.1000      7.7502      2.4766     -0.0334     10.5063     15.7444   -999.2500
  2171.2000      7.7502      2.4920      0.0364      9.5769     15.6030   -999.2500
  2171.3000      7.7420      2.5130      0.0629      8.3055     15.6812   -999.2500
  2171.4000      7.7420      2.5227      0.0778      7.7133     16.2384   -999.2500
  2171.5000      7.7404      2.5145      0.0648      8.2150     16.4299   -999.2500
  2171.6000      7.7404      2.4985      0.0355      9.1793     15.9043   -999.2500
  2171.7000      7.7404      2.4865      0.0536      9.9071     15.3746   -999.2500
  2171.8000      7.7389      2.4760      0.0483     10.5425     15.2651   -999.2500
  2171.9000      7.7389      2.4677      0.0484     11.0455     15.3771   -999.2500
  2172.0000      7.7410      2.4694      0.0272     10.9433     15.6035   -999.2500
  2172.1000      7.7410      2.4836      0.0366     10.0828     16.4142   -999.2500
  2172.2000      7.7410      2.4996      0.0795      9.1146     19.4346   -999.2500
  2172.3000      7.7384      2.4991      0.0824      9.1463     27.3381   -999.2500
  2172.4000      7.7384      2.4723      0.0784     10.7709     38.8200   -999.2500
  2172.5000      7.7435      2.4313     -0.0009     13.2537     46.9522   -999.2500
  2172.6000      7.7435      2.4025      0.0028     14.9995     49.8854   -999.2500
  2172.7000      7.7435      2.4020     -0.0057     15.0310     50.4607   -999.2500
  2172.8000      7.7439      2.4228      0.0421     13.7683     50.5216   -999.2500
  2172.9000      7.7439      2.4436      0.0407     12.5121     50.5250   -999.2500
  2173.0000      7.7424      2.4485      0.0578     12.2114   -999.2500   -999.2500
  2173.1000      7.7424      2.4370      0.0556     12.9073   -999.2500   -999.2500
  2173.2000      7.7424      2.4242     -0.0037     13.6848   -999.2500   -999.2500
  2173.3000      7.7502      2.4247      0.0239     13.6531   -999.2500   -999.2500
  2173.4000      7.7502      2.4306      0.0523     13.2978   -999.2500   -999.2500
  2173.5000      7.7418      2.4318      0.0314     13.2230   -999.2500   -999.2500
  2173.6000      7.7418      2.4360      0.0145     12.9705   -999.2500   -999.2500
  2173.7000      7.7418      2.4437      0.0565     12.5037   -999.2500   -999.2500
  2173.8000      7.7400      2.4455      0.0525     12.3951   -999.2500   -999.2500
  2173.9000      7.7400      2.4432      0.0485     12.5311   -999.2500   -999.2500
  2174.0000      7.7427      2.4432      0.0502     12.5338   -999.2500   -999.2500
  2174.1000      7.7427      2.4422      0.0460     12.5929   -999.2500   -999.2500
  2174.2000      7.7427      2.4373      0.0297     12.8894   -999.2500   -999.2500
  2174.3000      7.7427      2.4359      0.0198     12.9730   -999.2500   -999.2500
  2174.4000      7.7427      2.4445      0.0204     12.4530   -999.2500   -999.2500
  2174.5000      7.7392      2.4540      0.0553     11.8769   -999.2500   -999.2500
  2174.6000      7.7392      2.4521      0.0333     11.9935   -999.2500   -999.2500
  2174.7000      7.7392      2.4488     -0.0343     12.1939   -999.2500   -999.2500
  2174.8000      7.7344      2.4608      0.0180     11.4682   -999.2500   -999.2500
  2174.9000      7.7344      2.4791      0.0623     10.3594   -999.2500   -999.2500
  2175.0000      7.7359      2.4824      0.0711     10.1597   -999.2500   -999.2500
  2175.1000      7.7359      2.4645      0.0406     11.2451   -999.2500   -999.2500
  2175.2000      7.7359      2.4397      0.0316     12.7477   -999.2500   -999.2500
  2175.3000      7.7376      2.4246      0.0089     13.6597   -999.2500   -999.2500
  2175.4000      7.7376      2.4259     -0.0169     13.5796   -999.2500   -999.2500
  2175.5000      7.7361      2.4436      0.0162     12.5097   -999.2500   -999.2500
  2175.6000      7.7361      2.4680      0.0621     11.0302   -999.2500   -999.2500
  2175.7000      7.7361      2.4770      0.0838     10.4867   -999.2500   -999.2500
  2175.8000      7.7429      2.4604      0.0472     11.4939   -999.2500   -999.2500
  2175.9000      7.7429      2.4374      0.0030     12.8838   -999.2500   -999.2500
