~Version Information
 VERS.                                  2.0 : CWLS LAS VERSION
 WRAP.                                   NO : WRAPING MODE
 SWARE .                 MController 2.5.0J : SOFTWARE VERSION
~Well Information
 WELL.                       Montoya 01-41V : WELL
 COMP.                Petrogulf Corporation : COMPANY
 FLD.                      Purgatoire River : FIELD
 LOC.                NE/NE Sec 01 T33S R68W : LOCATION
 DATE.                             08/21/05 : DATE(S) LOGGED
 SRVC.       BLANCO Geological Services LLC : SERVICE COMPANY
 STAT.                                   CO : STATE
 CNTY.                           Las Animas : COUNTY
 CTRY.                                  USA : COUNTRY
 API.                       05-071-08144-00 : API NUMBER
 STRT.FT                             719.00 : START DEPTH
 STOP.FT                            2945.00 : STOP DEPTH
 STEP.FT                               1.00 : DEPTH INCREMENT
 NULL.                                -9999 : NULL VALUE
~Curve information
 DEPTH.FT                                   :
 ROP.MIN/FT                                 :
 GAS.UNITS                                  :
~ASCII Log data
# ...
       919.0         0.30          7.7 
       920.0         0.23         11.1 
       921.0         0.17         15.0 
       922.0         0.20         22.3 
       923.0         0.20         22.0 
       924.0         0.22         19.2 
       925.0         0.23         15.7 
       926.0         1.80          9.4 
       927.0         0.27          4.8 
       928.0         0.20          4.0 
       929.0         0.17          4.2 
       930.0         0.20          4.3 
       931.0         0.17          4.3 
       932.0         0.18          4.0 
       933.0         0.17          4.2 
       934.0         0.23          4.8 
       935.0         0.17          4.7 
       936.0         0.20          4.1 
       937.0         0.17          4.1 
       938.0         0.20          4.1 
       939.0         0.13          4.6 
       940.0         0.13          4.6 
       941.0         0.13          3.7 
       942.0         0.17          3.7 
       943.0         0.17          4.4 
       944.0         0.20          3.4 
       945.0         0.17          3.6 
       946.0         0.37          5.8 
       947.0         0.20          8.3 
       948.0         0.13         12.9 
       949.0         0.13         12.9 
       950.0         0.18         24.4 
       951.0         0.17         24.4 
       952.0         0.17         26.4 
       953.0         0.17         25.4 
       954.0         0.17         21.3 
       955.0         0.27         17.2 
       956.0         1.33         13.1 
       957.0         0.33          5.4 
       958.0         0.27          5.1 
       959.0         0.30          5.0 
       960.0         0.22          4.4 
       961.0         0.17          4.2 
       962.0         0.17          4.3 
       963.0         0.17          4.2 
       964.0         0.20          4.0 
       965.0         0.20          4.7 
       966.0         0.20          4.0 
       967.0         0.20          3.9 
       968.0         0.20          3.6 
       969.0         0.23          3.8 
       970.0         0.17          3.8 
       971.0         0.17          4.1 
       972.0         0.17          2.9 
       973.0         0.10          3.0 
       974.0         0.13          2.6 
       975.0         0.13          4.4 
       976.0         0.10          4.4 
       977.0         0.10          4.4 
       978.0         0.13          6.6 
       979.0         0.18          8.2 
       980.0         0.13         11.8 
       981.0         0.17         18.7 
       982.0         0.13         22.2 
       983.0         0.17         25.3 
       984.0         0.23         22.4 
       985.0         0.17         18.9 
       986.0         1.63         18.6 
       987.0         0.37          4.8 
       988.0         0.32          4.6 
       989.0         0.27          4.5 
       990.0         0.20          4.3 
       991.0         0.20          4.9 
       992.0         0.20          4.6 
       993.0         0.17          5.6 
       994.0         0.10          5.8 
       995.0         0.17          6.1 
       996.0         0.30          5.6 
       997.0         0.20          4.8 
       998.0         0.17          4.9 
       999.0         0.20          5.5 
      1000.0         0.13          4.8 
      1001.0         0.17          5.1 
      1002.0         0.13          5.1 
      1003.0         0.13          4.9 
      1004.0         0.10          3.9 
      1005.0         0.20          3.9 
      1006.0         0.22          5.0 
      1007.0         0.20          5.0 
      1008.0         0.17          6.3 
      1009.0         0.17          6.7 
      1010.0         0.20          9.0 
      1011.0         0.13         14.6 
      1012.0         0.17         17.5 
      1013.0         0.17         27.7 
      1014.0         0.17         30.1 
      1015.0         0.17         28.2 
      1016.0         2.12         25.3 
      1017.0         0.27          6.1 
      1018.0         0.30          5.2 
      1019.0         0.27          5.6 
      1020.0         0.23          5.2 
      1021.0         0.20          4.9 
      1022.0         0.13          5.3 
      1023.0         0.17          5.4 
      1024.0         0.13          5.4 
      1025.0         0.13          5.5 
      1026.0         0.17          5.4 
      1027.0         0.17          5.0 
      1028.0         0.17          5.0 
      1029.0         0.20          4.9 
      1030.0         0.18          5.4 
      1031.0         0.13          5.0 
      1032.0         0.13          5.0 
      1033.0         0.17          4.6 
      1034.0         0.17          3.8 
      1035.0         0.23          3.8 
      1036.0         0.27          3.4 
      1037.0         0.23          3.8 
      1038.0         0.20          7.5 
      1039.0         0.23          7.5 
      1040.0         0.20         11.7 
      1041.0         0.22         18.3 
      1042.0         0.23         23.4 
      1043.0         0.20         25.0 
      1044.0         0.20         24.0 
      1045.0         0.27         22.5 
      1046.0         1.27         16.7 
      1047.0         0.37          7.9 
      1048.0         0.27          6.9 
      1049.0         0.23          5.2 
      1050.0         0.25          4.5 
      1051.0         0.23          3.9 
      1052.0         0.17          4.3 
      1053.0         0.20          4.1 
      1054.0         0.20          4.0 
      1055.0         0.17          3.3 
      1056.0         0.17          3.3 
      1057.0         0.20          3.7 
      1058.0         0.17          3.9 
      1059.0         0.17          3.5 
      1060.0         0.17          3.5 
      1061.0         0.13          2.9 
      1062.0         0.17          2.9 
      1063.0         0.17          3.1 
      1064.0         0.20          3.4 
      1065.0         0.17          3.7 
      1066.0         0.13          3.7 
      1067.0         0.13          4.7 
      1068.0         0.17          6.0 
      1069.0         0.10          6.8 
      1070.0         0.15          9.2 
      1071.0         0.10          9.7 
      1072.0         0.17         16.3 
      1073.0         0.17         25.5 
      1074.0         0.13         25.3 
      1075.0         0.20         25.5 
      1076.0         2.03         21.9 
      1077.0         0.27          4.7 
      1078.0         0.25          4.9 
      1079.0         0.23          4.1 
      1080.0         0.20          4.0 
      1081.0         0.20          3.7 
      1082.0         0.23          3.7 
      1083.0         0.23          3.5 
      1084.0         0.23          3.8 
      1085.0         0.20          3.8 
      1086.0         0.20          3.6 
      1087.0         0.13          3.4 
      1088.0         0.17          3.4 
      1089.0         0.20          3.4 
      1090.0         0.17          3.4 
      1091.0         0.20          3.0 
      1092.0         0.17          2.9 
      1093.0         0.17          2.8 
      1094.0         0.17          2.4 
      1095.0         0.18          3.3 
      1096.0         0.17          4.6 
      1097.0         0.13          6.0 
      1098.0         0.17          6.8 
      1099.0         0.17          9.6 
      1100.0         0.13         11.5 
      1101.0         0.17         23.9 
      1102.0         0.13         26.5 
      1103.0         0.13         29.5 
      1104.0         0.13         29.6 
      1105.0         0.10         27.7 
      1106.0         0.27         25.5 
      1107.0         0.27         18.7 
      1108.0         1.07         14.7 
      1109.0         0.32          5.3 
      1110.0         0.27          5.2 
      1111.0         0.27          4.6 
      1112.0         0.23          4.5 
      1113.0         0.20          4.1 
      1114.0         0.17          4.2 
      1115.0         0.17          4.2 
      1116.0         0.20          4.2 
      1117.0         0.17          4.2 
      1118.0         0.17          4.2 
