~Version Information
VERS.                      2.0: CWLS Log ASCII Standard - VERSION 2.0
WRAP.                       NO: One line per depth step
~Well Information Block
STRT.FT               500.0000: 
STOP.FT              2732.5000: 
STEP.FT                 0.2500: 
NULL.                -999.2500: 
COMP.          Pioneer Natural Resources: COMPANY
WELL.          Dude Canyon 22-32: WELL
FLD.           Purgatoire River: FIELD
LOC.           1662' FNL & 2446' FWL----: LOCATION
PROV.                 Colorado: PROVINCE
CNTY.               Las Animas: COUNTRY
SRVC.                Patterson: SERVICE COMPANY
DATE.          Thu Mar 10 07:15:42 2005: LOG DATE
UWI.           05 071 08257 00: UNIQUE WELL ID
~Curve Information Block
DEPT.FT            0 000 00 00: Depth
DIR.Ohm-m                     : IEL Induction Resistivity
GR.GAPI                       : Gamma Ray
SN.Ohm-m                      : IEL Short Normal
SP.mV                         : IEL Spontaneous Potential
~Parameter Information Block
~A  Depth       DIR          GR          SN          SP     
# ...
  1840.0000      9.4063    140.9619      9.1793   -103.3315
  1840.2500      9.1370    147.7033      9.0497   -102.7180
  1840.5000      8.8960    160.4976      8.9843   -102.2615
  1840.7500      8.6896    168.7587      8.9705   -101.9697
  1841.0000      8.5260    176.8224      9.0000   -101.8056
  1841.2500      8.4148    178.2767      9.0688   -101.6906
  1841.5000      8.3654    176.0709      9.1740   -101.5184
  1841.7500      8.3854    173.3857      9.3090   -101.1743
  1842.0000      8.4784    169.4004      9.4577   -100.5590
  1842.2500      8.6419    166.9573      9.5918    -99.6103
  1842.5000      8.8659    162.8710      9.6779    -98.3207
  1842.7500      9.1345    158.9908      9.6940    -96.7460
  1843.0000      9.4292    150.2777      9.6505    -95.0010
  1843.2500      9.7344    143.0067      9.5983    -93.2396
  1843.5000     10.0388    133.0834      9.6141    -91.6225
  1843.7500     10.3333    129.3065      9.7629    -90.2805
  1844.0000     10.6051    129.5393     10.0586    -89.2863
  1844.2500     10.8356    132.7631     10.4490    -88.6443
  1844.5000     11.0023    138.7572     10.8373    -88.2994
  1844.7500     11.0855    141.4214     11.1298    -88.1611
  1845.0000     11.0758    141.1486     11.2781    -88.1308
  1845.2500     10.9791    138.1618     11.2968    -88.1229
  1845.5000     10.8182    132.2342     11.2504    -88.0746
  1845.7500     10.6298    129.6689     11.2214    -87.9444
  1846.0000     10.4572    130.4156     11.2764    -87.7035
  1846.2500     10.3406    133.8753     11.4448    -87.3261
  1846.5000     10.3097    141.9951     11.7148    -86.7836
  1846.7500     10.3792    148.3744     12.0408    -86.0465
  1847.0000     10.5472    156.9555     12.3564    -85.0957
  1847.2500     10.7944    160.1212     12.5939    -83.9377
  1847.5000     11.0859    158.9204     12.7065    -82.6172
  1847.7500     11.3756    154.3385     12.6822    -81.2202
  1848.0000     11.6143    143.4288     12.5455    -79.8621
  1848.2500     11.7575    134.6023     12.3475    -78.6632
  1848.5000     11.7711    121.7090     12.1450    -77.7210
  1848.7500     11.6358    115.0991     11.9693    -77.0891
  1849.0000     11.3508    109.5123     11.8020    -76.7703
  1849.2500     10.9352    108.1491     11.5853    -76.7249
  1849.5000     10.4233    108.5297     11.2648    -76.8854
  1849.7500      9.8568    110.5667     10.8276    -77.1746
  1850.0000      9.2767    117.1998     10.3013    -77.5183
  1850.2500      8.7181    123.8706      9.7276    -77.8550
  1850.5000      8.2075    135.4646      9.1415    -78.1411
  1850.7500      7.7628    142.9578      8.5637    -78.3541
  1851.0000      7.3937    152.5009      8.0022    -78.4915
  1851.2500      7.1032    157.6107      7.4556    -78.5668
  1851.5000      6.8889    163.6573      6.9278    -78.6037
  1851.7500      6.7444    166.6175      6.4468    -78.6291
  1852.0000      6.6606    169.4422      6.0726    -78.6670
  1852.2500      6.6275    170.6822      5.8771    -78.7346
  1852.5000      6.6348    172.8630      5.9047    -78.8399
  1852.7500      6.6722    174.7819      6.1390    -78.9821
  1853.0000      6.7288    177.2867      6.5004    -79.1538
  1853.2500      6.7928    177.9052      6.8777    -79.3433
  1853.5000      6.8520    176.7560      7.1767    -79.5377
  1853.7500      6.8951    174.4430      7.3513    -79.7253
  1854.0000      6.9140    168.0261      7.4023    -79.8971
  1854.2500      6.9063    162.0274      7.3575    -80.0467
  1854.5000      6.8749    153.1944      7.2547    -80.1703
  1854.7500      6.8272    149.4587      7.1311    -80.2655
  1855.0000      6.7724    148.4362      7.0158    -80.3302
  1855.2500      6.7199    150.0107      6.9224    -80.3630
  1855.5000      6.6767    153.4730      6.8488    -80.3642
  1855.7500      6.6474    155.5923      6.7847    -80.3369
  1856.0000      6.6327    157.8314      6.7212    -80.2890
  1856.2500      6.6300    158.6019      6.6572    -80.2332
  1856.5000      6.6348    159.0002      6.5969    -80.1870
  1856.7500      6.6415    159.3214      6.5434    -80.1713
  1857.0000      6.6459    160.8321      6.4952    -80.2096
  1857.2500      6.6460    162.6461      6.4500    -80.3262
  1857.5000      6.6426    166.0192      6.4098    -80.5454
  1857.7500      6.6384    168.2320      6.3798    -80.8886
  1858.0000      6.6369    170.7523      6.3638    -81.3719
  1858.2500      6.6411    171.5838      6.3640    -82.0037
  1858.5000      6.6532    171.3777      6.3829    -82.7829
  1858.7500      6.6742    170.4692      6.4231    -83.6991
  1859.0000      6.7049    168.7644      6.4831    -84.7336
  1859.2500      6.7454    168.0453      6.5562    -85.8611
  1859.5000      6.7962    168.9019      6.6324    -87.0529
  1859.7500      6.8582    171.3682      6.7065    -88.2796
  1860.0000      6.9329    177.3647      6.7840    -89.5131
  1860.2500      7.0215    181.3832      6.8823    -90.7277
  1860.5000      7.1251    184.8515      7.0225    -91.8985
  1860.7500      7.2436    185.3650      7.2172    -92.9998
  1861.0000      7.3767    185.4758      7.4619    -94.0031
  1861.2500      7.5249    185.9865      7.7354    -94.8779
  1861.5000      7.6903    186.3684      8.0118    -95.5941
  1861.7500      7.8767    184.8926      8.2723    -96.1254
  1862.0000      8.0894    178.8931      8.5116    -96.4519
  1862.2500      8.3339    173.2104      8.7342    -96.5611
  1862.5000      8.6143    164.9030      8.9486    -96.4472
  1862.7500      8.9304    160.6030      9.1612    -96.1119
  1863.0000      9.2751    156.3077      9.3720    -95.5658
  1863.2500      9.6335    154.7145      9.5737    -94.8319
  1863.5000      9.9850    154.0189      9.7566    -93.9476
  1863.7500     10.3074    154.0327      9.9210    -92.9641
  1864.0000     10.5823    151.9292     10.0871    -91.9426
  1864.2500     10.7993    147.4765     10.2892    -90.9468
  1864.5000     10.9593    136.7182     10.5556    -90.0354
  1864.7500     11.0735    129.2981     10.8831    -89.2541
  1865.0000     11.1582    122.2857     11.2285    -88.6308
  1865.2500     11.2268    121.2176     11.5248    -88.1718
  1865.5000     11.2843    123.6693     11.7131    -87.8634
  1865.7500     11.3264    126.8889     11.7678    -87.6763
  1866.0000     11.3442    132.4696     11.7017    -87.5734
  1866.2500     11.3326    135.4229     11.5542    -87.5202
  1866.5000     11.2956    136.4082     11.3739    -87.4922
  1866.7500     11.2483    134.4860     11.2060    -87.4785
  1867.0000     11.2123    129.4732     11.0866    -87.4796
  1867.2500     11.2090    125.8985     11.0424    -87.5012
  1867.5000     11.2532    121.2484     11.0905    -87.5456
  1867.7500     11.3489    119.1609     11.2353    -87.6046
  1868.0000     11.4898    118.8077     11.4629    -87.6555
  1868.2500     11.6643    120.7061     11.7403    -87.6623
  1868.5000     11.8626    125.8935     12.0253    -87.5816
  1868.7500     12.0821    130.2095     12.2847    -87.3723
  1869.0000     12.3285    136.9792     12.5096    -87.0046
  1869.2500     12.6132    140.6719     12.7203    -86.4675
  1869.5000     12.9510    142.3723     12.9639    -85.7713
  1869.7500     13.3597    140.1874     13.3082    -84.9456
  1870.0000     13.8600    133.9037     13.8376    -84.0341
  1870.2500     14.4727    129.9472     14.6453    -83.0868
  1870.5000     15.2111    126.5305     15.8125    -82.1537
  1870.7500     16.0720    125.3521     17.3680    -81.2792
  1871.0000     17.0274    122.6929     19.2473    -80.5003
  1871.2500     18.0241    119.3775     21.2880    -79.8461
  1871.5000     18.9957    112.6157     23.2910    -79.3370
  1871.7500     19.8815    108.0038     25.1158    -78.9844
  1872.0000     20.6415    102.0361     26.7324    -78.7894
  1872.2500     21.2604     98.2417     28.1949    -78.7425
  1872.5000     21.7455     91.4482     29.5744    -78.8256
  1872.7500     22.1192     86.2226     30.9086    -79.0152
  1873.0000     22.4107     78.7725     32.1887    -79.2867
  1873.2500     22.6459     74.5822     33.3663    -79.6175
