~Version Information
VERS.                      2.0: CWLS Log ASCII Standard - VERSION 2.0
WRAP.                       NO: One line per depth step
~Well Information Block
STRT.FT               825.0000: 
STOP.FT              2446.5000: 
STEP.FT                 0.2500: 
NULL.                -999.2500: 
COMP.          Petrogulf Corporation: COMPANY
WELL.            Kraft 17-23 V: WELL
FLD.           Purgatorie River: FIELD
LOC.           1500' FSL & 1773' FWL: LOCATION
CNTY.               Las Animas: COUNTY
SRVC.                         : SERVICE COMPANY
DATE.          Thu Nov 20 06:35:41 2003: LOG DATE
UWI.                          : UNIQUE WELL ID
STAT.                 Colorado: STATE
~Curve Information Block
DEPT.FT            0 000 00 00: Depth
SN.Ohm-m                      : IEL Short Normal
SP.mV                         : IEL Spontaneous Potential
DIR.Ohm-m                     : IEL Induction Resistivity
GR.GAPI                       : Gamma Ray
~Parameter Information Block
~A  Depth        SN          SP         DIR          GR     
# ...
  1260.5000     17.2702    -37.0360     11.5791     81.0424
  1260.7500     17.0857    -36.4195     11.5919     80.2535
  1261.0000     16.6866    -36.0135     11.5430     78.9382
  1261.2500     16.4355    -35.9289     11.4552     78.6818
  1261.5000     16.5165    -36.1833     11.3453     80.1647
  1261.7500     16.7271    -36.6534     11.2244     82.5567
  1262.0000     16.8479    -37.1315     11.1080     87.7062
  1262.2500     16.8539    -37.4123     11.0240     91.4397
  1262.5000     16.7346    -37.3740     11.0115     96.1706
  1262.7500     16.4629    -37.0616     11.1093     98.3589
  1263.0000     16.2395    -36.6862     11.3434    100.1915
  1263.2500     16.3948    -36.4821     11.7201    100.6025
  1263.5000     17.0043    -36.5627     12.2264    100.5527
  1263.7500     18.0804    -36.9048     12.8362    100.6023
  1264.0000     19.8897    -37.4209     13.5194    101.4258
  1264.2500     22.5356    -38.0333     14.2438    102.2173
  1264.5000     25.6151    -38.7202     14.9691    102.3801
  1264.7500     28.4371    -39.5206     15.6322    101.1247
  1265.0000     30.3388    -40.4843     16.1376     97.4231
  1265.2500     31.2602    -41.6023     16.3704     94.5680
  1265.5000     31.9728    -42.7803     16.2417     90.9168
  1265.7500     33.0953    -43.8808     15.7459     88.9858
  1266.0000     34.3751    -44.8220     14.9779     86.2965
  1266.2500     35.1845    -45.6555     14.0870     84.3243
  1266.5000     35.0710    -46.5230     13.2102     80.6210
  1266.7500     33.9265    -47.5014     12.4288     77.3667
  1267.0000     31.9958    -48.5096     11.7637     71.1857
  1267.2500     29.5107    -49.4134     11.1922     66.5986
  1267.5000     26.4327    -50.2062     10.6677     60.4109
  1267.7500     22.9138    -51.0257     10.1410     57.7047
  1268.0000     19.5190    -51.9642      9.5798     57.2219
  1268.2500     16.6812    -52.9041      8.9817     59.8291
  1268.5000     14.4021    -53.5892      8.3742     68.2429
  1268.7500     12.5900    -53.8512      7.8001     76.2880
  1269.0000     11.3893    -53.7324      7.2986     89.7636
  1269.2500     11.0753    -53.4041      6.8929     97.8186
  1269.5000     11.4876    -53.0154      6.5871    105.7670
  1269.7500     11.6517    -52.6211      6.3709    107.9200
  1270.0000     10.6581    -52.2071      6.2260    108.1363
  1270.2500      8.8119    -51.7464      6.1334    107.7902
  1270.5000      7.1793    -51.2495      6.0779    108.1609
  1270.7500      6.3789    -50.7963      6.0506    109.0760
  1271.0000      6.3214    -50.5311      6.0474    110.7875
  1271.2500      6.6403    -50.5808      6.0663    111.7192
  1271.5000      7.0120    -50.9296      6.1061    112.1109
  1271.7500      7.3688    -51.4109      6.1658    111.2929
  1272.0000      7.8571    -51.8909      6.2455    108.1378
  1272.2500      8.4734    -52.4163      6.3455    105.1482
  1272.5000      8.9885    -53.0849      6.4637    100.9702
  1272.7500      9.2759    -53.7953      6.5940     99.3477
  1273.0000      9.4575    -54.2857      6.7293     99.2630
  1273.2500      9.6945    -54.4809      6.8667    100.4705
  1273.5000      9.9864    -54.6564      7.0146    103.1320
  1273.7500     10.1667    -55.1393      7.1940    104.8235
  1274.0000     10.1531    -55.9598      7.4324    106.3570
  1274.2500     10.2570    -56.8971      7.7539    106.5202
  1274.5000     10.8366    -57.7568      8.1709    105.8301
  1274.7500     11.7200    -58.4817      8.6795    105.1337
  1275.0000     12.5719    -59.0713      9.2586    104.1493
  1275.2500     13.5113    -59.5146      9.8721    103.5011
  1275.5000     14.8252    -59.8048     10.4702    102.0719
  1275.7500     16.2843    -59.9595     10.9916    100.5508
  1276.0000     17.2196    -60.0074     11.3701     97.6936
  1276.2500     17.2595    -59.9675     11.5474     96.0085
  1276.5000     16.6838    -59.8652     11.4907     94.5159
  1276.7500     16.0374    -59.7679     11.2073     94.0431
  1277.0000     15.5729    -59.7955     10.7467     93.4609
  1277.2500     15.2454    -60.0499     10.1872     92.8797
  1277.5000     14.8775    -60.4756      9.6104     91.1816
  1277.7500     14.1492    -60.7758      9.0791     89.2671
  1278.0000     12.9627    -60.5579      8.6244     86.0020
  1278.2500     11.7266    -59.6611      8.2487     84.7310
  1278.5000     10.8481    -58.3328      7.9372     85.6257
  1278.7500     10.3825    -57.0457      7.6714     87.7251
  1279.0000     10.2540    -56.1717      7.4386     90.9611
  1279.2500     10.2033    -55.8266      7.2361     92.0803
  1279.5000      9.8842    -55.9230      7.0688     91.9057
  1279.7500      9.4282    -56.2892      6.9437     91.1183
  1280.0000      9.2914    -56.7500      6.8664     89.9059
  1280.2500      9.6015    -57.1624      6.8393     89.0763
  1280.5000     10.0930    -57.4396      6.8620     86.9970
  1280.7500     10.4153    -57.5818      6.9320     84.8286
  1281.0000     10.3892    -57.6805      7.0457     81.3733
  1281.2500     10.0710    -57.8596      7.1987     79.9958
  1281.5000      9.6161    -58.1800      7.3873     80.7565
  1281.7500      9.2092    -58.5872      7.6089     83.4324
  1282.0000      9.0694    -58.9430      7.8617     90.2857
  1282.2500      9.4655    -59.1290      8.1434     96.0182
  1282.5000     10.7087    -59.1473      8.4507    104.3977
  1282.7500     12.9111    -59.1071      8.7832    108.5985
  1283.0000     15.6989    -59.0786      9.1508    111.6065
  1283.2500     18.3860    -58.9936      9.5825    111.5600
  1283.5000     20.4965    -58.7372     10.1254    109.5069
  1283.7500     21.9802    -58.2892     10.8339    107.3504
  1284.0000     22.9839    -57.7203     11.7468    103.3227
  1284.2500     23.6872    -57.0848     12.8575    100.2236
  1284.5000     24.2737    -56.3631     14.0875     95.2085
  1284.7500     24.8038    -55.5092     15.2799     91.9401
  1285.0000     25.2187    -54.5673     16.2399     88.4382
  1285.2500     25.5784    -53.7727     16.8137     88.0957
  1285.5000     26.1451    -53.4752     16.9568     91.4799
  1285.7500     27.0386    -53.8454     16.7434     95.6356
  1286.0000     27.9795    -54.6243     16.3223    101.9349
  1286.2500     28.5643    -55.2363     15.8567    104.6952
  1286.5000     28.5398    -55.1983     15.4752    105.8026
  1286.7500     27.8560    -54.4138     15.2478    104.8087
  1287.0000     26.6914    -53.1139     15.1816    101.3807
  1287.2500     25.4092    -51.6065     15.2317     98.0946
  1287.5000     24.4795    -50.0964     15.3247     92.8018
  1287.7500     24.1684    -48.6610     15.3837     90.3657
  1288.0000     24.3027    -47.3353     15.3534     90.8995
  1288.2500     24.4913    -46.2204     15.2134     94.7801
  1288.5000     24.2881    -45.5278     14.9794    104.8399
  1288.7500     23.4492    -45.4699     14.6965    112.6613
  1289.0000     22.3892    -46.0405     14.4293    122.8780
  1289.2500     21.8607    -46.9336     14.2486    127.4380
  1289.5000     22.2476    -47.7518     14.2211    129.8736
  1289.7500     23.5359    -48.3080     14.4024    128.2562
  1290.0000     25.4453    -48.7074     14.8336    121.1700
  1290.2500     27.5207    -49.1760     15.5335    114.3046
  1290.5000     29.4490    -49.8461     16.4809    103.5270
  1290.7500     31.2037    -50.7056     17.5870     97.3738
  1291.0000     32.9168    -51.6906     18.6842     90.5933
  1291.2500     34.7027    -52.7277     19.5701     87.6664
  1291.5000     36.4067    -53.6759     20.1197     85.4606
  1291.7500     37.7396    -54.3477     20.3746     85.3719
  1292.0000     38.8487    -54.6805     20.5164     87.1541
  1292.2500     40.1673    -54.8381     20.7553     89.3043
  1292.5000     41.7832    -55.0843     21.2403     92.4915
  1292.7500     43.6285    -55.5854     22.0233     93.2295
  1293.0000     45.9141    -56.3264     23.0566     90.4306
  1293.2500     48.8352    -57.1180     24.1986     86.0222
  1293.5000     52.2106    -57.6488     25.2340     77.6767
  1293.7500     55.7040    -57.6377     25.9346     72.5271
