~Version Information
VERS.                      2.0: CWLS Log ASCII Standard - VERSION 2.0
WRAP.                       NO: One line per depth step
~Well Information Block
STRT.FT                -0.2500: 
STOP.FT              2376.7500: 
STEP.FT                 0.2500: 
NULL.                -999.2500: 
COMP.          Petrogulf Corporation: COMPANY
WELL.             State 16-23V: WELL
FLD.           Purgatorie River: FIELD
LOC.           2414' FSL & 2215' FWL: LOCATION
PROV.                 Colorado: PROVINCE
CNTY.               Las Animas: COUNTRY
SRVC.          Patterson Wireline: SERVICE COMPANY
DATE.          Wed Jun 25 14:56:54 2003: LOG DATE
UWI.           05 071 07865 00: UNIQUE WELL ID
~Curve Information Block
DEPT.FT            0 000 00 00: Depth
CCL.                          : Casing Collar Locator
TT3.usec                      : CBL 3' Travel Time
AMP3.mV                       : CBL 3' Amplitude
GR.GAPI                       : Gamma Ray
~Parameter Information Block
~A  Depth       CCL         TT3         AMP3         GR     
# ...
  2177.2500      0.0000    745.2946      3.7533     80.6309
  2177.5000      0.0000    742.6055      3.8921     80.1757
  2177.7500      0.0000    740.1053      4.0771     78.9831
  2178.0000      0.0000    740.4261      4.1963     78.5586
  2178.2500      0.0000    743.9296      4.2009     79.8267
  2178.5000      0.0000    748.7532      4.0975     82.2026
  2178.7500      0.0000    752.7281      3.9157     84.1376
  2179.0000      0.0000    754.9224      3.6959     84.5247
  2179.2500      0.0000    755.5510      3.4753     83.4405
  2179.5000      0.0000    755.0237      3.2765     81.7371
  2179.7500      0.0000    753.2120      3.1125     80.2999
  2180.0000      0.0000    749.2564      2.9852     79.6462
  2180.2500      0.0000    741.8926      2.8724     79.7828
  2180.5000      0.0000    730.3192      2.7416     80.2432
  2180.7500      0.0000    715.1968      2.5891     80.4360
  2181.0000      0.0000    699.0453      2.4443     80.2178
  2181.2500      0.0000    685.5523      2.3300     80.1258
  2181.5000      0.0000    678.1633      2.2473     80.8001
  2181.7500      0.0000    678.6675      2.1943     82.1259
  2182.0000      0.0000    686.1053      2.1665     83.1210
  2182.2500      0.0000    696.1886      2.1456     82.7133
  2182.5000      0.0000    702.4125      2.1117     80.4587
  2182.7500      0.0000    699.7596      2.0617     76.6278
  2183.0000      0.0000    688.4327      2.0138     72.0290
  2183.2500      0.0000    673.4841      1.9941     67.8227
  2183.5000      0.0000    660.6011      2.0105     65.0430
  2183.7500      0.0000    652.5765      2.0408     64.0534
  2184.0000      0.0000    649.2396      2.0544     64.6229
  2184.2500      0.0000    649.4965      2.0357     66.5617
  2184.5000      0.0000    652.9022      1.9889     69.8652
  2184.7500      0.0000    659.6042      1.9288     73.9068
  2185.0000      0.0000    669.2692      1.8618     76.8928
  2185.2500      0.0000    680.4033      1.7851     76.9259
  2185.5000      0.0000    691.0955      1.7095     73.8015
  2185.7500      0.0000    700.3483      1.6512     69.4071
  2186.0000      0.0000    708.1811      1.5937     66.3066
  2186.2500      0.0000    714.1636      1.5066     66.0135
  2186.5000      0.0000    716.2570      1.4115     68.2753
  2186.7500      0.0000    711.6418      1.3768     71.5849
  2187.0000      0.0000    699.0668      1.4404     74.2986
  2187.2500      0.0000    680.9955      1.5732     75.4797
  2187.5000      0.0000    663.8803      1.7074     75.0513
  2187.7500      0.0000    655.1981      1.7711     73.5041
  2188.0000      0.0000    658.3134      1.7320     71.4560
  2188.2500      0.0000    669.6588      1.6356     69.3145
  2188.5000      0.0000    681.6143      1.5607     67.1879
  2188.7500     -2.0000    688.4742      1.5249     64.9975
  2189.0000      0.0000    689.6344      1.4905     62.7239
  2189.2500      0.0000    687.7111      1.4539     60.7992
  2189.5000      0.0000    684.7225      1.4498     60.1534
  2189.7500      0.0000    680.5106      1.4711     61.3345
  2190.0000      0.0000    674.2718      1.4694     63.4689
  2190.2500      0.0000    666.5940      1.4421     64.6548
  2190.5000      0.0000    659.4319      1.4371     63.6568
  2190.7500      0.0000    654.4469      1.4678     60.8661
  2191.0000      0.0000    651.9028      1.5055     57.5335
  2191.2500      0.0000    651.0259      1.5585     54.5436
  2191.5000      0.0000    650.9786      1.6663     52.0967
  2191.7500      0.0000    651.4522      1.7972     50.0938
  2192.0000      0.0000    652.7770      1.8426     48.3970
  2192.2500      0.0000    655.7048      1.7533     46.8967
  2192.5000      0.0000    660.8014      1.6154     45.6591
  2192.7500      0.0000    667.5062      1.5402     45.0849
  2193.0000      0.0000    673.7538      1.5263     45.8511
  2193.2500      0.0000    677.2498      1.4939     48.6494
  2193.5000      0.0000    677.7655      1.4298     53.8216
  2193.7500      0.0000    677.9041      1.4168     60.9247
  2194.0000      0.0000    681.0067      1.5034     68.6649
  2194.2500      0.0000    688.3363      1.6163     75.6982
  2194.5000      0.0000    698.7488      1.6529     81.6350
  2194.7500      0.0000    710.7935      1.6284     86.8324
  2195.0000      0.0000    724.2042      1.6762     91.1088
  2195.2500      0.0000    739.1191      1.9014     93.3263
  2195.5000      0.0000    754.4519      2.2821     92.7517
  2195.7500      0.0000    767.2077      2.7459     90.4914
  2196.0000      0.0000    773.0829      3.3060     88.8801
  2196.2500      0.0000    768.3680      4.0648     89.4005
  2196.5000      0.0000    752.7388      5.0739     91.5966
  2196.7500      0.0000    730.6476      6.2309     93.9175
  2197.0000      0.0000    709.2863      7.3341     95.0947
  2197.2500      0.0000    694.7550      8.2311     94.7192
  2197.5000      0.0000    689.7446      8.8976     93.1169
  2197.7500      0.0000    693.5126      9.3730     91.0429
  2198.0000      0.0000    702.7592      9.6473     89.2528
  2198.2500      0.0000    713.0127      9.6385     87.9973
  2198.5000      0.0000    720.9625      9.2619     86.9787
  2198.7500      0.0000    726.3267      8.5073     85.9530
  2199.0000      0.0000    731.1523      7.4825     85.0846
  2199.2500      0.0000    737.1910      6.3984     84.4969
  2199.5000      0.0000    744.1909      5.4804     83.9556
  2199.7500      0.0000    750.5661      4.8630     83.4067
  2200.0000      0.0000    755.1567      4.5436     83.4818
  2200.2500      0.0000    758.1438      4.4023     85.0861
  2200.5000      0.0000    760.5541      4.2617     88.4603
  2200.7500      0.0000    763.1254      3.9855     92.7330
  2201.0000      0.0000    765.5529      3.5712     96.4290
  2201.2500      0.0000    766.8211      3.1464     98.5210
  2201.5000      0.0000    766.3494      2.8597     99.1220
  2201.7500      0.0000    764.6846      2.7817     99.2121
  2202.0000      0.0000    762.9503      2.8978     99.7145
  2202.2500      0.0000    761.8565      3.1503    100.7609
  2202.5000      0.0000    761.3871      3.4515    101.6607
  2202.7500      0.0000    761.1827      3.6707    101.5286
  2203.0000      0.0000    760.9772      3.6627    100.0201
  2203.2500      0.0000    760.6949      3.3582     97.4842
  2203.5000      0.0000    760.2473      2.8341     94.6216
  2203.7500      0.0000    759.2814      2.2722     92.2468
  2204.0000      0.0000    757.0144      1.8408     91.2878
  2204.2500      0.0000    752.2245      1.6166     92.4681
  2204.5000      0.0000    743.6028      1.5976     95.5799
  2204.7500      0.0000    730.6506      1.7518     99.1719
  2205.0000      0.0000    714.7045      2.0360    101.2704
  2205.2500      0.0000    699.0912      2.3912    100.6060
  2205.5000      0.0000    687.7714      2.7436     97.3669
  2205.7500      0.0000    683.1736      3.0195     93.0393
  2206.0000      0.0000    685.0458      3.1584     89.4501
  2206.2500      0.0000    691.6141      3.1206     87.5809
  2206.5000      0.0000    701.8129      2.8925     86.9867
  2206.7500      0.0000    715.8100      2.4921     86.1984
  2207.0000      0.0000    733.0372      1.9738     83.7193
  2207.2500      0.0000    750.5031      1.4234     79.0020
  2207.5000      0.0000    764.2039      0.9341     72.9155
  2207.7500      0.0000    772.2947      0.5733     67.2082
  2208.0000      0.0000    776.1436      0.3617     63.2612
  2208.2500      0.0000    778.2176      0.2778     61.2958
  2208.5000      0.0000    779.5878      0.2827     60.7908
  2208.7500      0.0000    779.6241      0.3506     61.3658
  2209.0000      0.0000    777.7681      0.4858     62.9814
  2209.2500      0.0000    775.2427      0.7115     65.4076
  2209.5000      0.0000    774.4020      1.0318     67.9697
  2209.7500      0.0000    776.0547      1.4003     70.2455
  2210.0000      0.0000    777.6979      1.7364     72.8768
  2210.2500      0.0000    774.5878      1.9914     77.1320
  2210.5000      0.0000    762.7960      2.1898     83.4062
