~Version Information
VERS.                      2.0: CWLS Log ASCII Standard - VERSION 2.0
WRAP.                       NO: One line per depth step
~Well Information Block
STRT.FT                -6.5000: 
STOP.FT              1719.0000: 
STEP.FT                 0.5000: 
NULL.                -999.2500: 
COMP.          Pioneer Natural Resources: COMPANY
WELL.             Tami J 23-18: WELL
FLD.           Purgatorie River: FIELD
LOC.           2250' FSL & 2400' FWL: LOCATION
PROV.                 Colorado: PROVINCE
CNTY.               Las Animas: COUNTRY
SRVC.          Patterson Wireline: SERVICE COMPANY
DATE.          Fri Dec 17 13:50:12 2004: LOG DATE
UWI.           05-071-08073-00: UNIQUE WELL ID
~Curve Information Block
DEPT.FT            0 000 00 00: Depth
CCL.                          : Casing Collar Locator
TT3.usec                      : CBL 3' Travel Time
AMP3.mV                       : CBL 3' Amplitude
GR.GAPI                       : Gamma Ray
~Parameter Information Block
~A  Depth       CCL         TT3         AMP3         GR     
# ...
  1668.5000      0.0000    551.6400      5.0082     90.5578
  1669.0000      0.0000    552.0653      5.0784     88.1485
  1669.5000      0.0000    553.8284      5.1248     88.1392
  1670.0000      0.0000    556.8243      5.0954     88.0319
  1670.5000      0.0000    552.5780      5.0484     87.9029
  1671.0000      0.0000    545.2552      5.0352     89.4564
  1671.5000      0.0000    576.3763      5.2888     92.5438
  1672.0000      0.0000    627.8036      5.1384     96.5614
  1672.5000      0.0000    646.5457      4.9238    101.0495
  1673.0000      0.0000    645.5148      5.4885     99.3527
  1673.5000      0.0000    626.6122      5.7795     89.2996
  1674.0000      0.0000    577.7244      5.2823     84.2696
  1674.5000      0.0000    542.7438      5.1662     87.6912
  1675.0000      0.0000    547.3226      5.6043     93.6976
  1675.5000      0.0000    565.1031      5.4744     99.1580
  1676.0000      0.0000    577.4847      5.1626    100.6237
  1676.5000      0.0000    595.1877      5.3055     98.2696
  1677.0000      0.0000    626.9318      5.1769     94.9929
  1677.5000      0.0000    625.5929      4.8047     93.5307
  1678.0000      0.0000    598.8494      5.0938     93.1211
  1678.5000      0.0000    602.7695      5.5943     93.7014
  1679.0000      0.0000    616.3306      5.3700     97.4795
  1679.5000      0.0000    603.0452      4.5383     99.2495
  1680.0000      0.0000    587.3129      4.2182     94.8794
  1680.5000      0.0000    586.9920      4.7496     92.3218
  1681.0000      0.0000    588.4959      5.4215     94.5824
  1681.5000      0.0000    593.2943      5.4755     96.3019
  1682.0000      0.0000    602.6102      5.0374     97.4440
  1682.5000      0.0000    578.5218      4.8302     99.1849
  1683.0000      0.0000    533.7580      5.5122     98.1168
  1683.5000      0.0000    515.3654      6.1655     92.5654
  1684.0000      0.0000    517.6977      5.7604     88.3843
  1684.5000      0.0000    513.4305      4.8095     88.5489
  1685.0000      0.0000    504.2379      4.5605     86.7354
  1685.5000      0.0000    500.5309      5.1636     87.4367
  1686.0000      0.0000    499.2791      5.7703     94.3812
  1686.5000      0.0000    498.5156      6.0168     96.7697
  1687.0000      0.0000    502.4872      6.2044     91.3718
  1687.5000      0.0000    517.2586      6.5094     86.8813
  1688.0000      0.0000    538.1121      6.6566     87.7863
  1688.5000      0.0000    562.9159      6.3131     87.6557
  1689.0000      0.0000    602.0328      5.7065     89.4571
  1689.5000      0.0000    631.9177      4.9684     94.4811
  1690.0000      0.0000    641.7790      4.0896     95.5883
  1690.5000      0.0000    633.9627      3.6264     96.7888
  1691.0000      0.0000    613.7332      3.6175    101.3131
  1691.5000      0.0000    609.1100      3.8165     99.7493
  1692.0000      0.0000    626.4794      4.1574     95.4718
  1692.5000      0.0000    634.0476      4.4265     94.1257
  1693.0000      0.0000    588.0508      4.2536     89.9299
  1693.5000      0.0000    532.9481      3.8494     84.2141
  1694.0000      0.0000    517.9222      3.6680     85.1616
  1694.5000      0.0000    527.8381      3.7496     86.4769
  1695.0000      0.0000    532.1015      4.0481     81.4739
  1695.5000      0.0000    527.0186      4.5098     80.3010
  1696.0000      0.0000    528.8567      5.2415     85.2235
  1696.5000      0.0000    539.2221      5.9286     87.8675
  1697.0000      0.0000    545.6556      6.4115     91.4450
  1697.5000      0.0000    546.1469      6.6748     92.4489
  1698.0000      0.0000    541.6066      6.4935     90.0250
  1698.5000      0.0000    529.4485      6.0037     91.3382
  1699.0000      0.0000    519.9479      5.3161     92.2583
  1699.5000      0.0000    524.5196      4.5953     89.2450
  1700.0000      0.0000    530.2286      4.2980     92.6553
  1700.5000      0.0000    535.0010      4.8220     98.7775
  1701.0000      0.0000    553.0915      5.8072     95.1109
  1701.5000      0.0000    601.3959      6.5197     90.0509
  1702.0000      0.0000    657.3953      6.4502     95.8471
  1702.5000      0.0000    667.6059      5.5337    100.4040
  1703.0000      0.0000    664.6483      4.7492    102.3126
  1703.5000      0.0000    683.5290      5.0998    101.2634
  1704.0000      0.0000    705.0641      5.8943     93.5957
  1704.5000      0.0000    723.7386      5.8142     81.3712
  1705.0000      0.0000    718.7207      5.0345     67.1925
  1705.5000      0.0000    701.5474      4.7477     47.9182
  1706.0000      0.0000    713.6775      5.4366     22.1405
  1706.5000      0.0000    755.0753      6.2525      5.1941
  1707.0000      0.0000    801.5821      6.1634      0.5397
  1707.5000      0.0000    826.0457      5.3660      0.0224
  1708.0000      0.0000    807.7881      5.2489   -999.2500
  1708.5000      0.0000    761.0963      6.1426   -999.2500
  1709.0000      0.0000    732.1743      6.8229   -999.2500
  1709.5000      0.0000    746.8930      6.9069   -999.2500
  1710.0000      0.0000    770.3184      6.7485   -999.2500
  1710.5000      0.0000    751.7425      6.2869   -999.2500
  1711.0000      0.0000    606.3110      5.3214   -999.2500
  1711.5000      0.0000    314.9510      3.7744   -999.2500
  1712.0000      0.0000     81.9984      2.5028   -999.2500
  1712.5000      0.0000      9.1771      2.0901   -999.2500
  1713.0000      0.0000      0.4043      2.0394   -999.2500
  1713.5000      0.0000   -999.2500   -999.2500   -999.2500
  1714.0000      0.0000   -999.2500   -999.2500   -999.2500
  1714.5000      0.0000   -999.2500   -999.2500   -999.2500
  1715.0000      0.0000   -999.2500   -999.2500   -999.2500
  1715.5000      0.0000   -999.2500   -999.2500   -999.2500
  1716.0000      0.0000   -999.2500   -999.2500   -999.2500
  1716.5000      0.0000   -999.2500   -999.2500   -999.2500
  1717.0000      0.0000   -999.2500   -999.2500   -999.2500
  1717.5000      0.0000   -999.2500   -999.2500   -999.2500
  1718.0000      0.0000   -999.2500   -999.2500   -999.2500
  1718.5000      0.0000   -999.2500   -999.2500   -999.2500
  1719.0000   -999.2500   -999.2500   -999.2500   -999.2500
