~Version Information
VERS.                      2.0: CWLS Log ASCII Standard - VERSION 2.0
WRAP.                       NO: One line per depth step
~Well Information Block
STRT.FT               640.0000: 
STOP.FT               927.0000: 
STEP.FT                 0.2500: 
NULL.                -999.2500: 
COMP.          Pioneer Natural Resources: COMPANY
WELL.          Claim Jumper 41-22: WELL
FLD.           Purgatoire River: FIELD
LOC.           1120' FNL & 977' FEL: LOCATION
PROV.                 Colorado: PROVINCE
CNTY.               Las Animas: COUNTRY
SRVC.                Patterson: SERVICE COMPANY
DATE.          Wed Jun 22 15:44:21 2005: LOG DATE
UWI.           05-071-08405-00: UNIQUE WELL ID
~Curve Information Block
DEPT.FT            0 000 00 00: Depth
DIR.Ohm-m                     : IEL Induction Resistivity
GR.GAPI                       : Gamma Ray
~Parameter Information Block
~A  Depth       DIR          GR     
# ...
   751.5000     27.3249     68.0416
   751.7500     26.0099     68.5581
   752.0000     24.7862     68.6590
   752.2500     23.7190     68.3866
   752.5000     22.8053     68.1005
   752.7500     21.9876     68.7857
   753.0000     21.2039     72.4493
   753.2500     20.4377     76.6796
   753.5000     19.7294     83.9589
   753.7500     19.1427     87.9561
   754.0000     18.7227     91.4198
   754.2500     18.4779     92.7229
   754.5000     18.3871     95.5798
   754.7500     18.4151     98.8098
   755.0000     18.5259    104.3784
   755.2500     18.6888    106.9476
   755.5000     18.8816    106.8441
   755.7500     19.0882    103.8411
   756.0000     19.2921     95.9792
   756.2500     19.4670     89.3917
   756.5000     19.5767     78.8575
   756.7500     19.5940     72.5148
   757.0000     19.5273     67.3169
   757.2500     19.4302     68.8287
   757.5000     19.3756     79.7800
   757.7500     19.4145     91.4559
   758.0000     19.5477    110.8295
   758.2500     19.7282    122.3187
   758.5000     19.8878    134.5909
   758.7500     19.9701    138.8485
   759.0000     19.9508    139.6326
   759.2500     19.8396    137.5397
   759.5000     19.6706    134.1694
   759.7500     19.4938    133.9129
   760.0000     19.3700    137.1530
   760.2500     19.3605    139.9338
   760.5000     19.5093    140.5840
   760.7500     19.8268    136.8562
   761.0000     20.2832    124.7851
   761.2500     20.8192    114.0475
   761.5000     21.3692     98.6105
   761.7500     21.8877     91.3703
   762.0000     22.3664     87.0135
   762.2500     22.8311     87.6716
   762.5000     23.3181     90.6747
   762.7500     23.8397     92.1085
   763.0000     24.3638     91.8830
   763.2500     24.8271     90.4606
   763.5000     25.1828     88.0740
   763.7500     25.4504     87.1315
   764.0000     25.7205     86.6964
   764.2500     26.1070     86.2224
   764.5000     26.6835     83.6510
   764.7500     27.4450     80.5576
   765.0000     28.3089     75.2230
   765.2500     29.1476     72.2557
   765.5000     29.8368     69.7681
   765.7500     30.2992     69.5682
   766.0000     30.5268     71.2599
   766.2500     30.5718     73.4788
   766.5000     30.5066     77.8486
   766.7500     30.3798     80.8838
   767.0000     30.1964     84.2629
   767.2500     29.9340     85.1050
   767.5000     29.5766     84.3034
   767.7500     29.1336     83.0843
   768.0000     28.6313     81.5853
   768.2500     28.0953     81.1464
   768.5000     27.5458     81.1746
   768.7500     27.0082     81.7456
   769.0000     26.5154     84.6736
   769.2500     26.0877     88.8004
   769.5000     25.6999     97.7270
   769.7500     25.2667    103.8469
   770.0000     24.6738    109.9890
   770.2500     23.8481    110.9781
   770.5000     22.8152    107.7924
   770.7500     21.6880    103.3918
   771.0000     20.5994     96.1798
   771.2500     19.6423     93.1317
   771.5000     18.8566     94.0811
   771.7500     18.2525     98.5558
   772.0000     17.8348    108.6388
   772.2500     17.6100    115.6649
   772.5000     17.5775    124.2425
   772.7500     17.7148    128.0268
   773.0000     17.9725    130.8284
   773.2500     18.2832    131.2751
   773.5000     18.5855    130.6675
   773.7500     18.8511    129.4198
   774.0000     19.0915    125.7300
   774.2500     19.3416    122.0105
   774.5000     19.6349    115.3384
   774.7500     19.9977    110.8043
   775.0000     20.4588    104.4921
   775.2500     21.0574    100.6440
   775.5000     21.8290     95.5794
   775.7500     22.7792     93.1216
   776.0000     23.8667     91.7361
   776.2500     25.0119     92.5534
   776.5000     26.1252     96.0526
   776.7500     27.1303     99.4259
   777.0000     27.9622    104.6820
   777.2500     28.5593    107.2590
   777.5000     28.8744    108.2673
   777.7500     28.9035    106.7976
   778.0000     28.6969    101.9277
   778.2500     28.3369     97.3922
   778.5000     27.9078     89.5834
   778.7500     27.4892     84.6184
   779.0000     27.1674     80.1012
   779.2500     27.0427     80.6211
   779.5000     27.2081     87.5977
   779.7500     27.7103     95.1177
   780.0000     28.5118    106.2037
   780.2500     29.4852    110.9619
   780.5000     30.4556    112.6002
   780.7500     31.2799    110.8676
   781.0000     31.9088    106.8538
   781.2500     32.3865    104.7942
   781.5000     32.8084    104.2253
   781.7500     33.2831    105.5326
   782.0000     33.9234    108.2543
   782.2500     34.8499    108.8830
   782.5000     36.1758    105.7335
   782.7500     37.9619    100.8474
   783.0000     40.1597     91.4891
   783.2500     42.5801     85.4049
   783.5000     44.9275     77.6533
   783.7500     46.8958     73.2806
   784.0000     48.2761     67.6000
   784.2500     49.0244     64.4238
   784.5000     49.2755     60.5574
   784.7500     49.3279     58.4040
   785.0000     49.5890     55.5923
   785.2500     50.4622     54.1050
   785.5000     52.1561     52.9224
   785.7500     54.4458     53.0342
   786.0000     56.5119     54.6532
   786.2500     57.2104     56.6995
   786.5000     55.8788     61.2230
   786.7500     52.8665     65.1803
   787.0000     49.0898     72.4218
   787.2500     45.3112     77.8961
   787.5000     41.9156     85.7443
   787.7500     39.0373     89.2804
   788.0000     36.7002     89.8001
   788.2500     34.8715     86.9320
   788.5000     33.4705     80.2859
   788.7500     32.3759     76.1132
   789.0000     31.4555     71.9495
   789.2500     30.6061     70.6750
   789.5000     29.7730     70.7182
   789.7500     28.9414     71.8520
   790.0000     28.1235     74.4100
   790.2500     27.3625     75.9403
   790.5000     26.7347     77.0076
   790.7500     26.3173     76.8751
   791.0000     26.1373     76.1419
   791.2500     26.1446     75.8974
   791.5000     26.2347     76.6508
   791.7500     26.3008     77.9209
   792.0000     26.2721     80.3100
   792.2500     26.1170     81.7341
   792.5000     25.8376     83.1011
   792.7500     25.4732     83.3741
   793.0000     25.0983     82.6730
   793.2500     24.7975     81.4024
   793.5000     24.6293     78.5062
   793.7500     24.6060     76.2893
   794.0000     24.6959     73.3288
   794.2500     24.8391     71.9715
   794.5000     24.9698     71.2313
   794.7500     25.0413     71.6007
   795.0000     25.0441     72.9490
   795.2500     25.0049     73.9196
   795.5000     24.9646     75.0084
   795.7500     24.9520     75.5187
   796.0000     24.9713     76.1434
   796.2500     25.0145     76.4829
   796.5000     25.0813     76.9746
   796.7500     25.1857     77.5622
   797.0000     25.3374     79.5202
   797.2500     25.5208     81.8116
   797.5000     25.6938     86.4873
   797.7500     25.8106     89.7675
   798.0000     25.8536     93.2087
   798.2500     25.8501     93.6212
   798.5000     25.8687     91.1084
   798.7500     25.9975     88.1477
   799.0000     26.3067     84.0181
   799.2500     26.8049     82.3169
   799.5000     27.4164     81.0913
   799.7500     28.0040     80.5495
   800.0000     28.4328     79.7651
   800.2500     28.6323     79.4150
   800.5000     28.6072     79.0863
   800.7500     28.4018     78.6431
   801.0000     28.0658     77.1910
   801.2500     27.6503     75.7917
   801.5000     27.2123     73.5827
   801.7500     26.7998     72.3487
   802.0000     26.4197     71.1771
   802.2500     26.0267     70.8941
   802.5000     25.5514     71.0596
   802.7500     24.9532     71.3679
   803.0000     24.2484     71.8249
   803.2500     23.4943     72.1657
   803.5000     22.7578     73.2207
   803.7500     22.0967     74.6065
   804.0000     21.5570     78.1776
   804.2500     21.1686     81.9977
   804.5000     20.9313     90.7938
   804.7500     20.8060     98.6232
   805.0000     20.7220    111.1068
   805.2500     20.6115    117.7359
   805.5000     20.4476    121.6626
   805.7500     20.2565    119.4095
   806.0000     20.0913    110.1781
   806.2500     19.9958    102.3342
   806.5000     19.9889     92.1419
   806.7500     20.0714     87.7577
   807.0000     20.2425     84.5203
