~Version Information
VERS.                      2.0: CWLS Log ASCII Standard - VERSION 2.0
WRAP.                       NO: One line per depth step
~Well Information Block
STRT.FT               899.1000: 
STOP.FT              2501.5000: 
STEP.FT                 0.1000: 
NULL.                -999.2500: 
COMP.          Petrogulf Corporation: COMPANY
WELL.           Deremer 17-21V: WELL
FLD.           Purgatorie River: FIELD
LOC.           851' FNL & 963' FWL: LOCATION
CNTY.               Las Animas: COUNTY
SRVC.                         : SERVICE COMPANY
DATE.          Tue Nov 18 09:12:06 2003: LOG DATE
UWI.                          : UNIQUE WELL ID
STAT.                 Colorado: STATE
~Curve Information Block
DEPT.FT            0 000 00 00: Depth
DPOR.pu                       : CDL Density Porosity
NEU.NAPI                      : Neutron
NPOR.pu                       : Neutron Porosity
RHOB.g/cc                     : CDL Bulk Density
RHOC.g/cc                     : CDL Density Correction
GR.GAPI                       : Gamma Ray
DCAL.in                       : CDL Caliper
~Parameter Information Block
~A  Depth       DPOR        NEU         NPOR        RHOB        RHOC         GR         DCAL    
# ...
  1554.3000      7.8718   1269.4220     19.0407      2.5201      0.0520     69.1518      7.8874
  1554.4000      8.3196   1264.7002     19.2543      2.5127      0.0203     68.3775      7.8874
  1554.5000      9.2626   1245.9303     20.0997      2.4972     -0.0010     65.6759      7.8885
  1554.6000      9.8658   1225.1340     21.0298      2.4872     -0.0438     61.1630      7.8885
  1554.7000      9.8085   1213.7952     21.5340      2.4882     -0.0662     58.9780      7.8885
  1554.8000      9.3100   1209.4133     21.7283      2.4964      0.0229     60.3961      7.8890
  1554.9000      8.7421   1203.0131     22.0117      2.5058     -0.0016     61.4138      7.8890
  1555.0000      7.9973   1197.1254     22.2718      2.5180     -0.0108     60.4667      7.8891
  1555.1000      7.1070   1201.8766     22.0619      2.5327     -0.0252     62.9721      7.8891
  1555.2000      6.3801   1213.0719     21.5661      2.5447      0.0022     72.2907      7.8891
  1555.3000      5.8318   1216.2147     21.4266      2.5538      0.0391     82.2515      7.8911
  1555.4000      5.5829   1205.5269     21.9005      2.5579      0.0313     84.8841      7.8911
  1555.5000      5.6148   1187.5823     22.6924      2.5574      0.0216     78.4737      7.8881
  1555.6000      6.2570   1180.4786     23.0047      2.5468      0.0621     71.1924      7.8881
  1555.7000      8.5056   1189.3901     22.6129      2.5097      0.0404     67.4627      7.8881
  1555.8000     11.4705   1199.5193     22.1661      2.4607     -0.0315     62.3068      7.8767
  1555.9000     12.4901   1202.1184     22.0512      2.4439     -0.0401     58.3397      7.8767
  1556.0000     10.7797   1196.8485     22.2840      2.4721     -0.0161     61.4996      7.8690
  1556.1000      8.0061   1183.3638     22.8780      2.5179      0.0069     67.4282      7.8690
  1556.2000      6.3025   1167.4402     23.5761      2.5460      0.0617     70.8504      7.8690
  1556.3000      6.2892   1158.6680     23.9593      2.5462     -0.0119     75.2308      7.8762
  1556.4000      6.5995   1154.7061     24.1321      2.5411      0.0393     83.1236      7.8762
  1556.5000      5.7424   1144.2419     24.5874      2.5553      0.0655     88.7013      7.8738
  1556.6000      3.7097   1127.8978     25.2961      2.5888      0.1889     90.2909      7.8738
  1556.7000      2.5261   1116.5748     25.7852      2.6083      0.2569     93.8300      7.8738
  1556.8000      3.5694   1117.9054     25.7278      2.5911      0.1282    101.4502      7.8438
  1556.9000      5.4507   1129.5243     25.2257      2.5601      0.1056    110.2363      7.8438
  1557.0000      6.5456   1131.1471     25.1554      2.5420      0.0908    119.1899      7.8105
  1557.1000      6.6054   1114.1035     25.8918      2.5410      0.1028    126.0026      7.8105
  1557.2000      6.0741   1098.8235     26.5494      2.5498      0.1177    126.9700      7.8105
  1557.3000      5.7823   1093.7524     26.7671      2.5546      0.2012    125.1323      7.7979
  1557.4000      6.2215   1095.8141     26.6786      2.5473      0.1537    123.7118      7.7979
  1557.5000      6.7960   1105.9678     26.2423      2.5379      0.1246    122.5898      7.7901
  1557.6000      6.6966   1108.3219     26.1409      2.5395      0.1586    122.5375      7.7901
  1557.7000      5.7340   1091.9561     26.8442      2.5554      0.1598    123.4960      7.7901
  1557.8000      4.3336   1075.1284     27.5647      2.5785      0.1344    122.0547      7.7815
  1557.9000      3.1793   1076.9958     27.4848      2.5975      0.1032    118.1775      7.7815
  1558.0000      2.4864   1091.1726     26.8778      2.6090      0.1169    118.0834      7.7971
  1558.1000      2.0479   1102.6447     26.3852      2.6162      0.1122    122.6701      7.7971
  1558.2000      1.8831   1109.6433     26.0840      2.6189      0.1478    127.0542      7.7971
  1558.3000      2.2942   1116.7559     25.7774      2.6121      0.2117    128.4726      7.8302
  1558.4000      3.2998   1118.1953     25.7153      2.5956      0.1569    127.3724      7.8302
  1558.5000      4.3314   1110.0220     26.0677      2.5785      0.1545    125.1224      7.8493
  1558.6000      4.8571   1103.5809     26.3449      2.5699      0.1612    120.0369      7.8493
  1558.7000      5.0260   1107.1195     26.1927      2.5671      0.1376    111.7757      7.8493
  1558.8000      5.4338   1111.4110     26.0079      2.5603      0.0842    104.4506      7.8581
  1558.9000      6.3110   1113.0449     25.9375      2.5459      0.0689    100.9439      7.8581
  1559.0000      6.9295   1122.7834     25.5172      2.5357      0.0162    103.7178      7.8689
  1559.1000      6.6535   1142.2161     24.6754      2.5402      0.1193    111.3859      7.8689
  1559.2000      6.0927   1160.3159     23.8874      2.5495      0.0713    117.9440      7.8689
  1559.3000      6.4440   1166.9146     23.5991      2.5437      0.1531    120.9989      7.8690
  1559.4000      7.9719   1161.4224     23.8391      2.5185      0.0664    119.8384      7.8690
  1559.5000      9.2887   1150.8344     24.3007      2.4967      0.1033    112.7345      7.8408
  1559.6000      9.4762   1136.8315     24.9091      2.4936      0.1133    103.3702      7.8408
  1559.7000      9.5127   1119.0845     25.6769      2.4930      0.1223     97.2568      7.8408
  1559.8000     10.6005   1106.3274     26.2268      2.4751      0.1069     95.3319      7.7991
  1559.9000     11.6942   1107.2729     26.1861      2.4570      0.0389     96.0637      7.7991
  1560.0000     10.7238   1118.2954     25.7110      2.4731      0.0683     99.9820      7.7905
  1560.1000      7.4834   1128.0386     25.2900      2.5265      0.1299    106.4246      7.7905
  1560.2000      3.4021   1132.7632     25.0854      2.5939      0.2502    112.7474      7.7905
  1560.3000      0.1664   1137.0187     24.9010      2.6473      0.2780    118.9970      7.8006
  1560.4000     -1.4484   1138.3268     24.8442      2.6739      0.2988    124.8077      7.8006
  1560.5000     -1.6501   1133.1406     25.0691      2.6772      0.3038    127.6623      7.7805
  1560.6000     -0.5329   1136.3953     24.9280      2.6588      0.2614    127.8888      7.7805
  1560.7000      1.6986   1152.9210     24.2098      2.6220      0.1235    126.1282      7.7805
  1560.8000      3.3117   1158.6036     23.9621      2.5954      0.0881    123.7354      7.7671
  1560.9000      2.8579   1143.7061     24.6107      2.6028      0.0933    123.2487      7.7671
  1561.0000      1.7307   1125.1656     25.4142      2.6214      0.1813    122.8745      7.7941
  1561.1000      1.8634   1116.6804     25.7807      2.6193      0.1139    120.2924      7.7941
  1561.2000      3.1080   1113.8300     25.9036      2.5987      0.1088    117.8182      7.7941
  1561.3000      4.5617   1111.3239     26.0116      2.5747      0.0855    119.2375      7.8412
  1561.4000      5.7942   1111.3246     26.0116      2.5544      0.1077    121.7596      7.8412
  1561.5000      6.9151   1114.8390     25.8601      2.5359      0.0927    120.9811      7.8661
  1561.6000      7.9250   1124.1366     25.4587      2.5192      0.0854    118.7218      7.8661
  1561.7000      8.2063   1139.4219     24.7967      2.5146      0.0660    117.8781      7.8661
  1561.8000      7.4856   1150.2388     24.3266      2.5265      0.1002    119.0296      7.8634
  1561.9000      6.5852   1151.7944     24.2589      2.5413      0.0885    122.6141      7.8634
  1562.0000      5.8362   1154.2064     24.1538      2.5537      0.0773    126.7383      7.8587
  1562.1000      4.6701   1158.3977     23.9711      2.5729      0.1476    128.7559      7.8587
  1562.2000      3.4407   1157.5330     24.0088      2.5932      0.1838    131.2242      7.8587
  1562.3000      3.3990   1155.8860     24.0806      2.5939      0.1845    134.8240      7.8586
  1562.4000      4.5712   1160.4178     23.8830      2.5746      0.1142    131.6696      7.8586
  1562.5000      5.2727   1172.8344     23.3400      2.5630      0.0879    119.7000      7.8598
  1562.6000      4.7225   1192.9105     22.4578      2.5721      0.1179    108.8612      7.8598
