~Version Information
VERS.                      2.0: CWLS Log ASCII Standard - VERSION 2.0
WRAP.                       NO: One line per depth step
~Well Information Block
STRT.FT               650.0000: 
STOP.FT              1080.5000: 
STEP.FT                 0.2500: 
NULL.                -999.2500: 
COMP.          Pioneer Natural Resources: COMPANY
WELL.            Galileo 21-11: WELL
FLD.           Purgatoire River: FIELD
LOC.           407' FNL & 2394' FWL: LOCATION
PROV.                 Colorado: PROVINCE
CNTY.               Las Animas: COUNTRY
SRVC.                Patterson: SERVICE COMPANY
DATE.          Mon Apr 11 11:14:18 2005: LOG DATE
UWI.           05 071 08353 00: UNIQUE WELL ID
~Curve Information Block
DEPT.FT            0 000 00 00: Depth
SN.Ohm-m                      : IEL Short Normal
SP.mV                         : IEL Spontaneous Potential
DIR.Ohm-m                     : IEL Induction Resistivity
GR.GAPI                       : Gamma Ray
~Parameter Information Block
~A  Depth        SN          SP         DIR          GR     
# ...
   717.0000    518.7103   -240.5440     32.3525     83.7620
   717.2500    521.2076   -240.7080     32.3074     84.5912
   717.5000    516.8024   -239.8766     32.3223     85.4059
   717.7500    512.9320   -238.3732     32.3952     85.7097
   718.0000    510.6479   -236.3854     32.5142     86.1854
   718.2500    509.0895   -233.9909     32.6416     86.6793
   718.5000    506.8094   -231.1428     32.7193     87.8127
   718.7500    501.6025   -227.6955     32.6945     88.7941
   719.0000    491.5927   -223.4955     32.5456     90.1416
   719.2500    479.3068   -218.4907     32.2867     90.5276
   719.5000    472.3887   -212.7819     31.9523     90.0115
   719.7500    474.5892   -206.5817     31.5772     89.2651
   720.0000    479.8806   -200.1234     31.1852     88.5401
   720.2500    480.4067   -193.5910     30.7904     88.6110
   720.5000    473.6277   -187.1211     30.3998     89.1661
   720.7500    460.9441   -180.8531     30.0138     89.4017
   721.0000    447.0034   -174.9358     29.6230     89.0922
   721.2500    438.7431   -169.4328     29.2122     88.3934
   721.5000    438.3522   -164.1927     28.7737     86.7795
   721.7500    439.2045   -158.8338     28.3201     85.5836
   722.0000    433.7948   -152.8844     27.8856     84.2164
   722.2500    422.4839   -145.9764     27.5147     83.8109
   722.5000    410.0030   -137.9588     27.2481     83.7600
   722.7500    398.5603   -128.8837     27.1130     83.7725
   723.0000    388.1034   -118.8976     27.1198     83.5518
   723.2500    375.9656   -108.0988     27.2593     83.3037
   723.5000    353.4718    -96.4527     27.5001     82.9356
   723.7500    311.1416    -83.8356     27.7828     82.7312
   724.0000    255.9573    -70.1511     28.0131     82.7535
   724.2500    214.4470    -55.3529     28.0632     83.3104
   724.5000    200.6191    -39.3268     27.7975     85.4033
   724.7500    194.8951    -21.7774     27.1353     87.6573
   725.0000    177.1362     -2.2505     26.1195     92.0994
   725.2500    156.6378     19.7097     24.9224     95.6791
   725.5000    152.6519     44.3226     23.7676    101.9569
   725.7500    166.4501     71.3211     22.8313    106.5462
   726.0000    176.4995     99.8147     22.1971    112.7930
   726.2500    162.2088    128.3593     21.8752    115.4739
   726.5000    128.5648    155.1643     21.8596    116.1869
   726.7500     93.1142    178.3326     22.1908    114.7145
   727.0000     63.9385    196.1689     22.9953    110.9425
   727.2500     42.5395    207.6414     24.4857    108.0445
   727.5000     31.3998    212.8240     26.9164    103.4726
   727.7500     30.6896    212.9508     30.4798    100.1923
   728.0000     35.8477    210.0286     35.0975     94.8808
   728.2500     41.8434    206.3679     40.1612     91.3242
   728.5000     48.0872    204.1944     44.5989     86.7401
   728.7500     59.4548    205.0568     47.5993     84.5846
   729.0000     82.2511    209.0952     49.2430     82.9640
   729.2500    113.3516    214.9474     50.1314     82.8680
   729.5000    133.9341    220.7158     50.6685     83.8452
   729.7500    128.1134    225.2015     50.9386     85.1058
   730.0000    104.3463    228.2961     51.1049     88.1581
   730.2500     82.7434    230.4575     51.7106     91.2825
   730.5000     72.0570    232.0779     53.5143     97.5312
   730.7500     68.9344    233.3153     57.0130    102.0070
   731.0000     67.9464    234.2596     61.8298    107.2974
   731.2500     66.1478    235.0696     66.1066    109.0824
   731.5000     62.6648    235.9580     67.0024    109.0867
   731.7500     57.6848    237.1139     63.2230    107.9132
   732.0000     52.1351    238.6330     56.4087    105.7232
   732.2500     47.2481    240.4696     49.0004    104.5732
   732.5000     43.8122    242.4324     42.2974    103.8438
   732.7500     42.0943    244.2435     36.5705    104.0500
   733.0000     42.0043    245.6284     31.7542    104.9417
   733.2500     42.7396    246.3833     27.8005    105.4676
   733.5000     43.2063    246.3981     24.7084    105.5034
   733.7500     43.1348    245.6312     22.4578    104.8754
   734.0000     42.9308    244.0487     20.9773    102.9325
   734.2500     42.7461    241.5923     20.1542    100.9852
   734.5000     42.3755    238.2294     19.8564     97.2727
   734.7500     41.7297    234.0117     19.9482     94.5551
   735.0000     41.1431    229.0121     20.3028     90.7813
   735.2500     41.3044    223.1581     20.8110     88.7690
   735.5000     42.7337    216.1260     21.3861     86.6837
   735.7500     45.1777    207.3861     21.9615     85.9210
   736.0000     48.0655    196.3197     22.4865     85.8230
   736.2500     52.3237    182.3059     22.9253     86.5312
   736.5000     60.6038    164.8360     23.2622     88.7268
   736.7500     73.3436    143.8334     23.5031     90.9585
   737.0000     86.6819    120.2022     23.6653     95.7977
   737.2500    100.7652     96.2299     23.7564    100.1825
   737.5000    130.1962     75.2063     23.7625    107.9263
   737.7500    199.7255     60.0567     23.6584    112.9902
   738.0000    320.7389     51.7473     23.4353    118.8270
   738.2500    464.2634     48.6593     23.1223    121.0188
   738.5000    571.3837     47.3981     22.7816    121.7952
   738.7500    603.8998     44.4568     22.4829    121.0473
   739.0000    572.5222     37.8830     22.2782    118.7963
   739.2500    520.2159     28.2766     22.1974    116.7277
   739.5000    491.8795     18.5382     22.2630    112.6731
   739.7500    506.7838     12.2634     22.5069    109.3751
   740.0000    548.4094     11.7920     22.9642    104.2619
   740.2500    585.2955     17.3862     23.6349    101.4749
   740.5000    601.3295     27.9197     24.4251     99.4708
   740.7500    602.5069     42.0337     25.1176     99.9282
   741.0000    600.6384     58.6281     25.4386    102.6599
   741.2500    598.5917     76.5977     25.2236    104.8473
   741.5000    590.7034     94.4444     24.5364    107.1279
   741.7500    566.9753    110.1772     23.6044    107.8138
   742.0000    511.4848    121.4187     22.6513    108.2991
   742.2500    416.0256    125.6060     21.7968    108.5011
   742.5000    307.8333    120.5238     21.0663    108.1912
   742.7500    235.1668    105.4172     20.4522    107.3631
   743.0000    213.8469     82.2331     19.9638    105.8480
   743.2500    220.5917     55.8053     19.6316    105.4235
   743.5000    242.8371     32.2349     19.4724    106.4442
   743.7500    297.5087     16.3313     19.4472    108.0214
   744.0000    386.6691      9.9762     19.4499    110.5640
   744.2500    472.5718     12.3529     19.3495    111.6707
   744.5000    518.1599     21.3045     19.0665    111.8702
   744.7500    521.5947     34.5498     18.6196    111.1575
   745.0000    495.7935     50.1822     18.0953    109.5677
   745.2500    438.1259     66.6082     17.5774    108.6809
   745.5000    339.7995     82.2723     17.1023    108.2683
   745.7500    218.8242     95.3984     16.6658    108.7779
   746.0000    117.7653    103.8450     16.2530    110.8408
   746.2500     63.4234    105.1422     15.8632    113.2044
   746.5000     51.5679     96.9173     15.5137    118.2701
   746.7500     66.3502     77.9226     15.2262    122.1665
   747.0000     94.4160     49.3853     15.0139    126.9594
   747.2500    129.5421     15.6618     14.8756    128.4987
   747.5000    179.1313    -16.8222     14.7984    128.3051
   747.7500    259.5910    -42.1106     14.7654    127.3278
   748.0000    370.8587    -57.0318     14.7620    125.7880
   748.2500    478.7647    -61.6577     14.7790    124.6879
   748.5000    541.5465    -57.9701     14.8123    122.0999
   748.7500    550.8473    -48.1808     14.8624    119.4266
   749.0000    529.6282    -33.8594     14.9331    114.2556
   749.2500    502.1960    -15.9173     15.0310    110.5065
   749.5000    480.1226      5.0638     15.1640    105.2625
   749.7500    465.3082     28.5338     15.3395    102.3196
   750.0000    455.2372     53.8164     15.5653     98.8832
   750.2500    444.5121     80.0596     15.8502     97.1921
