~Version Information
VERS.                      2.0: CWLS Log ASCII Standard - VERSION 2.0
WRAP.                       NO: One line per depth step
~Well Information Block
STRT.FT               577.8000: 
STOP.FT              2445.8000: 
STEP.FT                 0.1000: 
NULL.                -999.2500: 
COMP.          Petrogulf Corporation: COMPANY
WELL.             State 16-32V: WELL
FLD.           Purgatorie River: FIELD
LOC.           1599' FNL & 1783' FEL: LOCATION
CNTY.               Las Animas: COUNTY
SRVC.                         : SERVICE COMPANY
DATE.          Thu Jun 05 16:36:04 2003: LOG DATE
UWI.           05 071 07726 00: UNIQUE WELL ID
STAT.                 Colorado: STATE
~Curve Information Block
DEPT.FT            0 000 00 00: Depth
DCAL.in                       : Caliper from Density Tool
RHOB.g/cc                     : Bulk Density
RHOC.g/cc                     : Density Correction
DPOR.pu                       : Density Porosity
GR.GAPI                       : Gamma Ray
NPOR.pu                       : Neutron Porosity
~Parameter Information Block
~A  Depth       DCAL        RHOB        RHOC        DPOR         GR         NPOR    
# ...
   712.2000      8.4598      2.3840      0.0302     16.1182    145.1864     26.7191
   712.3000      8.4750      2.3889      0.0285     15.8266    146.2010     26.7149
   712.4000      8.4750      2.3889      0.0285     15.8266    147.4154     26.6864
   712.5000      8.3998      2.3893      0.0268     15.8001    148.7787     26.6311
   712.6000      8.3998      2.3893      0.0268     15.8001    150.2198     26.5480
   712.7000      8.3998      2.3893      0.0268     15.8001    151.6521     26.4385
   712.8000      8.2641      2.3889      0.0245     15.8250    152.9861     26.3060
   712.9000      8.2641      2.3889      0.0245     15.8250    154.1385     26.1561
   713.0000      8.2132      2.3884      0.0231     15.8572    155.0395     25.9954
   713.1000      8.2132      2.3884      0.0231     15.8572    155.6425     25.8309
   713.2000      8.2132      2.3884      0.0231     15.8572    155.9255     25.6690
   713.3000      8.2475      2.3857      0.0198     16.0165    155.8904     25.5149
   713.4000      8.2475      2.3857      0.0198     16.0165    155.5620     25.3727
   713.5000      8.2391      2.3818      0.0160     16.2562    154.9823     25.2450
   713.6000      8.2391      2.3818      0.0160     16.2562    154.2063     25.1339
   713.7000      8.2391      2.3818      0.0160     16.2562    153.2938     25.0410
   713.8000      8.2258      2.3727      0.0075     16.8033    152.3053     24.9680
   713.9000      8.2258      2.3727      0.0075     16.8033    151.2941     24.9171
   714.0000      8.2634      2.3662      0.0009     17.1976    150.3000     24.8906
   714.1000      8.2634      2.3662      0.0009     17.1976    149.3435     24.8908
   714.2000      8.2634      2.3662      0.0009     17.1976    148.4269     24.9197
   714.3000      8.3052      2.3600     -0.0084     17.5767    147.5305     24.9780
   714.4000      8.3052      2.3600     -0.0084     17.5767    146.6220     25.0644
   714.5000      8.3472      2.3607     -0.0128     17.5362    145.6612     25.1755
   714.6000      8.3472      2.3607     -0.0128     17.5362    144.6115     25.3054
   714.7000      8.3472      2.3607     -0.0128     17.5362    143.4456     25.4458
   714.8000      8.4034      2.3719     -0.0150     16.8567    142.1562     25.5867
   714.9000      8.4034      2.3719     -0.0150     16.8567    140.7546     25.7170
   715.0000      8.4388      2.3864     -0.0129     15.9757    139.2693     25.8259
   715.1000      8.4388      2.3864     -0.0129     15.9757    137.7416     25.9040
   715.2000      8.4388      2.3864     -0.0129     15.9757    136.2171     25.9443
   715.3000      8.4295      2.4156     -0.0048     14.2042    134.7372     25.9432
   715.4000      8.4295      2.4156     -0.0048     14.2042    133.3340     25.9010
   715.5000      8.3528      2.4361      0.0027     12.9624    132.0247     25.8212
   715.6000      8.3528      2.4361      0.0027     12.9624    130.8131     25.7108
   715.7000      8.3528      2.4361      0.0027     12.9624    129.6930     25.5788
   715.8000      8.2786      2.4604      0.0136     11.4898    128.6500     25.4351
   715.9000      8.2786      2.4604      0.0136     11.4898    127.6697     25.2899
   716.0000      8.3017      2.4692      0.0194     10.9581    126.7423     25.1518
   716.1000      8.3017      2.4692      0.0194     10.9581    125.8655     25.0280
   716.2000      8.3017      2.4692      0.0194     10.9581    125.0481     24.9230
   716.3000      8.3503      2.4711      0.0259     10.8452    124.3088     24.8391
   716.4000      8.3503      2.4711      0.0259     10.8452    123.6758     24.7758
   716.5000      8.3411      2.4671      0.0301     11.0825    123.1831     24.7309
   716.6000      8.3411      2.4671      0.0301     11.0825    122.8671     24.7002
   716.7000      8.3411      2.4671      0.0301     11.0825    122.7623     24.6786
   716.8000      8.3187      2.4581      0.0391     11.6307    122.8961     24.6599
   716.9000      8.3187      2.4581      0.0391     11.6307    123.2847     24.6382
   717.0000      8.3354      2.4511      0.0475     12.0547    123.9289     24.6075
   717.1000      8.3354      2.4511      0.0475     12.0547    124.8112     24.5627
   717.2000      8.3354      2.4511      0.0475     12.0547    125.8950     24.4994
   717.3000      8.3002      2.4375      0.0618     12.8815    127.1268     24.4140
   717.4000      8.3002      2.4375      0.0618     12.8815    128.4391     24.3033
   717.5000      8.2198      2.4239      0.0702     13.7006    129.7598     24.1648
   717.6000      8.2198      2.4239      0.0702     13.7006    131.0186     23.9962
   717.7000      8.2198      2.4239      0.0702     13.7006    132.1593     23.7954
   717.8000      8.2324      2.3933      0.0772     15.5546    133.1462     23.5611
   717.9000      8.2324      2.3933      0.0772     15.5546    133.9685     23.2933
   718.0000      8.3554      2.3654      0.0771     17.2500    134.6439     22.9937
   718.1000      8.3554      2.3654      0.0771     17.2500    135.2142     22.6667
   718.2000      8.3554      2.3654      0.0771     17.2500    135.7407     22.3197
   718.3000      8.4611      2.3143      0.0709     20.3429    136.2937     21.9625
   718.4000      8.4611      2.3143      0.0709     20.3429    136.9461     21.6067
   718.5000      8.5063      2.2772      0.0648     22.5964    137.7601     21.2649
   718.6000      8.5063      2.2772      0.0648     22.5964    138.7828     20.9488
   718.7000      8.5063      2.2772      0.0648     22.5964    140.0367     20.6689
   718.8000      8.5826      2.2221      0.0559     25.9332    141.5182     20.4331
   718.9000      8.5826      2.2221      0.0559     25.9332    143.1966     20.2467
   719.0000      8.6724      2.1884      0.0508     27.9740    145.0177     20.1135
   719.1000      8.6724      2.1884      0.0508     27.9740    146.9126     20.0355
   719.2000      8.6724      2.1884      0.0508     27.9740    148.8064     20.0143
   719.3000      8.6673      2.1459      0.0437     30.5540    150.6286     20.0514
   719.4000      8.6673      2.1459      0.0437     30.5540    152.3242     20.1480
   719.5000      8.5927      2.1249      0.0385     31.8269    153.8574     20.3052
   719.6000      8.5927      2.1249      0.0385     31.8269    155.2161     20.5228
   719.7000      8.5927      2.1249      0.0385     31.8269    156.4055     20.7989
   719.8000      8.5855      2.1087      0.0300     32.8064    157.4434     21.1291
   719.9000      8.5855      2.1087      0.0300     32.8064    158.3522     21.5065
   720.0000      8.6407      2.1106      0.0250     32.6929    159.1511     21.9210
   720.1000      8.6407      2.1106      0.0250     32.6929    159.8510     22.3605
   720.2000      8.6407      2.1106      0.0250     32.6929    160.4576     22.8108
   720.3000      8.6130      2.1344      0.0215     31.2472    160.9704     23.2565
   720.4000      8.6130      2.1344      0.0215     31.2472    161.3916     23.6816
   720.5000      8.5106      2.1633      0.0236     29.4987    161.7319     24.0703
   720.6000      8.5106      2.1633      0.0236     29.4987    162.0126     24.4076
   720.7000      8.5106      2.1633      0.0236     29.4987    162.2670     24.6803
   720.8000      8.4858      2.2188      0.0347     26.1321    162.5366     24.8777
   720.9000      8.4858      2.2188      0.0347     26.1321    162.8659     24.9924
   721.0000      8.5663      2.2570      0.0461     23.8173    163.2916     25.0205
   721.1000      8.5663      2.2570      0.0461     23.8173    163.8374     24.9624
   721.2000      8.5663      2.2570      0.0461     23.8173    164.5110     24.8224
   721.3000      8.6392      2.3024      0.0649     21.0660    165.3006     24.6086
   721.4000      8.6392      2.3024      0.0649     21.0660    166.1814     24.3324
   721.5000      8.6485      2.3185      0.0754     20.0899    167.1221     24.0071
   721.6000      8.6485      2.3185      0.0754     20.0899    168.0908     23.6472
   721.7000      8.6485      2.3185      0.0754     20.0899    169.0615     23.2672
