~Version Information
VERS.                      2.0: CWLS Log ASCII Standard - VERSION 2.0
WRAP.                       NO: One line per depth step
~Well Information Block
STRT.FT                 0.0000: 
STOP.FT              2006.5000: 
STEP.FT                 0.2500: 
NULL.                -999.2500: 
COMP.          Petrogulf Corporation: COMPANY
WELL.           Lavedure 7-44R: WELL
FLD.           Purgatorie River: FIELD
LOC.           946' FSL & 521' FEL: LOCATION
STAT.                 Colorado: State
CNTY.               Las Animas: COUNTY
CTRY. USA : Country
SECT. 7 : Section
TOWN. 33S : Township
RANG. 67W : Range
SRVC.                Patterson: SERVICE COMPANY
DATE.          Thu Nov 10 15:49:38 2005: LOG DATE
API. 05-071-08090       : UNIQUE WELL ID
~Curve Information Block
DEPT.FT            0 000 00 00: Depth
CCL.                          : Casing Collar Locator
TT3.usec                      : CBL 3' Travel Time
AMP3.mV                       : CBL 3' Amplitude
GR.GAPI                       : Gamma Ray
~Parameter Information Block
~A  Depth       CCL         TT3         AMP3         GR     
# ...
   536.0000      0.0000    564.7861      7.0558     87.4895
   536.2500      0.0000    566.1534      7.1048     84.2666
   536.5000      0.0000    559.9544      7.1206     79.3678
   536.7500      0.0000    552.8647      7.0756     74.3802
   537.0000      0.0000    550.1701      6.9876     70.3655
   537.2500      0.0000    553.8275      6.8883     67.8570
   537.5000      0.0000    564.2633      6.8042     67.0927
   537.7500      0.0000    579.9760      6.7441     67.8652
   538.0000      0.0000    597.2113      6.7186     69.3540
   538.2500      0.0000    610.8090      6.7309     70.5187
   538.5000      0.0000    613.3666      6.7657     70.8186
   538.7500      0.0000    596.0649      6.8301     70.5860
   539.0000      0.0000    555.2729      6.9389     70.7080
   539.2500      0.0000    499.9924      7.0579     71.9681
   539.5000      0.0000    447.8248      7.1439     74.6563
   539.7500      0.0000    411.6257      7.2003     78.5779
   540.0000      0.0000    393.0443      7.2571     83.1238
   540.2500      0.0000    384.9898      7.3347     87.3964
   540.5000      0.0000    379.5371      7.4338     90.6763
   540.7500      0.0000    374.7368      7.5279     92.9126
   541.0000      0.0000    371.9537      7.5477     94.5514
   541.2500      0.0000    371.0901      7.4312     95.9739
   541.5000      0.0000    371.0164      7.2182     97.3384
   541.7500      0.0000    371.1117      7.0287     98.7530
   542.0000      0.0000    371.3826      6.9475    100.2469
   542.2500      0.0000    372.4119      6.9671    101.6057
   542.5000      0.0000    375.0363      7.0008    102.4589
   542.7500      0.0000    378.6557      6.9471    102.5862
   543.0000      0.0000    380.3977      6.8045    102.1163
   543.2500      0.0000    378.4539      6.6964    101.4123
   543.5000      0.0000    374.8111      6.7417    100.7062
   543.7500      0.0000    372.2096      6.9334     99.8374
   544.0000      0.0000    371.1255      7.1514     98.4143
   544.2500      0.0000    370.8349      7.2640     96.3266
   544.5000      0.0000    371.0544      7.2124     94.0927
   544.7500      0.0000    372.3327      7.0292     92.5855
   545.0000      0.0000    375.9270      6.8185     92.3769
   545.2500      0.0000    383.6067      6.7058     93.3696
   545.5000      0.0000    400.1506      6.7196     94.8583
   545.7500      0.0000    438.1784      6.7110     95.7697
   546.0000      0.0000    509.2950      6.4874     95.0323
   546.2500      0.0000    599.7711      6.0289     92.0920
   546.5000      0.0000    672.3600      5.5160     87.3315
   546.7500      0.0000    704.1386      5.1967     81.9851
   547.0000      0.0000    703.7099      5.1966     77.4117
   547.2500      0.0000    692.1186      5.3737     74.1604
   547.5000      2.0000    686.5278      5.4711     71.5989
   547.7500      0.0000    693.4113      5.4066     68.5271
   548.0000     -2.0000    703.3735      5.2804     64.3471
   548.2500      0.0000    699.7210      5.2178     59.7653
   548.5000      0.0000    676.0004      5.3463     56.4222
   548.7500      0.0000    636.1940      5.8109     55.7841
   549.0000      0.0000    588.0628      6.5591     58.1107
   549.2500      0.0000    549.5186      7.1756     62.2126
   549.5000      0.0000    534.7780      7.3258     66.2558
   549.7500      0.0000    526.6641      7.1793     69.0682
   550.0000      0.0000    495.6147      7.0267     70.8403
   550.2500      0.0000    441.0392      6.9150     72.6713
   550.5000      0.0000    387.8435      6.8384     75.4283
   550.7500      0.0000    353.3372      6.8573     78.7853
   551.0000      0.0000    336.7049      6.9684     81.2539
   551.2500      0.0000    330.3622      7.0801     81.3359
   551.5000      0.0000    328.3791      7.1280     78.7524
   551.7500      0.0000    327.8108      7.1320     74.6262
   552.0000      0.0000    327.6287      7.1376     70.6826
   552.2500      0.0000    327.5485      7.1406     68.2568
   552.5000      0.0000    327.4957      7.1063     67.6461
   552.7500      0.0000    327.4669      7.0253     68.0204
   553.0000      0.0000    327.4699      6.9193     68.1690
   553.2500      0.0000    327.4803      6.8302     67.7618
   553.5000      0.0000    327.4562      6.8021     67.8265
   553.7500      0.0000    327.3758      6.8579     69.6322
   554.0000      0.0000    327.2469      6.9828     73.1060
   554.2500      0.0000    327.1087      7.1163     76.5702
   554.5000      0.0000    327.0205      7.1902     78.1032
   554.7500      0.0000    327.0140      7.1789     77.0929
   555.0000      0.0000    327.0566      7.0949     74.6146
   555.2500      0.0000    327.0853      6.9709     72.4448
   555.5000      0.0000    327.0669      6.8488     71.5916
   555.7500      0.0000    327.0205      6.7612     71.6633
   556.0000      0.0000    326.9906      6.7134     71.5605
   556.2500      0.0000    327.0062      6.6871     70.6177
   556.5000      0.0000    327.0651      6.6724     69.0769
   556.7500      0.0000    327.1438      6.6871     67.7444
   557.0000      0.0000    327.2072      6.7589     67.3817
   557.2500      0.0000    327.2210      6.8913     68.1845
   557.5000      0.0000    327.1745      7.0485     69.5515
   557.7500      0.0000    327.0889      7.1775     70.3998
   558.0000      0.0000    327.0015      7.2419     69.9696
   558.2500      0.0000    326.9445      7.2379     68.4684
   558.5000      0.0000    326.9273      7.1859     66.9208
   558.7500      0.0000    326.9342      7.1084     66.3515
   559.0000      0.0000    326.9426      7.0321     67.0546
   559.2500      0.0000    326.9363      7.0015     68.5336
   559.5000      0.0000    326.9082      7.0394     70.0466
   559.7500      0.0000    326.8646      7.1026     71.1595
   560.0000      0.0000    326.8257      7.1174     71.7468
   560.2500      0.0000    326.8075      7.0536     71.6416
   560.5000      0.0000    326.8045      6.9348     70.6297
   560.7500      0.0000    326.8020      6.8088     68.8849
   561.0000      0.0000    326.7914      6.7271     67.0976
   561.2500      0.0000    326.7612      6.7117     65.9144
   561.5000      0.0000    326.6968      6.7398     65.3627
   561.7500      0.0000    326.5919      6.7800     65.0287
   562.0000      0.0000    326.4631      6.8205     64.6404
   562.2500      0.0000    326.3461      6.8553     64.1535
   562.5000      0.0000    326.2691      6.8710     63.3518
   562.7500      0.0000    326.2380      6.8634     61.8832
   563.0000      0.0000    326.2461      6.8426     59.8839
   563.2500      0.0000    326.2815      6.8239     58.1772
   563.5000      0.0000    326.3236      6.8252     57.5251
   563.7500      0.0000    326.3510      6.8415     57.9232
   564.0000      0.0000    326.3549      6.8305     58.8333
   564.2500      0.0000    326.3434      6.7700     59.8724
   564.5000      0.0000    326.3347      6.6985     61.0194
   564.7500      0.0000    326.3348      6.6686     62.2571
   565.0000      0.0000    326.3302      6.6909     63.4156
   565.2500      0.0000    326.3104      6.7379     64.5878
   565.5000      0.0000    326.2818      6.7805     66.3584
   565.7500      0.0000    326.2567      6.8145     69.0985
   566.0000      0.0000    326.2380      6.8545     72.0627
   566.2500      0.0000    326.2173      6.9041     73.7786
   566.5000      0.0000    326.1935      6.9457     73.5116
   566.7500      0.0000    326.1908      6.9800     71.9331
   567.0000      0.0000    326.2743      7.0344     70.2872
   567.2500      0.0000    326.7072      7.1164     69.2945
   567.5000      0.0000    328.2910      7.1806     68.7543
   567.7500      0.0000    332.1166      7.1593     67.7839
   568.0000      0.0000    337.7455      7.0474     65.5134
   568.2500      0.0000    342.5043      6.9292     61.9492
   568.5000      0.0000    345.5566      6.8949     58.2193
   568.7500      0.0000    350.0336      6.9593     55.8560
   569.0000      0.0000    357.3231      7.0697     55.7712
   569.2500      0.0000    364.3293      7.1744     57.7583
