~Version Information
 VERS.                                  2.0 : CWLS LAS VERSION
 WRAP.                                   NO : WRAPING MODE
 SWARE .                 MController 2.5.0J : SOFTWARE VERSION
~Well Information
 WELL.                       Montoya 07-21R : WELL
 COMP.                Petrogulf Corporation : COMPANY
 FLD.                      Purgatoire River : FIELD
 LOC.                 NE/NW Sec 7 T33S R67W : LOCATION
 DATE.                           9/13-15/05 : DATE(S) LOGGED
 SRVC.       BLANCO Geological Services LLC : SERVICE COMPANY
 STAT.                                   CO : STATE
 CNTY.                           Las Animas : COUNTY
 CTRY.                                  USA : COUNTRY
 API.                       05-071-08435-00 : API NUMBER
 STRT.FT                             374.00 : START DEPTH
 STOP.FT                            1830.00 : STOP DEPTH
 STEP.FT                               1.00 : DEPTH INCREMENT
 NULL.                                -9999 : NULL VALUE
~Curve information
 DEPTH.FT                                   :
 ROP.MIN/FT                                 :
 GAS.UNITS                                  :
~ASCII Log data
# ...
      1374.0         0.37         15.6 
      1375.0         0.40         16.3 
      1376.0         0.42         14.3 
      1377.0         0.30         10.8 
      1378.0         0.30         10.7 
      1379.0         0.23         10.6 
      1380.0         3.08         40.7 
      1381.0         0.60         25.4 
      1382.0         0.63         27.0 
      1383.0         0.57         22.0 
      1384.0         0.47         20.3 
      1385.0         0.38         17.3 
      1386.0         0.30         14.7 
      1387.0         0.33         12.9 
      1388.0         0.43         17.9 
      1389.0         0.50         21.7 
      1390.0         0.37         21.5 
      1391.0         0.37         19.4 
      1392.0         0.33         17.2 
      1393.0         0.45         15.9 
      1394.0         0.30         16.2 
      1395.0         0.17         15.6 
      1396.0         0.23         15.9 
      1397.0         0.30         18.4 
      1398.0         0.30         18.8 
      1399.0         0.30         18.2 
      1400.0         0.27         18.4 
      1401.0         0.23         18.8 
      1402.0         0.17         19.0 
      1403.0         0.23         17.6 
      1404.0         0.20         17.6 
      1405.0         0.30         16.8 
      1406.0         0.20         16.9 
      1407.0         0.32         17.4 
      1408.0         0.33         19.0 
      1409.0         0.27         19.6 
      1410.0         3.02         58.4 
      1411.0         0.40         41.8 
      1412.0         0.53         28.6 
      1413.0         0.77         35.1 
      1414.0         0.73         31.5 
      1415.0         0.65         28.0 
      1416.0         0.37         23.9 
      1417.0         0.43         20.5 
      1418.0         0.47         18.6 
      1419.0         0.43         17.2 
      1420.0         0.37         17.9 
      1421.0         0.40         17.5 
      1422.0         0.27         17.1 
      1423.0         0.28         16.6 
      1424.0         0.33         17.2 
      1425.0         0.23         17.0 
      1426.0         0.27         17.7 
      1427.0         0.30         18.6 
      1428.0         0.23         19.2 
      1429.0         0.33         19.5 
      1430.0         0.43         19.1 
      1431.0         0.47         18.1 
      1432.0         0.37         17.4 
      1433.0         0.28         18.4 
      1434.0         0.27         19.3 
      1435.0         0.27         19.3 
      1436.0         0.33         19.3 
      1437.0         0.30         19.5 
      1438.0         0.40         18.8 
      1439.0         0.37         18.2 
      1440.0         4.15         69.7 
      1441.0         0.48         30.7 
      1442.0         0.57         27.7 
      1443.0         0.53         27.2 
      1444.0         0.47         26.3 
      1445.0         0.47         27.1 
      1446.0         0.43         26.3 
      1447.0         0.40         22.9 
      1448.0         0.27         20.6 
      1449.0         0.38         19.8 
      1450.0         0.37         17.0 
      1451.0         0.37         16.7 
      1452.0         0.33         16.6 
      1453.0         0.33         17.1 
      1454.0         0.43         17.8 
      1455.0         0.43         17.8 
      1456.0         0.30         17.4 
      1457.0         0.30         18.7 
      1458.0         0.35         19.3 
      1459.0         0.37         19.3 
      1460.0         0.27         18.4 
      1461.0         0.30         17.7 
      1462.0         0.33         17.7 
      1463.0         0.30         18.4 
      1464.0         0.27         17.8 
      1465.0         0.37         17.6 
      1466.0         0.38         17.6 
      1467.0         0.27         18.0 
      1468.0         0.33         17.8 
      1469.0         4.48         68.3 
      1470.0         0.40         32.2 
      1471.0         0.43         26.4 
      1472.0         0.38         30.3 
      1473.0         0.57         30.7 
      1474.0         0.57         26.8 
      1475.0         0.30         21.9 
      1476.0         0.37         23.1 
      1477.0         0.47         23.2 
      1478.0         0.43         23.5 
      1479.0         0.35         21.2 
      1480.0         0.37         19.0 
      1481.0         0.33         17.1 
      1482.0         0.83         18.9 
      1483.0         0.57         18.8 
      1484.0         0.43         18.4 
      1485.0         0.43         18.4 
      1486.0         0.38         18.2 
      1487.0         0.37         18.0 
      1488.0         0.50         19.0 
      1489.0         0.53         21.7 
      1490.0         0.63         22.2 
      1491.0         0.67         20.9 
      1492.0         0.72         20.4 
      1493.0         0.63         19.8 
      1494.0         0.50         19.7 
      1495.0         0.50         19.9 
      1496.0         0.50         20.0 
      1497.0         0.37         20.2 
      1498.0         0.40         24.3 
      1499.0         0.38         24.7 
      1500.0         3.22         68.7 
      1501.0         0.50         47.7 
      1502.0         0.50         31.9 
      1503.0         0.43         37.7 
      1504.0         0.37         37.4 
      1505.0         0.23         33.6 
      1506.0         0.63         30.4 
      1507.0         0.72         25.2 
      1508.0         0.63         29.0 
      1509.0         0.37         27.3 
      1510.0         0.40         23.9 
      1511.0         0.33         21.0 
      1512.0         0.43         20.3 
      1513.0         0.33         19.4 
      1514.0         0.37         18.7 
      1515.0         0.28         18.5 
      1516.0         0.53         21.3 
      1517.0         0.37         23.7 
      1518.0         0.50         24.7 
      1519.0         0.43         24.1 
      1520.0        14.35         57.4 
      1521.0         0.47         34.0 
      1522.0         0.63         34.2 
      1523.0         0.50         34.3 
      1524.0         0.43         34.3 
      1525.0         0.78         34.4 
      1526.0         0.50         36.2 
      1527.0         0.67         40.0 
      1528.0         0.90         39.7 
      1529.0         0.78         36.0 
      1530.0       177.88       9674.9 
      1531.0         0.27         22.0 
      1532.0         0.30         21.0 
      1533.0         0.22         18.5 
      1534.0         0.13         18.2 
      1535.0         0.20         19.1 
      1536.0         0.23         19.7 
      1537.0         0.23         21.5 
      1538.0         0.23         23.6 
      1539.0         0.23         24.2 
      1540.0         0.17         25.2 
      1541.0         0.27         25.5 
      1542.0         0.27         25.6 
      1543.0         0.30         26.2 
      1544.0         3.75         85.7 
      1545.0         0.33         65.6 
      1546.0         0.28         31.9 
      1547.0         0.30         23.7 
      1548.0         0.30         26.6 
      1549.0         0.30         30.3 
      1550.0         0.27         33.6 
      1551.0         0.27         34.9 
      1552.0         0.30         35.8 
      1553.0         0.27         35.8 
      1554.0         0.37         35.4 
      1555.0         0.68         35.3 
      1556.0         0.53         33.8 
      1557.0         0.37         34.3 
      1558.0         0.50         34.1 
      1559.0         0.50         31.7 
      1560.0         0.37         29.1 
      1561.0         0.43         28.8 
      1562.0         0.42         29.9 
      1563.0         0.43         30.0 
      1564.0         0.53         30.0 
      1565.0         0.30         30.6 
      1566.0         0.27         30.3 
      1567.0         0.30         30.8 
      1568.0         0.30         31.5 
      1569.0         0.30         32.1 
      1570.0         0.30         31.9 
      1571.0         0.32         31.3 
      1572.0         0.30         29.7 
      1573.0         0.33         32.3 
