~Version Information
VERS.                      2.0: CWLS Log ASCII Standard - VERSION 2.0
WRAP.                       NO: One line per depth step
~Well Information Block
STRT.FT                60.5000: 
STOP.FT              1875.7500: 
STEP.FT                 0.2500: 
NULL.                -999.2500: 
COMP.          Petrogulf Corporation: COMPANY
WELL.             State 16-14R: WELL
FLD.           Purgatorie River: FIELD
LOC.           598' FSL & 682' FWL--: LOCATION
PROV.                       CO: PROVINCE
CNTY.               Las Animas: COUNTRY
SRVC.                         : SERVICE COMPANY
DATE.          Fri Nov 12 08:50:45 2004: LOG DATE
UWI.            005 071 08034 : UNIQUE WELL ID
~Curve Information Block
DEPT.FT            0 000 00 00: Depth
GR.GAPI                       : Gamma Ray
CCL.                          : Casing Collar Locator
TT3.usec                      : CBL 3' Travel Time
AMP3.mV                       : CBL 3' Amplitude
~Parameter Information Block
~A  Depth        GR         CCL         TT3         AMP3    
# ...
   529.5000     74.8141      0.0000    908.0145     11.7607
   529.7500     74.2008      0.0000    905.0897     11.6416
   530.0000     76.6661      0.0000    894.6758     11.5797
   530.2500     79.5464      0.0000    876.8310     11.5707
   530.5000     81.7999      0.0000    855.5233     11.5833
   530.7500     83.8982      0.0000    836.2988     11.5638
   531.0000     86.2956      0.0000    822.7588     11.4617
   531.2500     88.6898      0.0000    814.9781     11.2593
   531.5000     90.4998      0.0000    810.7474     10.9804
   531.7500     91.2562      0.0000    807.7250     10.6758
   532.0000     90.7536      0.0000    804.7584     10.4048
   532.2500     89.4642      0.0000    801.9970     10.2180
   532.5000     88.3306      0.0000    799.8318     10.1424
   532.7500     87.4779      0.0000    796.9986     10.1665
   533.0000     85.6733      0.0000    789.6389     10.2425
   533.2500     81.9409      0.0000    772.7991     10.3154
   533.5000     77.2919      0.0000    743.0440     10.3548
   533.7500     73.9317      0.0000    699.7007     10.3534
   534.0000     72.8840      0.0000    645.0824     10.3041
   534.2500     73.1995      0.0000    585.4382     10.1936
   534.5000     73.4975      0.0000    530.6964     10.0220
   534.7500     73.4810      0.0000    490.0183      9.8155
   535.0000     73.5246      0.0000    466.1160      9.6172
   535.2500     73.5787      0.0000    454.4229      9.4673
   535.5000     73.3378      0.0000    447.8264      9.3888
   535.7500     73.0377      0.0000    441.8407      9.3797
   536.0000     73.3215      0.0000    435.8501      9.4148
   536.2500     74.6822      0.0000    430.9724      9.4579
   536.5000     77.5220      0.0000    427.9066      9.4838
   536.7500     82.0817      0.0000    426.4572      9.4937
   537.0000     87.4217      0.0000    426.0870      9.5100
   537.2500     90.9762      0.0000    426.3546      9.5503
   537.5000     90.3821      0.0000    427.1100      9.6075
   537.7500     86.0074      0.0000    428.6505      9.6580
   538.0000     80.7915      0.0000    431.7760      9.6886
   538.2500     77.3370      0.0000    437.5283      9.7078
   538.5000     75.8895      0.0000    446.6609      9.7317
   538.7500     75.2635      0.0000    459.3137      9.7716
   539.0000     74.7030      0.0000    474.9720      9.8340
   539.2500     74.3815      0.0000    492.1578      9.9199
   539.5000     74.8498      0.0000    508.1958     10.0181
   539.7500     76.4957      0.0000    520.4164     10.1055
   540.0000     79.0107      0.0000    527.9852     10.1600
   540.2500     81.0295      0.0000    531.7170     10.1768
   540.5000     80.8858      0.0000    532.2691     10.1744
   540.7500     78.3458      0.0000    529.6385     10.1903
   541.0000     75.3562      0.0000    524.0274     10.2755
   541.2500     74.5174      0.0000    516.5099     10.4881
   541.5000     76.7463      0.0000    509.9280     10.8690
   541.7500     80.7564      0.0000    509.3380     11.4040
   542.0000     84.8406      0.0000    519.2119     12.0167
   542.2500     88.7077      0.0000    539.1948     12.6152
   542.5000     93.1004      0.0000    564.5438     13.1453
   542.7500     97.8079      0.0000    591.7794     13.6006
   543.0000    100.9593      0.0000    621.3168     14.0033
   543.2500    100.9310      0.0000    652.6331     14.3939
   543.5000     98.3843      0.0000    679.3638     14.8352
   543.7500     95.6582      0.0000    691.8367     15.3976
   544.0000     94.5471      0.0000    683.4109     16.1122
   544.2500     95.1978      0.0000    654.7717     16.8933
   544.5000     96.6421      0.0000    615.3638     17.5214
   544.7500     97.7625      0.0000    581.8051     17.7847
   545.0000     97.8090      0.0000    571.4393     17.6810
   545.2500     96.3082      0.0000    593.5616     17.3962
   545.5000     92.9092      0.0000    644.7547     17.0545
   545.7500     87.8710      0.0000    711.1049     16.6029
   546.0000     82.5972      0.0000    775.3211     15.9693
   546.2500     78.7997      0.0000    824.2769     15.2042
   546.5000     76.8415      0.0000    851.6981     14.4164
   546.7500     75.6427     -2.0000    856.8868     13.6489
   547.0000     74.3588      2.0000    844.7347     12.8622
   547.2500     73.3060      0.0000    825.6559     12.0418
   547.5000     73.2059      0.0000    809.8074     11.3358
   547.7500     74.5034      0.0000    799.2070     11.0303
   548.0000     77.4144      0.0000    788.3171     11.2789
   548.2500     81.6847      0.0000    773.6149     11.8545
   548.5000     86.2384      0.0000    759.6431     12.2869
   548.7500     89.7605      0.0000    754.0887     12.2640
   549.0000     91.6503      0.0000    758.8996     11.8415
   549.2500     91.9767      0.0000    768.7115     11.2934
   549.5000     90.7161      0.0000    776.8831     10.8550
   549.7500     87.7594      0.0000    780.4594     10.6071
   550.0000     83.7444      0.0000    779.9302     10.5218
   550.2500     80.1565      0.0000    777.1802     10.5497
   550.5000     78.0295      0.0000    774.0929     10.6585
   550.7500     76.8444      0.0000    771.3021     10.8277
   551.0000     75.2820      0.0000    767.7840     11.0362
   551.2500     73.0264      0.0000    761.1697     11.2656
   551.5000     71.2768      0.0000    746.8788     11.5070
   551.7500     71.2922      0.0000    717.9999     11.7617
   552.0000     72.9257      0.0000    670.4217     12.0318
   552.2500     74.9500      0.0000    609.8604     12.3121
   552.5000     76.4374      0.0000    550.6263     12.5893
   552.7500     77.3910      0.0000    504.7995     12.8483
   553.0000     78.3055      0.0000    473.6244     13.0749
   553.2500     79.6069      0.0000    449.9335     13.2581
   553.5000     81.3159      0.0000    427.0049     13.3930
   553.7500     82.7605      0.0000    404.5048     13.4818
   554.0000     82.7770      0.0000    387.3099     13.5262
   554.2500     80.8233      0.0000    379.8666     13.5191
   554.5000     78.0639      0.0000    382.0600     13.4462
   554.7500     77.0070      0.0000    390.1481     13.2967
   555.0000     79.5176      0.0000    400.4592     13.0743
   555.2500     84.7806      0.0000    410.9639     12.8035
   555.5000     89.2553      0.0000    420.1759     12.5263
   555.7500     89.3229      0.0000    426.6128     12.2894
   556.0000     84.6549      0.0000    429.8291     12.1284
   556.2500     78.7964      0.0000    430.8755     12.0580
   556.5000     76.0509      0.0000    431.3773     12.0683
   556.7500     77.9472      0.0000    432.6642     12.1257
   557.0000     82.7363      0.0000    435.8416     12.1815
   557.2500     87.5676      0.0000    442.3486     12.1930
   557.5000     90.6010      0.0000    454.6537     12.1490
   557.7500     91.4807      0.0000    476.3654     12.0781
   558.0000     90.5502      0.0000    509.8655     12.0271
   558.2500     88.0766      0.0000    550.9921     12.0325
   558.5000     84.4471      0.0000    586.1877     12.1138
   558.7500     80.9969      0.0000    599.0684     12.2808
   559.0000     79.8090      0.0000    583.5992     12.5295
   559.2500     81.9466      0.0000    550.2805     12.8309
   559.5000     86.0781      0.0000    517.1165     13.1324
   559.7500     89.4846      0.0000    494.5834     13.3712
   560.0000     90.4490      0.0000    480.7458     13.4921
   560.2500     89.4103      0.0000    469.4718     13.4701
   560.5000     88.0401      0.0000    459.3528     13.3260
   560.7500     87.6876      0.0000    453.7471     13.1153
   561.0000     88.7431      0.0000    455.8511     12.9013
   561.2500     90.9497      0.0000    467.1038     12.7377
   561.5000     93.6664      0.0000    489.6980     12.6561
   561.7500     95.7910      0.0000    527.1752     12.6479
   562.0000     96.1801      0.0000    579.6132     12.6625
   562.2500     94.6822      0.0000    638.3986     12.6416
   562.5000     92.4025      0.0000    688.6008     12.5604
   562.7500     90.7948      0.0000    718.2570     12.4336
