~Version Information
VERS.                      2.0: CWLS Log ASCII Standard - VERSION 2.0
WRAP.                       NO: One line per depth step
~Well Information Block
STRT.FT               840.0000: 
STOP.FT              2448.5000: 
STEP.FT                 0.2500: 
NULL.                -999.2500: 
COMP.          Petrogulf Corporation: COMPANY
WELL.             Leier 17-42V: WELL
FLD.           Purgatorie River: FIELD
LOC.           2309' FNL & 1062' FEL SENE 17 33S 67W: LOCATION
PROV.                 Colorado: PROVINCE
CNTY.               Las Animas: COUNTRY
SRVC.                Patterson: SERVICE COMPANY
DATE.          Thu Sep 22 09:40:29 2005: LOG DATE
UWI.                 071 08409: UNIQUE WELL ID
~Curve Information Block
DEPT.FT            0 000 00 00: Depth
SP.mV                         : DIL Spontaneous Potential
RILD.Ohm-m                    : DIL Deep Resistivity
RILM.Ohm-m                    : DIL Medium Resistivity
RLL3.Ohm-m                    : DIL Shallow Resistivity
GR.GAPI                       : Gamma Ray
~Parameter Information Block
~A  Depth        SP         RILD        RILM        RLL3         GR     
# ...
  1876.0000    186.8168     26.2184     33.5676     41.9419     48.2622
  1876.2500    187.1556     25.6988     32.1537     48.3052     37.7559
  1876.5000    187.7212     25.2019     30.1226     49.6944     35.8814
  1876.7500    188.4425     25.3701     27.9153     40.7969     39.2710
  1877.0000    189.0849     24.9157     26.4034     29.6725     34.8660
  1877.2500    189.4851     25.0604     24.8145     22.3921     25.2498
  1877.5000    189.5548     24.8744     23.8359     18.9225     27.5838
  1877.7500    189.4037     24.6140     23.4981     19.2000     30.7693
  1878.0000    189.1503     24.4323     23.2222     20.8751     45.9692
  1878.2500    188.8270     24.0423     22.8609     22.5978     52.1840
  1878.5000    188.4150     23.4587     23.2769     23.5762     53.5037
  1878.7500    187.9281     22.9480     23.2386     23.4961     34.4430
  1879.0000    187.4926     23.4261     23.2819     23.3002     33.7114
  1879.2500    187.1441     23.7096     23.7075     23.9341     42.0446
  1879.5000    186.8311     23.7683     23.7475     23.8064     48.7865
  1879.7500    186.6360     24.5233     23.5808     23.2975     47.0283
  1880.0000    186.3717     24.2499     23.9286     23.5305     55.6366
  1880.2500    186.1648     24.7107     25.2891     25.3169     44.6686
  1880.5000    186.1331     24.2514     27.1407     26.3998     52.6515
  1880.7500    186.3235     24.5265     27.8789     26.0810     53.5504
  1881.0000    186.7321     24.5889     29.8406     26.6301     49.3529
  1881.2500    187.3928     24.2329     32.3178     31.1540     42.5361
  1881.5000    188.3090     22.8001     33.5882     38.8443     45.5754
  1881.7500    189.8164     21.0625     33.3758     46.7365     44.9262
  1882.0000    191.5164     19.7198     30.8158     52.6158     29.0026
  1882.2500    193.6263     18.5230     26.3806     51.4939     23.9399
  1882.5000    195.8753     17.5955     22.2776     42.8591     22.6183
  1882.7500    197.6988     16.6001     18.5431     26.5244     31.8181
  1883.0000    199.1861     15.6726     15.6750     14.0397     30.5828
  1883.2500    200.0171     15.0982     13.8393      9.9639     35.2148
  1883.5000    200.3324     14.6748     12.7212      9.6071     70.4422
  1883.7500    200.2056     14.1859     12.0563      9.7142    114.4906
  1884.0000    199.7914     14.0454     11.6462      9.9395    130.0466
  1884.2500    199.1656     13.6692     11.3455      9.9076    127.2916
  1884.5000    198.3988     12.9739     11.1864     10.3127    138.0393
  1884.7500    197.6295     12.6909     11.0966     10.7012    130.1531
  1885.0000    196.7767     12.3680     11.0867     11.2840    156.1406
  1885.2500    196.0888     12.1116     11.2834     11.7965    146.9594
  1885.5000    195.6399     11.8461     11.5907     12.7348    128.2934
  1885.7500    195.3120     11.7174     11.9238     14.2327    103.6999
  1886.0000    195.1812     11.5373     12.2700     16.1331    117.8501
  1886.2500    195.3734     11.4335     12.3569     17.8602    105.9722
  1886.5000    195.8584     11.3364     12.3831     18.2581     86.5924
  1886.7500    196.3074     11.2314     12.0747     18.3674     80.7337
  1887.0000    196.7263     11.4053     11.7180     16.4211     81.9289
  1887.2500    196.9695     11.3780     11.2883     13.2036     83.0206
  1887.5000    196.9683     11.3970     10.9489     11.0433     96.2771
  1887.7500    196.6118     11.4653     10.7041     10.3860    112.2754
  1888.0000    196.1316     11.3008     10.5379     10.3178    126.4728
  1888.2500    195.4197     11.1744     10.3923     10.2305    132.7382
  1888.5000    194.6010     11.0014     10.2910     10.1381    135.0909
  1888.7500    193.6594     10.7328     10.3035     10.0998    129.7089
  1889.0000    192.5597     10.5107     10.2587     10.2287    137.7667
  1889.2500    191.5013     10.2319     10.2180     10.7189    122.0440
  1889.5000    190.5738     10.0000     10.1274     11.2558    107.1971
  1889.7500    189.6009      9.8471     10.0464     11.7772    116.6678
  1890.0000    188.7996      9.7414      9.9251     12.1261    110.9065
  1890.2500    188.1620      9.6362      9.7564     12.0370    113.7365
  1890.5000    187.6430      9.5745      9.6302     11.8803    106.3599
  1890.7500    187.2488      9.5565      9.5756     11.6776    113.7026
  1891.0000    186.9207      9.6458      9.4686     11.6171    128.9961
  1891.2500    186.7079      9.6930      9.3041     11.0169    110.3373
  1891.5000    186.4649      9.8154      9.2616     10.4294    124.0149
  1891.7500    186.1353      9.9111      9.3453     10.2933    119.5936
  1892.0000    185.7142      9.9173      9.4480     10.6857    149.5186
  1892.2500    185.2113      9.9126      9.5605     11.2246    152.2166
  1892.5000    184.7006     10.0239      9.6106     11.5800    132.0181
  1892.7500    184.2043     10.1442      9.6673     12.0826    135.9626
  1893.0000    183.7206     10.2860      9.7145     12.2218    124.9767
  1893.2500    183.3132     10.4859      9.8981     12.2012    143.3201
  1893.5000    182.8813     10.6393      9.9607     11.9864    151.5188
  1893.7500    182.3358     11.0815     10.1523     12.0706    154.4998
  1894.0000    181.6862     11.4509     10.5187     12.1539    142.8781
  1894.2500    180.8939     11.9011     11.1589     12.7423    147.4184
  1894.5000    180.1314     12.2930     11.9194     13.7809    141.0211
  1894.7500    179.5217     12.6216     12.7957     16.6028    144.1222
  1895.0000    178.9802     13.0596     13.6526     20.0972    120.3673
  1895.2500    178.5548     13.3550     14.6901     22.8279    109.8581
  1895.5000    178.2981     13.5351     15.6590     24.3010     88.8107
  1895.7500    178.2662     13.7336     16.4424     24.7735     88.9930
  1896.0000    178.3825     13.7010     16.9752     23.9881     74.6247
  1896.2500    178.7428     13.6637     17.2889     25.9284     85.3388
  1896.5000    179.3098     13.5105     17.2268     31.8113     94.9507
  1896.7500    180.0143     13.5104     16.8588     36.0308     84.4934
  1897.0000    180.8763     13.5941     16.0165     31.3950     80.0424
  1897.2500    181.6414     13.5209     14.7806     21.5858     75.1597
  1897.5000    182.2515     13.4331     13.8307     14.7999     82.5083
  1897.7500    182.7449     13.3624     13.0409     12.7064     75.3435
  1898.0000    183.1350     13.3413     12.6874     12.1926    104.0727
  1898.2500    183.5375     13.4695     12.4805     12.2482    113.5757
  1898.5000    184.0104     13.4239     12.4326     12.4401    107.7967
  1898.7500    184.4118     13.2133     12.4230     12.4052    118.9095
  1899.0000    184.7859     13.2210     12.3650     12.6248    104.5946
  1899.2500    185.2038     13.0743     12.5128     13.6154    114.0846
  1899.5000    185.6871     13.0059     12.7967     14.7472    115.1084
  1899.7500    186.0287     12.9346     13.1636     15.3626    110.2900
  1900.0000    186.2209     12.9741     13.3175     16.0113    101.7276
  1900.2500    186.2540     13.0986     13.8520     17.1694     94.0956
  1900.5000    186.0293     13.3041     14.2388     18.4127     76.6155
  1900.7500    185.5052     13.3186     14.6908     19.4974     96.7875
  1901.0000    184.7643     13.7064     15.1700     20.4949    101.3982
  1901.2500    184.0781     13.9462     15.2983     21.5896    109.0310
  1901.5000    183.4405     14.2285     15.4231     22.7735    106.8351
  1901.7500    183.0137     14.4865     15.3057     22.5059    102.8241
  1902.0000    182.8788     14.8795     15.2206     19.4289    100.6372
  1902.2500    182.7953     15.2515     15.0994     16.7051     94.8923
  1902.5000    182.7269     15.8249     15.0536     15.6529    101.8474
  1902.7500    182.6960     16.2154     15.3086     14.5256    113.5388
  1903.0000    182.6292     16.3044     15.9543     13.7765    151.6115
  1903.2500    182.6302     16.3692     16.8232     13.9527    149.4462
  1903.5000    182.7247     15.7924     17.8770     16.8671    124.2219
  1903.7500    182.9480     15.3221     19.0043     23.7286    131.1195
