~Version Information
 VERS.                                  2.0 : CWLS LAS VERSION
 WRAP.                                   NO : WRAPING MODE
 SWARE .                 MController 2.5.0J : SOFTWARE VERSION
~Well Information
 WELL.                        MOO MOO 31-36 : WELL
 COMP.    PIONEER NATURAL RESOURCES USA INC : COMPANY
 FLD.                      PURGATOIRE RIVER : FIELD
 LOC.                NW/NE SEC 36 T32S R67W : LOCATION
 DATE.                             06/16/05 : DATE(S) LOGGED
 SRVC.       BLANCO GEOLOGICAL SERVICES LLC : SERVICE COMPANY
 STAT.                             COLORADO : STATE
 CNTY.                           LAS ANIMAS : COUNTY
 CTRY.                                  USA : COUNTRY
 API.                       05-071-08395-00 : API NUMBER
 STRT.FT                             303.00 : START DEPTH
 STOP.FT                            2275.00 : STOP DEPTH
 STEP.FT                               1.00 : DEPTH INCREMENT
 NULL.                                -9999 : NULL VALUE
~Curve information
 DEPTH.FT                                   :
 ROP.MIN/FT                                 :
 GAS.UNITS                                  :
~ASCII Log data
# ...
      1103.0         0.20        808.9 
      1104.0         0.23        806.3 
      1105.0         0.23        791.2 
      1106.0         1.40       1174.6 
      1107.0         0.18       1449.8 
      1108.0         0.20       1796.2 
      1109.0         0.33       2366.7 
      1110.0         0.40       3459.1 
      1111.0         0.33       3277.5 
      1112.0         0.30       2677.2 
      1113.0         0.30       2123.4 
      1114.0         0.20       1809.9 
      1115.0         0.23       1531.9 
      1116.0         0.20       1345.4 
      1117.0         0.17       1239.7 
      1118.0         0.13       1170.4 
      1119.0         0.13       1121.0 
      1120.0         0.22       1073.2 
      1121.0         0.17       1006.5 
      1122.0         0.13       1027.1 
      1123.0         0.13       1010.7 
      1124.0         0.17       1001.6 
      1125.0         0.20        981.6 
      1126.0         0.27        965.2 
      1127.0         0.37        938.4 
      1128.0         0.40        835.0 
      1129.0         0.30        929.6 
      1130.0         0.20        928.0 
      1131.0         0.17        911.9 
      1132.0         0.10        910.9 
      1133.0         0.13        911.3 
      1134.0         0.32        904.7 
      1135.0         0.13        895.9 
      1136.0         1.27        826.9 
      1137.0         0.27        775.2 
      1138.0         0.37        866.4 
      1139.0         0.23       1002.9 
      1140.0         0.50       1439.6 
      1141.0         0.23       1564.6 
      1142.0         0.15       1607.1 
      1143.0         0.17       1649.3 
      1144.0         0.27       1654.9 
      1145.0         0.33       1523.4 
      1146.0         0.37       1288.5 
      1147.0         0.20       1199.2 
      1148.0         0.23       1126.9 
      1149.0         0.30       1060.1 
      1150.0         0.27       1027.4 
      1151.0         0.33        994.7 
      1152.0         0.50        959.7 
      1153.0         0.45        884.8 
      1154.0         0.27        815.1 
      1155.0         0.23        829.5 
      1156.0         0.17        863.5 
      1157.0         0.23        909.3 
      1158.0         0.30        908.6 
      1159.0         0.20        901.8 
      1160.0         0.13        898.8 
      1161.0         0.13        905.0 
      1162.0         0.17        922.4 
      1163.0         0.20        936.5 
      1164.0         0.17        935.1 
      1165.0         0.10        942.7 
      1166.0         1.35        805.9 
      1167.0         0.13        783.4 
      1168.0         0.20        797.1 
      1169.0         0.23        882.1 
      1170.0         0.30       1122.9 
      1171.0         0.27       1371.6 
      1172.0         0.33       1616.9 
      1173.0         0.33       1668.3 
      1174.0         0.30       1597.3 
      1175.0         0.27       1438.6 
      1176.0         0.23       1309.1 
      1177.0         0.20       1202.4 
      1178.0         0.22       1118.4 
      1179.0         0.23       1032.3 
      1180.0         0.23        988.8 
      1181.0         0.23        967.2 
      1182.0         0.23        971.5 
      1183.0         0.23        959.4 
      1184.0         0.17        955.1 
      1185.0         0.10        944.6 
      1186.0         0.17        940.1 
      1187.0         0.13        931.5 
      1188.0         0.13        924.0 
      1189.0         0.13        914.2 
      1190.0         0.20        901.1 
      1191.0         0.20        884.1 
      1192.0         0.27        867.1 
      1193.0         0.17        860.2 
      1194.0         0.13        852.7 
      1195.0         0.20        862.2 
      1196.0         0.98        822.6 
      1197.0         0.23        756.9 
      1198.0         0.13        739.8 
      1199.0         0.47        856.3 
      1200.0         0.57       1275.1 
      1201.0         0.47       1597.3 
      1202.0         0.23       1624.4 
      1203.0         0.30       1540.7 
      1204.0         0.38       1338.5 
      1205.0         0.37       1134.7 
      1206.0         0.23       1057.8 
      1207.0         0.20        990.1 
      1208.0         0.30        951.5 
      1209.0         0.27        954.8 
      1210.0         0.23        945.3 
      1211.0         0.33        926.3 
      1212.0         0.30        915.5 
      1213.0         0.30        856.0 
      1214.0         0.17        849.1 
      1215.0         0.12        876.6 
      1216.0         0.27        865.1 
      1217.0         0.33        827.8 
      1218.0         0.27        837.7 
      1219.0         0.33        832.4 
      1220.0         0.33        840.9 
      1221.0         0.30        853.4 
      1222.0         0.32        844.2 
      1223.0         0.27        846.5 
      1224.0         0.20        848.8 
      1225.0         0.20        842.6 
      1226.0         1.27        719.6 
      1227.0         0.10        705.8 
      1228.0         0.27        755.9 
      1229.0         0.37        963.9 
      1230.0         0.33       1197.2 
      1231.0         0.32       1495.9 
      1232.0         0.33       1640.2 
      1233.0         0.37       1571.1 
      1234.0         0.30       1429.8 
      1235.0         0.33       1240.4 
      1236.0         0.30       1099.4 
      1237.0         0.30       1016.0 
      1238.0         0.27        980.0 
      1239.0         0.27        962.0 
      1240.0         0.27        945.0 
      1241.0         0.27        930.6 
      1242.0         0.27        910.3 
      1243.0         0.28        894.3 
      1244.0         0.27        871.7 
      1245.0         0.23        837.7 
      1246.0         0.23        801.3 
      1247.0         0.27        806.6 
      1248.0         0.20        818.0 
      1249.0         0.17        819.3 
      1250.0         0.20        830.8 
      1251.0         0.13        829.5 
      1252.0         0.13        823.9 
      1253.0         0.10        835.4 
      1254.0         0.13        836.0 
      1255.0         0.10        831.1 
      1256.0         1.22        987.8 
      1257.0         0.10       1014.3 
      1258.0         0.23       1013.3 
      1259.0         0.13       1154.3 
      1260.0         0.30       1443.5 
      1261.0         0.27       1809.9 
      1262.0         0.30       2250.9 
      1263.0         0.23       2513.3 
      1264.0         0.23       2657.6 
      1265.0         0.20       2689.6 
      1266.0         0.17       2638.0 
      1267.0         0.20       2492.4 
      1268.0         0.20       2307.5 
      1269.0         0.17       2145.9 
      1270.0         0.13       2019.3 
      1271.0         0.22       1845.9 
      1272.0         0.10       1776.9 
      1273.0         0.23       1613.7 
      1274.0         0.30       1504.7 
      1275.0         0.30       1434.0 
      1276.0         0.30       1394.8 
      1277.0         0.20       1381.1 
      1278.0         0.13       1371.6 
      1279.0         0.20       1361.1 
      1280.0         0.13       1347.7 
      1281.0         0.30       1319.9 
      1282.0         0.30       1285.5 
      1283.0         0.20       1257.1 
      1284.0         0.17       1227.0 
      1285.0         0.23       1210.9 
      1286.0         1.82       1071.2 
      1287.0         0.20       1208.3 
      1288.0         0.37       1602.9 
      1289.0         0.30       2012.8 
      1290.0         0.33       2412.6 
      1291.0         0.27       2575.8 
      1292.0         0.17       2596.4 
      1293.0         0.18       2550.6 
      1294.0         0.20       2426.3 
      1295.0         0.17       2271.2 
      1296.0         0.27       2026.2 
      1297.0         0.10       1940.8 
      1298.0         0.13       1836.1 
      1299.0         0.17       1699.4 
      1300.0         0.30       1528.6 
      1301.0         0.30       1405.9 
      1302.0         0.23       1358.2 
