~Version Information
VERS.                      2.0: CWLS Log ASCII Standard - VERSION 2.0
WRAP.                       NO: One line per depth step
~Well Information Block
STRT.FT               510.0000: 
STOP.FT              1845.5000: 
STEP.FT                 0.1000: 
NULL.                -999.2500: 
COMP.          Pioneer Natural Resources: COMPANY
WELL.           Stampede 42-18: WELL
FLD.           Purgatoire River: FIELD
LOC.           2479' FNL & 160' FEL--: LOCATION
CNTY.               Las Animas: COUNTY
SRVC.          Superior Well Services: SERVICE COMPANY
DATE.          Sat Jun 09 02:39:23 2007: LOG DATE
UWI.           05 071 08237 00: UNIQUE WELL ID
STAT.                 Colorado: STATE
~Curve Information Block
DEPT.FT            0 000 00 00: Depth
DCAL.in                       : CDL Caliper
RHOB.g/cc                     : CDL Bulk Density
RHOC.g/cc                     : CDL Density Correction
DPOR.pu                       : CDL Density Porosity
GR.GAPI                       : Gamma Ray
~Parameter Information Block
~A  Depth       DCAL        RHOB        RHOC        DPOR         GR     
# ...
  1036.4000      8.0081      2.4562      0.0992     11.7475     47.0193
  1036.5000      8.0179      2.4478      0.0869     12.2523     45.5449
  1036.6000      8.0179      2.4398      0.0720     12.7407     47.5171
  1036.7000      8.0179      2.4356      0.0629     12.9942     49.6557
  1036.8000      8.0308      2.4309      0.0847     13.2777     49.1731
  1036.9000      8.0308      2.4217      0.0522     13.8361     47.0052
  1037.0000      8.0473      2.4199      0.0123     13.9441     48.1428
  1037.1000      8.0473      2.4335      0.0802     13.1182     56.0416
  1037.2000      8.0473      2.4469      0.0722     12.3087     63.9651
  1037.3000      8.0673      2.4480      0.0750     12.2442     62.8280
  1037.4000      8.0673      2.4405      0.0670     12.6952     56.8167
  1037.5000      8.0869      2.4363      0.0615     12.9522     54.5549
  1037.6000      8.0869      2.4382      0.0935     12.8341     57.0095
  1037.7000      8.0869      2.4310      0.0903     13.2735     60.7367
  1037.8000      8.1054      2.4114      0.0546     14.4602     61.2253
  1037.9000      8.1054      2.4011      0.0305     15.0822     58.0381
  1038.0000      8.1199      2.4108      0.0533     14.4996     54.3983
  1038.1000      8.1199      2.4271      0.0642     13.5097     50.7055
  1038.2000      8.1199      2.4360      0.0697     12.9725     46.9775
  1038.3000      8.1277      2.4353      0.0525     13.0130     45.1000
  1038.4000      8.1277      2.4305      0.0834     13.3051     46.3049
  1038.5000      8.1323      2.4239      0.0729     13.7041     49.6950
  1038.6000      8.1323      2.4161      0.0263     14.1780     52.8103
  1038.7000      8.1323      2.4052      0.0773     14.8376     53.9992
  1038.8000      8.1373      2.3883      0.0200     15.8613     52.2361
  1038.9000      8.1373      2.3645      0.0512     17.3013     49.5901
  1039.0000      8.1447      2.3242      0.0783     19.7446     50.7015
  1039.1000      8.1447      2.2494      0.0565     24.2815     55.4882
  1039.2000      8.1447      2.1316      0.0244     31.4210     60.6794
  1039.3000      8.1580      1.9931     -0.0790     39.8124     64.1065
  1039.4000      8.1580      1.8677     -0.0664     47.4132     66.6826
  1039.5000      8.1787      1.7586     -0.0861     54.0234     72.1985
  1039.6000      8.1787      1.6600     -0.1064     59.9972     79.2893
  1039.7000      8.1787      1.5904     -0.1280     64.2191     84.8656
  1039.8000      8.2081      1.5712     -0.0794     65.3822     89.6244
  1039.9000      8.2081      1.6049     -0.0069     63.3391     93.9790
  1040.0000      8.2349      1.6814      0.0754     58.7023     97.3948
  1040.1000      8.2349      1.7827      0.1501     52.5638     99.2994
  1040.2000      8.2349      1.8898      0.1835     46.0715    100.2902
  1040.3000      8.2082      1.9985      0.1769     39.4858    103.3406
  1040.4000      8.2082      2.1121      0.1766     32.6023    109.3303
  1040.5000      8.1071      2.2175      0.1969     26.2106    115.0625
  1040.6000      8.1071      2.3008      0.1618     21.1622    119.1841
  1040.7000      8.1071      2.3671      0.1665     17.1471    123.5527
  1040.8000      8.0171      2.4205      0.1636     13.9072    127.6288
  1040.9000      8.0171      2.4627      0.1386     11.3521    128.4396
  1041.0000      7.9805      2.4992      0.1414      9.1420    126.8506
  1041.1000      7.9805      2.5259      0.1176      7.5236    128.8286
  1041.2000      7.9805      2.5373      0.0818      6.8283    135.1337
  1041.3000      7.9718      2.5449      0.0734      6.3696    140.0420
  1041.4000      7.9718      2.5567      0.1191      5.6546    144.3531
  1041.5000      7.9706      2.5656      0.0937      5.1157    151.5865
  1041.6000      7.9706      2.5695      0.1059      4.8801    155.8563
  1041.7000      7.9706      2.5675      0.1049      5.0019    150.2438
  1041.8000      7.9708      2.5545      0.0714      5.7873    139.7353
  1041.9000      7.9708      2.5327      0.0999      7.1119    133.7834
  1042.0000      7.9707      2.5109      0.0337      8.4283    135.5191
  1042.1000      7.9707      2.5059      0.0041      8.7340    142.5566
  1042.2000      7.9707      2.5212      0.0763      7.8055    148.8362
  1042.3000      7.9703      2.5344      0.0770      7.0056    147.3212
  1042.4000      7.9703      2.5277      0.0809      7.4128    143.2536
  1042.5000      7.9703      2.5089      0.0359      8.5537    144.9769
  1042.6000      7.9703      2.4972      0.0352      9.2605    146.3726
  1042.7000      7.9703      2.5031      0.0234      8.9060    142.0878
  1042.8000      7.9701      2.5205      0.0416      7.8468    136.4600
  1042.9000      7.9701      2.5345      0.1051      7.0023    130.8740
  1043.0000      7.9699      2.5386      0.0550      6.7534    129.3340
  1043.1000      7.9699      2.5399      0.1050      6.6748    135.0998
  1043.2000      7.9699      2.5404      0.0674      6.6412    140.7667
  1043.3000      7.9699      2.5326      0.0880      7.1160    140.1355
  1043.4000      7.9699      2.5154      0.0433      8.1560    138.3194
  1043.5000      7.9698      2.5011      0.0345      9.0255    136.8864
  1043.6000      7.9698      2.4988      0.0425      9.1634    129.5901
  1043.7000      7.9698      2.5062      0.0599      8.7163    120.4614
  1043.8000      7.9700      2.5167      0.0845      8.0766    118.7791
  1043.9000      7.9700      2.5247      0.0320      7.5910    125.2816
  1044.0000      7.9699      2.5224      0.0826      7.7351    131.3797
  1044.1000      7.9699      2.5091      0.0366      8.5367    128.8997
  1044.2000      7.9699      2.5008      0.0277      9.0436    119.6354
  1044.3000      7.9695      2.5069      0.0406      8.6734    112.7238
  1044.4000      7.9695      2.5215      0.0649      7.7850    115.9642
  1044.5000      7.9693      2.5373      0.0731      6.8298    125.5654
  1044.6000      7.9693      2.5489      0.0721      6.1280    132.2155
  1044.7000      7.9693      2.5500      0.0854      6.0588    131.8563
  1044.8000      7.9696      2.5400      0.0644      6.6665    127.5123
  1044.9000      7.9696      2.5320      0.0552      7.1522    127.7542
  1045.0000      7.9696      2.5369      0.1002      6.8534    133.4440
  1045.1000      7.9696      2.5450      0.0910      6.3642    136.0777
  1045.2000      7.9696      2.5408      0.0603      6.6200    134.5846
  1045.3000      7.9692      2.5237      0.0853      7.6516    132.5197
  1045.4000      7.9692      2.5048      0.0507      8.7983    130.8719
  1045.5000      7.9692      2.4906      0.0704      9.6585    130.2027
  1045.6000      7.9692      2.4840     -0.0054     10.0610    131.8725
  1045.7000      7.9692      2.4886      0.0490      9.7799    136.3124
  1045.8000      7.9689      2.5018      0.0485      8.9843    138.3165
  1045.9000      7.9689      2.5214      0.0600      7.7914    135.3728
  1046.0000      7.9688      2.5403      0.1212      6.6463    136.0831
  1046.1000      7.9688      2.5459      0.0961      6.3068    140.7550
  1046.2000      7.9688      2.5406      0.0855      6.6321    140.8342
  1046.3000      7.9688      2.5346      0.0765      6.9912    138.9333
  1046.4000      7.9688      2.5348      0.0788      6.9801    141.2958
  1046.5000      7.9684      2.5385      0.0964      6.7583    142.3888
  1046.6000      7.9684      2.5414      0.0734      6.5818    140.0427
  1046.7000      7.9684      2.5535      0.0387      5.8497    139.9112
  1046.8000      7.9682      2.5826      0.0728      4.0878    138.6967
  1046.9000      7.9682      2.6170      0.1050      1.9995    133.8672
  1047.0000      7.9697      2.6410      0.0992      0.5462    128.4695
  1047.1000      7.9697      2.6504      0.0852     -0.0257    123.6299
  1047.2000      7.9697      2.6514      0.0460     -0.0819    120.2531
  1047.3000      7.9734      2.6475      0.0833      0.1498    116.8630
  1047.4000      7.9734      2.6391      0.0829      0.6592    112.2645
  1047.5000      7.9809      2.6356      0.0580      0.8702    108.6130
