~Version Information
VERS.                      2.0: CWLS Log ASCII Standard - VERSION 2.0
WRAP.                       NO: One line per depth step
~Well Information Block
STRT.FT               830.0000: 
STOP.FT              3122.7000: 
STEP.FT                 0.1000: 
NULL.                -999.2500: 
COMP.          Pioneer Natural Resources: COMPANY
WELL.              Stones 24-8: WELL
FLD.           Purgatoire River: FIELD
LOC.           648' FSL & 2264' FWL: LOCATION
PROV.                 Colorado: PROVINCE
CNTY.               Las Animas: COUNTRY
SRVC.                Patterson: SERVICE COMPANY
DATE.          Wed Jan 19 15:33:00 2005: LOG DATE
UWI.           05 071 07945 00: UNIQUE WELL ID
~Curve Information Block
DEPT.FT            0 000 00 00: Depth
DCAL.in                       : CDL Caliper
RHOB.g/cc                     : CDL Bulk Density
RHOC.g/cc                     : CDL Density Correction
DPOR.pu                       : CDL Density Porosity
NPOR.pu                       : Neutron Porosity
GR.GAPI                       : Gamma Ray
~Parameter Information Block
~A  Depth       DCAL        RHOB        RHOC        DPOR        NPOR         GR     
# ...
  2644.4000      7.8602      2.4358      0.0547     12.9831     11.3972     49.5734
  2644.5000      7.8601      2.4633      0.1143     11.3126     11.2434     49.1738
  2644.6000      7.8601      2.4827      0.1219     10.1389     11.7079     48.6371
  2644.7000      7.8601      2.4771      0.0887     10.4802     12.0571     45.5441
  2644.8000      7.8591      2.4533      0.0843     11.9231     12.3234     43.6955
  2644.9000      7.8591      2.4329      0.0471     13.1569     12.5235     46.0856
  2645.0000      7.8596      2.4313      0.0549     13.2541     12.5437     47.9977
  2645.1000      7.8596      2.4414      0.1037     12.6417     12.4986     46.5995
  2645.2000      7.8596      2.4453      0.1018     12.4055     12.6456     46.0606
  2645.3000      7.8621      2.4391      0.0696     12.7794     13.1198     47.8125
  2645.4000      7.8621      2.4310      0.1063     13.2719     13.6494     47.6647
  2645.5000      7.8637      2.4237      0.0695     13.7130     13.9751     46.1267
  2645.6000      7.8637      2.4195      0.0616     13.9693     14.0728     47.0243
  2645.7000      7.8637      2.4211      0.0590     13.8737     14.2207     49.6422
  2645.8000      7.8646      2.4274      0.0899     13.4905     14.6518     51.0797
  2645.9000      7.8646      2.4420      0.0537     12.6059     15.0047     52.4261
  2646.0000      7.8628      2.4639      0.1453     11.2766     15.0421     55.5327
  2646.1000      7.8628      2.4767      0.1426     10.5006     15.0781     59.3082
  2646.2000      7.8628      2.4767      0.1197     10.5009     15.4491     61.7359
  2646.3000      7.8592      2.4794      0.1111     10.3391     16.1235     60.4954
  2646.4000      7.8592      2.4885      0.1304      9.7899     16.6099     56.6384
  2646.5000      7.8590      2.4938      0.0978      9.4666     16.5643     53.8067
  2646.6000      7.8590      2.4906      0.1258      9.6631     16.2816     55.1670
  2646.7000      7.8590      2.4782      0.1422     10.4091     16.1291     60.6397
  2646.8000      7.8645      2.4652      0.1021     11.1983     16.1376     63.5419
  2646.9000      7.8645      2.4616      0.1076     11.4158     16.2013     61.0134
  2647.0000      7.8736      2.4612      0.1238     11.4403     16.3835     59.1190
  2647.1000      7.8736      2.4517      0.1002     12.0190     16.9191     61.0928
  2647.2000      7.8736      2.4394      0.0516     12.7636     17.8660     62.8885
  2647.3000      7.8862      2.4407      0.0891     12.6837     18.7445     62.6542
  2647.4000      7.8862      2.4541      0.0800     11.8700     19.2572     62.7694
  2647.5000      7.9146      2.4681      0.1223     11.0262     19.7217     64.2794
  2647.6000      7.9146      2.4803      0.0704     10.2875     20.3591     69.4278
  2647.7000      7.9146      2.5004      0.0549      9.0688     21.1971     80.8538
  2647.8000      7.9639      2.5289      0.1257      7.3389     22.0487     94.1778
  2647.9000      7.9639      2.5475      0.1283      6.2103     22.4934    102.8513
  2648.0000      8.0056      2.5508      0.1083      6.0106     22.4944    109.2679
  2648.1000      8.0056      2.5538      0.0816      5.8306     22.4447    118.7070
  2648.2000      8.0056      2.5603      0.1032      5.4387     22.4629    130.1377
  2648.3000      8.0219      2.5610      0.0733      5.3945     22.4813    138.8840
  2648.4000      8.0219      2.5539      0.0829      5.8239     22.6175    143.2985
  2648.5000      8.0251      2.5434      0.0695      6.4613     22.8057    147.8270
  2648.6000      8.0251      2.5386      0.0558      6.7502     22.7360    153.4430
  2648.7000      8.0251      2.5435      0.0811      6.4522     22.3960    155.4110
  2648.8000      8.0253      2.5525      0.0558      5.9107     21.9819    152.3311
  2648.9000      8.0253      2.5668      0.0434      5.0433     21.6900    148.9329
  2649.0000      8.0242      2.5912      0.0725      3.5624     21.8560    149.4096
  2649.1000      8.0242      2.6193      0.0884      1.8598     22.7732    149.0323
  2649.2000      8.0242      2.6351      0.1446      0.9021     23.9753    144.7098
  2649.3000      8.0266      2.6339      0.1118      0.9764     24.4078    140.2613
  2649.4000      8.0266      2.6273      0.1077      1.3747     23.7260    135.5639
  2649.5000      8.0327      2.6210      0.0786      1.7574     22.6064    129.5992
  2649.6000      8.0327      2.6117      0.0861      2.3187     21.9784    123.8097
  2649.7000      8.0327      2.6009      0.0485      2.9781     22.1073    117.0706
  2649.8000      8.0354      2.5973      0.0773      3.1935     22.3830    113.1289
  2649.9000      8.0354      2.6042      0.0801      2.7728     22.1774    118.9456
  2650.0000      8.0299      2.6170      0.0995      2.0028     21.6685    129.0024
  2650.1000      8.0299      2.6328      0.0688      1.0437     21.3956    133.1774
  2650.2000      8.0299      2.6474      0.1226      0.1594     21.2055    129.1003
  2650.3000      8.0223      2.6510      0.0863     -0.0601     21.2127    120.8778
  2650.4000      8.0223      2.6403      0.0941      0.5877     22.0131    113.4454
  2650.5000      8.0202      2.6167      0.0851      2.0157     23.0219    106.2070
  2650.6000      8.0202      2.5894      0.0519      3.6757     22.8819     98.9822
  2650.7000      8.0202      2.5723      0.0539      4.7104     21.6762     94.2067
  2650.8000      8.0233      2.5631      0.0722      5.2682     20.4598     89.4802
  2650.9000      8.0233      2.5498      0.0542      6.0719     19.5079     84.2109
  2651.0000      8.0257      2.5353      0.0192      6.9503     18.8859     84.2775
  2651.1000      8.0257      2.5323      0.0075      7.1345     18.7200     90.6167
  2651.2000      8.0257      2.5436      0.0574      6.4474     18.6960     98.1314
  2651.3000      8.0270      2.5622      0.0238      5.3229     18.6770    100.5256
  2651.4000      8.0270      2.5771      0.1168      4.4168     18.5876     94.4486
  2651.5000      8.0286      2.5744      0.0931      4.5798     18.0931     86.4637
  2651.6000      8.0286      2.5570      0.0588      5.6376     17.0517     83.9857
  2651.7000      8.0286      2.5368      0.0707      6.8592     16.0274     85.5183
  2651.8000      8.0278      2.5196      0.0285      7.9038     15.5114     86.1458
  2651.9000      8.0278      2.5063      0.0536      8.7076     15.3723     84.1040
  2652.0000      8.0263      2.4886      0.0376      9.7797     15.4364     79.1511
  2652.1000      8.0263      2.4662      0.0220     11.1424     15.5047     72.5284
  2652.2000      8.0263      2.4470      0.0609     12.3013     15.4888     67.2759
  2652.3000      8.0273      2.4261      0.0726     13.5720     15.5717     64.1920
  2652.4000      8.0273      2.4028      0.0332     14.9799     15.7494     62.5821
  2652.5000      8.0317      2.3912      0.0203     15.6842     15.6784     60.4430
  2652.6000      8.0317      2.3934      0.0365     15.5513     15.4882     58.1910
  2652.7000      8.0317      2.4030      0.0351     14.9706     15.5964     61.6019
  2652.8000      8.0344      2.4230      0.0161     13.7578     15.7666     69.3503
  2652.9000      8.0344      2.4466      0.1109     12.3265     15.5633     73.1496
  2653.0000      8.0309      2.4522      0.0736     11.9901     14.9557     70.1690
  2653.1000      8.0309      2.4421      0.0634     12.6020     14.3917     63.8939
  2653.2000      8.0309      2.4370      0.0545     12.9075     14.1748     59.4143
  2653.3000      8.0278      2.4383      0.1057     12.8280     14.1390     56.6514
  2653.4000      8.0278      2.4388      0.0653     12.7972     14.0417     52.1678
  2653.5000      8.0274      2.4437      0.0843     12.5034     13.7650     48.5252
  2653.6000      8.0274      2.4541      0.1000     11.8746     13.0982     49.6913
  2653.7000      8.0274      2.4615      0.1071     11.4231     12.0849     53.3207
  2653.8000      8.0276      2.4578      0.0912     11.6463     11.1963     54.9284
  2653.9000      8.0276      2.4420      0.0942     12.6089     10.6778     52.8847
