~Version Information
VERS.                      2.0: CWLS Log ASCII Standard - VERSION 2.0
WRAP.                       NO: One line per depth step
~Well Information Block
STRT.FT               870.0000: 
STOP.FT              2519.5000: 
STEP.FT                 0.2500: 
NULL.                -999.2500: 
COMP.          Pioneer Natural Resources: COMPANY
WELL.              Tiaga 23-14: WELL
FLD.           Purgatoire River: FIELD
LOC.           2168' FSL & 2030' FWL: LOCATION
PROV.                 Colorado: PROVINCE
CNTY.               Las Animas: COUNTRY
SRVC.                         : SERVICE COMPANY
DATE.          Sat May 07 08:44:43 2005: LOG DATE
UWI.           05 071 08329 00: UNIQUE WELL ID
~Curve Information Block
DEPT.FT            0 000 00 00: Depth
LTEN.lb                       : Surface Line Tension
SN.Ohm-m                      : IEL Short Normal
SP.mV                         : IEL Spontaneous Potential
DIR.Ohm-m                     : IEL Induction Resistivity
GR.GAPI                       : Gamma Ray
~Parameter Information Block
~A  Depth       LTEN         SN          SP         DIR          GR     
# ...
  1094.0000    671.6467   2000.0000   2000.0000      8.0753    165.3925
  1094.2500    668.2589   2000.0000   2000.0000      8.0795    163.9845
  1094.5000    665.5494   2000.0000   2000.0000      8.1222    161.5728
  1094.7500    664.2480   2000.0000   2000.0000      8.2038    160.2871
  1095.0000    664.5021   2000.0000   2000.0000      8.3191    158.9379
  1095.2500    665.9427   2000.0000   2000.0000      8.4602    157.8468
  1095.5000    668.0102   2000.0000   2000.0000      8.6212    154.7880
  1095.7500    670.2335   2000.0000   2000.0000      8.8000    151.6893
  1096.0000    672.3359   2000.0000   2000.0000      8.9953    146.3602
  1096.2500    674.2444   2000.0000   2000.0000      9.2012    143.0566
  1096.5000    676.0065   2000.0000   2000.0000      9.4066    138.9937
  1096.7500    677.6121   2000.0000   2000.0000      9.5993    136.6104
  1097.0000    678.8708   2000.0000   2000.0000      9.7717    132.7787
  1097.2500    679.5123   2000.0000   2000.0000      9.9245    130.1311
  1097.5000    679.4452   2000.0000   2000.0000     10.0664    127.5963
  1097.7500    678.9036   2000.0000   2000.0000     10.2097    128.0901
  1098.0000    678.2791   2000.0000   2000.0000     10.3641    132.9153
  1098.2500    677.7134   2000.0000   2000.0000     10.5309    138.0644
  1098.5000    676.8979   2000.0000   2000.0000     10.7022    146.0477
  1098.7500    675.4167   2000.0000   2000.0000     10.8660    150.2677
  1099.0000    673.2975   2000.0000   2000.0000     11.0155    154.3545
  1099.2500    671.1328   2000.0000   2000.0000     11.1530    155.9565
  1099.5000    669.6150   2000.0000   2000.0000     11.2892    157.3861
  1099.7500    668.9452   2000.0000   2000.0000     11.4381    157.8403
  1100.0000    668.7057   2000.0000   2000.0000     11.6158    157.8903
  1100.2500    668.3480   2000.0000   2000.0000     11.8410    157.6739
  1100.5000    667.7955   2000.0000   2000.0000     12.1347    157.0925
  1100.7500    667.5507   2000.0000   2000.0000     12.5179    156.1640
  1101.0000    668.2189   2000.0000   2000.0000     13.0090    152.6652
  1101.2500    669.9134   2000.0000   2000.0000     13.6232    148.3091
  1101.5000    672.0993   2000.0000   2000.0000     14.3752    138.8741
  1101.7500    674.0402   2000.0000   2000.0000     15.2805    131.3530
  1102.0000    675.3518   2000.0000   2000.0000     16.3504    119.3531
  1102.2500    676.0760   2000.0000   2000.0000     17.5832    111.0695
  1102.5000    676.3339   2000.0000   2000.0000     18.9589     98.2506
  1102.7500    676.1245   2000.0000   2000.0000     20.4448     89.8013
  1103.0000    675.4978   2000.0000   2000.0000     22.0035     78.5196
  1103.2500    674.7163   2000.0000   2000.0000     23.5808     72.5683
  1103.5000    674.0626   2000.0000   2000.0000     25.0664     66.3099
  1103.7500    673.5376   2000.0000   2000.0000     26.2586     63.6930
  1104.0000    672.9059   2000.0000   2000.0000     26.8988     61.5549
  1104.2500    672.0483   2000.0000   2000.0000     26.7979     61.1977
  1104.5000    671.1280   2000.0000   2000.0000     25.9597     62.6389
  1104.7500    670.3868   2000.0000   2000.0000     24.5753     65.3489
  1105.0000    669.9147   2000.0000   2000.0000     22.9057     72.5285
  1105.2500    669.6533   2000.0000   2000.0000     21.1740     79.2935
  1105.5000    669.5535   2000.0000   2000.0000     19.5286     91.5732
  1105.7500    669.6597   2000.0000   2000.0000     18.0494    100.4871
  1106.0000    669.9901   2000.0000   2000.0000     16.7660    113.7436
  1106.2500    670.3265   2000.0000   2000.0000     15.6748    121.8364
  1106.5000    670.2676   2000.0000   2000.0000     14.7534    131.8668
  1106.7500    669.7286   2000.0000   2000.0000     13.9698    136.8644
  1107.0000    669.4140   2000.0000   2000.0000     13.2863    142.0653
  1107.2500    670.4330   2000.0000   2000.0000     12.6647    144.2662
  1107.5000    673.1539   2000.0000   2000.0000     12.0768    145.5803
  1107.7500    676.6377   2000.0000   2000.0000     11.5163    144.8829
  1108.0000    679.4283   2000.0000   2000.0000     11.0001    141.6568
  1108.2500    680.6592   2000.0000   2000.0000     10.5564    138.6704
  1108.5000    680.2372   2000.0000   2000.0000     10.2083    134.2937
  1108.7500    678.4373   2000.0000   2000.0000      9.9652    132.2053
  1109.0000    675.7568   2000.0000   2000.0000      9.8231    131.5533
  1109.2500    672.9506   2000.0000   2000.0000      9.7677    133.1071
  1109.5000    670.7971   2000.0000   2000.0000      9.7789    137.4393
  1109.7500    669.7460   2000.0000   2000.0000      9.8326    140.3566
  1110.0000    669.7991   2000.0000   2000.0000      9.9048    142.9213
  1110.2500    670.5984   2000.0000   2000.0000      9.9764    143.2541
  1110.5000    671.6239   2000.0000   2000.0000     10.0382    142.7218
  1110.7500    672.5127   2000.0000   2000.0000     10.0924    142.4438
  1111.0000    673.3489   2000.0000   2000.0000     10.1497    142.8299
  1111.2500    674.5480   2000.0000   2000.0000     10.2222    143.5610
  1111.5000    676.3092   2000.0000   2000.0000     10.3188    144.8383
  1111.7500    678.2329   2000.0000   2000.0000     10.4430    145.5203
  1112.0000    679.6450   2000.0000   2000.0000     10.5929    146.0449
  1112.2500    680.2778   2000.0000   2000.0000     10.7629    146.0430
  1112.5000    680.4501   2000.0000   2000.0000     10.9467    145.6387
  1112.7500    680.5737   2000.0000   2000.0000     11.1417    145.2384
  1113.0000    680.7122   2000.0000   2000.0000     11.3514    144.5471
  1113.2500    680.7097   2000.0000   2000.0000     11.5845    143.9642
  1113.5000    680.5193   2000.0000   2000.0000     11.8474    142.8525
  1113.7500    680.2855   2000.0000   2000.0000     12.1336    142.0296
  1114.0000    680.1761   2000.0000   2000.0000     12.4181    140.6836
  1114.2500    680.1154   2000.0000   2000.0000     12.6677    139.5505
  1114.5000    679.6326   2000.0000   2000.0000     12.8623    137.3093
  1114.7500    678.2202   2000.0000   2000.0000     13.0096    135.6529
  1115.0000    676.0262   2000.0000   2000.0000     13.1358    133.7492
  1115.2500    673.9202   2000.0000   2000.0000     13.2632    133.3535
  1115.5000    672.7479   2000.0000   2000.0000     13.3969    134.3712
  1115.7500    672.8615   2000.0000   2000.0000     13.5288    135.9249
  1116.0000    674.3475   2000.0000   2000.0000     13.6480    138.9352
  1116.2500    677.1144   2000.0000   2000.0000     13.7464    141.0604
  1116.5000    680.6076   2000.0000   2000.0000     13.8154    143.9711
  1116.7500    683.8616   2000.0000   2000.0000     13.8447    145.5369
  1117.0000    686.0598   2000.0000   2000.0000     13.8279    147.4394
  1117.2500    686.9612   2000.0000   2000.0000     13.7705    148.8565
  1117.5000    686.8096   2000.0000   2000.0000     13.6912    152.0419
  1117.7500    685.9827   2000.0000   2000.0000     13.6145    154.8197
  1118.0000    684.7645   2000.0000   2000.0000     13.5606    158.6701
  1118.2500    683.3772   2000.0000   2000.0000     13.5406    160.1225
  1118.5000    682.0486   2000.0000   2000.0000     13.5588    160.0308
  1118.7500    680.9369   2000.0000   2000.0000     13.6185    158.8255
  1119.0000    680.0430   2000.0000   2000.0000     13.7272    156.6107
  1119.2500    679.2847   2000.0000   2000.0000     13.8969    155.5227
  1119.5000    678.6675   2000.0000   2000.0000     14.1402    154.7315
  1119.7500    678.3499   2000.0000   2000.0000     14.4658    154.4356
  1120.0000    678.5438   2000.0000   2000.0000     14.8760    153.5373
  1120.2500    679.3489   2000.0000   2000.0000     15.3688    152.1254
  1120.5000    680.6567   2000.0000   2000.0000     15.9416    147.5840
  1120.7500    682.1978   2000.0000   2000.0000     16.5936    142.2102
  1121.0000    683.7009   2000.0000   2000.0000     17.3233    130.4037
  1121.2500    685.0254   2000.0000   2000.0000     18.1243    120.8150
  1121.5000    686.1603   2000.0000   2000.0000     18.9838    105.9713
  1121.7500    687.1360   2000.0000   2000.0000     19.8883     96.7217
