~Version Information
VERS.                      2.0: CWLS Log ASCII Standard - VERSION 2.0
WRAP.                       NO: One line per depth step
~Well Information Block
STRT.FT                10.0000: 
STOP.FT              1066.5000: 
STEP.FT                 0.2500: 
NULL.                -999.2500: 
COMP.          Pioneer Natural Resources: COMPANY
WELL.            Redland 23-24: WELL
FLD.           Purgatoire River: FIELD
LOC.           2356' FSL & 1880' FWL----: LOCATION
PROV.                 Colorado: PROVINCE
CNTY.               Las Animas: COUNTRY
SRVC.                         : SERVICE COMPANY
DATE.          Thu Mar 24 10:01:02 2005: LOG DATE
UWI.           05 071 08221   : UNIQUE WELL ID
~Curve Information Block
DEPT.FT            0 000 00 00: Depth
CCL.                          : Casing Collar Locator
TT3.usec                      : CBL 3' Travel Time
AMP3.mV                       : CBL 3' Amplitude
AMP5.mV                       : CBL 5' Amplitude
GR.GAPI                       : Gamma Ray
~Parameter Information Block
~A  Depth       CCL         TT3         AMP3        AMP5         GR     
# ...
   206.0000      0.0000    905.7552      5.3458      2.3891     62.2367
   206.2500      0.0000    905.7500      5.3223      2.4762     64.2819
   206.5000      0.0000    904.6733      5.3014      2.9114     66.2551
   206.7500      0.0000    903.5097      5.2673      2.5632     67.1079
   207.0000      0.0000    902.7729      5.2116      2.4762     66.9753
   207.2500      0.0000    902.5282      5.1469      2.0409     66.7009
   207.5000      0.0000    902.5043      5.1018      2.5632     66.8905
   207.7500      0.0000    902.3636      5.1014      2.5632     68.0143
   208.0000      0.0000    902.0002      5.1458      2.2150     70.6976
   208.2500      0.0000    901.5946      5.2091      2.5632     74.9557
   208.5000      0.0000    901.3852      5.2603      2.5632     79.5699
   208.7500      0.0000    901.4283      5.2825      1.9539     82.9566
   209.0000      0.0000    901.5887      5.2735      1.9539     84.3353
   209.2500      0.0000    901.6970      5.2364      1.6927     83.7066
   209.5000      0.0000    901.6799      5.1772      2.2150     81.2874
   209.7500      0.0000    901.5741      5.1093      2.5632     77.4784
   210.0000      0.0000    901.4579      5.0501      2.1280     73.0397
   210.2500      0.0000    901.3688      5.0103      1.9539     68.8566
   210.5000      0.0000    901.2557      4.9880      1.6057     65.5430
   210.7500      0.0000    900.9934      4.9758      2.1280     63.1954
   211.0000      0.0000    900.3868      4.9731      2.2150     61.3243
   211.2500      0.0000    899.0209      4.9884      2.3891     59.2011
   211.5000      0.0000    895.8776      5.0271      2.6503     56.6283
   211.7500      0.0000    889.0103      5.0800      1.8668     54.3955
   212.0000      0.0000    876.0636      5.1249      1.8668     53.7694
   212.2500      0.0000    856.0855      5.1408      2.3021     55.2930
   212.5000      0.0000    831.3721      5.1210      2.0409     58.0057
   212.7500      0.0000    807.0380      5.0702      1.3446     60.0527
   213.0000      0.0000    788.0114      4.9924      2.2150     60.3137
   213.2500      0.0000    776.2135      4.8839      2.0409     59.3869
   213.5000      0.0000    770.4054      4.7415      1.7798     58.8732
   213.7500      0.0000    768.0859      4.5762      1.2575     59.8432
   214.0000      0.0000    767.2214      4.4148      1.7798     62.0963
   214.2500      0.0000    766.7628      4.2884      2.1280     64.6091
   214.5000      0.0000    766.3894      4.2200      1.4316     66.3254
   214.7500      0.0000    766.2618      4.2147      2.2150     66.5419
   215.0000      0.0000    767.0541      4.2561      2.2150     64.9464
   215.2500      0.0000    770.1076      4.3159      2.3021     61.6705
   215.5000      0.0000    777.1442      4.3727      2.6503     57.4646
   215.7500      0.0000    789.0033      4.4199      1.4316     53.7765
   216.0000      0.0000    804.1588      4.4594      1.8668     52.3612
   216.2500      0.0000    819.0392      4.4950      2.3021     54.4187
   216.5000      0.0000    830.3828      4.5370      2.2150     59.9031
   216.7500      0.0000    836.7318      4.6015      2.2150     67.6247
   217.0000      0.0000    837.6729      4.6969      1.8668     76.0521
   217.2500      0.0000    833.3507      4.8114      2.0409     84.2668
   217.5000      0.0000    825.4461      4.9221      2.3021     92.2556
   217.7500      0.0000    817.1516      5.0185      2.1280    100.0421
   218.0000      0.0000    811.2037      5.1107      2.1280    106.6059
   218.2500      0.0000    808.3802      5.2098      2.1280    110.1489
   218.5000      0.0000    808.0407      5.3036      2.0409    109.6012
   218.7500      0.0000    809.6571      5.3625      2.6503    105.5948
   219.0000      0.0000    813.6736      5.3746      2.0409    100.0323
   219.2500      0.0000    820.9516      5.3658      2.4762     95.0655
   219.5000      0.0000    831.1342      5.3801      2.9984     92.2937
   219.7500      0.0000    841.7079      5.4405      2.2150     92.1506
   220.0000      0.0000    849.5865      5.5309      2.9114     93.6925
   220.2500      0.0000    854.0963      5.6136      3.3466     95.3104
   220.5000      0.0000    857.4949      5.6713      3.9560     95.9277
   220.7500      0.0000    861.9813      5.7299      3.6078     95.5890
   221.0000      0.0000    867.3931      5.8274      1.7798     95.1221
   221.2500      0.0000    872.6918      5.9549      3.1725     95.5097
   221.5000      0.0000    878.1581      6.0468      2.9114     97.3112
   221.7500      0.0000    884.4659      6.0436      2.1280    100.1405
   222.0000      0.0000    890.6218      5.9571      2.6503    102.4830
   222.2500      0.0000    894.6400      5.8562      2.8244    102.2431
   222.5000      0.0000    895.9912      5.8012      3.1725     98.0462
   222.7500      0.0000    896.0359      5.8003      3.0855     90.5655
   223.0000      0.0000    896.0275      5.8202      2.7373     82.5418
   223.2500      0.0000    895.7874      5.8245      2.6503     76.9556
   223.5000      0.0000    894.5730      5.8054      2.2150     74.8732
   223.7500      0.0000    892.2077      5.7766      1.9539     75.0691
   224.0000      0.0000    888.9152      5.7368      2.3021     75.5795
   224.2500      0.0000    885.0997      5.6549      2.6503     75.4122
   224.5000      0.0000    881.7757      5.5099      1.6927     74.8936
   224.7500      0.0000    880.2344      5.3304      2.3021     74.5900
   225.0000      0.0000    880.8098      5.1677      2.0409     73.9793
   225.2500      0.0000    882.7644      5.0376      2.6503     71.4188
   225.5000      0.0000    885.4386      4.9200      2.9984     65.7023
   225.7500      0.0000    888.6071      4.8111      1.5187     57.6066
   226.0000      0.0000    891.8276      4.7417      2.5632     49.5546
   226.2500      0.0000    894.3475      4.7382      1.6927     43.7178
   226.5000      0.0000    895.7424      4.7902      2.9984     40.7864
   226.7500      0.0000    896.1755      4.8693      3.1725     40.4747
   227.0000      0.0000    896.0797      4.9647      2.2150     42.3881
   227.2500      0.0000    895.8464      5.0771      2.7373     45.9251
   227.5000      0.0000    895.6987      5.1879      3.2596     49.8621
   227.7500      0.0000    895.5406      5.2606      2.5632     52.8675
   228.0000      0.0000    894.6965      5.2785      2.5632     54.7532
   228.2500      0.0000    891.7256      5.2632      2.6503     56.9557
   228.5000      0.0000    884.5666      5.2502      2.4762     61.3919
   228.7500      0.0000    871.3210      5.2579      2.5632     68.7870
   229.0000      0.0000    851.0743      5.2785      2.1280     78.2663
   229.2500      0.0000    824.4517      5.2898      3.0855     88.2614
   229.5000      0.0000    794.9295      5.2787      2.9984     97.1861
   229.7500      0.0000    770.3843      5.2581      2.5632    103.3480
   230.0000      0.0000    760.3743      5.2589      2.1280    105.2818
   230.2500      0.0000    768.3779      5.3051      3.2596    102.9564
   230.5000      0.0000    787.7613      5.3998      3.1725     98.4340
   230.7500      0.0000    807.7827      5.5318      3.4337     94.7010
   231.0000      0.0000    822.4929      5.6863      3.6078     93.4744
   231.2500      0.0000    832.7467      5.8504      3.2596     94.0968
   231.5000      0.0000    841.6057      6.0047      3.4337     94.4189
   231.7500      0.0000    849.6287      6.1057      3.3466     92.7070
   232.0000      0.0000    854.2148      6.0930      3.7819     89.1263
   232.2500      0.0000    852.5917      5.9416      2.9984     85.7289
   232.5000      0.0000    844.8443      5.7061      3.6948     84.7103
   232.7500      0.0000    833.9243      5.4924      3.3466     86.3714
   233.0000      0.0000    823.3141      5.3793      3.8689     88.9943
   233.2500      0.0000    815.2545      5.3741      3.7819     90.7601
   233.5000      0.0000    810.4846      5.4342      2.8244     91.3160
   233.7500      0.0000    808.7853      5.5111      2.4762     91.4808
