~Version Information
VERS.                      2.0: CWLS Log ASCII Standard - VERSION 2.0
WRAP.                       NO: One line per depth step
~Well Information Block
STRT.FT                -7.5000: 
STOP.FT              1702.2500: 
STEP.FT                 0.2500: 
NULL.                -999.2500: 
COMP.          Pioneer Natural Resources: COMPANY
WELL.          Warrior 33-1 Tr: WELL
FLD.           Purgatoire River: FIELD
LOC.           2648' FSL & 2341' FEL--: LOCATION
PROV.                 Colorado: PROVINCE
CNTY.               Las Animas: COUNTRY
SRVC.                Patterson: SERVICE COMPANY
DATE.          Wed Jun 22 12:18:08 2005: LOG DATE
UWI.           05 071 08412 00: UNIQUE WELL ID
~Curve Information Block
DEPT.FT            0 000 00 00: Depth
CCL.                          : Casing Collar Locator
TT3.usec                      : CBL 3' Travel Time
AMP3.mV                       : CBL 3' Amplitude
GR.GAPI                       : Gamma Ray
~Parameter Information Block
~A  Depth       CCL         TT3         AMP3         GR     
# ...
   428.0000      0.0000    723.3765      8.7193    101.4611
   428.2500      0.0000    723.5286      8.8072    107.2798
   428.5000      0.0000    723.7590      8.9987    112.9939
   428.7500      0.0000    724.1249      9.3114    117.6458
   429.0000      0.0000    724.8136      9.7483    120.7611
   429.2500      0.0000    726.2393     10.2976    122.8444
   429.5000      0.0000    729.0612     10.9285    124.8739
   429.7500      0.0000    733.7825     11.5916    127.1752
   430.0000      0.0000    740.0243     12.2279    129.1811
   430.2500      0.0000    746.3623     12.7878    130.2245
   430.5000      0.0000    751.2470     13.2516    130.0734
   430.7500      0.0000    753.5551     13.6349    128.7546
   431.0000      0.0000    751.5462     13.9671    126.3712
   431.2500      0.0000    741.8838     14.2601    123.1823
   431.5000      0.0000    722.2266     14.4846    119.5816
   431.7500      0.0000    697.3541     14.5496    116.0431
   432.0000      0.0000    682.0806     14.3087    113.2723
   432.2500      0.0000    693.1484     13.6508    111.9658
   432.5000      0.0000    734.1754     12.6412    112.0320
   432.7500      0.0000    790.4324     11.5335    112.5800
   433.0000      0.0000    841.2529     10.5951    113.2154
   433.2500     -2.0000    876.0555      9.9433    114.6853
   433.5000      2.0000    897.7076      9.5555    117.4407
   433.7500      0.0000    914.2134      9.3678    120.2148
   434.0000      0.0000    929.2586      9.3463    121.0644
   434.2500      0.0000    938.6374      9.5127    119.4399
   434.5000      0.0000    934.4260      9.9189    116.4677
   434.7500      0.0000    913.5264     10.5613    113.6340
   435.0000      0.0000    882.1051     11.3219    111.9165
   435.2500      0.0000    850.7284     12.0382    112.0040
   435.5000      0.0000    825.8862     12.6098    114.5687
   435.7500      0.0000    806.8249     12.9970    119.8685
   436.0000      0.0000    789.6976     13.1745    127.1881
   436.2500      0.0000    773.3994     13.1504    134.8401
   436.5000      0.0000    760.5226     12.9938    140.6616
   436.7500      0.0000    753.3595     12.8005    142.7873
   437.0000      0.0000    751.0663     12.6328    140.7403
   437.2500      0.0000    751.1978     12.4967    136.1685
   437.5000      0.0000    752.2784     12.3662    131.8956
   437.7500      0.0000    754.0446     12.2201    129.7051
   438.0000      0.0000    756.1771     12.0660    129.3242
   438.2500      0.0000    757.3782     11.9286    129.6585
   438.5000      0.0000    755.7315     11.8248    130.3556
   438.7500      0.0000    750.6535     11.7520    131.6584
   439.0000      0.0000    744.2382     11.6970    133.0922
   439.2500      0.0000    739.4885     11.6451    133.1999
   439.5000      0.0000    737.3042     11.5809    130.9868
   439.7500      0.0000    736.0937     11.4900    127.2224
   440.0000      0.0000    734.1581     11.3653    123.8675
   440.2500      0.0000    731.5587     11.2110    122.3674
   440.5000      0.0000    729.6788     11.0436    122.7281
   440.7500      0.0000    729.7368     10.8879    124.2019
   441.0000      0.0000    731.8637     10.7663    126.5276
   441.2500      0.0000    735.0802     10.6870    129.8814
   441.5000      0.0000    738.0444     10.6449    133.4876
   441.7500      0.0000    740.0682     10.6305    135.2751
   442.0000      0.0000    741.4677     10.6356    133.5424
   442.2500      0.0000    742.9156     10.6555    128.4167
   442.5000      0.0000    744.5168     10.6887    121.4635
   442.7500      0.0000    745.2733     10.7294    114.6000
   443.0000      0.0000    743.4158     10.7626    109.6059
   443.2500      0.0000    737.9250     10.7733    107.7857
   443.5000      0.0000    729.9828     10.7636    109.2307
   443.7500      0.0000    722.5208     10.7552    112.5228
   444.0000      0.0000    718.1235     10.7734    115.6496
   444.2500      0.0000    717.2751     10.8259    117.2750
   444.5000      0.0000    718.3261     10.8945    117.0221
   444.7500      0.0000    719.0485     10.9495    114.9720
   445.0000      0.0000    718.4890     10.9747    111.4865
   445.2500      0.0000    717.7482     10.9749    107.3637
   445.5000      0.0000    719.0359     10.9604    103.6797
   445.7500      0.0000    723.6215     10.9299    101.3301
   446.0000      0.0000    730.5055     10.8733    100.6382
   446.2500      0.0000    737.1795     10.7882    101.2746
   446.5000      0.0000    741.7507     10.6948    102.4985
   446.7500      0.0000    744.4597     10.6354    103.5208
   447.0000      0.0000    747.4354     10.6532    103.9132
   447.2500      0.0000    753.0897     10.7630    104.0336
   447.5000      0.0000    762.3881     10.9379    104.9696
   447.7500      0.0000    774.2040     11.1292    107.6510
   448.0000      0.0000    785.8599     11.2969    111.8384
   448.2500      0.0000    794.1257     11.4240    116.1618
   448.5000      0.0000    796.3939     11.5123    119.1078
   448.7500      0.0000    791.9149     11.5723    119.8396
   449.0000      0.0000    782.2407     11.6176    118.4311
   449.2500      0.0000    770.1329     11.6590    115.9115
   449.5000      0.0000    757.7894     11.6950    114.0469
   449.7500      0.0000    746.2336     11.7082    114.4173
   450.0000      0.0000    735.8476     11.6751    117.2610
   450.2500      0.0000    726.5190     11.5850    121.2570
   450.5000      0.0000    717.4748     11.4475    124.4548
   450.7500      0.0000    708.0216     11.2814    125.6073
   451.0000      0.0000    698.6326     11.1017    124.9936
   451.2500      0.0000    690.8521     10.9195    124.0198
   451.5000      0.0000    686.1404     10.7526    123.7471
   451.7500      0.0000    685.2806     10.6319    123.8236
   452.0000      0.0000    688.6827     10.5939    122.9621
   452.2500      0.0000    696.3033     10.6582    120.2058
   452.5000      0.0000    706.6741     10.8049    115.5585
   452.7500      0.0000    716.5803     10.9780    109.8388
   453.0000      0.0000    722.6756     11.1208    104.1323
   453.2500      0.0000    723.5952     11.2127     98.9686
   453.5000      0.0000    720.3115     11.2656     93.9868
   453.7500      0.0000    714.8850     11.2906     88.7513
   454.0000      0.0000    709.3373     11.2809     83.6926
   454.2500      0.0000    705.3499     11.2322     79.9091
   454.5000      0.0000    704.2606     11.1731     78.3280
   454.7500      0.0000    706.4213     11.1638     79.2899
   455.0000      0.0000    709.8943     11.2531     82.5591
   455.2500      0.0000    709.6974     11.4352     87.3807
   455.5000      0.0000    699.2010     11.6529     92.5972
   455.7500      0.0000    674.6026     11.8392     97.0023
   456.0000      0.0000    640.5502     11.9526     99.9619
   456.2500      0.0000    610.6017     11.9739    101.9416
   456.5000      0.0000    598.3856     11.8901    104.3017
   456.7500      0.0000    606.9312     11.6986    108.2657
   457.0000      0.0000    627.8582     11.4270    113.9218
   457.2500      0.0000    649.9193     11.1300    120.0902
   457.5000      0.0000    666.4403     10.8558    125.1317
   457.7500      0.0000    676.4064     10.6156    128.0335
   458.0000      0.0000    682.0648     10.3926    128.7922
   458.2500      0.0000    686.5395     10.1761    127.8368
   458.5000      0.0000    692.2696      9.9812    125.5245
   458.7500      0.0000    700.0077      9.8355    122.3499
   459.0000      0.0000    708.6581      9.7539    119.0758
   459.2500      0.0000    716.2391      9.7298    116.2073
   459.5000      0.0000    721.3763      9.7495    113.6661
   459.7500      0.0000    723.9865      9.8103    111.3106
   460.0000      0.0000    724.7014      9.9201    109.4112
   460.2500      0.0000    723.8802     10.0729    108.2829
   460.5000      0.0000    721.1631     10.2249    107.7387
   460.7500      0.0000    715.9645     10.3040    107.2290
   461.0000      0.0000    708.6011     10.2532    106.4997
   461.2500      0.0000    700.9968     10.0749    106.0238
