~Version Information
VERS.                      2.0: CWLS Log ASCII Standard - VERSION 2.0
WRAP.                       NO: One line per depth step
~Well Information Block
STRT.FT               -11.0000: 
STOP.FT              1523.2500: 
STEP.FT                 0.2500: 
NULL.                -999.2500: 
COMP.          Petrogulf Corporation: COMPANY
WELL.             State 16-43R: WELL
FLD.           Purgatorie River: FIELD
LOC.           2538' FSL & 716' FEL--: LOCATION
PROV.                       CO: PROVINCE
CNTY.               Las Animas: COUNTRY
SRVC.          Patterson Wireline: SERVICE COMPANY
DATE.          Fri Sep 09 13:13:52 2005: LOG DATE
UWI.           05 071 08338 00: UNIQUE WELL ID
~Curve Information Block
DEPT.FT            0 000 00 00: Depth
CCL.                          : Casing Collar Locator
TT3.usec                      : CBL 3' Travel Time
AMP3.mV                       : CBL 3' Amplitude
GR.GAPI                       : Gamma Ray
~Parameter Information Block
~A  Depth       CCL         TT3         AMP3         GR     
# ...
   190.0000      0.0000    680.2999     11.8326     43.9759
   190.2500      0.0000    680.0614     11.7842     43.5615
   190.5000      0.0000    679.7385     11.7325     44.6915
   190.7500      0.0000    678.9899     11.7057     47.1482
   191.0000      0.0000    676.8822     11.7170     49.8193
   191.2500      0.0000    671.3491     11.7464     51.6830
   191.5000      0.0000    658.8915     11.7547     52.4373
   191.7500      0.0000    635.0769     11.7161     52.3162
   192.0000      0.0000    596.6105     11.6390     51.4870
   192.2500      0.0000    544.8198     11.5575     49.7772
   192.5000      0.0000    487.5974     11.5063     47.1312
   192.7500      0.0000    436.0893     11.4994     44.2358
   193.0000      0.0000    397.9823     11.5278     42.4144
   193.2500      0.0000    374.2278     11.5708     42.7950
   193.5000      0.0000    361.6461     11.6112     45.7027
   193.7500      0.0000    356.7799     11.6428     50.7244
   194.0000      0.0000    357.1458     11.6660     56.9576
   194.2500      0.0000    360.7621     11.6795     63.1069
   194.5000      0.0000    365.7740     11.6777     67.7388
   194.7500      0.0000    370.5485     11.6591     69.9718
   195.0000      0.0000    374.0063     11.6354     70.2002
   195.2500      0.0000    375.9063     11.6303     70.0565
   195.5000      0.0000    376.6534     11.6652     71.5563
   195.7500      0.0000    376.8127     11.7434     76.1839
   196.0000      0.0000    376.7744     11.8444     84.2034
   196.2500      0.0000    376.7182     11.9371     94.1903
   196.5000      0.0000    376.6980     12.0008    103.3255
   196.7500      0.0000    376.6645     12.0412    108.8853
   197.0000      0.0000    376.3967     12.0865    110.0246
   197.2500      0.0000    375.3840     12.1653    108.2488
   197.5000      0.0000    372.8625     12.2817    106.0846
   197.7500      0.0000    368.2843     12.4105    105.1559
   198.0000      0.0000    362.1919     12.5161    105.3993
   198.2500      0.0000    356.6793     12.5769    105.9410
   198.5000      0.0000    354.4446     12.5911    106.2027
   198.7500      0.0000    356.8223     12.5661    105.8999
   199.0000      0.0000    362.6822     12.5083    104.5424
   199.2500      0.0000    369.3878     12.4238    101.7354
   199.5000      0.0000    374.7407     12.3266     98.0607
   199.7500      0.0000    378.0068     12.2397     95.0001
   200.0000      0.0000    379.5493     12.1870     93.5045
   200.2500      0.0000    380.0181     12.1777     92.9835
   200.5000      0.0000    379.8805     12.2010     92.1188
   200.7500      0.0000    379.2711     12.2353     90.3912
   201.0000      0.0000    377.8946     12.2657     88.4729
   201.2500      0.0000    375.0204     12.2968     87.5283
   201.5000      0.0000    369.8742     12.3524     88.5492
   201.7500      0.0000    362.4255     12.4569     92.0658
   202.0000      0.0000    353.8725     12.6128     97.7219
   202.2500      0.0000    346.0915     12.7940    103.7621
   202.5000      0.0000    340.4421     12.9631    107.4072
   202.7500      0.0000    337.1186     13.0924    106.6398
   203.0000      0.0000    335.4968     13.1718    101.8847
   203.2500      0.0000    334.8267     13.2032     95.5543
   203.5000      0.0000    334.6034     13.1948     89.9666
   203.7500      0.0000    334.5711     13.1598     86.1098
   204.0000      0.0000    334.6113     13.1160     84.1719
   204.2500      0.0000    334.6687     13.0802     84.2669
   204.5000      0.0000    334.7225     13.0626     86.1661
   204.7500      0.0000    334.7719     13.0662     88.8153
   205.0000      0.0000    334.8181     13.0885     90.9174
   205.2500      0.0000    334.8571     13.1228     92.1671
   205.5000      0.0000    334.8852     13.1593     93.4129
   205.7500      0.0000    334.9073     13.1881     95.2455
   206.0000      0.0000    334.9338     13.2043     96.7513
   206.2500      0.0000    334.9688     13.2101     96.2700
   206.5000      0.0000    335.0064     13.2116     93.3154
   206.7500      0.0000    335.0382     13.2149     89.1097
   207.0000      0.0000    335.0618     13.2225     85.2228
   207.2500      0.0000    335.0815     13.2334     82.3489
   207.5000      0.0000    335.1033     13.2438     80.4962
   207.7500      0.0000    335.1308     13.2503     79.6946
   208.0000      0.0000    335.1631     13.2538     80.1614
   208.2500      0.0000    335.1956     13.2589     81.9175
   208.5000      0.0000    335.2249     13.2671     84.3437
   208.7500      0.0000    335.2530     13.2737     86.1390
   209.0000      0.0000    335.2867     13.2703     86.1885
   209.2500      0.0000    335.3324     13.2501     84.8504
   209.5000      0.0000    335.3925     13.2114     84.0243
   209.7500      0.0000    335.4644     13.1579     85.4000
   210.0000      0.0000    335.5424     13.0978     88.7211
   210.2500      0.0000    335.6196     13.0389     91.9831
   210.5000      0.0000    335.6875     12.9879     93.1502
   210.7500      0.0000    335.7366     12.9496     91.6333
   211.0000      0.0000    335.7598     12.9251     88.4769
   211.2500      0.0000    335.7579     12.9083     85.3166
   211.5000      0.0000    335.7407     12.8871     82.9998
   211.7500      0.0000    335.7203     12.8506     81.0899
   212.0000      0.0000    335.7039     12.7976     78.6904
   212.2500      0.0000    335.6922     12.7372     75.5641
   212.5000      0.0000    335.6819     12.6818     72.2875
   212.7500      0.0000    335.6689     12.6373     69.4650
   213.0000      0.0000    335.6479     12.6010     67.0816
   213.2500      0.0000    335.6145     12.5708     64.7733
   213.5000      0.0000    335.5684     12.5517     62.7157
   213.7500      0.0000    335.5131     12.5533     62.0269
   214.0000      0.0000    335.4529     12.5806     63.8845
   214.2500      0.0000    335.3910     12.6292     68.0442
   214.5000      0.0000    335.3298     12.6874     72.5451
   214.7500      0.0000    335.2723     12.7436     75.2350
   215.0000      0.0000    335.2208     12.7918     75.5447
   215.2500      0.0000    335.1773     12.8318     74.6233
   215.5000      0.0000    335.1420     12.8673     73.9855
   215.7500      0.0000    335.1133     12.9022     74.4671
   216.0000      0.0000    335.0885     12.9366     76.3133
   216.2500      0.0000    335.0670     12.9652     79.4133
   216.5000      0.0000    335.0507     12.9828     82.9996
   216.7500      0.0000    335.0427     12.9912     85.6479
   217.0000      0.0000    335.0459     12.9992     86.2760
   217.2500      0.0000    335.0617     13.0162     85.1013
   217.5000      0.0000    335.0878     13.0465     83.1646
   217.7500      0.0000    335.1183     13.0870     80.9628
   218.0000      0.0000    335.1490     13.1277     77.9072
   218.2500      0.0000    335.1853     13.1549     73.1412
   218.5000      0.0000    335.2468     13.1575     66.6878
   218.7500      0.0000    335.3666     13.1299     59.7788
   219.0000      0.0000    335.5796     13.0687     54.1210
   219.2500      0.0000    335.8984     12.9689     50.8114
   219.5000      0.0000    336.2935     12.8281     49.9034
   219.7500      0.0000    336.7045     12.6567     50.8984
   220.0000      0.0000    337.0830     12.4780     53.4213
   220.2500      0.0000    337.4568     12.3162     57.2375
   220.5000      0.0000    337.9940     12.1862     61.8104
   220.7500      0.0000    339.0715     12.0984     66.2635
   221.0000      0.0000    341.4029     12.0674     69.7412
   221.2500      0.0000    346.1324     12.1038     71.5416
   221.5000      0.0000    354.8196     12.1808     71.2042
   221.7500      0.0000    368.8424     12.2188     69.0768
   222.0000      0.0000    387.5320     12.1345     66.7301
   222.2500      0.0000    406.4045     11.9263     66.1014
   222.5000      0.0000    419.1746     11.6855     67.8638
   222.7500      0.0000    423.9175     11.4966     70.8560
   223.0000      0.0000    426.0043     11.3556     73.1719
   223.2500      0.0000    431.9731     11.2002     73.6546
