~Version Information
VERS.                      2.0: CWLS Log ASCII Standard - VERSION 2.0
WRAP.                       NO: One line per depth step
~Well Information Block
STRT.FT               300.0000: 
STOP.FT               871.2500: 
STEP.FT                 0.2500: 
NULL.                -999.2500: 
COMP.          Pioneer Natural Resources: COMPANY
WELL.            Hustler 12-17: WELL
FLD.           Purgatoire River: FIELD
LOC.           2150' FNL & 450' FWL: LOCATION
PROV.                 Colorado: PROVINCE
CNTY.               Las Animas: COUNTRY
SRVC.                Patterson: SERVICE COMPANY
DATE.          Mon Dec 20 09:25:34 2004: LOG DATE
UWI.           05 071 08236 00: UNIQUE WELL ID
~Curve Information Block
DEPT.FT            0 000 00 00: Depth
SN.Ohm-m                      : IEL Short Normal
SP.mV                         : IEL Spontaneous Potential
DIR.Ohm-m                     : IEL Induction Resistivity
GR.GAPI                       : Gamma Ray
~Parameter Information Block
~A  Depth        SN          SP         DIR          GR     
# ...
   333.5000    645.9807   -800.0005     25.9339     83.7760
   333.7500    645.9807   -800.0005     26.0592     81.9132
   334.0000    645.9807   -800.0005     26.1367     80.6299
   334.2500    645.9807   -800.0005     26.1744     80.6459
   334.5000    645.9807   -800.0005     26.2195     81.3307
   334.7500    645.9807   -800.0005     26.3396     81.8742
   335.0000    645.9807   -800.0005     26.5916     82.3197
   335.2500    645.9807   -800.0005     26.9991     82.1289
   335.5000    645.9807   -800.0005     27.5409     80.9295
   335.7500    645.9807   -800.0005     28.1507     79.7026
   336.0000    645.9807   -800.0005     28.7270     78.0843
   336.2500    645.9807   -800.0005     29.1504     77.7126
   336.5000    645.9807   -800.0005     29.3128     78.5681
   336.7500    645.9807   -800.0005     29.1612     79.7886
   337.0000    645.9807   -800.0005     28.7414     81.6027
   337.2500    645.9807   -800.0005     28.1936     82.2582
   337.5000    645.9807   -800.0005     27.6823     82.0203
   337.7500    645.9807   -800.0005     27.3132     81.2112
   338.0000    645.9807   -800.0005     27.0994     79.7697
   338.2500    645.9807   -800.0005     26.9893     79.1460
   338.5000    645.9807   -800.0005     26.9210     79.2153
   338.7500    645.9807   -800.0005     26.8575     79.8636
   339.0000    645.9807   -800.0005     26.7849     81.0379
   339.2500    645.9807   -800.0005     26.6937     81.4195
   339.5000    645.9807   -800.0005     26.5737     80.7977
   339.7500    645.9807   -800.0005     26.4276     79.6456
   340.0000    645.9807   -800.0005     26.2766     77.5733
   340.2500    645.9807   -800.0005     26.1444     76.5285
   340.5000    645.9807   -800.0005     26.0281     76.1363
   340.7500    645.9807   -800.0005     25.8838     76.7888
   341.0000    645.9807   -800.0005     25.6427     78.9992
   341.2500    645.9807   -800.0005     25.2537     81.0853
   341.5000    645.9807   -800.0005     24.7203     84.9281
   341.7500    645.9807   -800.0005     24.1026     88.1907
   342.0000    645.9807   -800.0005     23.4812     94.8709
   342.2500    645.9807   -800.0005     22.9126    100.5686
   342.5000    645.9807   -800.0005     22.4093    109.8828
   342.7500    645.9807   -800.0005     21.9540    115.7683
   343.0000    645.9807   -800.0005     21.5313    123.5737
   343.2500    645.9807   -800.0005     21.1500    128.2675
   343.5000    645.9807   -800.0005     20.8378    134.5584
   343.7500    645.9807   -800.0005     20.6179    137.7927
   344.0000    645.9807   -800.0005     20.4919    140.3173
   344.2500    645.9807   -800.0005     20.4404    140.3812
   344.5000    645.9807   -800.0005     20.4400    138.6727
   344.7500    645.9807   -800.0005     20.4778    136.6946
   345.0000    645.9807   -800.0005     20.5566    132.5653
   345.2500    645.9807   -800.0005     20.6894    128.8789
   345.5000    645.9807   -800.0005     20.8896    121.7966
   345.7500    645.9807   -800.0005     21.1606    116.2571
   346.0000    645.9807   -800.0005     21.4892    107.8574
   346.2500    645.9807   -800.0005     21.8470    103.1080
   346.5000    645.9807   -800.0005     22.2036     98.3485
   346.7500    645.9807   -800.0005     22.5429     96.7931
   347.0000    645.9807   -800.0005     22.8694     96.1685
   347.2500    645.9807   -800.0005     23.1965     96.2534
   347.5000    645.9807   -800.0005     23.5252     95.9266
   347.7500    645.9807   -800.0005     23.8315     94.8975
   348.0000    645.9807   -800.0005     24.0737     92.2314
   348.2500    645.9807   -800.0005     24.2231     90.2970
   348.5000    645.9807   -800.0005     24.2958     88.1922
   348.7500    645.9807   -800.0005     24.3590     87.4924
   349.0000    645.9807   -800.0005     24.4963     87.1856
   349.2500    645.9807   -800.0005     24.7596     87.3222
   349.5000    645.9807   -800.0005     25.1402     88.0569
   349.7500    645.9807   -800.0005     25.5737     88.8671
   350.0000    645.9807   -800.0005     25.9674     90.2440
   350.2500    645.9807   -800.0005     26.2336     91.1219
   350.5000    645.9807   -800.0005     26.3148     92.4166
   350.7500    645.9807   -800.0005     26.2010     93.3225
   351.0000    645.9807   -800.0005     25.9319     94.6048
   351.2500    645.9807   -800.0005     25.5809     95.1954
   351.5000    645.9807   -800.0005     25.2267     95.3653
   351.7500    645.9807   -800.0005     24.9296     95.0153
   352.0000    645.9807   -800.0005     24.7241     94.1886
   352.2500    645.9807   -800.0005     24.6254     93.6231
   352.5000    645.9807   -800.0005     24.6400     92.6202
   352.7500    645.9807   -800.0005     24.7709     91.6983
   353.0000    645.9807   -800.0005     25.0168     90.2194
   353.2500    645.9807   -800.0005     25.3697     89.6547
   353.5000    645.9807   -800.0005     25.8159     89.9988
   353.7500    645.9807   -800.0005     26.3391     90.7800
   354.0000    645.9807   -800.0005     26.9217     91.5357
   354.2500    645.9807   -800.0005     27.5444     91.0605
   354.5000    645.9807   -800.0005     28.1884     88.5676
   354.7500    645.9807   -800.0005     28.8388     86.1236
   355.0000    645.9807   -800.0005     29.4861     82.4789
   355.2500    645.9807   -800.0005     30.1181     80.6827
   355.5000    645.9807   -800.0005     30.7072     79.4173
   355.7500    645.9807   -800.0005     31.2031     79.4189
   356.0000    645.9807   -800.0005     31.5369     80.1040
   356.2500    645.9807   -800.0005     31.6349     80.7140
   356.5000    645.9807   -800.0005     31.4419     81.7579
   356.7500    645.9807   -800.0005     30.9487     82.6617
   357.0000    645.9807   -800.0005     30.2116     84.4103
   357.2500    645.9807   -800.0005     29.3435     85.6495
   357.5000    645.9807   -800.0005     28.4731     87.0105
   357.7500    645.9807   -800.0005     27.6981     87.3076
   358.0000    645.9807   -800.0005     27.0589     86.9338
   358.2500    645.9807   -800.0005     26.5438     86.5571
   358.5000    645.9807   -800.0005     26.1182     86.7392
   358.7500    645.9807   -800.0005     25.7535     87.7086
   359.0000    645.9807   -800.0005     25.4388     90.2464
   359.2500    645.9807   -800.0005     25.1718     92.1523
   359.5000    645.9807   -800.0005     24.9466     94.5211
   359.7500    645.9807   -800.0005     24.7518     95.7232
   360.0000    645.9807   -800.0005     24.5779     97.4848
   360.2500    645.9807   -800.0005     24.4227     98.7690
   360.5000    645.9807   -800.0005     24.2893    100.0393
   360.7500    645.9807   -800.0005     24.1788     99.6117
   361.0000    645.9807   -800.0005     24.0817     96.5643
   361.2500    645.9807   -800.0005     23.9758     93.7334
   361.5000    645.9807   -800.0005     23.8374     90.6122
   361.7500    645.9807   -800.0005     23.6585     90.0463
   362.0000    645.9807   -800.0005     23.4579     90.8241
   362.2500    645.9807   -800.0005     23.2744     91.5355
   362.5000    645.9807   -800.0005     23.1478     92.1311
   362.7500    645.9807   -800.0005     23.1027     92.4107
   363.0000    645.9807   -800.0005     23.1409     93.1767
   363.2500    645.9807   -800.0005     23.2407     93.7926
   363.5000    645.9807   -800.0005     23.3663     93.9074
   363.7500    645.9807   -800.0005     23.4823     92.9896
   364.0000    645.9807   -800.0005     23.5709     90.4533
   364.2500    645.9807   -800.0005     23.6404     88.7139
   364.5000    645.9807   -800.0005     23.7173     87.1621
   364.7500    645.9807   -800.0005     23.8230     87.0783
   365.0000    645.9807   -800.0005     23.9506     88.1912
   365.2500    645.9807   -800.0005     24.0594     89.4641
   365.5000    645.9807   -800.0005     24.0999     91.4673
   365.7500    645.9807   -800.0005     24.0523     92.3997
   366.0000    645.9807   -800.0005     23.9422     92.6535
   366.2500    645.9807   -800.0005     23.8201     92.0684
   366.5000    645.9807   -800.0005     23.7292     90.4975
   366.7500    645.9807   -800.0005     23.6897     89.2642
