~Version Information
VERS.                      2.0: CWLS Log ASCII Standard - VERSION 2.0
WRAP.                       NO: One line per depth step
~Well Information Block
STRT.FT                -9.5000: 
STOP.FT              2451.0000: 
STEP.FT                 0.2500: 
NULL.                -999.2500: 
COMP.          Petrogulf Corporation: COMPANY
WELL.           Vallejo 19-31V: WELL
FLD.           Purgatorie River: FIELD
LOC.           345' FNL & 2457' FEL: LOCATION
CNTY.               Las Animas: COUNTY
SRVC.                         : SERVICE COMPANY
DATE.          Mon Mar 08 08:24:37 2004: LOG DATE
UWI.           05-071-07919-00: UNIQUE WELL ID
STAT.                 Colorado: STATE
~Curve Information Block
DEPT.FT            0 000 00 00: Depth
MINMK.                        : Surface Line Tension
GR.GAPI                       : Gamma Ray
CCL.                          : Casing Collar Locator
TT3.usec                      : CBL 3' Travel Time
AMP3.mV                       : CBL 3' Amplitude
~Parameter Information Block
~A  Depth      MINMK         GR         CCL         TT3         AMP3    
# ...
   802.5000      0.0000    112.0460      0.0000    270.5615     30.2614
   802.7500      0.0000    104.5041      0.0000    270.2099     30.9079
   803.0000      0.0000     97.7353      0.0000    269.8895     32.1133
   803.2500      0.0000     93.2238      0.0000    269.5324     33.6000
   803.5000      0.0000     90.9917      0.0000    269.1213     35.2487
   803.7500      0.0000     89.7275      0.0000    268.7876     36.9208
   804.0000      0.0000     88.2778      0.0000    268.6634     38.2516
   804.2500      0.0000     86.6770      0.0000    268.7863     38.7033
   804.5000      0.0000     85.6418      0.0000    269.1105     37.8848
   804.7500      0.0000     85.5566      0.0000    269.4725     36.0522
   805.0000      0.0000     86.2630      0.0000    269.6636     34.1877
   805.2500      0.0000     87.4720      0.0000    269.6253     33.1925
   805.5000      0.0000     89.0182      0.0000    269.5113     33.0905
   805.7500      0.0000     90.8977      0.0000    269.5198     33.2342
   806.0000      0.0000     93.2698      0.0000    269.6766     33.1135
   806.2500      0.0000     96.1619      0.0000    269.8471     32.7755
   806.5000      0.0000     98.8998      0.0000    269.9203     32.5379
   806.7500      0.0000    100.0838      0.0000    269.8808     32.5852
   807.0000      0.0000     98.6977      0.0000    269.7762     32.9128
   807.2500      0.0000     95.4853      0.0000    269.6816     33.4326
   807.5000      0.0000     92.8007      0.0000    269.5970     34.0514
   807.7500      0.0000     92.4917      0.0000    269.4142     34.7270
   808.0000      0.0000     94.0357      0.0000    269.1170     35.4240
   808.2500      0.0000     95.2111      0.0000    268.8729     36.0014
   808.5000      0.0000     94.4351      0.0000    268.7946     36.2627
   808.7500      0.0000     92.1071      0.0000    268.7890     36.2047
   809.0000      0.0000     90.0598      0.0000    268.7456     36.0804
   809.2500      0.0000     90.1259      0.0000    268.6981     36.0582
   809.5000      0.0000     92.9454      0.0000    268.7127     36.0342
   809.7500      0.0000     97.6972      0.0000    268.7880     35.9031
   810.0000      0.0000    102.7699      0.0000    268.9186     35.6604
   810.2500      0.0000    106.6427      0.0000    269.0814     35.2453
   810.5000      0.0000    108.3346      0.0000    269.2120     34.6338
   810.7500      0.0000    107.5185      0.0000    269.2874     33.9744
   811.0000      0.0000    104.6094      0.0000    269.3058     33.4559
   811.2500      0.0000    100.7449      0.0000    269.2979     33.1378
   811.5000      0.0000     97.3910      0.0000    269.5241     32.9166
   811.7500      0.0000     95.7433      0.0000    270.7184     32.5944
   812.0000      0.0000     96.2885      0.0000    274.0367     31.9997
   812.2500      0.0000     98.6664      0.0000    279.6266     31.0921
   812.5000      0.0000    101.8064      0.0000    284.5438     30.0796
   812.7500      0.0000    104.4538      0.0000    284.6602     29.4171
   813.0000      0.0000    106.0421      0.0000    279.9828     29.4569
   813.2500      0.0000    107.1433      0.0000    274.6451     30.1761
   813.5000      0.0000    108.8062      0.0000    271.4905     31.4300
   813.7500      0.0000    111.3341      0.0000    270.2130     33.2845
   814.0000      0.0000    113.7705      0.0000    269.6792     35.9029
   814.2500      0.0000    114.5348      0.0000    269.3047     39.1727
   814.5000      0.0000    112.5512      0.0000    268.8983     42.7203
   814.7500      0.0000    108.0022      0.0000    268.4871     46.3876
   815.0000      0.0000    102.2481      0.0000    268.1989     50.3329
   815.2500      0.0000     97.0420      0.0000    268.0885     54.4680
   815.5000      0.0000     93.6839      0.0000    268.1201     58.0512
   815.7500      0.0000     92.5798      0.0000    268.2218     60.1008
   816.0000      0.0000     93.1115      0.0000    268.3021     60.2594
   816.2500      0.0000     93.7067      0.0000    268.3234     59.0666
   816.5000      0.0000     92.5238      0.0000    268.3311     57.3733
   816.7500      0.0000     88.8128      0.0000    268.3478     55.7508
   817.0000      0.0000     83.7352      0.0000    268.3832     54.3995
   817.2500      0.0000     79.4462      0.0000    268.5211     53.3151
   817.5000      0.0000     77.3083      0.0000    268.8155     52.4688
   817.7500      0.0000     77.1521      0.0000    269.1845     51.8574
   818.0000      0.0000     77.8268      0.0000    269.4789     51.4078
   818.2500      0.0000     77.8628      0.0000    269.6168     50.9483
   818.5000      0.0000     76.0504      0.0000    269.6521     50.3485
   818.7500      0.0000     72.3440      0.0000    269.6678     49.6425
   819.0000      0.0000     68.2909      0.0000    269.6690     48.9161
   819.2500      0.0000     65.9907      0.0000    269.6620     48.0863
   819.5000      0.0000     66.4398      0.0000    269.6702     46.9691
   819.7500      0.0000     68.9078      0.0000    269.6778     45.5876
   820.0000      0.0000     71.7388      0.0000    269.7067     44.1586
   820.2500      0.0000     73.6572      0.0000    269.8242     42.7332
   820.5000      0.0000     74.5968      0.0000    270.0436     41.0996
   820.7500      0.0000     75.4807      0.0000    270.3298     39.1165
   821.0000      0.0000     77.0715      0.0000    270.6166     37.0177
   821.2500      0.0000     78.8448      0.0000    270.7991     35.3221
   821.5000      0.0000     79.1833      0.0000    270.7924     34.4531
   821.7500      0.0000     76.9852      0.0000    270.5796     34.5405
   822.0000      0.0000     72.9085      0.0000    270.2119     35.6154
   822.2500      0.0000     68.7973      0.0000    269.7870     37.7955
   822.5000      0.0000     66.2158      0.0000    269.4128     40.9869
   822.7500      0.0000     65.7861      0.0000    269.1703     44.3632
   823.0000      0.0000     67.3907      0.0000    269.0819     46.6055
   823.2500      0.0000     70.3871      0.0000    269.1192     46.9989
   823.5000      0.0000     73.7822      0.0000    269.2218     46.0140
   823.7500      0.0000     76.6842      0.0000    269.3031     44.6904
   824.0000      0.0000     78.7173      0.0000    269.3332     43.6758
   824.2500      0.0000     79.9906      0.0000    269.3968     42.8902
   824.5000      0.0000     80.7662      0.0000    269.7018     41.9694
   824.7500      0.0000     81.1993      0.0000    270.8565     40.7509
   825.0000      0.0000     81.2546      0.0000    274.0147     39.1710
   825.2500      0.0000     80.7337      0.0000    279.7791     37.1535
   825.5000      1.0000     79.4347      0.0000    287.2020     34.9617
   825.7500      0.0000     77.3839      0.0000    295.1380     32.9833
   826.0000      0.0000     74.9522      0.0000    302.8203     30.9303
   826.2500      0.0000     72.6939      0.0000    308.6872     28.4886
   826.5000      0.0000     70.9697      0.0000    311.7184     26.3417
   826.7500      0.0000     69.7776      5.0000    312.7286     25.1140
   827.0000      0.0000     68.9241      0.0000    312.9659     24.4718
   827.2500      0.0000     68.2004      0.0000    313.0686     23.8796
   827.5000      0.0000     67.5119      0.0000    313.3328     23.1827
   827.7500      0.0000     67.1854      0.0000    314.1198     22.3992
   828.0000      0.0000     67.9425      0.0000    315.9597     21.5432
   828.2500      0.0000     70.0146      0.0000    319.0695     20.8757
   828.5000      0.0000     72.3853      0.0000    322.0680     20.7875
   828.7500      0.0000     73.5263      0.0000    321.9912     21.0646
   829.0000      0.0000     73.0194      0.0000    318.0210     21.1950
   829.2500      0.0000     72.0425      0.0000    313.9441     21.2105
   829.5000      0.0000     72.2084      0.0000    314.4554     21.0751
   829.7500      0.0000     74.1913      0.0000    320.7225     20.3218
   830.0000      0.0000     77.4561      0.0000    329.7570     18.9220
   830.2500      0.0000     80.8207      0.0000    337.1797     17.4423
