~Version Information
VERS.                      2.0: CWLS Log ASCII Standard - VERSION 2.0
WRAP.                       NO: One line per depth step
~Well Information Block
STRT.FT               830.0000: 
STOP.FT              3122.7500: 
STEP.FT                 0.2500: 
NULL.                -999.2500: 
COMP.          Pioneer Natural Resources: COMPANY
WELL.              Stones 24-8: WELL
FLD.           Purgatoire River: FIELD
LOC.           648' FSL & 2264' FWL: LOCATION
PROV.                 Colorado: PROVINCE
CNTY.               Las Animas: COUNTRY
SRVC.                Patterson: SERVICE COMPANY
DATE.          Wed Jan 19 12:44:32 2005: LOG DATE
UWI.           05 071 07945 00: UNIQUE WELL ID
~Curve Information Block
DEPT.FT            0 000 00 00: Depth
SN.Ohm-m                      : IEL Short Normal
SP.mV                         : IEL Spontaneous Potential
DIR.Ohm-m                     : IEL Induction Resistivity
GR.GAPI                       : Gamma Ray
~Parameter Information Block
~A  Depth        SN          SP         DIR          GR     
# ...
  1433.0000   2000.0000   2000.0000     12.4880    141.0797
  1433.2500   2000.0000   2000.0000     12.8115    139.1731
  1433.5000   2000.0000   2000.0000     13.2019    135.6907
  1433.7500   2000.0000   2000.0000     13.6384    132.2852
  1434.0000   2000.0000   2000.0000     14.0922    123.8778
  1434.2500   2000.0000   2000.0000     14.5328    115.6126
  1434.5000   2000.0000   2000.0000     14.9267    100.6878
  1434.7500   2000.0000   2000.0000     15.2410     91.1639
  1435.0000   2000.0000   2000.0000     15.4609     81.4230
  1435.2500   2000.0000   2000.0000     15.6118     79.2124
  1435.5000   2000.0000   2000.0000     15.7574     81.8425
  1435.7500   2000.0000   2000.0000     15.9677     86.0694
  1436.0000   2000.0000   2000.0000     16.2834     92.7593
  1436.2500   2000.0000   2000.0000     16.7007     95.7133
  1436.5000   2000.0000   2000.0000     17.1824     96.2786
  1436.7500   2000.0000   2000.0000     17.6848     94.0539
  1437.0000   2000.0000   2000.0000     18.1874     87.6621
  1437.2500   2000.0000   2000.0000     18.7097     82.0085
  1437.5000   2000.0000   2000.0000     19.3087     72.8628
  1437.7500   2000.0000   2000.0000     20.0547     67.4385
  1438.0000   2000.0000   2000.0000     20.9989     62.0877
  1438.2500   2000.0000   2000.0000     22.1445     60.8183
  1438.5000   2000.0000   2000.0000     23.4307     61.8887
  1438.7500   2000.0000   2000.0000     24.7336     63.9287
  1439.0000   2000.0000   2000.0000     25.8866     67.9752
  1439.2500   2000.0000   2000.0000     26.7226     71.0372
  1439.5000   2000.0000   2000.0000     27.1331     75.9847
  1439.7500   2000.0000   2000.0000     27.1190     79.3730
  1440.0000   2000.0000   2000.0000     26.7951     84.2083
  1440.2500   2000.0000   2000.0000     26.3354     87.0649
  1440.5000   2000.0000   2000.0000     25.8950     90.5370
  1440.7500   2000.0000   2000.0000     25.5581     92.1932
  1441.0000   2000.0000   2000.0000     25.3351     93.7295
  1441.2500   2000.0000   2000.0000     25.1905     94.3922
  1441.5000   2000.0000   2000.0000     25.0796     95.5771
  1441.7500   2000.0000   2000.0000     24.9725     96.7904
  1442.0000   2000.0000   2000.0000     24.8608     99.1485
  1442.2500   2000.0000   2000.0000     24.7542    100.7428
  1442.5000   2000.0000   2000.0000     24.6744    102.4870
  1442.7500   2000.0000   2000.0000     24.6467    102.9614
  1443.0000   2000.0000   2000.0000     24.6883    102.8451
  1443.2500   2000.0000   2000.0000     24.7946    102.6907
  1443.5000   2000.0000   2000.0000     24.9385    102.8801
  1443.7500   2000.0000   2000.0000     25.0880    103.0321
  1444.0000   2000.0000   2000.0000     25.2330    102.3706
  1444.2500   2000.0000   2000.0000     25.3931    101.0516
  1444.5000   2000.0000   2000.0000     25.5963     97.8503
  1444.7500   2000.0000   2000.0000     25.8489     95.0620
  1445.0000   2000.0000   2000.0000     26.1231     90.2718
  1445.2500   2000.0000   2000.0000     26.3697     87.0156
  1445.5000   2000.0000   2000.0000     26.5429     82.6767
  1445.7500   2000.0000   2000.0000     26.6216     80.4920
  1446.0000   2000.0000   2000.0000     26.6201     79.0433
  1446.2500   2000.0000   2000.0000     26.5818     79.8223
  1446.5000   2000.0000   2000.0000     26.5579     83.9975
  1446.7500   2000.0000   2000.0000     26.5757     88.3593
  1447.0000   2000.0000   2000.0000     26.6189     95.3954
  1447.2500   2000.0000   2000.0000     26.6349     98.9706
  1447.5000   2000.0000   2000.0000     26.5728    100.7177
  1447.7500   2000.0000   2000.0000     26.4268     99.3469
  1448.0000   2000.0000   2000.0000     26.2470     95.3464
  1448.2500   2000.0000   2000.0000     26.1080     92.9443
  1448.5000   2000.0000   2000.0000     26.0593     91.4439
  1448.7500   2000.0000   2000.0000     26.0936     92.0199
  1449.0000   2000.0000   2000.0000     26.1463     94.9051
  1449.2500   2000.0000   2000.0000     26.1274     97.8704
  1449.5000   2000.0000   2000.0000     25.9719    102.9270
  1449.7500   2000.0000   2000.0000     25.6797    105.8884
  1450.0000   2000.0000   2000.0000     25.3134    108.6455
  1450.2500   2000.0000   2000.0000     24.9546    109.3284
  1450.5000   2000.0000   2000.0000     24.6608    109.4558
  1450.7500   2000.0000   2000.0000     24.4514    109.5304
  1451.0000   2000.0000   2000.0000     24.3234    110.0848
  1451.2500   2000.0000   2000.0000     24.2729    110.5321
  1451.5000   2000.0000   2000.0000     24.3043    110.2894
  1451.7500   2000.0000   2000.0000     24.4248    108.8586
  1452.0000   2000.0000   2000.0000     24.6309    104.3102
  1452.2500   2000.0000   2000.0000     24.8971     99.9790
  1452.5000   2000.0000   2000.0000     25.1759     92.8929
  1452.7500   2000.0000   2000.0000     25.4119     88.7104
  1453.0000   2000.0000   2000.0000     25.5588     84.3308
  1453.2500   2000.0000   2000.0000     25.5841     82.7394
  1453.5000   2000.0000   2000.0000     25.4579     81.6834
  1453.7500   2000.0000   2000.0000     25.1478     81.5278
  1454.0000   2000.0000   2000.0000     24.6387     82.5231
  1454.2500   2000.0000   2000.0000     23.9586     84.8134
  1454.5000   2000.0000   2000.0000     23.1815     92.1109
  1454.7500   2000.0000   2000.0000     22.3970     99.7867
  1455.0000   2000.0000   2000.0000     21.6731    114.0873
  1455.2500   2000.0000   2000.0000     21.0370    123.5146
  1455.5000   2000.0000   2000.0000     20.4797    133.2961
  1455.7500   2000.0000   2000.0000     19.9750    135.1664
  1456.0000   2000.0000   2000.0000     19.5014    131.0505
  1456.2500   2000.0000   2000.0000     19.0534    125.5028
  1456.5000   2000.0000   2000.0000     18.6394    117.3294
  1456.7500   2000.0000   2000.0000     18.2728    114.0258
  1457.0000   2000.0000   2000.0000     17.9623    113.6582
  1457.2500   2000.0000   2000.0000     17.7059    116.0891
  1457.5000   2000.0000   2000.0000     17.4875    122.0757
  1457.7500   2000.0000   2000.0000     17.2782    126.6475
  1458.0000   2000.0000   2000.0000     17.0433    133.2436
  1458.2500   2000.0000   2000.0000     16.7586    137.0965
  1458.5000   2000.0000   2000.0000     16.4289    141.5757
  1458.7500   2000.0000   2000.0000     16.0951    143.3662
  1459.0000   2000.0000   2000.0000     15.8185    143.8725
  1459.2500   2000.0000   2000.0000     15.6519    142.9542
  1459.5000   2000.0000   2000.0000     15.6163    140.7651
  1459.7500   2000.0000   2000.0000     15.6994    139.2534
  1460.0000   2000.0000   2000.0000     15.8732    136.6243
  1460.2500   2000.0000   2000.0000     16.1153    134.0378
  1460.5000   2000.0000   2000.0000     16.4191    128.1344
  1460.7500   2000.0000   2000.0000     16.7862    122.8427
  1461.0000   2000.0000   2000.0000     17.2127    113.8735
  1461.2500   2000.0000   2000.0000     17.6796    108.3089
  1461.5000   2000.0000   2000.0000     18.1545    102.2939
  1461.7500   2000.0000   2000.0000     18.6034    100.0622
  1462.0000   2000.0000   2000.0000     19.0013     98.5215
  1462.2500   2000.0000   2000.0000     19.3324     98.0847
  1462.5000   2000.0000   2000.0000     19.5781     97.7448
  1462.7500   2000.0000   2000.0000     19.7054     97.5831
  1463.0000   2000.0000   2000.0000     19.6708     97.4160
  1463.2500   2000.0000   2000.0000     19.4408     97.7244
  1463.5000   2000.0000   2000.0000     19.0139    100.2517
  1463.7500   2000.0000   2000.0000     18.4265    104.1231
  1464.0000   2000.0000   2000.0000     17.7380    113.3508
  1464.2500   2000.0000   2000.0000     17.0089    121.0481
  1464.5000   2000.0000   2000.0000     16.2890    133.0637
  1464.7500   2000.0000   2000.0000     15.6153    140.3017
  1465.0000   2000.0000   2000.0000     15.0141    148.3871
  1465.2500   2000.0000   2000.0000     14.5011    151.3623
  1465.5000   2000.0000   2000.0000     14.0828    152.1816
  1465.7500   2000.0000   2000.0000     13.7613    150.7828
  1466.0000   2000.0000   2000.0000     13.5404    147.2795
  1466.2500   2000.0000   2000.0000     13.4287    145.1588
