~Version Information
VERS.                      2.0: CWLS Log ASCII Standard - VERSION 2.0
WRAP.                       NO: One line per depth step
~Well Information Block
STRT.FT                -8.2500: 
STOP.FT               836.2500: 
STEP.FT                 0.2500: 
NULL.                -999.2500: 
COMP.          Pioneer Natural Res.: COMPANY
WELL.            Hustler 12-17: WELL
FLD.           Purgatorie River: FIELD
LOC.           2150' FNL & 450' FWL----------: LOCATION
PROV.                       CO: PROVINCE
CNTY.               Las Animas: COUNTRY
SRVC.                Patterson: SERVICE COMPANY
DATE.          Wed Dec 29 13:37:10 2004: LOG DATE
UWI.           05 071 08236 00: UNIQUE WELL ID
~Curve Information Block
DEPT.FT            0 000 00 00: Depth
AMP3.mV                       : CBL 3' Amplitude
CCL.                          : Casing Collar Locator
GR.GAPI                       : Gamma Ray
TT3.usec                      : CBL 3' Travel Time
~Parameter Information Block
~A  Depth       AMP3        CCL          GR         TT3     
# ...
    58.7500      4.7377      0.0000    115.0538    772.3073
    59.0000      5.0397      0.0000    113.6973    764.5811
    59.2500      5.4352      0.0000    114.6407    765.9783
    59.5000      5.7705      0.0000    116.0641    776.6550
    59.7500      5.9615      0.0000    115.9593    793.2573
    60.0000      6.0546      0.0000    113.3208    812.4894
    60.2500      6.1553      0.0000    108.0401    832.4261
    60.5000      6.3257      0.0000    100.8358    851.7610
    60.7500      6.5598     -2.0000     93.5149    870.1707
    61.0000      6.8161     -2.0000     88.3073    888.7770
    61.2500      7.0589      0.0000     86.3468    907.7654
    61.5000      7.2840      0.0000     86.8906    922.7956
    61.7500      7.5018      0.0000     88.0001    925.9299
    62.0000      7.6733      0.0000     87.9683    912.2209
    62.2500      7.6982      0.0000     86.5400    884.9155
    62.5000      7.5135      0.0000     85.2370    853.3048
    62.7500      7.1808      0.0000     86.2762    826.3574
    63.0000      6.8349      0.0000     90.5033    808.3106
    63.2500      6.5665      0.0000     96.2733    798.2123
    63.5000      6.3794      0.0000    100.7560    792.5990
    63.7500      6.2290      0.0000    102.4345    789.7262
    64.0000      6.0822      0.0000    102.0231    792.4880
    64.2500      5.9545      0.0000    101.1717    806.9830
    64.5000      5.8945      0.0000    101.0263    836.5330
    64.7500      5.9286      0.0000    101.9008    875.5336
    65.0000      6.0248      0.0000    103.4034    909.5480
    65.2500      6.1229      0.0000    104.6412    924.1885
    65.5000      6.1918      0.0000    104.8910    916.1704
    65.7500      6.2479      0.0000    104.2879    895.8722
    66.0000      6.3246      0.0000    103.5709    878.4999
    66.2500      6.4362      0.0000    103.2243    872.5743
    66.5000      6.5697      0.0000    103.2839    875.9358
    66.7500      6.7020      0.0000    103.8131    880.3360
    67.0000      6.8268      0.0000    104.9642    878.3537
    67.2500      6.9663      0.0000    106.5943    867.4605
    67.5000      7.1478      0.0000    108.3571    850.1880
    67.7500      7.3632      0.0000    110.1066    831.3969
    68.0000      7.5658      0.0000    111.7130    814.7365
    68.2500      7.7193      0.0000    112.6886    800.9668
    68.5000      7.8437      0.0000    112.6248    789.2190
    68.7500      7.9889      0.0000    111.9673    779.2562
    69.0000      8.1687      0.0000    111.8733    772.2300
    69.2500      8.3496      0.0000    113.2482    769.7028
    69.5000      8.5002      0.0000    116.1350    772.4839
    69.7500      8.6191      0.0000    119.8234    780.1842
    70.0000      8.7077      0.0000    123.1338    791.4824
    70.2500      8.7457      0.0000    124.7921    804.6613
    70.5000      8.7068      0.0000    124.0882    817.5462
    70.7500      8.5860      0.0000    121.3280    826.9167
    71.0000      8.4125      0.0000    117.6449    829.4792
    71.2500      8.2487      0.0000    114.5014    824.9131
    71.5000      8.1678      0.0000    113.0942    817.1378
    71.7500      8.2063      0.0000    113.7118    811.1098
    72.0000      8.3312      0.0000    115.6394    808.8360
    72.2500      8.4604      0.0000    118.0420    809.1372
    72.5000      8.5175      0.0000    120.8866    810.1466
    72.7500      8.4700      0.0000    124.5039    810.9736
    73.0000      8.3322      0.0000    128.2659    811.6748
    73.2500      8.1436      0.0000    130.3833    812.7935
    73.5000      7.9391      0.0000    129.4917    815.2503
    73.7500      7.7272      0.0000    126.2662    820.0068
    74.0000      7.5006      0.0000    122.9629    826.8249
    74.2500      7.2680      0.0000    121.1769    832.9702
    74.5000      7.0638      0.0000    120.4440    834.1133
    74.7500      6.9136      0.0000    119.2924    827.6764
    75.0000      6.7980      0.0000    117.1856    815.2130
    75.2500      6.6661      0.0000    114.8988    801.2224
    75.5000      6.4864      0.0000    113.0551    790.1794
    75.7500      6.2742      0.0000    110.7412    784.5232
    76.0000      6.0738      0.0000    105.9657    784.0925
    76.2500      5.9261      0.0000     97.5643    786.8060
    76.5000      5.8522      0.0000     86.4770    790.4356
    76.7500      5.8462      0.0000     75.2265    794.0499
    77.0000      5.8731      0.0000     66.5490    797.6970
    77.2500      5.8855      0.0000     62.4741    801.2100
    77.5000      5.8591      0.0000     63.9816    803.9835
    77.7500      5.8116      0.0000     70.8213    805.6408
    78.0000      5.7808      0.0000     81.5408    806.3937
    78.2500      5.7826      0.0000     93.8876    806.7903
    78.5000      5.7905      0.0000    105.3650    807.4747
    78.7500      5.7591      0.0000    113.6940    809.4305
    79.0000      5.6640      0.0000    117.3890    814.5614
    79.2500      5.5207      0.0000    116.4368    825.7912
    79.5000      5.3718      0.0000    112.4420    845.3962
    79.7500      5.2635      0.0000    107.6775    872.2177
    80.0000      5.2230      0.0000    103.6167    901.4393
    80.2500      5.2426      0.0000    100.3669    928.7128
    80.5000      5.2854      0.0000     97.7337    953.6239
    80.7500      5.3156      0.0000     96.5070    977.3903
    81.0000      5.3249      0.0000     97.8903    998.7261
    81.2500      5.3295      0.0000    101.5318   1014.2493
    81.5000      5.3462      0.0000    105.0863   1021.5932
    81.7500      5.3779      0.0000    106.3929   1019.7000
    82.0000      5.4187      0.0000    105.6054   1006.7571
    82.2500      5.4663      0.0000    104.6977    980.4572
    82.5000      5.5206      0.0000    105.2461    941.9968
    82.7500      5.5701      0.0000    107.2061    899.2457
    83.0000      5.5839      0.0000    109.5809    864.1752
    83.2500      5.5302      0.0000    111.5126    845.8110
    83.5000      5.4074      0.0000    112.6058    844.7635
    83.7500      5.2525      0.0000    112.8287    853.3503
    84.0000      5.1160      0.0000    112.4892    861.0065
    84.2500      5.0347      0.0000    111.9268    861.5208
    84.5000      5.0188      0.0000    110.9776    856.2139
    84.7500      5.0481      0.0000    109.0207    850.4748
    85.0000      5.0787      0.0000    105.6353    848.6425
    85.2500      5.0708      0.0000    101.0238    853.0986
    85.5000      5.0182      0.0000     96.0449    866.2829
    85.7500      4.9424      0.0000     92.0201    890.3365
    86.0000      4.8659      0.0000     90.0958    923.6168
    86.2500      4.7989      0.0000     90.4055    958.8923
    86.5000      4.7439      0.0000     91.9138    986.9370
    86.7500      4.7050      0.0000     93.2058   1002.7481
    87.0000      4.6967      0.0000     93.4620   1007.9679
    87.2500      4.7442      0.0000     92.8388   1006.9292
    87.5000      4.8654      0.0000     91.9956   1001.2234
    87.7500      5.0487      0.0000     91.1939    989.4716
    88.0000      5.2535      0.0000     90.0118    971.9762
    88.2500      5.4373      0.0000     87.9801    953.0556
    88.5000      5.5814      0.0000     85.2084    937.7537
    88.7500      5.6953      0.0000     82.4070    927.8291
    89.0000      5.8123      0.0000     80.6294    921.6674
    89.2500      5.9775      0.0000     80.8426    916.8062
    89.5000      6.2189      0.0000     83.2429    911.7552
    89.7500      6.5194      0.0000     86.8843    906.1506
    90.0000      6.8289      0.0000     90.3595    900.2053
    90.2500      7.1088      0.0000     93.0676    894.3515
    90.5000      7.3620      0.0000     95.6199    889.0906
    90.7500      7.6200      0.0000     98.8669    884.6812
    91.0000      7.9132      0.0000    102.8392    880.9448
    91.2500      8.2556      0.0000    106.8602    877.7238
    91.5000      8.6427      0.0000    110.3265    875.5331
    91.7500      9.0448      0.0000    112.9887    875.3411
    92.0000      9.4059      0.0000    114.7084    877.4609
