~Version Information
VERS.                      2.0: CWLS Log ASCII Standard - VERSION 2.0
WRAP.                       NO: One line per depth step
~Well Information Block
STRT.FT               519.6000: 
STOP.FT              2727.5000: 
STEP.FT                 0.1000: 
NULL.                -999.2500: 
COMP.          Petrogulf Corporation: COMPANY
WELL.              Silva 6-22V: WELL
FLD.           Purgatorie River: FIELD
LOC.           1936' FNL & 1798' FWL: LOCATION
CNTY.               Las Animas: COUNTY
SRVC.                         : SERVICE COMPANY
DATE.          Tue Nov 09 12:21:27 2004: LOG DATE
UWI.           05 071 08143 00: UNIQUE WELL ID
STAT.                 Colorado: STATE
~Curve Information Block
DEPT.FT            0 000 00 00: Depth
DCAL.in                       : CDL Caliper
RHOB.g/cc                     : CDL Bulk Density
RHOC.g/cc                     : CDL Density Correction
DPOR.pu                       : CDL Density Porosity
GR.GAPI                       : Gamma Ray
NPOR.pu                       : Neutron Porosity
~Parameter Information Block
~A  Depth       DCAL        RHOB        RHOC        DPOR         GR         NPOR    
# ...
   682.8000      8.1384      2.5373      0.0548      6.8280    144.5881     26.9217
   682.9000      8.1384      2.5285      0.0114      7.3625    144.5530     27.3188
   683.0000      8.1339      2.5217     -0.0246      7.7788    146.6044     27.8535
   683.1000      8.1339      2.5299      0.0193      7.2758    149.3562     27.9927
   683.2000      8.1339      2.5404      0.0611      6.6449    151.9892     27.9038
   683.3000      8.1318      2.5425      0.0309      6.5128    151.9598     27.9814
   683.4000      8.1318      2.5470      0.0671      6.2430    147.4053     28.0808
   683.5000      8.1355      2.5579      0.0647      5.5794    140.2103     27.9067
   683.6000      8.1355      2.5675      0.0818      5.0009    134.0331     27.7137
   683.7000      8.1355      2.5683      0.0395      4.9510    131.7239     27.8622
   683.8000      8.1400      2.5634      0.0179      5.2463    134.0578     28.0823
   683.9000      8.1400      2.5675     -0.0068      5.0028    138.6421     28.0784
   684.0000      8.1437      2.5813      0.0586      4.1641    139.4226     27.9105
   684.1000      8.1437      2.5849      0.0438      3.9435    134.1468     27.6469
   684.2000      8.1437      2.5720      0.0522      4.7295    130.4153     27.4889
   684.3000      8.1493      2.5560      0.0419      5.6982    131.7541     27.5553
   684.4000      8.1493      2.5447      0.0544      6.3847    134.2186     27.6308
   684.5000      8.1457      2.5383      0.0294      6.7671    136.6870     27.6083
   684.6000      8.1457      2.5413      0.0058      6.5880    138.7189     27.5888
   684.7000      8.1457      2.5540      0.0517      5.8170    141.0757     27.6382
   684.8000      8.1380      2.5685      0.0361      4.9414    146.9664     27.7031
   684.9000      8.1380      2.5779      0.0739      4.3690    155.0918     27.7301
   685.0000      8.1411      2.5833      0.0593      4.0440    160.7349     27.8127
   685.1000      8.1411      2.5963      0.0613      3.2571    160.7973     28.1415
   685.2000      8.1411      2.6172      0.0732      1.9862    156.3892     28.6194
   685.3000      8.1393      2.6309      0.0466      1.1575    150.8051     28.8146
   685.4000      8.1393      2.6317      0.0494      1.1113    145.2923     28.7115
   685.5000      8.1236      2.6248      0.0290      1.5299    141.1054     28.8163
   685.6000      8.1236      2.6168      0.0389      2.0100    141.9444     29.2707
   685.7000      8.1236      2.6092      0.0156      2.4739    145.0731     29.5739
   685.8000      8.1125      2.5991      0.0375      3.0838    145.0344     29.4499
   685.9000      8.1125      2.5927      0.0357      3.4704    143.9583     29.0047
   686.0000      8.1153      2.5960      0.0170      3.2744    144.7322     28.4139
   686.1000      8.1153      2.6007      0.0023      2.9851    147.0708     27.9736
   686.2000      8.1153      2.5928      0.0505      3.4691    149.8996     27.6971
   686.3000      8.1182      2.5678      0.0238      4.9808    152.8896     27.6497
   686.4000      8.1182      2.5412     -0.0270      6.5915    154.7625     28.2119
   686.5000      8.1139      2.5331     -0.0417      7.0848    151.3486     29.0998
   686.6000      8.1139      2.5505     -0.0086      6.0292    143.1583     29.4030
   686.7000      8.1139      2.5868      0.0348      3.8303    137.7811     28.9492
   686.8000      8.1100      2.6298      0.0171      1.2239    135.8989     28.4940
   686.9000      8.1100      2.6621      0.0989     -0.7345    131.4817     28.5355
   687.0000      8.1137      2.6669      0.0501     -1.0253    124.2497     28.6932
   687.1000      8.1137      2.6541      0.0341     -0.2514    115.0458     28.4145
   687.2000      8.1137      2.6483      0.0139      0.1017    106.4437     27.6569
   687.3000      8.1176      2.6528     -0.0119     -0.1704    104.0087     26.8239
   687.4000      8.1176      2.6559      0.0077     -0.3586    107.8084     26.2338
   687.5000      8.1207      2.6477      0.0056      0.1415    114.0849     25.6485
   687.6000      8.1207      2.6197      0.0008      1.8387    118.8685     24.9658
   687.7000      8.1207      2.5770     -0.0017      4.4215    118.6935     24.5237
   687.8000      8.1264      2.5385     -0.0226      6.7551    113.5895     24.3500
   687.9000      8.1264      2.5165     -0.0415      8.0938    110.1921     24.1662
   688.0000      8.1286      2.5085     -0.0179      8.5749    113.4163     24.0160
   688.1000      8.1286      2.5070     -0.0396      8.6678    121.5491     24.2008
   688.2000      8.1286      2.5147     -0.0178      8.1974    129.2620     24.7420
   688.3000      8.1274      2.5317      0.0054      7.1686    134.4458     25.3857
   688.4000      8.1274      2.5423      0.0364      6.5245    138.7426     26.0562
   688.5000      8.1230      2.5407      0.0398      6.6225    139.6374     26.7128
   688.6000      8.1230      2.5429      0.0355      6.4895    137.5457     27.0952
   688.7000      8.1230      2.5631      0.0484      5.2669    140.4538     27.0899
   688.8000      8.1190      2.5982      0.0565      3.1367    147.3606     26.9822
   688.9000      8.1190      2.6291      0.0717      1.2670    148.6223     27.0924
   689.0000      8.1143      2.6356      0.0999      0.8711    142.1821     27.4481
   689.1000      8.1143      2.6290      0.0494      1.2706    133.5406     27.8703
   689.2000      8.1143      2.6367      0.0450      0.8044    128.3685     28.1898
   689.3000      8.1097      2.6519      0.0491     -0.1150    125.7116     28.3319
   689.4000      8.1097      2.6518      0.0326     -0.1061    121.4115     28.4752
   689.5000      8.1079      2.6483     -0.0167      0.1014    118.5532     28.5811
   689.6000      8.1079      2.6583      0.0633     -0.5004    121.8381     28.3956
   689.7000      8.1079      2.6608      0.0762     -0.6572    128.0384     27.9675
   689.8000      8.1102      2.6352      0.0209      0.8985    129.2121     27.5268
   689.9000      8.1102      2.5959     -0.0369      3.2814    124.2948     27.1261
   690.0000      8.1132      2.5636     -0.0252      5.2372    123.2347     26.9123
   690.1000      8.1132      2.5451     -0.0830      6.3577    129.8137     27.1131
   690.2000      8.1132      2.5440     -0.0886      6.4252    137.4067     27.4685
   690.3000      8.1075      2.5492     -0.0342      6.1095    142.9278     27.5606
   690.4000      8.1075      2.5464     -0.0548      6.2763    145.0685     27.4223
   690.5000      8.1006      2.5420     -0.0092      6.5466    142.8914     27.3730
   690.6000      8.1006      2.5455      0.0070      6.3348    143.1376     27.4615
   690.7000      8.1006      2.5551      0.0439      5.7524    150.7886     27.3440
   690.8000      8.1004      2.5609      0.0508      5.4028    158.6447     26.8459
   690.9000      8.1004      2.5609      0.0123      5.4030    158.6469     26.3038
   691.0000      8.0995      2.5664      0.0356      5.0692    152.2989     26.1501
   691.1000      8.0995      2.5833      0.0561      4.0446    146.5391     26.3724
   691.2000      8.0995      2.6027      0.0821      2.8690    144.9181     26.6964
   691.3000      8.0948      2.6104      0.0485      2.4019    143.1352     27.0739
   691.4000      8.0948      2.5986      0.0819      3.1127    140.2320     27.5381
   691.5000      8.0933      2.5750     -0.0137      4.5442    142.3962     27.7176
   691.6000      8.0933      2.5585     -0.0085      5.5446    148.8890     27.4097
   691.7000      8.0933      2.5545     -0.0085      5.7852    154.0051     27.1198
   691.8000      8.0948      2.5544     -0.0262      5.7943    157.8470     27.1570
   691.9000      8.0948      2.5510     -0.0089      6.0015    160.9476     27.2724
   692.0000      8.0907      2.5457     -0.0218      6.3218    162.4363     27.2654
   692.1000      8.0907      2.5491     -0.0341      6.1176    162.9166     27.2799
   692.2000      8.0907      2.5628     -0.0068      5.2842    161.8505     27.4367
   692.3000      8.0841      2.5750      0.0325      4.5457    159.3965     27.5550
