~Version Information
VERS.                      2.0: CWLS Log ASCII Standard - VERSION 2.0
WRAP.                       NO: One line per depth step
~Well Information Block
STRT.FT                -7.0000: 
STOP.FT              2736.0000: 
STEP.FT                 0.2500: 
NULL.                -999.2500: 
COMP.          Pioneer Natural Resources: COMPANY
WELL.              Getem 21-23: WELL
FLD.           Purgatorie River: FIELD
LOC.           2623' FWL & 790' FNL----: LOCATION
PROV.                       CO: PROVINCE
CNTY.               Las Animas: COUNTRY
SRVC.          Patterson Wireline: SERVICE COMPANY
DATE.          Mon Jun 27 09:57:55 2005: LOG DATE
UWI.           05 071 08411 00: UNIQUE WELL ID
~Curve Information Block
DEPT.FT            0 000 00 00: Depth
CCL.                          : Casing Collar Locator
TT3.usec                      : CBL 3' Travel Time
AMP3.mV                       : CBL 3' Amplitude
GR.GAPI                       : Gamma Ray
~Parameter Information Block
~A  Depth       CCL         TT3         AMP3         GR     
# ...
  1433.5000      0.0000    705.7394      4.8791    130.1794
  1433.7500      0.0000    707.2759      4.8444    125.1256
  1434.0000      0.0000    710.3008      4.6644    121.6991
  1434.2500      0.0000    713.1195      4.4505    120.0703
  1434.5000      0.0000    714.4316      4.3457    120.0497
  1434.7500      0.0000    713.6981      4.3999    121.8408
  1435.0000      0.0000    711.1077      4.5311    125.6956
  1435.2500      0.0000    707.7651      4.5998    131.2686
  1435.5000      0.0000    705.7749      4.5267    137.2165
  1435.7500      0.0000    707.5394      4.3599    141.5418
  1436.0000      0.0000    714.3644      4.2282    142.9503
  1436.2500      0.0000    725.3591      4.2178    141.9132
  1436.5000      0.0000    737.7801      4.2913    139.8699
  1436.7500      0.0000    748.9869      4.3402    137.4914
  1437.0000      0.0000    758.3368      4.3128    134.1933
  1437.2500      0.0000    767.0247      4.2711    129.3106
  1437.5000      0.0000    776.0731      4.3140    123.4199
  1437.7500      0.0000    784.6787      4.4597    118.5112
  1438.0000      0.0000    790.5518      4.6296    116.9985
  1438.2500      0.0000    791.8312      4.7454    120.1929
  1438.5000      0.0000    788.9594      4.8041    126.9848
  1438.7500      0.0000    785.0811      4.8386    133.9499
  1439.0000      0.0000    784.2850      4.8457    137.3888
  1439.2500      0.0000    788.5254      4.8039    135.6329
  1439.5000      0.0000    795.6329      4.7440    129.5211
  1439.7500      0.0000    800.7501      4.7378    121.2203
  1440.0000      0.0000    800.4359      4.8053    113.0112
  1440.2500      0.0000    795.4184      4.8843    106.6676
  1440.5000      0.0000    789.2010      4.9164    102.9282
  1440.7500      0.0000    784.8089      4.9194    101.2413
  1441.0000      0.0000    783.3844      4.9459    100.5786
  1441.2500      0.0000    784.5485      5.0103    100.8361
  1441.5000      0.0000    786.7120      5.0923    103.0118
  1441.7500      0.0000    787.5277      5.1725    107.7593
  1442.0000      0.0000    785.1384      5.2290    114.2501
  1442.2500      0.0000    779.3654      5.2341    120.8090
  1442.5000      0.0000    771.9089      5.1911    126.1942
  1442.7500      0.0000    765.5463      5.1413    130.0352
  1443.0000      0.0000    762.6878      5.1000    132.4852
  1443.2500      0.0000    763.8070      5.0196    133.7925
  1443.5000      0.0000    766.8032      4.8561    133.9850
  1443.7500      0.0000    768.3975      4.6514    132.9013
  1444.0000      0.0000    766.6404      4.5068    130.6959
  1444.2500      0.0000    761.9921      4.4739    128.1399
  1444.5000      0.0000    756.2034      4.5075    126.0478
  1444.7500      0.0000    750.9017      4.5321    124.5573
  1445.0000      0.0000    747.1162      4.5153    123.2851
  1445.2500      0.0000    745.4642      4.4620    121.9654
  1445.5000      0.0000    746.6332      4.3854    120.7121
  1445.7500      0.0000    751.6197      4.3177    119.9978
  1446.0000      0.0000    761.0374      4.3068    120.5089
  1446.2500      0.0000    774.3552      4.3658    122.6079
  1446.5000      0.0000    790.2766      4.4558    125.6256
  1446.7500      0.0000    807.2573      4.5439    128.0097
  1447.0000      0.0000    823.2418      4.6422    128.5812
  1447.2500      0.0000    835.9453      4.7608    127.5676
  1447.5000      0.0000    844.1445      4.8651    126.1474
  1447.7500      0.0000    848.3158      4.9196    125.2253
  1448.0000      0.0000    849.8772      4.9446    124.9871
  1448.2500      0.0000    850.1494      4.9847    125.3635
  1448.5000      0.0000    849.8859      5.0335    126.2410
  1448.7500      0.0000    849.2628      5.0309    127.2469
  1449.0000      0.0000    848.0020      4.9434    128.0963
  1449.2500      0.0000    845.6889      4.8127    129.2220
  1449.5000      0.0000    842.3400      4.7022    131.3339
  1449.7500      0.0000    838.7471      4.6142    134.0439
  1450.0000      0.0000    835.7509      4.4956    135.4000
  1450.2500      0.0000    832.7410      4.3134    133.2497
  1450.5000      0.0000    827.6887      4.0844    126.9655
  1450.7500      0.0000    819.9875      3.8317    117.6400
  1451.0000      0.0000    813.1058      3.5616    106.8660
  1451.2500      0.0000    812.4802      3.3021     95.7802
  1451.5000      0.0000    819.6583      3.1218     85.1667
  1451.7500      0.0000    829.7648      3.0739     75.8206
  1452.0000      0.0000    836.0809      3.1394     68.3212
  1452.2500      0.0000    836.3452      3.2487     62.5838
  1452.5000      0.0000    833.7314      3.3448     57.9924
  1452.7500      2.0000    832.9225      3.4048     54.1340
  1453.0000      2.0000    836.6660      3.4253     51.4170
  1453.2500      0.0000    845.0602      3.4272     50.8984
  1453.5000      0.0000    855.6557      3.4644     53.4322
  1453.7500      0.0000    863.7218      3.5890     58.9768
  1454.0000      0.0000    864.4714      3.7962     66.6569
  1454.2500      0.0000    856.6846      4.0247     75.1523
  1454.5000      0.0000    843.9117      4.2195     82.9047
  1454.7500      0.0000    831.5226      4.3739     88.4107
  1455.0000      0.0000    822.8703      4.4998     90.9638
  1455.2500      0.0000    818.2093      4.5919     91.4471
  1455.5000      0.0000    816.1849      4.6386     92.1707
  1455.7500      0.0000    815.4673      4.6431     95.3335
  1456.0000      0.0000    815.3079      4.6187    101.2038
  1456.2500      0.0000    815.3846      4.5829    107.9115
  1456.5000      0.0000    815.5781      4.5557    113.0935
  1456.7500      0.0000    815.8835      4.5545    115.5482
  1457.0000      0.0000    816.4273      4.5861    115.5369
  1457.2500      0.0000    817.5055      4.6388    114.2663
  1457.5000      0.0000    819.5201      4.6785    113.3192
  1457.7500      0.0000    822.7344      4.6659    114.0055
  1458.0000      0.0000    827.0014      4.5836    116.4925
  1458.2500      0.0000    831.7861      4.4501    119.4109
  1458.5000      0.0000    836.4570      4.3078    120.7609
  1458.7500      0.0000    840.3735      4.1961    119.5297
  1459.0000      0.0000    842.6082      4.1394    116.3309
  1459.2500      0.0000    841.7252      4.1479    112.4111
  1459.5000      0.0000    836.1246      4.2072    108.3008
  1459.7500      0.0000    825.3928      4.2705    103.8128
  1460.0000      0.0000    812.1663      4.2887     99.2270
  1460.2500      0.0000    802.0259      4.2573     95.7132
  1460.5000      0.0000    799.5420      4.2207     93.9958
  1460.7500      0.0000    803.3398      4.2239     93.0403
  1461.0000      0.0000    805.7236      4.2696     90.9894
  1461.2500      0.0000    798.0894      4.3223     87.3666
  1461.5000      0.0000    777.5204      4.3454     83.6344
  1461.7500      0.0000    749.0329      4.3273     81.5563
  1462.0000      0.0000    721.6623      4.2863     81.6276
  1462.2500      0.0000    702.0540      4.2561     83.2017
  1462.5000      0.0000    691.3370      4.2614     85.4224
  1462.7500      0.0000    686.8812      4.2983     87.6244
  1463.0000      0.0000    685.5760      4.3409     89.4619
  1463.2500      0.0000    685.5466      4.3661     91.2533
  1463.5000      0.0000    686.3082      4.3710     93.8291
  1463.7500      0.0000    688.7542      4.3655     97.6207
  1464.0000      0.0000    695.2914      4.3550    102.0929
  1464.2500      0.0000    708.8670      4.3387    106.1129
  1464.5000      0.0000    729.9907      4.3236    108.6497
  1464.7500      0.0000    753.8990      4.3274    109.3150
  1465.0000      0.0000    771.8288      4.3585    108.6488
  1465.2500      0.0000    776.6165      4.4030    107.9096
  1465.5000      0.0000    767.7163      4.4379    108.3639
  1465.7500      0.0000    751.2455      4.4516    110.5019
  1466.0000      0.0000    735.6703      4.4429    113.8924
  1466.2500      0.0000    727.3496      4.4131    117.9290
  1466.5000      0.0000    729.1741      4.3679    122.6258
  1466.7500      0.0000    741.4238      4.3194    128.3889
