~Version Information
VERS.                      2.0: CWLS Log ASCII Standard - VERSION 2.0
WRAP.                       NO: One line per depth step
~Well Information Block
STRT.FT                 3.0000: 
STOP.FT              1884.7500: 
STEP.FT                 0.2500: 
NULL.                -999.2500: 
COMP.          Pioneer Natural Resources: COMPANY
WELL.          Blackjack 32-11 Tr: WELL
FLD.           Purgatoire River: FIELD
LOC.           2066' FNL & 1453' FEL: LOCATION
PROV.                 Colorado: PROVINCE
CNTY.               Las Animas: COUNTRY
SRVC.                Patterson: SERVICE COMPANY
DATE.          Fri Aug 19 11:07:11 2005: LOG DATE
UWI.           05 071 08310 00: UNIQUE WELL ID
~Curve Information Block
DEPT.FT            0 000 00 00: Depth
CCL.                          : Casing Collar Locator
TT3.usec                      : CBL 3' Travel Time
AMP3.mV                       : CBL 3' Amplitude
GR.GAPI                       : Gamma Ray
~Parameter Information Block
~A  Depth       CCL         TT3         AMP3         GR     
# ...
  1845.5000      0.0000    434.6625     13.0015    115.6106
  1845.7500      0.0000    435.8934     11.9815    119.7934
  1846.0000      0.0000    444.3121     11.0099    127.0947
  1846.2500      0.0000    456.7600     10.3268    134.4375
  1846.5000      0.0000    468.1678      9.9357    138.8542
  1846.7500      0.0000    475.6715      9.6890    139.2064
  1847.0000      0.0000    478.7128      9.5170    136.3108
  1847.2500      0.0000    477.6737      9.4640    131.6052
  1847.5000      0.0000    473.9005      9.5667    126.2339
  1847.7500     -3.0000    468.5490      9.8129    121.4045
  1848.0000      3.0000    460.2202     10.2092    118.7341
  1848.2500      0.0000    446.3626     10.8440    119.5308
  1848.5000      0.0000    428.6060     11.8594    123.7155
  1848.7500      0.0000    415.2169     13.2848    129.6819
  1849.0000      0.0000    416.4489     14.8358    135.3763
  1849.2500      0.0000    436.0506     15.9791    139.6052
  1849.5000      0.0000    466.3220     16.3539    142.3422
  1849.7500      0.0000    492.9516     16.0908    143.9775
  1850.0000      0.0000    507.3122     15.6279    144.7350
  1850.2500      0.0000    513.6261     15.3005    144.7947
  1850.5000      0.0000    523.0316     15.1869    144.3915
  1850.7500      0.0000    542.3471     15.2241    143.6601
  1851.0000      0.0000    569.6624     15.3352    142.7072
  1851.2500      0.0000    597.4234     15.4703    141.8194
  1851.5000      0.0000    616.2755     15.6071    141.4847
  1851.7500      0.0000    618.5360     15.7471    142.3154
  1852.0000      0.0000    604.2992     15.8975    144.6928
  1852.2500      0.0000    585.8803     16.0535    148.0274
  1852.5000      0.0000    582.1655     16.1993    150.5526
  1852.7500      0.0000    604.8981     16.3294    150.4016
  1853.0000      0.0000    649.9377     16.4602    146.9229
  1853.2500      0.0000    701.7906     16.6140    140.7321
  1853.5000      0.0000    745.3915     16.7941    132.7836
  1853.7500      0.0000    773.5751     16.9739    123.9275
  1854.0000      0.0000    786.4807     17.1141    115.2635
  1854.2500      0.0000    787.3756     17.2005    108.2024
  1854.5000      0.0000    779.6995     17.2715    103.7997
  1854.7500      0.0000    766.3154     17.3923    102.2724
  1855.0000      0.0000    750.1625     17.5833    103.3525
  1855.2500      0.0000    734.8541     17.7839    106.7737
  1855.5000      0.0000    724.1289     17.9025    112.0243
  1855.7500      0.0000    720.4612     17.8932    117.7173
  1856.0000      0.0000    723.9376     17.7741    121.7538
  1856.2500      0.0000    731.8905     17.5882    122.5812
  1856.5000      0.0000    739.6059     17.3655    120.2422
  1856.7500      0.0000    742.4197     17.1160    115.9700
  1857.0000      0.0000    738.3020     16.8420    110.9246
  1857.2500      0.0000    728.9902     16.5562    105.6366
  1857.5000      0.0000    718.6613     16.2849    100.4168
  1857.7500      0.0000    711.0601     16.0502     95.7447
  1858.0000      0.0000    707.3884     15.8508     92.2270
  1858.2500      0.0000    706.5524     15.6746     90.4485
  1858.5000      0.0000    706.8912     15.5282     90.6876
  1858.7500      0.0000    707.3661     15.4379     92.5620
  1859.0000      0.0000    707.6118     15.4114     95.2268
  1859.2500      0.0000    707.5867     15.4143     98.1612
  1859.5000      0.0000    707.3883     15.4024    101.5895
  1859.7500      0.0000    707.2025     15.3719    105.7676
  1860.0000      0.0000    707.2887     15.3630    109.8123
  1860.2500      0.0000    707.8577     15.4196    111.7357
  1860.5000      0.0000    708.5163     15.5537    110.1080
  1860.7500      0.0000    707.1144     15.7464    105.6126
  1861.0000      0.0000    699.1688     15.9746    100.5888
  1861.2500      0.0000    680.4429     16.2397     97.0024
  1861.5000      0.0000    652.4398     16.5720     95.1872
  1861.7500      0.0000    623.8727     16.9978     94.6682
  1862.0000      0.0000    602.4897     17.4937     95.5419
  1862.2500      0.0000    585.2782     17.9811     98.2819
  1862.5000      0.0000    560.9827     18.3763    102.3342
  1862.7500      0.0000    523.1918     18.6361    105.7249
  1863.0000      0.0000    477.8449     18.7532    106.4928
  1863.2500      0.0000    437.8689     18.7306    104.3480
  1863.5000      0.0000    413.2798     18.5777    100.8078
  1863.7500      0.0000    406.1940     18.3213     97.8690
  1864.0000      0.0000    412.3597     18.0080     96.7094
  1864.2500      0.0000    425.7847     17.6971     97.5404
  1864.5000      0.0000    442.1594     17.4454    100.2329
  1864.7500      0.0000    458.9511     17.2888    104.5610
  1865.0000      0.0000    474.0004     17.2294    109.9520
  1865.2500      0.0000    485.7838     17.2388    115.7084
  1865.5000      0.0000    495.9736     17.2766    121.7246
  1865.7500      0.0000    511.2824     17.3100    128.4336
  1866.0000      0.0000    540.6984     17.3252    135.5890
  1866.2500      0.0000    588.1996     17.3246    141.5835
  1866.5000      0.0000    647.2933     17.3138    144.7523
  1866.7500      0.0000    704.0432     17.2935    145.2430
  1867.0000      0.0000    746.5952     17.2667    144.8614
  1867.2500      0.0000    771.8942     17.2471    144.9622
  1867.5000      0.0000    784.1617     17.2514    145.0917
  1867.7500      0.0000    788.7773     17.2806    143.7844
  1868.0000      0.0000    788.0568     17.3199    140.0788
  1868.2500      0.0000    781.8458     17.3515    133.6012
  1868.5000      0.0000    771.0215     17.3623    123.1866
  1868.7500      0.0000    759.3953     17.3435    106.6004
  1869.0000      0.0000    751.4935     17.2930     83.0921
  1869.2500      0.0000    748.9703     17.2154     56.0571
  1869.5000      0.0000    749.9951     17.1170     31.7213
  1869.7500      0.0000    751.7499     17.0080     14.7269
  1870.0000      0.0000    752.7789     16.9063      5.5244
  1870.2500      0.0000    753.2006     16.8319      1.6568
  1870.5000      0.0000    753.4694     16.7979      0.3942
  1870.7500      0.0000    753.5599     16.8120      0.0732
  1871.0000      0.0000    753.5395     16.8781      0.0098
  1871.2500      0.0000    754.5828     16.9925      0.0000
  1871.5000      0.0000    758.9091     17.1449   -999.2500
  1871.7500      0.0000    768.2831     17.3281   -999.2500
  1872.0000      0.0000    782.2339     17.5482   -999.2500
  1872.2500      0.0000    797.5767     17.8238   -999.2500
  1872.5000      0.0000    809.6360     18.1746   -999.2500
  1872.7500      0.0000    813.9968     18.6069   -999.2500
  1873.0000      0.0000    807.0083     19.0883   -999.2500
  1873.2500      0.0000    783.9559     19.4915   -999.2500
  1873.5000      0.0000    736.3310     19.5054   -999.2500
  1873.7500      0.0000    653.2842     18.6165   -999.2500
  1874.0000      0.0000    530.8159     16.3386   -999.2500
  1874.2500      0.0000    382.3457     12.6688   -999.2500
  1874.5000      0.0000    237.1550      8.3408   -999.2500
  1874.7500      0.0000    123.7473      4.4564   -999.2500
  1875.0000      0.0000     53.3617      1.7674   -999.2500
  1875.2500      0.0000     18.7616      0.3240   -999.2500
  1875.5000      0.0000      5.3221     -0.2784   -999.2500
  1875.7500      0.0000      1.2052     -0.4739   -999.2500
  1876.0000      0.0000      0.2129     -0.5234   -999.2500
  1876.2500      0.0000      0.0249     -0.5331   -999.2500
  1876.5000      0.0000   -999.2500   -999.2500   -999.2500
  1876.7500      0.0000   -999.2500   -999.2500   -999.2500
  1877.0000      0.0000   -999.2500   -999.2500   -999.2500
  1877.2500      0.0000   -999.2500   -999.2500   -999.2500
  1877.5000      0.0000   -999.2500   -999.2500   -999.2500
  1877.7500      0.0000   -999.2500   -999.2500   -999.2500
  1878.0000      0.0000   -999.2500   -999.2500   -999.2500
  1878.2500      0.0000   -999.2500   -999.2500   -999.2500
  1878.5000      0.0000   -999.2500   -999.2500   -999.2500
  1878.7500      0.0000   -999.2500   -999.2500   -999.2500
