~Version Information
VERS.                      2.0: CWLS Log ASCII Standard - VERSION 2.0
WRAP.                       NO: One line per depth step
~Well Information Block
STRT.FT                -3.5000: 
STOP.FT              1745.0000: 
STEP.FT                 0.2500: 
NULL.                -999.2500: 
COMP.          Pioneer Natural Resources: COMPANY
WELL.           Labrador 34-30: WELL
FLD.           Purgatorie River: FIELD
LOC.           926' FSL & 2080' FEL--: LOCATION
PROV.                       CO: PROVINCE
CNTY.               Las Animas: COUNTRY
SRVC.                         : SERVICE COMPANY
DATE.          Fri Dec 10 09:58:23 2004: LOG DATE
UWI.                071-08202 : UNIQUE WELL ID
~Curve Information Block
DEPT.FT            0 000 00 00: Depth
GR.GAPI                       : Gamma Ray
CCL.                          : Casing Collar Locator
TT3.usec                      : CBL 3' Travel Time
AMP3.mV                       : CBL 3' Amplitude
~Parameter Information Block
~A  Depth        GR         CCL         TT3         AMP3    
# ...
   331.5000     85.0257      0.0000    775.3014     18.2567
   331.7500     90.9223      0.0000    775.5461     18.1543
   332.0000     96.5392      0.0000    775.7997     18.0607
   332.2500     98.8347      0.0000    775.9543     17.9756
   332.5000     96.5873      0.0000    775.9332     17.8829
   332.7500     91.3327      0.0000    775.7454     17.7568
   333.0000     86.0788      0.0000    775.4396     17.5795
   333.2500     83.2155      0.0000    775.0614     17.3555
   333.5000     83.4575      0.0000    774.6758     17.1119
   333.7500     85.8684      0.0000    774.3684     16.8829
   334.0000     88.4224      0.0000    774.1765     16.6922
   334.2500     89.1789      0.0000    774.0516     16.5484
   334.5000     87.4637      0.0000    773.9300     16.4539
   334.7500     84.0465      0.0000    773.8237     16.4142
   335.0000     80.5853      0.0000    773.7980     16.4370
   335.2500     78.9528      0.0000    773.8569     16.5223
   335.5000     80.2122      0.0000    773.8880     16.6531
   335.7500     83.7455      0.0000    773.7447     16.7975
   336.0000     87.7849      0.0000    773.3732     16.9221
   336.2500     90.8950      0.0000    772.8399     17.0082
   336.5000     92.6205      0.0000    772.2540     17.0584
   336.7500     92.9916      0.0000    771.6956     17.0900
   337.0000     91.9833      0.0000    771.2083     17.1247
   337.2500     89.4833      0.0000    770.8125     17.1772
   337.5000     85.5818      0.0000    770.5047     17.2495
   337.7500     80.9701      0.0000    770.2631     17.3364
   338.0000     76.9660      0.0000    770.0688     17.4435
   338.2500     74.7072      0.0000    769.9188     17.5922
   338.5000     74.2165      0.0000    769.8199     17.8001
   338.7500     74.5348      0.0000    769.7880     18.0532
   339.0000     74.6894      0.0000    769.8521     18.2994
   339.2500     74.3803      0.0000    770.0269     18.4799
   339.5000     74.0376      0.0000    770.2632     18.5735
   339.7500     74.3848      0.0000    770.4568     18.6066
   340.0000     75.6551      0.0000    770.5408     18.6143
   340.2500     77.1818      0.0000    770.5538     18.5992
   340.5000     78.1238      0.0000    770.5956     18.5379
   340.7500     78.5543      0.0000    770.7352     18.4223
   341.0000     79.2934      0.0000    770.9681     18.2828
   341.2500     80.6976      0.0000    771.2288     18.1679
   341.5000     82.2724      0.0000    771.4236     18.1070
   341.7500     83.5129      0.0000    771.4758     18.0963
   342.0000     84.4143      0.0000    771.3616     18.1096
   342.2500     84.9891      0.0000    771.1185     18.1234
   342.5000     84.7617      0.0000    770.8266     18.1353
   342.7500     83.0160      0.0000    770.5386     18.1630
   343.0000     79.5004      0.0000    770.1879     18.2162
   343.2500     74.8080      0.0000    769.2700     18.2644
   343.5000     70.1218      0.0000    766.2862     18.2257
   343.7500     66.6385      0.0000    758.3019     18.0009
   344.0000     65.0323      0.0000    742.4318     17.5342
   344.2500     65.1795      0.0000    720.7079     16.8541
   344.5000     66.3739      0.0000    704.3351     16.0527
   344.7500     67.9414      0.0000    708.3555     15.2364
   345.0000     69.6770      0.0000    737.0526     14.5086
   345.2500     71.5882      0.0000    776.9307     13.9584
   345.5000     73.3604      0.0000    808.9540     13.6131
   345.7500     74.4804      0.0000    826.1001     13.4106
   346.0000     74.9108      0.0000    835.0607     13.2514
   346.2500     75.2389      2.0000    842.8166     13.0769
   346.5000     75.9530      0.0000    845.7372     12.9098
   346.7500     76.6618      0.0000    833.1379     12.8434
   347.0000     76.1831      0.0000    801.1508     12.9618
   347.2500     73.6875      0.0000    761.8027     13.2354
   347.5000     69.9016      0.0000    735.2779     13.5399
   347.7500     66.8343      0.0000    731.8830     13.8305
   348.0000     66.0132      0.0000    744.6933     14.2055
   348.2500     67.1440      0.0000    760.2462     14.7239
   348.5000     68.6446      0.0000    771.6533     15.2568
   348.7500     69.2001      0.0000    780.0567     15.6087
   349.0000     68.5404      0.0000    788.4012     15.7174
   349.2500     67.0465      0.0000    797.2022     15.6818
   349.5000     65.0723      0.0000    804.9687     15.6439
   349.7500     62.7241      0.0000    810.3680     15.6845
   350.0000     60.1164      0.0000    813.3893     15.8072
   350.2500     57.7375      0.0000    815.1160     15.9765
   350.5000     56.5017      0.0000    816.9792     16.1600
   350.7500     57.3028      0.0000    820.1756     16.3449
   351.0000     60.3286      0.0000    824.9157     16.5353
   351.2500     64.7548      0.0000    829.8364     16.7389
   351.5000     69.1522      0.0000    832.7792     16.9498
   351.7500     72.2428      0.0000    832.8333     17.1430
   352.0000     73.4784      0.0000    831.1880     17.2905
   352.2500     73.2898      0.0000    829.4813     17.3849
   352.5000     72.8888      0.0000    828.0406     17.4410
   352.7500     73.4252      0.0000    826.4117     17.4776
   353.0000     75.0520      0.0000    824.8702     17.5059
   353.2500     76.9102      0.0000    824.4732     17.5311
   353.5000     77.9703      0.0000    825.7824     17.5459
   353.7500     77.6970      0.0000    828.1053     17.5226
   354.0000     76.0697      0.0000    830.2238     17.4277
   354.2500     73.3483      0.0000    831.7725     17.2568
   354.5000     69.8717      0.0000    833.4892     17.0448
   354.7500     66.0430      0.0000    835.8173     16.8430
   355.0000     62.5816      0.0000    837.8154     16.6915
   355.2500     60.5669      0.0000    838.2495     16.6094
   355.5000     60.9018      0.0000    837.4565     16.5960
   355.7500     63.6861      0.0000    836.9949     16.6395
   356.0000     68.0082      0.0000    837.2831     16.7272
   356.2500     72.2578      0.0000    836.7161     16.8434
   356.5000     74.9942      0.0000    833.7199     16.9504
   356.7500     75.9061      0.0000    828.8109     16.9843
   357.0000     75.8867      0.0000    823.9603     16.8907
   357.2500     76.1011      0.0000    820.6535     16.6758
   357.5000     77.1993      0.0000    819.2669     16.4095
   357.7500     79.3541      0.0000    819.9272     16.1700
   358.0000     82.4350      0.0000    823.2076     15.9908
   358.2500     85.8135      0.0000    829.7402     15.8571
   358.5000     88.4440      0.0000    839.2809     15.7343
   358.7500     89.6534      0.0000    850.3577     15.5916
   359.0000     89.7876      0.0000    860.6104     15.4117
   359.2500     89.7469      0.0000    867.1378     15.1908
   359.5000     89.9471      0.0000    867.1561     14.9324
   359.7500     89.9017      0.0000    859.7252     14.6469
   360.0000     88.7270      0.0000    847.0795     14.3596
   360.2500     85.9711      0.0000    833.4302     14.1075
   360.5000     82.1281      0.0000    822.2620     13.9143
   360.7500     78.4209      0.0000    815.0191     13.7711
   361.0000     75.9409      0.0000    811.6566     13.6470
   361.2500     74.8755      0.0000    811.3483     13.5149
   361.5000     74.5200      0.0000    812.7472     13.3614
   361.7500     73.9051      0.0000    814.4801     13.1797
   362.0000     72.5066      0.0000    815.7616     12.9669
   362.2500     70.7002      0.0000    816.4946     12.7329
   362.5000     69.6192      0.0000    816.8829     12.5023
   362.7500     70.4172      0.0000    817.0925     12.3064
   363.0000     73.6336      0.0000    817.1663     12.1792
   363.2500     79.0528      0.0000    817.0876     12.1576
   363.5000     85.7011      0.0000    816.8599     12.2677
   363.7500     91.8950      0.0000    816.5514     12.4993
   364.0000     95.8041      0.0000    816.2781     12.8016
   364.2500     96.3953      0.0000    816.1459     13.1081
   364.5000     94.0363      0.0000    816.1888     13.3672
   364.7500     90.5094      0.0000    816.3609     13.5569
