~Version Information
VERS.                      2.0: CWLS Log ASCII Standard - VERSION 2.0
WRAP.                       NO: One line per depth step
~Well Information Block
STRT.FT               650.0000: 
STOP.FT              2087.0000: 
STEP.FT                 0.2500: 
NULL.                -999.2500: 
COMP.          Pioneer Natural Resources: COMPANY
WELL.           Galloway 32-13: WELL
FLD.           Purgatoire River: FIELD
LOC.           1809' FNL & 2004' FEL: LOCATION
PROV.                 Colorado: PROVINCE
CNTY.               Las Animas: COUNTRY
SRVC.                Patterson: SERVICE COMPANY
DATE.          Fri Jul 08 15:50:04 2005: LOG DATE
UWI.           05 071 08423 00: UNIQUE WELL ID
~Curve Information Block
DEPT.FT            0 000 00 00: Depth
SN.Ohm-m                      : IEL Short Normal
SP.mV                         : IEL Spontaneous Potential
DIR.Ohm-m                     : IEL Induction Resistivity
GR.GAPI                       : Gamma Ray
~Parameter Information Block
~A  Depth        SN          SP         DIR          GR     
# ...
  2057.0000     27.4221     44.2086     23.2439    101.0221
  2057.2500     27.3586     45.0727     22.7690    100.1861
  2057.5000     27.1212     45.9989     22.2301    102.2025
  2057.7500     26.5921     46.9122     21.6313    105.7173
  2058.0000     25.7352     47.7763     20.9863    112.5947
  2058.2500     24.6980     48.5755     20.3173    116.8194
  2058.5000     23.6355     49.2927     19.6513    120.6623
  2058.7500     22.6107     49.9012     19.0141    121.2563
  2059.0000     21.6596     50.3688     18.4247    120.0785
  2059.2500     20.7913     50.6690     17.8936    118.7319
  2059.5000     19.9790     50.7961     17.4276    116.8584
  2059.7500     19.2544     50.7715     17.0365    115.9401
  2060.0000     18.7142     50.6331     16.7344    115.1595
  2060.2500     18.4102     50.4180     16.5341    115.0681
  2060.5000     18.3307     50.1541     16.4367    115.6986
  2060.7500     18.4097     49.8653     16.4252    116.6813
  2061.0000     18.5393     49.5760     16.4675    118.5754
  2061.2500     18.6866     49.3090     16.5269    119.3728
  2061.5000     18.9290     49.0775     16.5743    118.2266
  2061.7500     19.3121     48.8733     16.5949    115.4025
  2062.0000     19.7305     48.6608     16.5856    108.9005
  2062.2500     20.0299     48.3899     16.5481    104.4264
  2062.5000     20.1879     48.0246     16.4857    100.2773
  2062.7500     20.3091     47.5670     16.4077    100.2407
  2063.0000     20.5146     47.0592     16.3376    104.0161
  2063.2500     20.8346     46.5670     16.3119    108.0423
  2063.5000     21.1164     46.1629     16.3668    114.6013
  2063.7500     21.1181     45.9135     16.5225    118.8647
  2064.0000     20.7623     45.8634     16.7742    124.8832
  2064.2500     20.2647     46.0105     17.0937    128.3566
  2064.5000     19.9528     46.2962     17.4381    131.8465
  2064.7500     19.9336     46.6276     17.7612    132.7295
  2065.0000     20.0653     46.9209     18.0259    132.4785
  2065.2500     20.2226     47.1280     18.2103    131.9099
  2065.5000     20.3635     47.2306     18.3099    130.9587
  2065.7500     20.4634     47.2265     18.3338    130.1709
  2066.0000     20.5797     47.1279     18.3028    128.7506
  2066.2500     20.8401     46.9648     18.2471    127.8259
  2066.5000     21.3561     46.7770     18.2052    126.1174
  2066.7500     22.1664     46.5971     18.2193    123.5293
  2067.0000     23.1102     46.4378     18.3248    113.7300
  2067.2500     23.8282     46.2889     18.5371    101.3494
  2067.5000     24.0534     46.1210     18.8431     74.5003
  2067.7500     23.8364     45.8990     19.2049     54.2097
  2068.0000     23.4165     45.6032     19.5721     27.5271
  2068.2500     23.0091     45.2434     19.8972     15.1077
  2068.5000     22.7322     44.8478     20.1445      4.8257
  2068.7500     22.5557     44.4408     20.2928      1.9033
  2069.0000     22.3456     44.0341     20.3329      0.3602
  2069.2500     22.0710     43.6329     20.2662      0.0974
  2069.5000     21.9120     43.2424     20.1044      0.0087
  2069.7500     22.1146     42.8619     19.8702      0.0000
  2070.0000     22.7344     42.4725     19.5942   -999.2500
  2070.2500     23.5384     42.0393     19.3059   -999.2500
  2070.5000     24.2308     41.5352     19.0227   -999.2500
  2070.7500     24.6925     40.9607     18.7465   -999.2500
  2071.0000     24.8867     40.3377     18.4727   -999.2500
  2071.2500     24.6984     39.6861     18.2048   -999.2500
  2071.5000     24.0342     39.0068     17.9580   -999.2500
  2071.7500     23.0079     38.2769     17.7470   -999.2500
  2072.0000     21.9381     37.4538     17.5718   -999.2500
  2072.2500     21.1438     36.4904     17.4171   -999.2500
  2072.5000     20.7246     35.3597     17.2673   -999.2500
  2072.7500     20.5319     34.0730     17.1215   -999.2500
  2073.0000     20.3244     32.6779     16.9901   -999.2500
  2073.2500     19.9246     31.2433     16.8782   -999.2500
  2073.5000     19.3350     29.8406     16.7738   -999.2500
  2073.7500     18.7754     28.5202     16.6551   -999.2500
  2074.0000     18.4850     27.2856     16.3756   -999.2500
  2074.2500     18.4699     26.0850     16.2378   -999.2500
  2074.5000     18.5548     24.8546     16.1479   -999.2500
  2074.7500     18.6184     23.6119     16.1466   -999.2500
  2075.0000     18.6791     22.5469     16.2411   -999.2500
  2075.2500     18.8085     22.0523     16.4042   -999.2500
  2075.5000     19.0383     22.6315     16.6036   -999.2500
  2075.7500     19.3511     24.6261     16.8356   -999.2500
  2076.0000     19.6795     27.8659     17.1341   -999.2500
  2076.2500     19.9301     31.5718     17.5508   -999.2500
  2076.5000     20.0875     34.7346     18.1391   -999.2500
  2076.7500     20.2227     36.6979     18.9718   -999.2500
  2077.0000     20.4112     37.4373     20.1931   -999.2500
  2077.2500     20.7440     37.3842     22.0749   -999.2500
  2077.5000     21.2899     37.0547     25.4402   -999.2500
  2077.7500     21.9913     36.7710     30.3064   -999.2500
  2078.0000     22.7215     36.5906     37.7970   -999.2500
  2078.2500     23.4371     36.4156     48.6029   -999.2500
  2078.5000     24.2027     36.1526     62.4419   -999.2500
  2078.7500     25.0751     35.7846     77.1106   -999.2500
  2079.0000     26.0390     35.3412     89.2970   -999.2500
  2079.2500     27.0254     34.8559     97.2936   -999.2500
  2079.5000     27.8751     34.3534    101.9178   -999.2500
  2079.7500     28.4128     33.8475    104.8950   -999.2500
  2080.0000     28.6829     33.3337    107.6038   -999.2500
  2080.2500     28.9168     32.7895    110.9200   -999.2500
  2080.5000     29.2214     32.1883 100000.0000   -999.2500
  2080.7500     29.4906     31.5171 100000.0000   -999.2500
  2081.0000     29.5945     30.7854 100000.0000   -999.2500
  2081.2500     29.5278     30.0230 100000.0000   -999.2500
  2081.5000     29.4079     29.2683 100000.0000   -999.2500
  2081.7500     29.3909     28.5464 100000.0000   -999.2500
  2082.0000     29.6090     27.8487 100000.0000   -999.2500
  2082.2500     30.1860     27.0914 100000.0000   -999.2500
  2082.5000     31.1694     26.0105 100000.0000   -999.2500
  2082.7500     32.3923     23.9797 100000.0000   -999.2500
  2083.0000     33.5420     19.9584 100000.0000   -999.2500
  2083.2500     34.2485     12.9657 100000.0000   -999.2500
  2083.5000     33.6893      3.0789 100000.0000   -999.2500
  2083.7500     30.1961     -7.9845 100000.0000   -999.2500
  2084.0000     22.6009    -17.6894 100000.0000   -999.2500
  2084.2500     12.7891    -24.3387 100000.0000   -999.2500
  2084.5000      4.8177    -27.8916 100000.0000   -999.2500
  2084.7500      0.6942    -29.3711 100000.0000   -999.2500
  2085.0000     -0.6690    -29.8512 100000.0000   -999.2500
  2085.2500     -0.9575    -29.9725 100000.0000   -999.2500
  2085.5000     -0.9966    -29.9963 100000.0000   -999.2500
  2085.7500   -999.2500   -999.2500 100000.0000   -999.2500
  2086.0000   -999.2500   -999.2500 100000.0000   -999.2500
  2086.2500   -999.2500   -999.2500 100000.0000   -999.2500
  2086.5000   -999.2500   -999.2500 100000.0000   -999.2500
  2086.7500   -999.2500   -999.2500 100000.0000   -999.2500
  2087.0000   -999.2500   -999.2500 100000.0000   -999.2500
