~Version Information
VERS.                      2.0: CWLS Log ASCII Standard - VERSION 2.0
WRAP.                       NO: One line per depth step
~Well Information Block
STRT.FT               664.0000: 
STOP.FT              1615.5000: 
STEP.FT                 0.2500: 
NULL.                -999.2500: 
COMP.          Petrogulf Corporation: COMPANY
WELL.          Great Plains 22-21R: WELL
FLD.           Purgatorie River: FIELD
LOC.           73' FNL & 1992' FWL: LOCATION
PROV.                 Colorado: PROVINCE
CNTY.               Las Animas: COUNTRY
SRVC.                Patterson: SERVICE COMPANY
DATE.          Thu Sep 08 08:05:26 2005: LOG DATE
UWI.                          : UNIQUE WELL ID
~Curve Information Block
DEPT.FT            0 000 00 00: Depth
SP.mV                         : DIL Spontaneous Potential
RILD.Ohm-m                    : DIL Deep Resistivity
RILM.Ohm-m                    : DIL Medium Resistivity
RLL3.Ohm-m                    : DIL Shallow Resistivity
GR.GAPI                       : Gamma Ray
~Parameter Information Block
~A  Depth        SP         RILD        RILM        RLL3         GR     
# ...
  1532.0000    195.2991     14.0657     18.1850     35.2449   -999.2500
  1532.2500    195.0888     14.4342     18.5044     32.8039   -999.2500
  1532.5000    194.9007     14.6833     18.6279     27.0932   -999.2500
  1532.7500    194.6467     14.9688     18.4529     23.9524   -999.2500
  1533.0000    194.3879     15.3778     17.9981     22.6855   -999.2500
  1533.2500    194.1644     15.5257     17.8851     21.1845   -999.2500
  1533.5000    193.7202     16.0196     18.2231     19.5733   -999.2500
  1533.7500    193.2307     16.2055     17.6835     17.6507   -999.2500
  1534.0000    192.6059     16.1510     17.5568     16.2301   -999.2500
  1534.2500    191.9947     16.1226     17.5392     15.7467   -999.2500
  1534.5000    191.4368     16.0434     17.4943     16.0361   -999.2500
  1534.7500    190.8169     15.8539     17.5138     16.2094   -999.2500
  1535.0000    190.3410     15.4164     17.2191     17.0053   -999.2500
  1535.2500    189.9219     15.0256     17.2958     18.0696   -999.2500
  1535.5000    189.6441     14.8797     17.1488     18.8161   -999.2500
  1535.7500    189.5002     14.7557     16.9159     19.1048   -999.2500
  1536.0000    189.5011     14.6783     16.3685     18.9022   -999.2500
  1536.2500    189.6115     14.7070     15.7225     17.7422   -999.2500
  1536.5000    189.8241     14.7460     15.6203     15.6654   -999.2500
  1536.7500    190.0780     14.8552     15.5040     14.7366   -999.2500
  1537.0000    190.2979     15.0625     15.5494     14.8737   -999.2500
  1537.2500    190.4257     15.2065     15.6708     15.0339   -999.2500
  1537.5000    190.4269     15.1622     15.8245     15.5996   -999.2500
  1537.7500    190.4261     15.0829     15.8622     16.8398   -999.2500
  1538.0000    190.3513     15.3365     16.0609     17.7723   -999.2500
  1538.2500    190.2277     15.1112     16.1745     17.9105   -999.2500
  1538.5000    190.0915     15.1112     16.1379     17.8734   -999.2500
  1538.7500    189.9367     15.4449     16.1133     17.7607   -999.2500
  1539.0000    189.7857     15.5258     16.4411     17.2198   -999.2500
  1539.2500    189.6133     15.5482     16.7950     17.1083   -999.2500
  1539.5000    189.4445     15.6747     16.9475     17.6795   -999.2500
  1539.7500    189.2560     15.6887     17.4245     18.2741   -999.2500
  1540.0000    189.0635     15.9130     17.7140     18.7080   -999.2500
  1540.2500    188.9774     16.1640     17.8928     19.3097   -999.2500
  1540.5000    188.9995     16.5321     18.5844     19.7185   -999.2500
  1540.7500    189.0790     16.4350     18.7654     20.1777   -999.2500
  1541.0000    189.2928     16.6119     18.9831     21.2069   -999.2500
  1541.2500    189.5913     16.6740     19.2271     22.0902   -999.2500
  1541.5000    189.8305     16.7510     19.5230     22.6106   -999.2500
  1541.7500    189.9864     17.1547     19.5099     22.8031   -999.2500
  1542.0000    189.9602     17.3313     19.7377     23.0396   -999.2500
  1542.2500    189.8151     17.6700     19.8949     23.3250   -999.2500
  1542.5000    189.5703     17.6854     19.8069     23.2491   -999.2500
  1542.7500    189.2335     17.9957     20.0353     22.2594   -999.2500
  1543.0000    188.8889     18.2264     20.3126     20.8532   -999.2500
  1543.2500    188.5676     18.6258     20.4363     20.4083   -999.2500
  1543.5000    188.2454     18.8067     20.5452     20.0461   -999.2500
  1543.7500    187.9248     19.0983     20.7878     20.3843   -999.2500
  1544.0000    187.5934     19.5786     21.3995     21.2405   -999.2500
  1544.2500    187.3327     19.8319     21.5950     22.5360   -999.2500
  1544.5000    187.1944     19.9252     22.4404     23.5772   -999.2500
  1544.7500    187.0785     20.2095     22.9520     23.4487   -999.2500
  1545.0000    187.0505     20.2797     23.7332     23.7087   -999.2500
  1545.2500    187.0773     20.0229     24.0284     25.9795   -999.2500
  1545.5000    187.3485     20.1552     24.8623     29.2544   -999.2500
  1545.7500    187.9113     20.1268     25.0965     31.7989   -999.2500
  1546.0000    188.7355     20.5648     25.1125     31.4150   -999.2500
  1546.2500    189.4897     20.2998     25.0239     29.0114   -999.2500
  1546.5000    190.0040     20.4354     24.9720     26.3206   -999.2500
  1546.7500    190.4353     20.1637     24.6212     24.6684   -999.2500
  1547.0000    190.7189     20.0963     24.5165     24.4623   -999.2500
  1547.2500    190.9803     20.0164     24.7258     24.7881   -999.2500
  1547.5000    191.4594     20.3590     24.5459     24.3757   -999.2500
  1547.7500    192.2456     20.0734     23.2411     22.4998   -999.2500
  1548.0000    193.2556     18.9198     23.5213     19.7065   -999.2500
  1548.2500    194.2137     17.7654     23.2307     20.4606   -999.2500
  1548.5000    195.3121     17.0219     22.7016     30.2575   -999.2500
  1548.7500    196.9093     16.1416     21.6417     48.3835   -999.2500
  1549.0000    198.5297     15.1397     19.5497     55.2540   -999.2500
  1549.2500    199.8255     14.6188     17.7821     40.2742   -999.2500
  1549.5000    199.9917     14.0966     16.0995     20.5207   -999.2500
  1549.7500    199.9940     13.1979     14.1986     12.4368   -999.2500
  1550.0000    199.9940     12.8000     12.7947     11.1719   -999.2500
  1550.2500    199.9940     12.5630     11.8757     11.0926   -999.2500
  1550.5000    199.9940     12.5535     11.3734     11.2885   -999.2500
  1550.7500    199.9940     12.3458     11.1999     11.4304   -999.2500
  1551.0000    199.9940     12.2586     11.1190     11.5029   -999.2500
  1551.2500    199.9940     12.1540     10.9630     11.6720   -999.2500
  1551.5000    199.9940     12.0895     10.9679     11.8037   -999.2500
  1551.7500    199.9940     12.3033     10.8590     11.8139   -999.2500
  1552.0000    199.9940     12.6657     11.0359     11.7868   -999.2500
  1552.2500    199.9940     12.8413     11.2902     11.8565   -999.2500
  1552.5000    199.9940     12.6189     11.9746     12.0292   -999.2500
  1552.7500    199.9940     12.5555     13.2401     13.8118   -999.2500
  1553.0000    199.9940     12.6139     14.3917     19.4956   -999.2500
  1553.2500    199.9940     13.1810     15.2727     31.2255   -999.2500
  1553.5000    199.9940     13.9933     15.7596     52.2892   -999.2500
  1553.7500    199.9940     14.9907     15.6071     59.8330   -999.2500
  1554.0000    199.9940     15.3419     14.7545     35.2922   -999.2500
  1554.2500    199.9940     15.3093     14.0315     19.8363   -999.2500
  1554.5000    199.9940     15.4232     14.0129     14.7964   -999.2500
  1554.7500    199.9940     15.4425     14.7822     13.0109   -999.2500
  1555.0000    199.9940     15.5237     15.7967     12.0718   -999.2500
  1555.2500    199.9940     15.3045     15.9030     12.8506   -999.2500
  1555.5000    199.9940     15.3977     16.5455     17.5117   -999.2500
  1555.7500    199.9940     15.0326     16.5691     21.7686   -999.2500
  1556.0000    199.9940     14.7547     16.4568     20.9197   -999.2500
  1556.2500    199.9940     15.3338     16.4503     19.6053   -999.2500
  1556.5000    199.9724     15.3908     16.5395     18.9379   -999.2500
  1556.7500    199.7409     15.5191     16.4426     18.8315   -999.2500
  1557.0000    199.0768     15.6453     16.0882     18.4702   -999.2500
  1557.2500    198.0831     15.3755     16.3654     17.6655   -999.2500
  1557.5000    196.7115     15.2787     17.0163     17.3433   -999.2500
  1557.7500    195.1253     15.3413     17.2882     16.9869   -999.2500
  1558.0000    193.9454     15.2656     17.1831     16.4412   -999.2500
  1558.2500    193.6349     15.6529     17.1845     16.6017   -999.2500
  1558.5000    193.5138     16.5267     17.2107     17.9968   -999.2500
  1558.7500    192.9879     16.9346     17.3125     19.9498   -999.2500
  1559.0000    192.4924     16.7976     17.3175     20.7291   -999.2500
  1559.2500    191.9518     16.9031     17.8781     20.3237   -999.2500
  1559.5000    191.2702     17.0234     18.6071     21.2394   -999.2500
  1559.7500    190.0318     17.0177     18.9934     20.9516   -999.2500
