~Version Information
VERS.                      2.0: CWLS Log ASCII Standard - VERSION 2.0
WRAP.                       NO: One line per depth step
~Well Information Block
STRT.FT               -13.0000: 
STOP.FT              1411.2500: 
STEP.FT                 0.2500: 
NULL.                -999.2500: 
COMP.                         : COMPANY
WELL.                         : WELL
FLD.                          : FIELD
LOC.                          : LOCATION
CNTY.                         : COUNTY
SRVC.                         : SERVICE COMPANY
DATE.          Sat Jan 17 07:25:27 2004: LOG DATE
UWI.                          : UNIQUE WELL ID
STAT.                         : STATE
~Curve Information Block
DEPT.FT            0 000 00 00: Depth
CCL.                          : Casing Collar Locator
TT3.usec                      : CBL 3' Travel Time
AMP3.mV                       : CBL 3' Amplitude
GR.GAPI                       : Gamma Ray
~Parameter Information Block
~A  Depth       CCL         TT3         AMP3         GR     
# ...
  1193.0000      0.0000    341.5226     28.1636    108.6278
  1193.2500      0.0000    377.1244     25.7445    104.8167
  1193.5000      0.0000    417.9849     22.8082    101.2301
  1193.7500      0.0000    455.0756     20.3653     97.9297
  1194.0000      0.0000    487.0854     18.8457     94.8043
  1194.2500      0.0000    520.3832     18.0939     92.3704
  1194.5000      0.0000    557.2650     17.7607     92.0103
  1194.7500      0.0000    590.3301     17.5896     95.1022
  1195.0000     -4.0000    611.6891     17.4445    101.7376
  1195.2500      0.0000    622.3905     17.2712    110.3555
  1195.5000      0.0000    628.3113     17.1317    118.6624
  1195.7500      0.0000    630.1646     17.2208    124.9638
  1196.0000      0.0000    621.8114     17.7356    128.9752
  1196.2500      0.0000    597.0566     18.6558    131.7139
  1196.5000      0.0000    554.7090     19.6906    134.5402
  1196.7500      0.0000    498.5783     20.4996    137.8819
  1197.0000      0.0000    436.8790     20.9238    140.6806
  1197.2500      0.0000    381.1666     20.9793    141.3788
  1197.5000      0.0000    341.7013     20.7396    139.8848
  1197.7500      0.0000    323.1238     20.3012    138.3765
  1198.0000      0.0000    326.8235     19.7855    139.5216
  1198.2500      0.0000    356.5279     19.2858    143.7596
  1198.5000      0.0000    417.4213     18.8080    148.8170
  1198.7500      0.0000    507.0667     18.2891    152.0147
  1199.0000      0.0000    608.7875     17.6832    152.4967
  1199.2500      0.0000    698.5814     17.0234    151.0285
  1199.5000      0.0000    760.2748     16.3938    148.4495
  1199.7500      0.0000    793.2283     15.8455    144.9858
  1200.0000      0.0000    806.8521     15.3529    140.6210
  1200.2500      0.0000    811.1510     14.8499    135.4864
  1200.5000      0.0000    812.1378     14.3078    130.0143
  1200.7500      0.0000    812.2630     13.7803    125.1451
  1201.0000      0.0000    812.2303     13.3656    122.1036
  1201.2500      0.0000    812.1889     13.1148    121.4294
  1201.5000      0.0000    812.2121     12.9840    122.4282
  1201.7500      0.0000    812.3505     12.8763    123.8791
  1202.0000      0.0000    812.5906     12.7168    124.7933
  1202.2500      0.0000    812.8396     12.4945    124.3100
  1202.5000      0.0000    813.0078     12.2556    121.7246
  1202.7500      0.0000    813.0870     12.0571    117.3483
  1203.0000      0.0000    813.1375     11.9113    112.9920
  1203.2500      0.0000    813.2189     11.7750    110.9522
  1203.5000      0.0000    813.3428     11.5996    112.2548
  1203.7500      0.0000    813.4785     11.3807    115.9014
  1204.0000      0.0000    813.5886     11.1544    119.8292
  1204.2500      0.0000    813.6498     10.9592    122.4793
  1204.5000      0.0000    813.6102     10.8102    123.3957
  1204.7500      0.0000    813.2806     10.6953    122.5894
  1205.0000      0.0000    812.1991     10.5817    119.8744
  1205.2500      0.0000    809.6057     10.4439    115.1325
  1205.5000      0.0000    804.7897     10.2999    109.1087
  1205.7500      0.0000    797.8104     10.2034    103.6852
  1206.0000      0.0000    789.9174     10.1822    101.1759
  1206.2500      0.0000    782.9473     10.1940    103.0090
  1206.5000      0.0000    778.1186     10.1635    108.5284
  1206.7500      0.0000    775.4494     10.0639    114.8576
  1207.0000      0.0000    774.2042      9.9527    118.4552
  1207.2500      0.0000    773.6282      9.9186    117.5784
  1207.5000      0.0000    773.2740      9.9878    113.3335
  1207.7500      0.0000    772.9123     10.0919    108.1294
  1208.0000      0.0000    772.3366     10.1357    103.3754
  1208.2500      0.0000    771.2563     10.0843     99.0924
  1208.5000      0.0000    769.3172      9.9676     95.3204
  1208.7500      0.0000    766.3618      9.8031     92.7897
  1209.0000      0.0000    762.7134      9.5578     91.9040
  1209.2500      0.0000    759.2094      9.2166     91.8753
  1209.5000      0.0000    757.0525      8.8478     91.5328
  1209.7500      0.0000    757.7139      8.5313     90.6940
  1210.0000      0.0000    762.4066      8.2511     90.2256
  1210.2500      0.0000    771.0067      7.9370     90.7256
  1210.5000      0.0000    781.7071      7.5903     91.6580
  1210.7500      0.0000    792.0579      7.2836     92.1442
  1211.0000     -4.0000    800.2217      7.0476     92.2376
  1211.2500      4.0000    805.4906      6.8331     92.9285
  1211.5000      0.0000    808.1620      6.6036     95.1028
  1211.7500      0.0000    809.0266      6.4204     98.9575
  1212.0000      0.0000    808.7465      6.3961    104.1408
  1212.2500      0.0000    807.3963      6.5568    109.6808
  1212.5000      0.0000    804.3540      6.7807    113.6898
  1212.7500      0.0000    798.8136      6.9076    113.9744
  1213.0000      0.0000    790.7721      6.9019    109.6192
  1213.2500      0.0000    781.5881      6.8653    102.0208
  1213.5000      0.0000    773.2410      6.8845     94.2815
  1213.7500      0.0000    766.9780      6.9189     89.5489
  1214.0000      0.0000    762.7621      6.8553     89.5452
  1214.2500      0.0000    759.8833      6.6249     93.9142
  1214.5000      0.0000    757.8248      6.2466    100.5555
  1214.7500      0.0000    756.5829      5.7967    106.8973
  1215.0000      0.0000    756.5291      5.3615    111.4002
  1215.2500      0.0000    758.1797      5.0020    114.0762
  1215.5000      0.0000    761.7371      4.7423    115.6407
  1215.7500      0.0000    766.2265      4.5789    116.3853
  1216.0000      0.0000    768.9863      4.4795    116.0591
  1216.2500      0.0000    766.6380      4.3789    114.8307
  1216.5000      0.0000    757.1508      4.2120    113.9772
  1216.7500      0.0000    741.1600      3.9690    115.0392
  1217.0000      0.0000    721.5594      3.7045    118.1555
  1217.2500      0.0000    702.1649      3.4862    121.6784
  1217.5000      0.0000    686.5397      3.3443    123.6448
  1217.7500      0.0000    677.1971      3.2653    123.4249
  1218.0000      0.0000    674.9478      3.2087    121.8066
  1218.2500      0.0000    678.5477      3.1244    119.8099
  1218.5000      0.0000    685.1572      2.9867    117.8022
  1218.7500      0.0000    691.7081      2.8235    115.7850
  1219.0000      0.0000    696.3435      2.6986    114.1981
  1219.2500      0.0000    698.7975      2.6507    114.0283
  1219.5000      0.0000    699.6010      2.6622    115.9034
  1219.7500      0.0000    699.0471      2.6867    119.1170
  1220.0000      0.0000    696.7716      2.6931    121.8363
  1220.2500      0.0000    692.1603      2.6818    122.4973
  1220.5000      0.0000    685.2302      2.6773    120.8365
  1220.7500      0.0000    677.1701      2.7079    117.5538
  1221.0000      0.0000    669.8531      2.7792    113.4222
  1221.2500      0.0000    664.7147      2.8636    108.9627
  1221.5000      0.0000    662.1467      2.9224    104.5145
  1221.7500      0.0000    661.8241      2.9389    100.2882
  1222.0000      0.0000    663.2300      2.9282     96.6220
  1222.2500      0.0000    665.4855      2.9172     94.3073
  1222.5000      0.0000    666.7339      2.9268     94.1702
  1222.7500      0.0000    664.2245      2.9760     96.1890
  1223.0000      0.0000    656.0322      3.0856     99.3653
  1223.2500      0.0000    643.7014      3.2603    102.4032
  1223.5000      0.0000    633.1234      3.4814    104.2049
  1223.7500      0.0000    631.0742      3.7296    104.0488
  1224.0000      0.0000    639.3153      3.9962    101.9681
  1224.2500      0.0000    652.8110      4.2647     98.9632
  1224.5000      0.0000    664.8558      4.5075     96.3251
  1224.7500      0.0000    673.4476      4.7164     94.5874
  1225.0000      0.0000    682.4805      4.9203     93.4439
  1225.2500      0.0000    697.5628      5.1546     92.6856
  1225.5000      0.0000    720.1616      5.4218     92.7303
  1225.7500      0.0000    744.6523      5.6909     94.0483
  1226.0000      0.0000    761.7577      5.9276     96.4752
  1226.2500      0.0000    766.3819      6.1167     99.4988
