~Version Information
VERS.                      2.0: CWLS Log ASCII Standard - VERSION 2.0
WRAP.                       NO: One line per depth step
~Well Information Block
STRT.FT               392.5000: 
STOP.FT              2252.6000: 
STEP.FT                 0.1000: 
NULL.                -999.2500: 
COMP.          Petrogulf Corporation: COMPANY
WELL.          Alexander 9-43V: WELL
FLD.           Purgatorie River: FIELD
LOC.           1651' FSL & 1081' FEL: LOCATION
CNTY.               Las Animas: COUNTY
SRVC.                         : SERVICE COMPANY
DATE.          Mon Mar 17 08:48:25 2003: LOG DATE
UWI.           05 071 07727 00: UNIQUE WELL ID
STAT.                 Colorado: STATE
~Curve Information Block
DEPT.FT            0 000 00 00: Depth
DCAL.in                       : CDL Caliper
RHOB.g/cc                     : CDL Bulk Density
RHOC.g/cc                     : CDL Density Correction
DPOR.pu                       : CDL Density Porosity
GR.GAPI                       : Gamma Ray
NPOR.pu                       : Neutron Porosity
~Parameter Information Block
~A  Depth       DCAL        RHOB        RHOC        DPOR         GR         NPOR    
# ...
  1026.1000      8.1928      2.5073      0.0800      8.6470    155.3843     31.0395
  1026.2000      8.1928      2.5171      0.0744      8.0569    155.3843     31.1867
  1026.3000      8.1563      2.5262      0.0689      7.5035    152.6393     31.2506
  1026.4000      8.1563      2.5347      0.0638      6.9898    152.6393     31.2334
  1026.5000      8.1368      2.5424      0.0593      6.5198    149.0018     31.1436
  1026.6000      8.1368      2.5494      0.0556      6.0979    149.0018     30.9958
  1026.7000      8.1368      2.5555      0.0528      5.7282    149.0018     30.8088
  1026.8000      8.1323      2.5607      0.0506      5.4140    145.3845     30.6037
  1026.9000      8.1323      2.5649      0.0490      5.1570    145.3845     30.4011
  1027.0000      8.1293      2.5682      0.0478      4.9573    142.6850     30.2187
  1027.1000      8.1293      2.5706      0.0466      4.8125    142.6850     30.0700
  1027.2000      8.1293      2.5722      0.0454      4.7181    142.6850     29.9628
  1027.3000      8.1265      2.5730      0.0441      4.6677    141.4401     29.8993
  1027.4000      8.1265      2.5732      0.0427      4.6523    141.4401     29.8766
  1027.5000      8.1248      2.5731      0.0414      4.6622    141.4855     29.8884
  1027.6000      8.1248      2.5727      0.0403      4.6866    141.4855     29.9261
  1027.7000      8.1248      2.5722      0.0396      4.7148    141.4855     29.9803
  1027.8000      8.1220      2.5718      0.0394      4.7367    141.9477     30.0426
  1027.9000      8.1220      2.5717      0.0397      4.7438    141.9477     30.1061
  1028.0000      8.1174      2.5720      0.0405      4.7301    141.7985     30.1653
  1028.1000      8.1174      2.5726      0.0417      4.6920    141.7985     30.2166
  1028.2000      8.1174      2.5736      0.0431      4.6292    141.7985     30.2571
  1028.3000      8.1150      2.5750      0.0445      4.5442    140.5557     30.2840
  1028.4000      8.1150      2.5767      0.0457      4.4429    140.5557     30.2940
  1028.5000      8.1196      2.5785      0.0467      4.3333    138.5246     30.2829
  1028.6000      8.1196      2.5803      0.0473      4.2254    138.5246     30.2464
  1028.7000      8.1196      2.5818      0.0474      4.1304    138.5246     30.1805
  1028.8000      8.1246      2.5830      0.0471      4.0594    136.5397     30.0827
  1028.9000      8.1246      2.5836      0.0463      4.0229    136.5397     29.9537
  1029.0000      8.1265      2.5835      0.0451      4.0296    135.6207     29.7971
  1029.1000      8.1265      2.5826      0.0437      4.0855    135.6207     29.6206
  1029.2000      8.1265      2.5808      0.0421      4.1940    135.6207     29.4346
  1029.3000      8.1267      2.5781      0.0405      4.3549    136.6339     29.2514
  1029.4000      8.1267      2.5747      0.0392      4.5647    136.6339     29.0834
  1029.5000      8.1258      2.5705      0.0384      4.8170    139.7548     28.9415
  1029.6000      8.1258      2.5658      0.0382      5.1031    139.7548     28.8342
  1029.7000      8.1258      2.5607      0.0388      5.4122    139.7548     28.7664
  1029.8000      8.1251      2.5554      0.0401      5.7331    144.0983     28.7394
  1029.9000      8.1251      2.5501      0.0421      6.0546    144.0983     28.7514
  1030.0000      8.1248      2.5450      0.0448      6.3665    148.1410     28.7979
  1030.1000      8.1248      2.5401      0.0478      6.6603    148.1410     28.8723
  1030.2000      8.1248      2.5357      0.0511      6.9298    148.1410     28.9669
  1030.3000      8.1275      2.5317      0.0544      7.1713    150.6120     29.0729
  1030.4000      8.1275      2.5282      0.0574      7.3836    150.6120     29.1813
  1030.5000      8.1328      2.5251      0.0601      7.5681    151.0967     29.2829
  1030.6000      8.1328      2.5225      0.0622      7.7277    151.0967     29.3692
  1030.7000      8.1328      2.5202      0.0637      7.8669    151.0967     29.4329
  1030.8000      8.1347      2.5182      0.0645      7.9909    150.1319     29.4681
  1030.9000      8.1347      2.5163      0.0647      8.1047    150.1319     29.4715
  1031.0000      8.1338      2.5145      0.0643      8.2130    148.8642     29.4425
  1031.1000      8.1338      2.5127      0.0635      8.3196    148.8642     29.3830
  1031.2000      8.1338      2.5110      0.0625      8.4269    148.8642     29.2971
  1031.3000      8.1364      2.5092      0.0618      8.5359    148.4006     29.1907
  1031.4000      8.1364      2.5073      0.0614      8.6467    148.4006     29.0706
  1031.5000      8.1427      2.5055      0.0617      8.7585    149.2758     28.9436
  1031.6000      8.1427      2.5037      0.0628      8.8697    149.2758     28.8162
  1031.7000      8.1427      2.5019      0.0646      8.9788    149.2758     28.6946
  1031.8000      8.1453      2.5001      0.0671      9.0842    151.3323     28.5838
  1031.9000      8.1453      2.4984      0.0699      9.1852    151.3323     28.4888
  1032.0000      8.1509      2.4969      0.0728      9.2813    153.8400     28.4136
  1032.1000      8.1509      2.4953      0.0753      9.3728    153.8400     28.3620
  1032.2000      8.1509      2.4939      0.0771      9.4607    153.8400     28.3367
  1032.3000      8.1680      2.4925      0.0780      9.5460    155.7737     28.3395
  1032.4000      8.1680      2.4911      0.0779      9.6301    155.7737     28.3709
  1032.5000      8.1821      2.4897      0.0767      9.7138    156.3336     28.4301
  1032.6000      8.1821      2.4883      0.0745      9.7976    156.3336     28.5150
  1032.7000      8.1821      2.4870      0.0716      9.8814    156.3336     28.6219
  1032.8000      8.1869      2.4856      0.0681      9.9642    155.5270     28.7463
  1032.9000      8.1869      2.4843      0.0644     10.0439    155.5270     28.8825
  1033.0000      8.1867      2.4830      0.0607     10.1183    154.2994     29.0245
  1033.1000      8.1867      2.4820      0.0572     10.1842    154.2994     29.1656
  1033.2000      8.1867      2.4811      0.0541     10.2383    154.2994     29.2989
  1033.3000      8.1860      2.4804      0.0516     10.2777    153.7550     29.4180
  1033.4000      8.1860      2.4801      0.0496     10.2990    153.7550     29.5169
  1033.5000      8.1874      2.4800      0.0481     10.3002    154.0171     29.5900
  1033.6000      8.1874      2.4804      0.0470     10.2792    154.0171     29.6335
  1033.7000      8.1874      2.4811      0.0462     10.2351    154.0171     29.6451
  1033.8000      8.1881      2.4822      0.0457     10.1677    154.1281     29.6242
  1033.9000      8.1881      2.4837      0.0452     10.0775    154.1281     29.5728
  1034.0000      8.1870      2.4856      0.0449      9.9663    153.2056     29.4951
  1034.1000      8.1870      2.4877      0.0448      9.8367    153.2056     29.3978
  1034.2000      8.1870      2.4901      0.0449      9.6928    153.2056     29.2897
  1034.3000      8.1867      2.4926      0.0453      9.5404    151.3665     29.1806
  1034.4000      8.1867      2.4951      0.0462      9.3871    151.3665     29.0812
  1034.5000      8.1874      2.4975      0.0475      9.2430    149.4404     29.0013
  1034.6000      8.1874      2.4995      0.0492      9.1211    149.4404     28.9487
  1034.7000      8.1874      2.5009      0.0512      9.0369    149.4404     28.9282
  1034.8000      8.1856      2.5014      0.0532      9.0086    148.1169     28.9410
  1034.9000      8.1856      2.5006      0.0550      9.0567    148.1169     28.9840
  1035.0000      8.1815      2.4982      0.0561      9.2029    147.5249     29.0501
  1035.1000      8.1815      2.4938      0.0562      9.4684    147.5249     29.1283
  1035.2000      8.1815      2.4871      0.0550      9.8732    147.5249     29.2043
  1035.3000      8.1772      2.4779      0.0524     10.4330    147.4395     29.2616
  1035.4000      8.1772      2.4659      0.0484     11.1582    147.4395     29.2818
  1035.5000      8.1748      2.4511      0.0434     12.0517    147.7192     29.2454
  1035.6000      8.1748      2.4337      0.0384     13.1080    147.7192     29.1336
