~Version Information
VERS.                      2.0: CWLS Log ASCII Standard - VERSION 2.0
WRAP.                       NO: One line per depth step
~Well Information Block
STRT.FT               970.5000: 
STOP.FT              2720.0000: 
STEP.FT                 0.1000: 
NULL.                -999.2500: 
COMP.          Petrogulf Corporation: COMPANY
WELL.             Burson 8-31V: WELL
FLD.           Purgatorie River: FIELD
LOC.           1113' FNL & 2152' FEL: LOCATION
CNTY.               Las Animas: COUNTY
SRVC.                         : SERVICE COMPANY
DATE.          Wed Nov 12 14:59:14 2003: LOG DATE
UWI.                          : UNIQUE WELL ID
STAT.                 Colorado: STATE
~Curve Information Block
DEPT.FT            0 000 00 00: Depth
DCAL.in                       : CDL Caliper
DPOR.pu                       : CDL Density Porosity
NEU.NAPI                      : Neutron
NPOR.pu                       : Neutron Porosity
RHOB.g/cc                     : CDL Bulk Density
RHOC.g/cc                     : CDL Density Correction
GR.GAPI                       : Gamma Ray
~Parameter Information Block
~A  Depth       DCAL        DPOR        NEU         NPOR        RHOB        RHOC         GR     
# ...
  1340.1000      7.9177      0.6976   1239.5270     16.4885      2.6385      0.1111     92.0619
  1340.2000      7.9177      0.9798   1246.2406     16.1713      2.6338      0.1071     92.0619
  1340.3000      7.9150      1.5576   1256.9440     15.6702      2.6243      0.1186     93.7662
  1340.4000      7.9150      2.8160   1270.7384     15.0334      2.6035      0.1384     93.7662
  1340.5000      7.9258      4.6758   1279.0372     14.6553      2.5728      0.0163     95.8742
  1340.6000      7.9258      5.8244   1285.8328     14.3485      2.5539      0.0127     95.8742
  1340.7000      7.9258      6.1717   1294.2847     13.9706      2.5482      0.0506     95.8742
  1340.8000      7.9520      6.4874   1303.8777     13.5466      2.5430     -0.0185     86.1079
  1340.9000      7.9520      6.8768   1322.3156     12.7471      2.5365      0.0760     86.1079
  1341.0000      7.9622      7.2954   1344.8313     11.7993      2.5296      0.0876     72.5096
  1341.1000      7.9622      7.0180   1355.1782     11.3745      2.5342      0.0116     72.5096
  1341.2000      7.9622      5.6773   1355.0963     11.3778      2.5563      0.1096     72.5096
  1341.3000      7.9667      4.9783   1353.5110     11.4425      2.5679      0.0699     63.0282
  1341.4000      7.9667      6.0460   1349.3569     11.6127      2.5502      0.0624     63.0282
  1341.5000      7.9783      7.8516   1349.8826     11.5911      2.5204      0.0595     66.9291
  1341.6000      7.9783      9.2546   1366.3972     10.9211      2.4973      0.0792     66.9291
  1341.7000      7.9783      9.8999   1384.1681     10.2178      2.4867      0.0180     66.9291
  1341.8000      8.0178     10.0694   1382.3628     10.2885      2.4839      0.0649     52.6564
  1341.9000      8.0178     10.5871   1369.4487     10.7991      2.4753      0.0274     52.6564
  1342.0000      8.0092     11.2314   1363.9728     11.0185      2.4647     -0.0163     65.1599
  1342.1000      8.0092     11.4606   1367.2216     10.8881      2.4609      0.0629     65.1599
  1342.2000      8.0092     11.9232   1374.3722     10.6033      2.4533      0.0425     65.1599
  1342.3000      8.0367     12.6187   1381.0560     10.3397      2.4418     -0.0098     58.5981
  1342.4000      8.0367     12.7357   1388.8926     10.0338      2.4399      0.0422     58.5981
  1342.5000      8.0686     12.7937   1405.4910      9.3963      2.4389      0.0602     51.5737
  1342.6000      8.0686     13.3449   1422.3033      8.7644      2.4298      0.0108     51.5737
  1342.7000      8.0686     13.2758   1424.7776      8.6725      2.4309      0.0295     51.5737
  1342.8000      8.0798     11.7370   1419.2502      8.8782      2.4563      0.0354     47.6104
  1342.9000      8.0798      9.4477   1416.0072      8.9995      2.4941      0.0654     47.6104
  1343.0000      8.0669      7.5060   1419.4254      8.8716      2.5262      0.0692     48.5247
  1343.1000      8.0669      6.8377   1428.5261      8.5338      2.5372      0.1085     48.5247
  1343.2000      8.0669      7.9305   1430.5229      8.4602      2.5191      0.1258     48.5247
  1343.3000      8.0632      9.6489   1422.5867      8.7539      2.4908      0.0395     45.1846
  1343.4000      8.0632     10.7428   1403.0259      9.4901      2.4727      0.0919     45.1846
  1343.5000      8.0533     11.4859   1363.9113     11.0209      2.4605      0.0591     50.3809
  1343.6000      8.0533     12.1400   1313.9911     13.1055      2.4497      0.0652     50.3809
  1343.7000      8.0533     12.9972   1264.5171     15.3194      2.4355      0.0979     50.3809
  1343.8000      8.0300     14.6755   1214.3087     17.7002      2.4079      0.0148     46.4840
  1343.9000      8.0300     17.3134   1161.2102     20.3458      2.3643      0.0893     46.4840
  1344.0000      8.0325     20.4417   1113.4753     22.8196      2.3127      0.0250     50.3445
  1344.1000      8.0325     22.9383   1082.3625     24.4732      2.2715      0.0568     50.3445
  1344.2000      8.0325     24.2049   1066.9622     25.3021      2.2506      0.0510     50.3445
  1344.3000      8.0203     24.3654   1058.0654     25.7839      2.2480      0.0332     74.6833
  1344.4000      8.0203     23.5537   1048.2300     26.3189      2.2614      0.0416     74.6833
  1344.5000      8.0239     22.1373   1033.7113     27.1127      2.2847      0.0812     91.1327
  1344.6000      8.0239     20.7017   1020.4823     27.8401      2.3084      0.1066     91.1327
  1344.7000      8.0239     18.8534   1020.7303     27.8264      2.3389      0.0937     91.1327
  1344.8000      8.0186     15.6114   1031.8351     27.2156      2.3924      0.1468     99.7104
  1344.9000      8.0186     11.2870   1042.9231     26.6085      2.4638      0.2399     99.7104
  1345.0000      8.0315      7.3522   1048.3578     26.3119      2.5287      0.2277    113.2949
  1345.1000      8.0315      5.1940   1039.7216     26.7835      2.5643      0.1660    113.2949
  1345.2000      8.0315      4.8604   1020.3511     27.8473      2.5698      0.0951    113.2949
  1345.3000      8.0615      4.8566   1012.1118     28.3021      2.5699      0.0444    124.1699
  1345.4000      8.0615      4.3439   1021.6859     27.7737      2.5783      0.0809    124.1699
  1345.5000      8.0292      3.9001   1026.5713     27.5048      2.5856      0.1196    144.5034
  1345.6000      8.0292      3.4624   1009.7457     28.4330      2.5929      0.0787    144.5034
  1345.7000      8.0292      2.6420    984.5421     29.8329      2.6064      0.1320    144.5034
  1345.8000      8.0207      2.5973    974.8373     30.3746      2.6071      0.1613    151.1619
  1345.9000      8.0207      4.2731    979.2974     30.1255      2.5795      0.1485    151.1619
  1346.0000      8.0179      6.5718    978.7657     30.1551      2.5416      0.0501    140.5980
  1346.1000      8.0179      7.7831    973.8303     30.4309      2.5216      0.0153    140.5980
  1346.2000      8.0179      7.3913    976.8500     30.2621      2.5280      0.0234    140.5980
  1346.3000      8.0479      6.3784    989.2176     29.5724      2.5448      0.0692    129.2247
  1346.4000      8.0479      6.0040   1005.5310     28.6663      2.5509      0.0816    129.2247
  1346.5000      8.1082      6.5996   1021.7264     27.7715      2.5411      0.0574    128.9206
  1346.6000      8.1082      7.8662   1039.8140     26.7785      2.5202      0.0587    128.9206
  1346.7000      8.1082      8.7908   1065.8069     25.3646      2.5050     -0.0108    128.9206
  1346.8000      8.1388      8.5272   1096.6604     23.7096      2.5093      0.0086    138.3489
  1346.9000      8.1388      7.6501   1113.1663     22.8358      2.5238      0.0660    138.3489
  1347.0000      8.1589      7.3891   1109.1108     23.0497      2.5281     -0.0075    124.0446
  1347.1000      8.1589      8.9379   1101.8142     23.4358      2.5025      0.0126    124.0446
  1347.2000      8.1589     12.9026   1095.9468     23.7475      2.4371      0.0537    124.0446
  1347.3000      8.1518     18.3904   1081.5151     24.5186      2.3466     -0.0221    114.7651
  1347.4000      8.1518     23.7579   1058.4651     25.7623      2.2580      0.0082    114.7651
  1347.5000      8.2001     28.8775   1038.7859     26.8347      2.1735      0.0377    135.8001
  1347.6000      8.2001     35.2997   1031.2720     27.2466      2.0676      0.0407    135.8001
  1347.7000      8.2001     42.3033   1031.3663     27.2414      1.9520     -0.0898    135.8001
  1347.8000      8.1395     45.2781   1028.2700     27.4114      1.9029     -0.1134    133.2986
  1347.9000      8.1395     41.7489   1014.6001     28.1646      1.9611      0.0178    133.2986
  1348.0000      8.1239     34.5650    992.8297     29.3714      2.0797      0.2319    130.5171
  1348.1000      8.1239     26.9895    970.9391     30.5926      2.2047      0.2572    130.5171
  1348.2000      8.1239     19.7894    954.6241     31.5069      2.3235      0.2625    130.5171
  1348.3000      8.1009     13.0629    946.9740     31.9367      2.4345      0.3135    135.7906
  1348.4000      8.1009      6.4422    950.9502     31.7132      2.5437      0.3615    135.7906
