~Version Information
VERS.                      2.0: CWLS Log ASCII Standard - VERSION 2.0
WRAP.                       NO: One line per depth step
~Well Information Block
STRT.FT               483.0000: 
STOP.FT              1701.5000: 
STEP.FT                 0.1000: 
NULL.                -999.2500: 
COMP.          Pioneer Natural Resources: COMPANY
WELL.            Mad Dog 42-31: WELL
FLD.           Purgatorie River: FIELD
LOC.           2064' FNL & 479' FEL: LOCATION
PROV.                 Colorado: PROVINCE
CNTY.               Las Animas: COUNTRY
SRVC.                         : SERVICE COMPANY
DATE.          Sun Oct 10 04:38:02 2004: LOG DATE
UWI.           05 071 08195 00: UNIQUE WELL ID
~Curve Information Block
DEPT.FT            0 000 00 00: Depth
LTEN.lb                       : Surface Line Tension
DCAL.in                       : CDL Caliper
RHOB.g/cc                     : CDL Bulk Density
RHOC.g/cc                     : CDL Density Correction
DPOR.pu                       : CDL Density Porosity
GR.GAPI                       : Gamma Ray
NPOR.pu                       : Neutron Porosity
~Parameter Information Block
~A  Depth       LTEN        DCAL        RHOB        RHOC        DPOR         GR         NPOR    
# ...
   567.0000    917.1880      7.9424      2.6397      0.0620      0.6261     48.6399     18.5520
   567.1000    917.1880      7.9424      2.6365      0.1117      0.8157     49.4801     18.3132
   567.2000    917.1880      7.9424      2.6038      0.0823      2.7978     47.7485     18.1616
   567.3000    904.8205      7.9382      2.5602      0.0211      5.4417     44.5696     18.1817
   567.4000    904.8205      7.9382      2.5368      0.0210      6.8622     43.0722     18.4381
   567.5000    897.3743      7.9453      2.5420      0.0283      6.5438     44.5079     18.9566
   567.6000    897.3743      7.9453      2.5570      0.0516      5.6357     48.8433     19.2115
   567.7000    897.3743      7.9453      2.5584      0.0417      5.5514     56.4699     18.8836
   567.8000    849.6911      7.9453      2.5421      0.0573      6.5393     63.4489     18.4914
   567.9000    849.6911      7.9453      2.5194      0.0425      7.9176     65.5091     18.3823
   568.0000    851.8001      7.9421      2.4970      0.0609      9.2754     66.2827     18.2605
   568.1000    851.8001      7.9421      2.4751      0.0128     10.6008     67.2705     18.0297
   568.2000    851.8001      7.9421      2.4594      0.0420     11.5543     64.2311     17.8902
   568.3000    904.5771      7.9508      2.4515      0.0139     12.0333     56.9982     17.7377
   568.4000    904.5771      7.9508      2.4426      0.0392     12.5723     51.6064     17.5111
   568.5000    919.2316      7.9902      2.4341     -0.0166     13.0848     53.2816     17.4615
   568.6000    919.2316      7.9902      2.4403      0.0134     12.7089     59.6350     17.6203
   568.7000    919.2316      7.9902      2.4559      0.0571     11.7657     64.8855     17.7306
   568.8000    889.1617      8.0392      2.4622      0.0754     11.3826     64.5893     17.8279
   568.9000    889.1617      8.0392      2.4606      0.0034     11.4805     59.1996     18.0953
   569.0000    883.6555      8.0376      2.4618      0.0205     11.4049     54.6409     18.5188
   569.1000    883.6555      8.0376      2.4605      0.0376     11.4859     52.6492     19.0711
   569.2000    883.6555      8.0376      2.4532      0.0163     11.9294     51.0034     19.5566
   569.3000    888.0167      8.0345      2.4548      0.0253     11.8330     50.4565     19.5475
   569.4000    888.0167      8.0345      2.4685      0.0886     11.0023     52.1484     19.2188
   569.5000    900.1623      8.0175      2.4810      0.0165     10.2422     53.1443     19.2140
   569.6000    900.1623      8.0175      2.4953      0.0180      9.3765     49.8953     19.4701
   569.7000    900.1623      8.0175      2.5218      0.0161      7.7686     44.4526     19.5216
   569.8000    922.8196      7.9819      2.5481      0.0778      6.1762     40.6687     19.3513
   569.9000    922.8196      7.9819      2.5497      0.1013      6.0798     41.0301     19.2827
   570.0000    912.4376      7.9895      2.5310      0.0350      7.2133     46.0169     19.5159
   570.1000    912.4376      7.9895      2.5197      0.0199      7.8952     50.0147     19.8642
   570.2000    912.4376      7.9895      2.5227      0.0372      7.7125     50.4005     19.9926
   570.3000    885.9604      7.9715      2.5271      0.0642      7.4479     51.1661     19.8518
   570.4000    885.9604      7.9715      2.5212      0.0666      7.8039     53.2925     19.7785
   570.5000    872.8486      7.9517      2.5109      0.0229      8.4274     54.4791     20.0019
   570.6000    872.8486      7.9517      2.5176      0.0163      8.0268     54.7499     20.4965
   570.7000    872.8486      7.9517      2.5376      0.0306      6.8108     54.4481     21.1318
   570.8000    885.3506      7.9434      2.5409      0.0593      6.6126     52.0892     21.6810
   570.9000    885.3506      7.9434      2.5239      0.0120      7.6429     49.0196     21.9114
   571.0000    877.1692      7.9297      2.5198     -0.0092      7.8920     49.2035     21.7961
   571.1000    877.1692      7.9297      2.5418      0.1032      6.5582     53.2367     21.7677
   571.2000    877.1692      7.9297      2.5720      0.0498      4.7270     58.8462     22.2509
   571.3000    873.5577      7.9220      2.6028      0.0986      2.8633     63.9283     22.9118
   571.4000    873.5577      7.9220      2.6343      0.0683      0.9513     65.6682     23.2671
   571.5000    886.7588      7.9170      2.6538      0.1238     -0.2330     63.6987     23.4086
   571.6000    886.7588      7.9170      2.6520      0.0232     -0.1208     62.9301     23.5651
   571.7000    886.7588      7.9170      2.6396      0.0961      0.6309     67.5275     23.7623
   571.8000    893.6422      7.9198      2.6272      0.0949      1.3810     77.6587     23.9922
   571.9000    893.6422      7.9198      2.6252      0.0520      1.5043     91.8491     24.1719
   572.0000    870.7919      7.9217      2.6372      0.0950      0.7783    107.4051     24.1639
   572.1000    870.7919      7.9217      2.6391      0.1211      0.6636    118.6828     24.2524
   572.2000    870.7919      7.9217      2.6040      0.0715      2.7884    120.3923     24.9878
   572.3000    878.9896      7.9266      2.5477     -0.0261      6.1985    119.5097     25.9550
   572.4000    878.9896      7.9266      2.5082      0.0558      8.5917    126.3882     26.2809
   572.5000    900.8370      7.9383      2.4915      0.0896      9.6089    134.2297     26.2260
   572.6000    900.8370      7.9383      2.4915      0.0405      9.6057    133.3398     26.5445
   572.7000    900.8370      7.9383      2.5127      0.0414      8.3199    130.6109     26.9447
   572.8000    890.5212      7.9437      2.5349      0.0694      6.9767    133.9808     26.9318
   572.9000    890.5212      7.9437      2.5165      0.1364      8.0890    138.7173     26.8132
   573.0000    878.2443      7.9326      2.4553      0.0235     11.8018    138.4112     26.8760
   573.1000    878.2443      7.9326      2.4045     -0.0289     14.8790    134.0520     27.1730
   573.2000    878.2443      7.9326      2.3995      0.0346     15.1794    128.5350     27.4919
   573.3000    871.2177      7.9195      2.4149      0.0806     14.2515    125.8092     27.5899
   573.4000    871.2177      7.9195      2.4199      0.0591     13.9446    130.0722     27.5013
   573.5000    879.4194      7.9256      2.4202      0.0685     13.9250    139.9641     27.1857
   573.6000    879.4194      7.9256      2.4331      0.0510     13.1483    147.2255     26.9076
   573.7000    879.4194      7.9256      2.4602      0.1143     11.5041    146.3876     27.0558
   573.8000    887.0616      7.9463      2.4953      0.1475      9.3759    143.2198     27.3799
   573.9000    887.0616      7.9463      2.5356      0.2268      6.9323    139.4142     27.5502
   574.0000    904.6112      7.9633      2.5686      0.2863      4.9357    131.6428     27.6151
   574.1000    904.6112      7.9633      2.5718      0.2702      4.7413    125.1028     27.5549
   574.2000    904.6112      7.9633      2.5454      0.1616      6.3423    125.8229     27.3827
   574.3000    899.0623      7.9802      2.5168      0.1217      8.0754    130.6857     27.2634
   574.4000    899.0623      7.9802      2.4985      0.1703      9.1846    135.1681     27.5429
   574.5000    909.3356      7.9973      2.4801      0.1210     10.2987    138.5094     28.3390
   574.6000    909.3356      7.9973      2.4587      0.1057     11.5920    140.5663     29.2841
   574.7000    909.3356      7.9973      2.4418      0.1166     12.6178    138.7688     29.8412
   574.8000    902.8175      7.9405      2.4380      0.1037     12.8485    133.2354     29.7854
   574.9000    902.8175      7.9405      2.4494      0.0827     12.1605    129.6230     29.4315
   575.0000    894.8347      7.9332      2.4675      0.0741     11.0609    126.2471     29.0157
   575.1000    894.8347      7.9332      2.4851      0.0778      9.9931    116.6361     28.6401
   575.2000    894.8347      7.9332      2.5065      0.0714      8.6960    102.4439     28.2424
   575.3000    878.3168      7.9349      2.5423      0.0943      6.5248     89.1531     27.4390
