~Version Information
 VERS.                                  2.0 : CWLS LAS VERSION
 WRAP.                                   NO : WRAPING MODE
 SWARE .                 MController 2.5.0J : SOFTWARE VERSION
~Well Information
 WELL.                         Sebring42-29 : WELL
 COMP.    Pioneer Natural Resources USA Inc : COMPANY
 FLD.                      Purgatoire River : FIELD
 LOC.                SE/NE Sec 29 T32S R67W : LOCATION
 DATE.                             08/12/05 : DATE(S) LOGGED
 SRVC.       BLANCO Geological Services LLC : SERVICE COMPANY
 STAT.                                   CO : STATE
 CNTY.                           Las Animas : COUNTY
 CTRY.                                  USA : COUNTRY
 API.                       05-071-08293-00 : API NUMBER
 STRT.FT                             750.00 : START DEPTH
 STOP.FT                            2880.00 : STOP DEPTH
 STEP.FT                               1.00 : DEPTH INCREMENT
 NULL.                                -9999 : NULL VALUE
~Curve information
 DEPTH.FT                                   :
 ROP.MIN/FT                                 :
 GAS.UNITS                                  :
~ASCII Log data
       750.0     -9999.00          3.0 
       751.0         6.05          4.2 
       752.0         0.13          4.1 
       753.0         0.07          3.9 
       754.0         0.07          3.4 
       755.0         0.58          3.8 
       756.0         0.07          3.8 
       757.0         0.07          3.7 
       758.0         0.07          4.2 
       759.0         0.07          4.0 
       760.0         0.07          4.0 
       761.0         0.07          3.8 
       762.0         0.07          3.9 
       763.0         0.07          4.4 
       764.0         0.07          4.0 
       765.0         0.10          4.2 
       766.0         0.07          4.1 
       767.0         0.07          4.0 
       768.0         0.07          4.1 
       769.0         0.07          4.0 
       770.0         0.07          4.2 
       771.0         0.07          4.0 
       772.0         4.73          6.6 
       773.0         0.07          4.4 
       774.0         0.03          4.3 
       775.0         0.07          4.3 
       776.0         0.07          4.2 
       777.0         0.10          4.3 
       778.0         0.10          4.2 
       779.0         0.07          4.2 
       780.0         0.07          4.6 
       781.0         0.07          4.3 
       782.0         1.85          4.8 
       783.0         0.17          4.7 
       784.0         0.10          4.2 
       785.0         0.20          4.8 
       786.0         0.25          5.1 
       787.0         0.13          4.8 
       788.0         0.10          5.0 
       789.0         0.13          4.5 
       790.0         0.13          2.7 
       791.0         0.13          0.9 
       792.0         0.07          0.4 
       793.0         0.07          0.7 
       794.0         0.03          0.5 
       795.0         0.07          0.6 
       796.0         0.07          1.1 
       797.0         0.17          1.0 
       798.0         0.23          0.8 
       799.0         0.23          0.9 
       800.0         0.23          0.9 
       801.0         0.20          0.9 
       802.0         0.25          1.0 
       803.0         0.23          1.2 
       804.0         0.23          1.4 
       805.0         0.27          1.1 
       806.0         0.27          1.2 
       807.0         0.23          1.1 
       808.0         0.20          1.3 
       809.0         0.30          1.3 
       810.0         0.30          1.2 
       811.0         4.90          3.3 
       812.0         0.40          2.0 
       813.0         0.38          2.4 
       814.0         0.20          1.7 
       815.0         0.23          1.7 
       816.0         0.30          1.6 
       817.0         0.23          1.7 
       818.0         0.23          2.0 
       819.0         0.20          2.4 
       820.0         0.17          2.2 
       821.0         0.20          2.1 
       822.0         0.20          1.7 
       823.0         0.17          2.2 
       824.0         0.23          2.3 
       825.0         0.27          2.3 
       826.0         0.28          2.2 
       827.0         0.20          2.0 
       828.0         0.17          2.0 
       829.0         0.20          2.0 
       830.0         0.17          1.7 
       831.0         0.17          1.6 
       832.0         0.13          1.9 
       833.0         0.17          1.7 
       834.0         0.13          1.8 
       835.0         0.20          1.8 
       836.0         0.20          1.9 
       837.0         0.20          1.6 
       838.0         0.18          1.9 
       839.0         0.20          1.6 
       840.0         0.23          1.5 
       841.0         5.18          2.9 
       842.0         0.17          2.6 
       843.0         0.17          2.7 
       844.0         0.20          3.0 
       845.0         0.20          3.1 
       846.0         0.07          2.4 
       847.0         0.10          2.9 
       848.0         0.25          2.8 
       849.0         0.23          2.5 
       850.0         0.20          2.2 
       851.0         0.23          2.1 
       852.0         0.13          1.8 
       853.0         0.13          2.0 
       854.0         0.10          1.9 
       855.0         0.17          2.2 
       856.0         0.23          2.0 
       857.0         0.20          2.0 
       858.0         0.23          2.5 
       859.0         0.20          2.1 
       860.0         0.20          2.0 
       861.0         0.27          2.0 
       862.0         0.33          1.9 
       863.0         0.20          1.9 
       864.0         0.25          2.0 
       865.0         0.27          2.0 
       866.0         0.20          2.0 
       867.0         0.23          2.0 
       868.0         0.23          2.0 
       869.0         0.20          1.9 
       870.0         0.27          2.1 
       871.0         5.57          3.2 
       872.0         0.23          3.1 
       873.0         0.23          3.3 
       874.0         0.27          3.9 
       875.0         0.27          4.5 
       876.0         0.30          4.8 
       877.0         0.27          4.8 
       878.0         0.23          4.6 
       879.0         0.23          4.4 
       880.0         0.20          4.9 
       881.0         0.20          5.7 
       882.0         0.13          5.8 
       883.0         0.20          6.1 
       884.0         0.17          5.8 
       885.0         0.45          5.2 
       886.0         0.37          3.7 
       887.0         0.13          2.9 
       888.0         0.13          2.7 
       889.0         0.20          2.8 
       890.0         0.20          3.1 
       891.0         0.20          3.3 
       892.0         0.17          3.8 
       893.0         0.10          3.9 
       894.0         0.17          4.0 
       895.0         0.13          4.2 
       896.0         0.10          4.1 
       897.0         0.17          4.5 
       898.0         0.23          4.8 
       899.0         0.27          4.9 
       900.0         0.27          4.9 
       901.0         5.90         18.4 
       902.0         0.10         16.3 
       903.0         0.10         16.5 
       904.0         0.27         16.9 
       905.0         0.23         16.1 
       906.0         0.10         15.5 
       907.0         0.18         15.7 
       908.0         0.27         17.3 
       909.0         0.23         20.2 
       910.0         0.17         22.8 
       911.0         3.62         25.6 
       912.0         8.33        105.1 
       913.0         0.43          3.1 
       914.0         0.35          3.3 
       915.0         0.43          3.2 
       916.0         0.30          3.2 
       917.0         0.40          3.0 
       918.0         0.33          3.1 
       919.0         0.33          3.3 
       920.0         0.43          3.2 
       921.0         0.30          3.3 
       922.0         0.27          3.2 
       923.0         0.42          3.2 
       924.0         0.33          3.2 
       925.0         0.33          3.3 
       926.0         0.33          3.4 
       927.0         0.27          3.6 
       928.0         0.37          3.5 
       929.0         0.30          3.3 
       930.0         0.33          3.3 
       931.0         0.37          3.6 
       932.0         0.20          3.3 
       933.0         0.30          3.5 
       934.0         0.32          3.4 
       935.0         0.40          3.6 
       936.0         0.40          3.6 
       937.0         0.33          3.3 
       938.0         0.33          3.3 
       939.0         0.30          3.6 
       940.0         0.17          3.3 
       941.0         0.23          3.5 
       942.0         0.33          3.4 
       943.0         0.30          3.2 
       944.0         0.30          3.4 
       945.0         0.35          3.5 
       946.0         0.33          3.5 
       947.0         0.23          3.5 
       948.0         0.30          3.5 
       949.0         0.40          3.4 
