~Version Information
 VERS.                                  2.0 : CWLS LAS VERSION
 WRAP.                                   NO : WRAPING MODE
 SWARE .                 MController 2.5.0E : SOFTWARE VERSION
~Well Information
 WELL.                         STATE 16-24V : WELL
 COMP.                      Petrogulf Corp. : COMPANY
 FLD.                      Purgatorie River : FIELD
 LOC.                NW/SE Sec 16 T33S R67W : LOCATION
 DATE.                      5/02/04-5/03/04 : DATE(S) LOGGED
 SRVC.       Blanco Geological Services LLC : SERVICE COMPANY
 STAT.                                   CO : STATE
 CNTY.                           Las Animas : COUNTY
 CTRY.                                  USA : COUNTRY
 API.                       05-071-08014-00 : API NUMBER
 STRT.FT                              40.00 : START DEPTH
 STOP.FT                            2380.00 : STOP DEPTH
 STEP.FT                               1.00 : DEPTH INCREMENT
 NULL.                                -9999 : NULL VALUE
~Curve information
 DEPTH.FT                                   :
 ROP.MIN/FT                                 :
 GAS.UNITS                                  :
~ASCII Log data
# ...
      440.00        0.217          8.3 
      441.00        0.267          8.4 
      442.00        0.233          8.2 
      443.00        0.200          8.3 
      444.00        0.200          8.3 
      445.00        0.233          8.4 
      446.00        0.200          8.8 
      447.00        0.200          9.0 
      448.00        0.267          8.8 
      449.00        0.233          8.7 
      450.00        0.233          9.3 
      451.00        0.233          9.3 
      452.00        0.200          9.6 
      453.00        0.167          9.0 
      454.00        0.100          9.6 
      455.00        0.100          9.6 
      456.00        0.317         10.0 
      457.00        0.167          9.5 
      458.00        0.167          9.5 
      459.00        0.167         10.5 
      460.00        0.300         10.4 
      461.00        0.400         10.3 
      462.00        2.000         13.5 
      463.00        0.183         13.7 
      464.00        0.300         13.2 
      465.00        0.333         13.4 
      466.00        0.333         13.2 
      467.00        0.333         13.6 
      468.00        0.433         12.8 
      469.00        0.367         15.8 
      470.00        0.400         15.2 
      471.00        0.400         16.6 
      472.00        0.350         17.1 
      473.00        0.333         17.9 
      474.00        0.200         17.3 
      475.00        0.200         17.3 
      476.00        0.200         18.0 
      477.00        0.133         18.0 
      478.00        0.100         17.8 
      479.00        0.233         17.7 
      480.00        0.167         18.6 
      481.00        0.200         18.6 
      482.00        0.167         17.6 
      483.00        0.267         17.0 
      484.00        0.267         17.2 
      485.00        0.233         16.7 
      486.00        0.300         16.3 
      487.00        0.350         16.0 
      488.00        0.300         15.1 
      489.00        0.333         15.3 
      490.00        0.267         14.9 
      491.00        0.333         14.1 
      492.00        2.117         14.2 
      493.00        0.300         12.2 
      494.00        0.267         11.6 
      495.00        0.333         11.9 
      496.00        0.333         11.3 
      497.00        0.267         11.8 
      498.00        0.233         11.7 
      499.00        0.233         11.5 
      500.00        0.200         11.4 
      501.00        0.200         11.3 
      502.00        0.200         11.6 
      503.00        0.167         10.7 
      504.00        0.133         10.9 
      505.00        0.133         10.9 
      506.00        0.133         11.3 
      507.00        0.133         11.3 
      508.00        0.150         11.3 
      509.00        0.133         11.5 
      510.00        0.167         12.4 
      511.00        0.167         12.4 
      512.00        0.233         11.9 
      513.00        0.233         12.7 
      514.00        0.267         13.1 
      515.00        0.233         12.9 
      516.00        0.233         12.4 
      517.00        0.400         13.3 
      518.00        0.233         13.1 
      519.00        0.233         13.1 
      520.00        0.200         12.6 
      521.00        2.183         12.4 
      522.00        0.233         11.9 
      523.00        0.267         11.9 
      524.00        0.267         12.3 
      525.00        0.233         12.4 
      526.00        0.233         12.3 
      527.00        0.200         12.0 
      528.00        0.217         12.4 
      529.00        0.200         11.3 
      530.00        0.167         11.1 
      531.00        0.167         11.2 
      532.00        0.133         11.0 
      533.00        0.133         11.0 
      534.00        0.333         11.4 
      535.00        0.233         11.4 
      536.00        0.300         10.8 
      537.00        0.267         10.6 
      538.00        0.267         10.8 
      539.00        0.267         10.7 
      540.00        0.300         10.8 
      541.00        0.233         10.9 
      542.00        0.200         11.2 
      543.00        0.183         11.2 
      544.00        0.233         11.3 
      545.00        0.133         11.9 
      546.00        0.167         11.4 
      547.00        0.200         12.1 
      548.00        0.167         12.1 
      549.00        0.167         11.7 
      550.00        0.100         11.7 
      551.00        0.267         12.5 
      552.00        2.017         71.1 
      553.00        0.367        156.7 
      554.00        0.300        204.2 
      555.00        0.333        221.0 
      556.00        0.300        218.7 
      557.00        0.267        187.4 
      558.00        0.233        171.8 
      559.00        0.233        153.3 
      560.00        0.233        129.3 
      561.00        0.233        105.7 
      562.00        0.167         86.2 
      563.00        0.200         82.0 
      564.00        0.200         64.2 
      565.00        0.283         57.7 
      566.00        0.167         40.2 
      567.00        0.200         40.2 
      568.00        0.133         39.2 
      569.00        0.200         29.8 
      570.00        0.433         27.0 
      571.00        0.300         26.4 
      572.00        0.267         22.4 
      573.00        0.200         20.2 
      574.00        0.200         19.5 
      575.00        0.167         16.8 
      576.00        0.233         16.0 
      577.00        0.200         14.7 
      578.00        0.133         15.1 
      579.00        0.133         15.1 
      580.00        0.217         16.6 
      581.00        0.200         17.4 
      582.00        1.967         18.7 
      583.00        0.133         14.3 
      584.00        0.267         14.7 
      585.00        0.167         17.7 
      586.00        0.167         28.8 
      587.00        0.133         28.8 
      588.00        0.183         41.6 
      589.00        0.233         58.6 
      590.00        0.200         66.3 
      591.00        0.233         82.2 
      592.00        0.233         92.2 
      593.00        0.233         94.5 
      594.00        0.233         93.7 
      595.00        0.233         82.9 
      596.00        0.200         81.6 
      597.00        0.167         67.7 
      598.00        0.133         56.0 
      599.00        0.200         51.5 
      600.00        0.200         45.3 
      601.00        0.267         35.9 
      602.00        0.333         29.8 
      603.00        0.250         22.4 
      604.00        0.300         20.0 
      605.00        0.233         16.3 
      606.00        0.200         14.7 
      607.00        0.167         14.7 
      608.00        0.133         12.4 
      609.00        0.167         12.4 
      610.00        0.167         11.4 
      611.00        0.200         11.8 
      612.00        2.483         13.4 
      613.00        0.300         12.4 
      614.00        0.267         22.8 
      615.00        0.300         40.1 
      616.00        0.333         53.2 
      617.00        0.233         63.7 
      618.00        0.200         69.1 
      619.00        0.233         69.1 
      620.00        0.267         67.6 
      621.00        0.300         59.1 
      622.00        0.483         57.1 
      623.00        0.367         37.2 
      624.00        0.300         30.3 
      625.00        0.300         26.0 
      626.00        0.267         21.5 
      627.00        0.267         18.7 
      628.00        0.267         16.4 
      629.00        0.233         16.1 
      630.00        0.367         17.3 
      631.00        0.367         17.0 
      632.00        0.350         16.7 
      633.00        0.233         16.7 
      634.00        0.233         16.5 
      635.00        0.333         16.4 
      636.00        0.400         15.8 
      637.00        0.167         15.7 
      638.00        0.133         15.8 
      639.00        0.133         15.8 
