~Version Information
VERS.                      2.0: CWLS Log ASCII Standard - VERSION 2.0
WRAP.                       NO: One line per depth step
~Well Information Block
STRT.FT               698.9000: 
STOP.FT              2459.5000: 
STEP.FT                 0.1000: 
NULL.                -999.2500: 
COMP.          Petrogulf Corporation: COMPANY
WELL.             State 16-23V: WELL
FLD.           Purgatorie River: FIELD
LOC.           2414' FSL & 2215' FWL: LOCATION
PROV.                 Colorado: PROVINCE
CNTY.               Las Animas: COUNTRY
SRVC.                         : SERVICE COMPANY
DATE.          Mon Jun 09 12:47:39 2003: LOG DATE
UWI.           05 071 07865 00: UNIQUE WELL ID
~Curve Information Block
DEPT.FT            0 000 00 00: Depth
SP.mV                         : DIL Spontaneous Potential
RILD.Ohm-m                    : DIL Deep Resistivity
RILM.Ohm-m                    : DIL Medium Resistivity
RLL3.Ohm-m                    : DIL Shallow Resistivity
GR.GAPI                       : Gamma Ray
~Parameter Information Block
~A  Depth        SP         RILD        RILM        RLL3         GR     
# ...
  1516.5000      8.5865     28.7530     42.2522     52.7799     82.9813
  1516.6000      8.5865     28.7530     42.2522     52.7799     83.2766
  1516.7000      8.5865     28.7530     42.2522     52.7799     83.3061
  1516.8000      8.4404     29.0922     44.6269     57.8713     83.0686
  1516.9000      8.4404     29.0922     44.6269     57.8713     82.5799
  1517.0000      8.3258     29.4229     46.4232     61.7047     81.8755
  1517.1000      8.3258     29.4229     46.4232     61.7047     81.0074
  1517.2000      8.3258     29.4229     46.4232     61.7047     80.0405
  1517.3000      8.2226     29.7340     47.5628     63.7617     79.0452
  1517.4000      8.2226     29.7340     47.5628     63.7617     78.0903
  1517.5000      8.1201     30.0205     48.2192     64.3377     77.2368
  1517.6000      8.1201     30.0205     48.2192     64.3377     76.5284
  1517.7000      8.1201     30.0205     48.2192     64.3377     75.9885
  1517.8000      8.0259     30.2978     48.6414     64.0369     75.6195
  1517.9000      8.0259     30.2978     48.6414     64.0369     75.4026
  1518.0000      7.9518     30.5617     48.9112     63.4755     75.3012
  1518.1000      7.9518     30.5617     48.9112     63.4755     75.2677
  1518.2000      7.9518     30.5617     48.9112     63.4755     75.2474
  1518.3000      7.8970     30.7867     48.9165     63.2045     75.1876
  1518.4000      7.8970     30.7867     48.9165     63.2045     75.0395
  1518.5000      7.8500     30.9572     48.5469     63.6763     74.7641
  1518.6000      7.8500     30.9572     48.5469     63.6763     74.3366
  1518.7000      7.8500     30.9572     48.5469     63.6763     73.7434
  1518.8000      7.8029     31.0830     47.8610     65.1322     72.9886
  1518.9000      7.8029     31.0830     47.8610     65.1322     72.0884
  1519.0000      7.7531     31.1962     47.0409     67.4790     71.0719
  1519.1000      7.7531     31.1962     47.0409     67.4790     69.9780
  1519.2000      7.7531     31.1962     47.0409     67.4790     68.8484
  1519.3000      7.6997     31.3171     46.2363     70.2568     67.7269
  1519.4000      7.6997     31.3171     46.2363     70.2568     66.6524
  1519.5000      7.6379     31.4053     45.4989     72.6292     65.6546
  1519.6000      7.6379     31.4053     45.4989     72.6292     64.7482
  1519.7000      7.6379     31.4053     45.4989     72.6292     63.9327
  1519.8000      7.5547     31.3870     44.8301     73.5274     63.1910
  1519.9000      7.5547     31.3870     44.8301     73.5274     62.4913
  1520.0000      7.4406     31.2498     44.2459     72.0934     61.7939
  1520.1000      7.4406     31.2498     44.2459     72.0934     61.0588
  1520.2000      7.4406     31.2498     44.2459     72.0934     60.2587
  1520.3000      7.3032     31.0760     43.8298     68.1816     59.3833
  1520.4000      7.3032     31.0760     43.8298     68.1816     58.4491
  1520.5000      7.1645     31.0063     43.7591     62.6911     57.4955
  1520.6000      7.1645     31.0063     43.7591     62.6911     56.5816
  1520.7000      7.1645     31.0063     43.7591     62.6911     55.7723
  1520.8000      7.0483     31.2179     44.2394     57.4936     55.1256
  1520.9000      7.0483     31.2179     44.2394     57.4936     54.6797
  1521.0000      6.9753     31.8618     45.3699     54.7048     54.4426
  1521.1000      6.9753     31.8618     45.3699     54.7048     54.3937
  1521.2000      6.9753     31.8618     45.3699     54.7048     54.4842
  1521.3000      6.9614     32.8915     47.0777     55.6740     54.6500
  1521.4000      6.9614     32.8915     47.0777     55.6740     54.8248
  1521.5000      7.0147     33.9366     49.1958     60.5305     54.9501
  1521.6000      7.0147     33.9366     49.1958     60.5305     54.9835
  1521.7000      7.0147     33.9366     49.1958     60.5305     54.9068
  1521.8000      7.1335     34.4768     51.5835     68.5612     54.7234
  1521.9000      7.1335     34.4768     51.5835     68.5612     54.4546
  1522.0000      7.3051     34.2862     54.1380     78.8129     54.1346
  1522.1000      7.3051     34.2862     54.1380     78.8129     53.8040
  1522.2000      7.3051     34.2862     54.1380     78.8129     53.5043
  1522.3000      7.5054     33.6443     56.7135     90.1541     53.2737
  1522.4000      7.5054     33.6443     56.7135     90.1541     53.1415
  1522.5000      7.7000     33.0702     59.1186    100.8029     53.1301
  1522.6000      7.7000     33.0702     59.1186    100.8029     53.2500
  1522.7000      7.7000     33.0702     59.1186    100.8029     53.4999
  1522.8000      7.8549     32.9984     61.2645    108.4737     53.8665
  1522.9000      7.8549     32.9984     61.2645    108.4737     54.3235
  1523.0000      7.9535     33.6935     63.3052    111.8772     54.8347
  1523.1000      7.9535     33.6935     63.3052    111.8772     55.3548
  1523.2000      7.9535     33.6935     63.3052    111.8772     55.8335
  1523.3000      8.0033     35.2751     65.5165    111.9256     56.2205
  1523.4000      8.0033     35.2751     65.5165    111.9256     56.4692
  1523.5000      8.0205     37.6719     67.8902    110.6547     56.5419
  1523.6000      8.0205     37.6719     67.8902    110.6547     56.4135
  1523.7000      8.0205     37.6719     67.8902    110.6547     56.0719
  1523.8000      8.0092     40.5029     69.7964    109.0564     55.5177
  1523.9000      8.0092     40.5029     69.7964    109.0564     54.7658
  1524.0000      7.9700     43.1113     70.2376    106.5344     53.8423
  1524.1000      7.9700     43.1113     70.2376    106.5344     52.7839
  1524.2000      7.9700     43.1113     70.2376    106.5344     51.6372
  1524.3000      7.9234     44.9390     68.6946    102.3021     50.4540
  1524.4000      7.9234     44.9390     68.6946    102.3021     49.2883
  1524.5000      7.8979     45.8869     65.6074     96.8086     48.1923
  1524.6000      7.8979     45.8869     65.6074     96.8086     47.2087
  1524.7000      7.8979     45.8869     65.6074     96.8086     46.3672
  1524.8000      7.9052     46.1810     61.9719     91.6686     45.6846
  1524.9000      7.9052     46.1810     61.9719     91.6686     45.1633
  1525.0000      7.9435     46.0076     58.7230     88.3134     44.7949
  1525.1000      7.9435     46.0076     58.7230     88.3134     44.5696
  1525.2000      7.9435     46.0076     58.7230     88.3134     44.4762
  1525.3000      8.0104     45.4159     56.4146     86.8101     44.5099
  1525.4000      8.0104     45.4159     56.4146     86.8101     44.6726
  1525.5000      8.1033     44.4768     55.1699     85.9522     44.9684
  1525.6000      8.1033     44.4768     55.1699     85.9522     45.4031
  1525.7000      8.1033     44.4768     55.1699     85.9522     45.9799
  1525.8000      8.2117     43.3671     54.7769     84.3419     46.6939
  1525.9000      8.2117     43.3671     54.7769     84.3419     47.5346
  1526.0000      8.3200     42.2418     54.8042     81.3093     48.4857
  1526.1000      8.3200     42.2418     54.8042     81.3093     49.5287
  1526.2000      8.3200     42.2418     54.8042     81.3093     50.6457
  1526.3000      8.4238     41.1298     54.6932     76.9895     51.8214
  1526.4000      8.4238     41.1298     54.6932     76.9895     53.0430
  1526.5000      8.5317     40.0542     53.9001     71.8675     54.3042
  1526.6000      8.5317     40.0542     53.9001     71.8675     55.5955
  1526.7000      8.5317     40.0542     53.9001     71.8675     56.9076
  1526.8000      8.6457     39.1819     52.1109     66.3937     58.2324
  1526.9000      8.6457     39.1819     52.1109     66.3937     59.5622
  1527.0000      8.7582     38.7148     49.4326     60.8841     60.8947
  1527.1000      8.7582     38.7148     49.4326     60.8841     62.2388
  1527.2000      8.7582     38.7148     49.4326     60.8841     63.6173
  1527.3000      8.8676     38.6501     46.3959     55.6273     65.0664
  1527.4000      8.8676     38.6501     46.3959     55.6273     66.6370
  1527.5000      8.9802     38.7433     43.6717     51.0710     68.3790
  1527.6000      8.9802     38.7433     43.6717     51.0710     70.3338
