~Version Information
VERS.                      2.0: CWLS Log ASCII Standard - VERSION 2.0
WRAP.                       NO: One line per depth step
~Well Information Block
STRT.FT               456.0000: 
STOP.FT              1700.7000: 
STEP.FT                 0.1000: 
NULL.                -999.2500: 
COMP.          Pioneer Natural Resources: COMPANY
WELL.                Mead 11-9: WELL
FLD.           Purgatoire River: FIELD
LOC.           1127' FNL & 668' FWL: LOCATION
PROV.                 Colorado: PROVINCE
CNTY.               Las Animas: COUNTRY
SRVC.                Patterson: SERVICE COMPANY
DATE.          Sat Feb 19 09:18:18 2005: LOG DATE
UWI.           05 071 08160 00: UNIQUE WELL ID
~Curve Information Block
DEPT.FT            0 000 00 00: Depth
DCAL.in                       : CDL Caliper
RHOB.g/cc                     : CDL Bulk Density
RHOC.g/cc                     : CDL Density Correction
DPOR.pu                       : CDL Density Porosity
GR.GAPI                       : Gamma Ray
NPOR.pu                       : Neutron Porosity
~Parameter Information Block
~A  Depth       DCAL        RHOB        RHOC        DPOR         GR         NPOR    
# ...
   619.2000      8.0920      2.4586      0.0687     11.5979    116.5862     26.0409
   619.3000      8.1029      2.4257      0.0546     13.5942    113.0197     25.6848
   619.4000      8.1029      2.3812      0.0769     16.2893    111.2592     25.0353
   619.5000      8.1026      2.3433      0.0612     18.5902    112.7373     23.9032
   619.6000      8.1026      2.3138      0.1065     20.3765    114.9679     22.7893
   619.7000      8.1026      2.2870      0.0920     21.9976    115.1876     22.3300
   619.8000      8.0970      2.2661      0.1049     23.2664    113.1413     22.5155
   619.9000      8.0970      2.2659      0.1060     23.2779    111.4998     22.7310
   620.0000      8.0936      2.2987      0.1480     21.2911    113.5593     22.5838
   620.1000      8.0936      2.3650      0.1851     17.2749    120.2079     22.4146
   620.2000      8.0936      2.4474      0.3008     12.2799    126.0668     22.1968
   620.3000      8.1293      2.5114      0.3203      8.4006    126.9109     21.4427
   620.4000      8.1293      2.5284      0.3077      7.3715    126.4413     20.2028
   620.5000      8.2247      2.4876      0.2850      9.8407    130.3700     18.8669
   620.6000      8.2247      2.3869      0.2739     15.9427    137.5924     17.5294
   620.7000      8.2247      2.2328      0.2135     25.2829    140.9187     16.2556
   620.8000      8.3187      2.0490      0.0687     36.4246    138.5440     15.2424
   620.9000      8.3187      1.8586      0.0254     47.9659    132.7982     14.3968
   621.0000      8.3550      1.6716     -0.0367     59.2964    124.5340     13.6945
   621.1000      8.3550      1.4936     -0.0577     70.0878    118.0561     13.5550
   621.2000      8.3550      1.3177     -0.0997     80.7469    116.3139     14.0782
   621.3000      8.3411      1.1521     -0.2009     90.7845    115.3100     14.7645
   621.4000      8.3411      1.0472     -0.1976     97.1380    109.0123     15.2595
   621.5000      8.3305      1.0513     -0.0965     96.8916     98.5381     16.0223
   621.6000      8.3305      1.1643      0.1197     90.0418     91.6282     17.4046
   621.7000      8.3305      1.3518      0.2247     78.6773     89.5987     18.8202
   621.8000      8.3478      1.5828      0.2913     64.6781     86.9841     19.7669
   621.9000      8.3478      1.8375      0.4060     49.2399     82.5112     20.5708
   622.0000      8.3739      2.0909      0.4799     33.8868     80.3227     21.5924
   622.1000      8.3739      2.3072      0.5083     20.7783     81.3348     22.7332
   622.2000      8.3739      2.4499      0.5242     12.1293     81.5897     23.8021
   622.3000      8.3617      2.5088      0.4477      8.5596     80.2053     24.7162
   622.4000      8.3617      2.5121      0.3380      8.3556     78.3091     25.5102
   622.5000      8.2891      2.4935      0.2452      9.4820     76.4701     26.1934
   622.6000      8.2891      2.4678      0.1617     11.0433     77.5685     26.5536
   622.7000      8.2891      2.4402      0.1263     12.7170     84.3549     26.3730
   622.8000      8.1959      2.4133      0.0915     14.3431     94.7350     25.7311
   622.9000      8.1959      2.3944      0.0300     15.4880    102.3338     25.1490
   623.0000      8.1456      2.3997      0.0085     15.1695    102.3684     25.0225
   623.1000      8.1456      2.4354      0.0627     13.0047     95.2915     25.1247
   623.2000      8.1456      2.4852      0.1232      9.9903     85.5959     24.9613
   623.3000      8.1349      2.5276      0.0931      7.4211     79.6817     24.2659
   623.4000      8.1349      2.5531      0.1744      5.8699     81.2577     23.3343
   623.5000      8.1337      2.5599      0.1566      5.4622     87.9535     22.6516
   623.6000      8.1337      2.5535      0.1522      5.8480     93.1983     22.3693
   623.7000      8.1337      2.5410      0.1568      6.6080     91.8470     22.3507
   623.8000      8.1310      2.5151      0.2030      8.1785     86.6259     22.4385
   623.9000      8.1310      2.4612      0.1040     11.4415     83.4492     22.7212
   624.0000      8.1234      2.3831      0.0584     16.1774     84.3298     23.2292
   624.1000      8.1234      2.3024      0.0288     21.0663     88.7219     23.6200
   624.2000      8.1234      2.2372      0.0265     25.0181     95.9398     23.7830
   624.3000      8.1171      2.1962     -0.0385     27.5001    104.7613     23.9142
   624.4000      8.1171      2.1857      0.0071     28.1390    113.7767     24.0835
   624.5000      8.1227      2.2005      0.0295     27.2418    121.0647     24.1635
   624.6000      8.1227      2.2336      0.0678     25.2386    123.4089     23.9918
   624.7000      8.1227      2.2871      0.1410     21.9929    122.9188     23.9180
   624.8000      8.1310      2.3598      0.1933     17.5854    126.9231     24.3798
   624.9000      8.1310      2.4331      0.3412     13.1426    134.2655     25.1056
   625.0000      8.1331      2.4799      0.4063     10.3069    140.5543     25.6192
   625.1000      8.1331      2.4902      0.3938      9.6855    146.3116     25.8529
   625.2000      8.1331      2.4823      0.2924     10.1636    149.5886     25.9410
   625.3000      8.1315      2.4847      0.2403     10.0166    148.8016     26.0373
   625.4000      8.1315      2.5024      0.2707      8.9431    147.7276     26.2801
   625.5000      8.1322      2.5197      0.1872      7.8999    149.2449     26.6673
   625.6000      8.1322      2.5335      0.1936      7.0614    152.3481     26.8460
   625.7000      8.1322      2.5499      0.2075      6.0638    152.4785     26.6003
   625.8000      8.1399      2.5602      0.1956      5.4423    146.9314     26.4697
   625.9000      8.1399      2.5508      0.1539      6.0130    139.5733     26.8025
   626.0000      8.1481      2.5357      0.0760      6.9266    134.3392     27.0785
   626.1000      8.1481      2.5466      0.0719      6.2686    128.5403     26.9742
   626.2000      8.1481      2.5813      0.1393      4.1630    119.9235     26.6305
   626.3000      8.1516      2.6055      0.1386      2.6948    111.5216     26.1831
   626.4000      8.1516      2.5985      0.1439      3.1206    105.7051     25.7487
   626.5000      8.1522      2.5689      0.0715      4.9146    102.7617     25.4755
   626.6000      8.1522      2.5377      0.0690      6.8082    102.6965     25.5229
   626.7000      8.1522      2.5150      0.0821      8.1816    105.6960     25.5964
   626.8000      8.1518      2.5102      0.0293      8.4757    111.1109     25.2991
   626.9000      8.1518      2.5347      0.0778      6.9852    114.7083     24.8443
   627.0000      8.1508      2.5785      0.1045      4.3317    113.0016     24.6358
   627.1000      8.1508      2.6158      0.1318      2.0697    109.3980     24.7668
   627.2000      8.1508      2.6273      0.1635      1.3788    107.7704     25.0052
   627.3000      8.1492      2.6082      0.1183      2.5332    107.5403     25.0520
   627.4000      8.1492      2.5754      0.0728      4.5214    107.4128     24.9398
   627.5000      8.1469      2.5547      0.0400      5.7781    105.7887     24.9274
   627.6000      8.1469      2.5543      0.0477      5.8005    103.6214     25.0961
   627.7000      8.1469      2.5702      0.0136      4.8372    105.6454     25.2982
   627.8000      8.1451      2.5910      0.0776      3.5763    110.8153     25.3906
   627.9000      8.1451      2.5929      0.1012      3.4622    112.4218     25.2722
   628.0000      8.1459      2.5703      0.0601      4.8288    109.2442     24.9851
   628.1000      8.1459      2.5470      0.0099      6.2453    106.9087     24.6953
   628.2000      8.1459      2.5417      0.0418      6.5633    110.1741     24.5260
   628.3000      8.1494      2.5527      0.0316      5.8973    117.2693     24.5241
   628.4000      8.1494      2.5672      0.0705      5.0177    120.6646     24.7731
   628.5000      8.1506      2.5673      0.0246      5.0149    116.7349     25.3192
   628.6000      8.1506      2.5476      0.0062      6.2073    111.3521     25.7491
   628.7000      8.1506      2.5291      0.0179      7.3260    110.9284     25.7654
