~Version Information
VERS.                      2.0: CWLS Log ASCII Standard - VERSION 2.0
WRAP.                       NO: One line per depth step
~Well Information Block
STRT.FT               858.7000: 
STOP.FT              2478.2000: 
STEP.FT                 0.1000: 
NULL.                -999.2500: 
COMP.          Petrogulf Corporation: COMPANY
WELL.           Torcom 17-33 V: WELL
FLD.           Purgatoire River: FIELD
LOC.           1544' FSL & 1746' FEL: LOCATION
PROV.                 Colorado: PROVINCE
CNTY.               Las Animas: COUNTRY
SRVC.                Patterson: SERVICE COMPANY
DATE.          Wed Dec 03 09:22:08 2003: LOG DATE
UWI.                          : UNIQUE WELL ID
~Curve Information Block
DEPT.FT            0 000 00 00: Depth
DCAL.in                       : CDL Caliper
RHOB.g/cc                     : CDL Bulk Density
RHOC.g/cc                     : CDL Density Correction
DPOR.pu                       : CDL Density Porosity
GR.GAPI                       : Gamma Ray
NPOR.pu                       : Neutron Porosity
~Parameter Information Block
~A  Depth       DCAL        RHOB        RHOC        DPOR         GR         NPOR    
# ...
  2250.7000      8.0887      2.4920      0.0350      9.5736     85.8972     22.5928
  2250.8000      8.0809      2.4881      0.0463      9.8099     85.8988     21.9625
  2250.9000      8.0809      2.5044      0.0621      8.8245     84.6054     21.5757
  2251.0000      8.0951      2.5401      0.0427      6.6628     83.5101     21.3819
  2251.1000      8.0951      2.5786      0.1471      4.3264     83.9650     21.2265
  2251.2000      8.0951      2.5878      0.1287      3.7683     83.1345     20.9504
  2251.3000      8.1030      2.5670      0.1062      5.0283     82.3315     20.5610
  2251.4000      8.1030      2.5446      0.0475      6.3850     82.2779     20.1264
  2251.5000      8.0773      2.5327      0.0856      7.1095     78.7551     19.3697
  2251.6000      8.0773      2.5245      0.0444      7.6085     73.4808     18.4917
  2251.7000      8.0773      2.5264      0.0862      7.4912     70.9859     18.1277
  2251.8000      8.0643      2.5520      0.0679      5.9414     70.9283     18.2321
  2251.9000      8.0643      2.5887      0.1740      3.7144     73.7167     18.5367
  2252.0000      7.9958      2.6090      0.1701      2.4861     80.1636     18.8277
  2252.1000      7.9958      2.6086      0.1580      2.5107     87.8040     19.1483
  2252.2000      7.9958      2.5959      0.1658      3.2810     91.8692     19.5995
  2252.3000      8.0438      2.5733      0.1190      4.6473     90.8727     19.7256
  2252.4000      8.0438      2.5437      0.0714      6.4407     91.5216     19.6122
  2252.5000      8.1228      2.5117      0.0791      8.3844     96.2841     19.9868
  2252.6000      8.1228      2.4834      0.0610     10.0955     99.6728     20.7058
  2252.7000      8.1228      2.4689      0.0409     10.9744    100.2363     21.0658
  2252.8000      8.1129      2.4724      0.0323     10.7635    100.7250     21.0108
  2252.9000      8.1129      2.4951      0.0279      9.3865    103.4965     20.8975
  2253.0000      8.0553      2.5325      0.1645      7.1213    107.6770     20.9851
  2253.1000      8.0553      2.5645      0.1713      5.1812    108.0581     21.3277
  2253.2000      8.0553      2.5841      0.1555      3.9925    101.2224     21.4071
  2253.3000      8.0598      2.5994      0.2097      3.0691     91.4439     20.9654
  2253.4000      8.0598      2.6076      0.1652      2.5703     86.2122     20.4572
  2253.5000      8.0546      2.6022      0.1421      2.8940     89.1495     20.0875
  2253.6000      8.0546      2.5860      0.1610      3.8809     95.1837     19.6049
  2253.7000      8.0546      2.5713      0.1266      4.7668     97.1171     18.9454
  2253.8000      8.0558      2.5651      0.1233      5.1425     97.2054     18.4937
  2253.9000      8.0558      2.5558      0.1062      5.7076    100.1969     18.4612
  2254.0000      8.1122      2.5300      0.0733      7.2700    100.8865     18.7258
  2254.1000      8.1122      2.4992     -0.0290      9.1368     94.4801     19.3640
  2254.2000      8.1122      2.4924      0.0104      9.5525     88.6249     20.2855
  2254.3000      8.0966      2.5134      0.0800      8.2794     89.0732     20.7276
  2254.4000      8.0966      2.5426      0.1093      6.5066     90.7828     20.0655
  2254.5000      8.0894      2.5729      0.0679      4.6722     90.0404     18.9272
  2254.6000      8.0894      2.5982      0.1523      3.1418     91.1863     18.6016
  2254.7000      8.0894      2.5999      0.1559      3.0362     94.4688     19.0743
  2254.8000      8.1193      2.5749      0.1489      4.5495     92.3853     19.1584
  2254.9000      8.1193      2.5461      0.0735      6.2947     86.6114     18.6866
  2255.0000      8.1489      2.5381      0.1143      6.7848     83.9558     18.2483
  2255.1000      8.1489      2.5482      0.0616      6.1691     83.9088     18.0115
  2255.2000      8.1489      2.5573      0.0999      5.6179     84.5863     18.0734
  2255.3000      8.1284      2.5462      0.1766      6.2924     86.4150     18.7507
  2255.4000      8.1284      2.5167      0.0824      8.0792     89.1880     19.5852
  2255.5000      8.1002      2.4938      0.0501      9.4650     90.1358     19.7645
  2255.6000      8.1002      2.4879      0.1189      9.8266     88.3713     19.6242
  2255.7000      8.1002      2.4933      0.0623      9.4990     88.1024     19.6226
  2255.8000      8.0950      2.5060      0.1266      8.7254     93.1876     19.5290
  2255.9000      8.0950      2.5233      0.0841      7.6779     99.2198     19.0539
  2256.0000      8.0884      2.5468      0.1420      6.2544     98.1090     18.6973
  2256.1000      8.0884      2.5743      0.1577      4.5900     90.9675     18.9074
  2256.2000      8.0884      2.5951      0.1966      3.3264     85.9643     19.0630
  2256.3000      8.0878      2.6004      0.1453      3.0049     86.6358     18.8283
  2256.4000      8.0878      2.5953      0.1559      3.3134     91.1566     18.6550
  2256.5000      8.1039      2.5923      0.1621      3.4983     93.7040     18.7175
  2256.6000      8.1039      2.5880      0.1685      3.7556     89.0821     18.8353
  2256.7000      8.1039      2.5724      0.1305      4.7021     80.4259     18.8665
  2256.8000      8.0763      2.5599      0.0668      5.4584     75.4462     18.6699
  2256.9000      8.0763      2.5639      0.1592      5.2182     76.7241     18.2469
  2257.0000      8.0938      2.5656      0.1318      5.1152     79.3217     17.8318
  2257.1000      8.0938      2.5580      0.0705      5.5761     78.1158     17.6581
  2257.2000      8.0938      2.5628      0.0597      5.2855     72.6601     17.6848
  2257.3000      8.1071      2.5814      0.1694      4.1604     67.5648     17.9024
  2257.4000      8.1071      2.5879      0.1742      3.7611     66.9158     18.1434
  2257.5000      8.0902      2.5794      0.0905      4.2783     70.9962     17.7713
  2257.6000      8.0902      2.5760      0.0750      4.4819     77.8075     17.2200
  2257.7000      8.0902      2.5783      0.0577      4.3481     84.5984     17.3690
  2257.8000      8.1341      2.5647      0.1132      5.1719     88.4998     17.8748
  2257.9000      8.1341      2.5274      0.1121      7.4327     88.7905     18.1488
  2258.0000      8.1260      2.4920      0.0292      9.5763     88.5684     18.2854
  2258.1000      8.1260      2.4812      0.0704     10.2285     89.6541     18.4685
  2258.2000      8.1260      2.4816      0.0845     10.2078     91.0735     18.5992
  2258.3000      8.1080      2.4814      0.0526     10.2180     90.4822     18.4880
  2258.4000      8.1080      2.4954      0.0267      9.3721     84.2512     18.1050
  2258.5000      8.1221      2.5262      0.1402      7.5006     73.5377     17.7187
  2258.6000      8.1221      2.5557      0.1686      5.7180     66.2680     17.6738
  2258.7000      8.1221      2.5830      0.1511      4.0622     65.3285     17.6620
  2258.8000      8.1322      2.6140      0.1865      2.1799     65.0082     17.2375
  2258.9000      8.1322      2.6376      0.2133      0.7533     62.6832     16.7319
  2259.0000      8.0963      2.6481      0.1372      0.1151     63.0887     16.4566
  2259.1000      8.0963      2.6492      0.1859      0.0467     66.2312     16.2457
  2259.2000      8.0963      2.6448      0.0845      0.3148     66.1004     16.0346
  2259.3000      8.0920      2.6439      0.1118      0.3698     62.3954     15.7748
  2259.4000      8.0920      2.6403      0.1468      0.5852     60.0113     15.6169
  2259.5000      8.1039      2.6146      0.1736      2.1470     60.6473     15.7002
  2259.6000      8.1039      2.5688      0.0545      4.9194     63.6612     15.9202
  2259.7000      8.1039      2.5329      0.0033      7.0953     68.6354     16.4150
  2259.8000      8.1055      2.5305      0.0856      7.2448     72.8287     17.1904
  2259.9000      8.1055      2.5530      0.1000      5.8783     74.5401     17.9516
  2260.0000      8.1098      2.5681      0.1800      4.9648     73.7949     18.6662
  2260.1000      8.1098      2.5566      0.0967      5.6597     70.1462     19.1625
  2260.2000      8.1098      2.5352      0.0768      6.9589     66.3567     19.1214
