~Version Information
VERS.                      2.0: CWLS Log ASCII Standard - VERSION 2.0
WRAP.                       NO: One line per depth step
~Well Information Block
STRT.FT               928.1000: 
STOP.FT              2417.7000: 
STEP.FT                 0.1000: 
NULL.                -999.2500: 
COMP.          Pioneer Natural Resources: COMPANY
WELL.            Chevron 13-13: WELL
FLD.           Purgatoire River: FIELD
LOC.           1560' FSL & 711' FWL--: LOCATION
CNTY.               Las Animas: COUNTY
SRVC.          Superior Well Services: SERVICE COMPANY
DATE.          Mon Feb 12 14:51:53 2007: LOG DATE
UWI.           05 071 08319 00: UNIQUE WELL ID
STAT.                 Colorado: STATE
~Curve Information Block
DEPT.FT            0 000 00 00: Depth
DIR.Ohm-m                     : IEL Induction Resistivity
GR.GAPI                       : Gamma Ray
SN.Ohm-m                      : IEL Short Normal
SP.mV                         : IEL Spontaneous Potential
~Parameter Information Block
~A  Depth       DIR          GR          SN          SP     
# ...
  1343.5000 100000.0000    139.0484     18.9746    -95.4096
  1343.6000 100000.0000    137.9142     18.9746    -95.4096
  1343.7000 100000.0000    136.7984     18.9746    -95.4096
  1343.8000 100000.0000    135.6586     18.8250   -103.2312
  1343.9000 100000.0000    134.4417     18.8250   -103.2312
  1344.0000 100000.0000    133.0929     18.4773   -111.5107
  1344.1000 100000.0000    131.5605     18.4773   -111.5107
  1344.2000 100000.0000    129.8054     18.4773   -111.5107
  1344.3000 100000.0000    127.8027     17.4405   -120.0860
  1344.4000 100000.0000    125.5406     17.4405   -120.0860
  1344.5000 100000.0000    123.0292     15.1634   -128.7761
  1344.6000 100000.0000    120.2960     15.1634   -128.7761
  1344.7000 100000.0000    117.3877     15.1634   -128.7761
  1344.8000      1.9264    114.3694     11.4262   -137.3908
  1344.9000      1.9264    111.3145     11.4262   -137.3908
  1345.0000      0.5491    108.3047      7.1867   -145.7417
  1345.1000      0.5491    105.4129      7.1867   -145.7417
  1345.2000      0.5491    102.6913      7.1867   -145.7417
  1345.3000      0.2152    100.1687      4.1861   -153.6525
  1345.4000      0.2152     97.8425      4.1861   -153.6525
  1345.5000      0.0940     95.6787      2.8379   -160.9700
  1345.6000      0.0940     93.6178      2.8379   -160.9700
  1345.7000      0.0940     91.5834      2.8379   -160.9700
  1345.8000      0.0522     89.4919      2.4078   -167.5724
  1345.9000      0.0522     87.2678      2.4078   -167.5724
  1346.0000      0.0406     84.8503      2.1251   -173.3768
  1346.1000      0.0406     82.2039      2.1251   -173.3768
  1346.2000      0.0406     79.3219      2.1251   -173.3768
  1346.3000      0.0443     76.2284      1.6977   -178.3427
  1346.4000      0.0443     72.9769      1.6977   -178.3427
  1346.5000      0.0648     69.6407      1.2923   -182.4722
  1346.6000      0.0648     66.3101      1.2923   -182.4722
  1346.7000      0.0648     63.0785      1.2923   -182.4722
  1346.8000      0.1185     60.0395      1.0767   -185.8060
  1346.9000      0.1185     57.2710      1.0767   -185.8060
  1347.0000      0.2464     54.8346      1.0090   -188.4162
  1347.1000      0.2464     52.7704      1.0090   -188.4162
  1347.2000      0.2464     51.0938      1.0090   -188.4162
  1347.3000      0.5505     49.8008      1.0052   -190.3964
  1347.4000      0.5505     48.8705      1.0052   -190.3964
  1347.5000      1.5601     48.2723      1.0258   -191.8515
  1347.6000      1.5601     47.9729      1.0258   -191.8515
  1347.7000      1.5601     47.9452      1.0258   -191.8515
  1347.8000     80.9657     48.1746      1.0290   -192.8870
  1347.9000     80.9657     48.6641      1.0290   -192.8870
  1348.0000 100000.0000     49.4328      1.0611   -193.6016
  1348.1000 100000.0000     50.5122      1.0611   -193.6016
  1348.2000 100000.0000     51.9406      1.0611   -193.6016
  1348.3000 100000.0000     53.7512      1.1213   -194.0811
  1348.4000 100000.0000     55.9579      1.1213   -194.0811
  1348.5000 100000.0000     58.5530      1.1133   -194.3958
  1348.6000 100000.0000     61.4971      1.1133   -194.3958
  1348.7000 100000.0000     64.7192      1.1133   -194.3958
  1348.8000 100000.0000     68.1219      1.0634   -194.5996
  1348.9000 100000.0000     71.5903      1.0634   -194.5996
  1349.0000     21.0441     75.0041      1.0619   -194.7318
  1349.1000     21.0441     78.2505      1.0619   -194.7318
  1349.2000     21.0441     81.2360      1.0619   -194.7318
  1349.3000      1.6702     83.8984      1.0972   -194.8191
  1349.4000      1.6702     86.2071      1.0972   -194.8191
  1349.5000      0.6375     88.1667      1.0663   -194.8782
  1349.6000      0.6375     89.8073      1.0663   -194.8782
  1349.7000      0.6375     91.1752      1.0663   -194.8782
  1349.8000      0.3136     92.3220      0.9819   -194.9187
  1349.9000      0.3136     93.2916      0.9819   -194.9187
  1350.0000      0.1801     94.1198      0.9307   -194.9452
  1350.1000      0.1801     94.8318      0.9307   -194.9452
  1350.2000      0.1801     95.4526      0.9307   -194.9452
  1350.3000      0.1321     96.0197      0.9376   -194.9594
  1350.4000      0.1321     96.5901      0.9376   -194.9594
  1350.5000      0.1356     97.2454      0.9946   -194.9612
  1350.6000      0.1356     98.0875      0.9946   -194.9612
  1350.7000      0.1356     99.2203      0.9946   -194.9612
  1350.8000      0.1958    100.7357      1.0860   -194.9504
  1350.9000      0.1958    102.6858      1.0860   -194.9504
  1351.0000      0.3681    105.0695      1.1697   -194.9272
  1351.1000      0.3681    107.8290      1.1697   -194.9272
  1351.2000      0.3681    110.8512      1.1697   -194.9272
  1351.3000      0.8849    113.9867      1.2327   -194.8931
  1351.4000      0.8849    117.0699      1.2327   -194.8931
  1351.5000      5.6801    119.9421      1.3181   -194.8505
  1351.6000      5.6801    122.4733      1.3181   -194.8505
  1351.7000      5.6801    124.5728      1.3181   -194.8505
  1351.8000 100000.0000    126.1944      1.4189   -194.8033
  1351.9000 100000.0000    127.3311      1.4189   -194.8033
  1352.0000 100000.0000    128.0087      1.4812   -194.7565
  1352.1000 100000.0000    128.2733      1.4812   -194.7565
  1352.2000 100000.0000    128.1818      1.4812   -194.7565
  1352.3000 100000.0000    127.7886      1.5445   -194.7160
  1352.4000 100000.0000    127.1430      1.5445   -194.7160
  1352.5000 100000.0000    126.2852      1.6290   -194.6871
  1352.6000 100000.0000    125.2436      1.6290   -194.6871
  1352.7000 100000.0000    124.0416      1.6290   -194.6871
  1352.8000 100000.0000    122.7018      1.6579   -194.6748
  1352.9000 100000.0000    121.2471      1.6579   -194.6748
  1353.0000     48.0351    119.7036      1.5676   -194.6821
  1353.1000     48.0351    118.0981      1.5676   -194.6821
  1353.2000     48.0351    116.4510      1.5676   -194.6821
  1353.3000      0.9976    114.7678      1.4117   -194.7102
  1353.4000      0.9976    113.0301      1.4117   -194.7102
  1353.5000      0.3377    111.1910      1.2394   -194.7576
  1353.6000      0.3377    109.1749      1.2394   -194.7576
  1353.7000      0.3377    106.8846      1.2394   -194.7576
  1353.8000      0.1419    104.2156      1.1007   -194.8210
  1353.9000      0.1419    101.0742      1.1007   -194.8210
  1354.0000      0.0742     97.3980      1.0194   -194.8953
  1354.1000      0.0742     93.1668      1.0194   -194.8953
  1354.2000      0.0742     88.4150      1.0194   -194.8953
  1354.3000      0.0554     83.2303      1.0291   -194.9746
  1354.4000      0.0554     77.7447      1.0291   -194.9746
  1354.5000      0.0622     72.1237      1.0651   -195.0528
  1354.6000      0.0622     66.5509      1.0651   -195.0528
  1354.7000      0.0622     61.2107      1.0651   -195.0528
  1354.8000      0.1012     56.2782      1.0564   -195.1244
  1354.9000      0.1012     51.9043      1.0564   -195.1244
  1355.0000      0.2105     48.2149      1.0318   -195.1853
  1355.1000      0.2105     45.3022      1.0318   -195.1853
  1355.2000      0.2105     43.2210      1.0318   -195.1853
  1355.3000      0.4804     41.9912      1.0382   -195.2324
  1355.4000      0.4804     41.5910      1.0382   -195.2324
  1355.5000      1.2527     41.9622      1.0077   -195.2642
  1355.6000      1.2527     43.0088      1.0077   -195.2642
  1355.7000      1.2527     44.6030      1.0077   -195.2642
  1355.8000      6.4293     46.5945      0.9345   -195.2805
  1355.9000      6.4293     48.8175      0.9345   -195.2805
  1356.0000 100000.0000     51.1057      0.9004   -195.2817
  1356.1000 100000.0000     53.2987      0.9004   -195.2817
  1356.2000 100000.0000     55.2536      0.9004   -195.2817
  1356.3000 100000.0000     56.8508      0.9165   -195.2689
  1356.4000 100000.0000     57.9980      0.9165   -195.2689
  1356.5000 100000.0000     58.6307      0.9217   -195.2427
  1356.6000 100000.0000     58.7149      0.9217   -195.2427
  1356.7000 100000.0000     58.2457      0.9217   -195.2427
  1356.8000 100000.0000     57.2480      0.8856   -195.2033
