~Version Information
 VERS.                                  2.0 : CWLS LAS VERSION
 WRAP.                                   NO : WRAPING MODE
 SWARE .                 MController 2.5.0E : SOFTWARE VERSION
~Well Information
 WELL.                          Lynch 43-30 : WELL
 COMP.        Pioneer Natural Resources Inc : COMPANY
 FLD.                      Purgatoire River : FIELD
 LOC.                NE/SE Sec 30 T32S R67W : LOCATION
 DATE.                             10/25/04 : DATE(S) LOGGED
 SRVC.       Blanco Geological services LLc : SERVICE COMPANY
 STAT.                                   CO : STATE
 CNTY.                           Las Animas : COUNTY
 CTRY.                                  USA : COUNTRY
 API.                       05-071-08170-00 : API NUMBER
 STRT.FT                             410.00 : START DEPTH
 STOP.FT                            2845.00 : STOP DEPTH
 STEP.FT                               1.00 : DEPTH INCREMENT
 NULL.                                -9999 : NULL VALUE
~Curve information
 DEPTH.FT                                   :
 ROP.MIN/FT                                 :
 GAS.UNITS                                  :
~ASCII Log data
# ...
     2010.00        0.267         29.0 
     2011.00        0.267         25.8 
     2012.00        0.267         23.4 
     2013.00        0.233         21.5 
     2014.00        0.267         19.3 
     2015.00        0.300         19.1 
     2016.00        0.267         18.4 
     2017.00        0.233         19.2 
     2018.00        0.233         19.7 
     2019.00        0.233         20.2 
     2020.00        0.233         20.2 
     2021.00        0.283         20.0 
     2022.00        0.233         20.1 
     2023.00        0.267         20.2 
     2024.00        0.267         20.3 
     2025.00        0.267         19.8 
     2026.00        0.367         21.4 
     2027.00        0.333         21.2 
     2028.00        0.267         21.5 
     2029.00        0.300         21.1 
     2030.00        0.267         19.8 
     2031.00        0.233         17.2 
     2032.00        0.200         15.6 
     2033.00        0.183         14.9 
     2034.00        0.167         14.2 
     2035.00        0.167         13.4 
     2036.00        2.600         65.6 
     2037.00        0.300         65.7 
     2038.00        0.350         62.2 
     2039.00        0.267         50.8 
     2040.00        0.233         43.4 
     2041.00        0.233         36.6 
     2042.00        0.233         32.9 
     2043.00        0.200         30.2 
     2044.00        0.167         28.5 
     2045.00        0.200         26.0 
     2046.00        0.233         24.5 
     2047.00        0.333         23.9 
     2048.00        0.400         23.7 
     2049.00        0.267         22.8 
     2050.00        0.350         24.5 
     2051.00        0.167         26.5 
     2052.00        0.167         28.2 
     2053.00        0.133         29.0 
     2054.00        0.167         29.3 
     2055.00        0.167         28.9 
     2056.00        0.200         28.4 
     2057.00        0.200         28.2 
     2058.00        0.200         28.1 
     2059.00        0.300         25.8 
     2060.00        0.233         21.2 
     2061.00        0.267         20.2 
     2062.00        0.433         17.6 
     2063.00        0.233         14.6 
     2064.00        0.233         13.5 
     2065.00        0.150         13.4 
     2066.00        3.167         56.8 
     2067.00        0.383         50.3 
     2068.00        0.367         40.5 
     2069.00        0.300         33.9 
     2070.00        0.267         29.3 
     2071.00        0.200         26.3 
     2072.00        0.233         24.6 
     2073.00        0.200         22.7 
     2074.00        0.233         23.0 
     2075.00        0.300         22.3 
     2076.00        0.333         21.9 
     2077.00        0.233         21.8 
     2078.00        0.267         21.3 
     2079.00        0.283         21.1 
     2080.00        0.333         21.0 
     2081.00        0.333         20.8 
     2082.00        0.300         20.7 
     2083.00        0.233         20.2 
     2084.00        0.167         19.6 
     2085.00        0.167         19.4 
     2086.00        0.167         19.2 
     2087.00        0.200         20.3 
     2088.00        0.167         21.0 
     2089.00        0.267         21.4 
     2090.00        0.233         19.9 
     2091.00        0.233         19.3 
     2092.00        0.300         17.1 
     2093.00        0.250         16.4 
     2094.00        0.400         14.6 
     2095.00        0.367         13.6 
     2096.00        3.183         55.0 
     2097.00        0.333         51.2 
     2098.00        0.367         43.8 
     2099.00        0.400         36.5 
     2100.00        0.167         30.5 
     2101.00        0.167         28.5 
     2102.00        0.167         27.2 
     2103.00        0.200         26.0 
     2104.00        0.200         24.5 
     2105.00        0.200         24.2 
     2106.00        0.167         23.6 
     2107.00        0.200         23.3 
     2108.00        0.350         22.8 
     2109.00        0.467         22.0 
     2110.00        0.300         21.2 
     2111.00        0.200         21.0 
     2112.00        0.200         20.9 
     2113.00        0.167         20.5 
     2114.00        0.133         21.0 
     2115.00        0.167         21.8 
     2116.00        0.333         23.8 
     2117.00        0.133         22.4 
     2118.00        0.167         22.7 
     2119.00        0.200         21.9 
     2120.00        0.200         20.2 
     2121.00        0.233         18.6 
     2122.00        0.250         16.8 
     2123.00        0.200         15.3 
     2124.00        0.233         14.2 
     2125.00        0.233         13.1 
     2126.00        3.117         46.9 
     2127.00        0.300         45.5 
     2128.00        0.267         41.8 
     2129.00        0.367         36.9 
     2130.00        0.200         31.1 
     2131.00        0.300         28.2 
     2132.00        0.300         25.0 
     2133.00        0.167         23.3 
     2134.00        0.167         22.9 
     2135.00        0.200         22.6 
     2136.00        0.167         22.3 
     2137.00        0.167         22.2 
     2138.00        0.283         22.0 
     2139.00        0.267         22.1 
     2140.00        0.233         21.6 
     2141.00        0.200         21.3 
     2142.00        0.200         21.2 
     2143.00        0.200         21.6 
     2144.00        0.167         21.7 
     2145.00        0.200         23.2 
     2146.00        0.200         25.5 
     2147.00        0.200         25.7 
     2148.00        0.200         24.8 
     2149.00        0.200         24.2 
     2150.00        0.233         23.0 
     2151.00        0.200         20.0 
     2152.00        0.233         18.2 
     2153.00        0.200         16.7 
     2154.00        0.250         15.1 
     2155.00        0.200         13.4 
     2156.00        2.833         55.2 
     2157.00        0.283         55.8 
     2158.00        0.300         54.4 
     2159.00        0.300         48.9 
     2160.00        0.267         41.3 
     2161.00        0.300         35.5 
     2162.00        0.300         30.4 
     2163.00        0.300         25.8 
     2164.00        0.267         22.7 
     2165.00        0.233         21.0 
     2166.00        0.300         20.1 
     2167.00        0.267         19.7 
     2168.00        0.383         20.2 
     2169.00        0.300         20.3 
     2170.00        0.300         20.6 
     2171.00        0.267         20.6 
     2172.00        0.167         19.7 
     2173.00        0.200         21.0 
     2174.00        0.200         23.0 
     2175.00        0.167         25.7 
     2176.00        0.233         26.3 
     2177.00        0.200         26.0 
     2178.00        0.167         25.2 
     2179.00        0.200         24.3 
     2180.00        0.200         22.0 
     2181.00        0.233         19.3 
     2182.00        0.200         17.2 
     2183.00        0.167         16.2 
     2184.00        0.250         14.8 
     2185.00        0.200         14.0 
     2186.00        3.250         71.5 
     2187.00        0.267         71.5 
     2188.00        0.500         68.9 
     2189.00        0.433         53.5 
     2190.00        0.433         40.8 
     2191.00        0.300         31.8 
     2192.00        0.200         28.0 
     2193.00        0.267         25.2 
     2194.00        0.267         23.0 
     2195.00        0.267         22.6 
     2196.00        0.317         21.5 
     2197.00        0.400         20.9 
     2198.00        0.267         20.6 
     2199.00        0.267         20.5 
     2200.00        0.233         20.8 
     2201.00        0.200         20.5 
     2202.00        0.167         20.5 
     2203.00        0.233         20.6 
     2204.00        0.200         23.2 
     2205.00        0.233         26.2 
     2206.00        0.200         26.9 
     2207.00        0.200         27.0 
     2208.00        0.167         26.1 
     2209.00        0.200         24.5 
