~Version Information
VERS.                      2.0: CWLS Log ASCII Standard - VERSION 2.0
WRAP.                       NO: One line per depth step
~Well Information Block
STRT.FT               698.9000: 
STOP.FT              2459.5000: 
STEP.FT                 0.1000: 
NULL.                -999.2500: 
COMP.          Petrogulf Corporation: COMPANY
WELL.             State 16-23V: WELL
FLD.           Purgatorie River: FIELD
LOC.           2414' FSL & 2215' FWL: LOCATION
PROV.                 Colorado: PROVINCE
CNTY.               Las Animas: COUNTRY
SRVC.                         : SERVICE COMPANY
DATE.          Mon Jun 09 12:47:39 2003: LOG DATE
UWI.           05 071 07865 00: UNIQUE WELL ID
~Curve Information Block
DEPT.FT            0 000 00 00: Depth
SP.mV                         : DIL Spontaneous Potential
RILD.Ohm-m                    : DIL Deep Resistivity
RILM.Ohm-m                    : DIL Medium Resistivity
RLL3.Ohm-m                    : DIL Shallow Resistivity
GR.GAPI                       : Gamma Ray
~Parameter Information Block
~A  Depth        SP         RILD        RILM        RLL3         GR     
# ...
  2087.7000     21.0155     10.5800     11.6825     45.0988     59.9815
  2087.8000     21.1908     10.4595     11.2898     49.1791     59.4859
  2087.9000     21.1908     10.4595     11.2898     49.1791     59.7019
  2088.0000     21.4293     10.4049     10.7092     45.9845     60.5992
  2088.1000     21.4293     10.4049     10.7092     45.9845     62.1126
  2088.2000     21.4293     10.4049     10.7092     45.9845     64.1496
  2088.3000     21.6926     10.3902     10.0815     36.3336     66.6015
  2088.4000     21.6926     10.3902     10.0815     36.3336     69.3519
  2088.5000     21.9554     10.3819      9.5167     24.6931     72.2824
  2088.6000     21.9554     10.3819      9.5167     24.6931     75.2795
  2088.7000     21.9554     10.3819      9.5167     24.6931     78.2374
  2088.8000     22.2121     10.3400      9.0718     15.5417     81.0634
  2088.9000     22.2121     10.3400      9.0718     15.5417     83.6808
  2089.0000     22.4651     10.2205      8.7581     10.4180     86.0308
  2089.1000     22.4651     10.2205      8.7581     10.4180     88.0759
  2089.2000     22.4651     10.2205      8.7581     10.4180     89.7998
  2089.3000     22.7154      9.9925      8.5598      8.3931     91.2066
  2089.4000     22.7154      9.9925      8.5598      8.3931     92.3171
  2089.5000     22.9552      9.6587      8.4512      8.0227     93.1643
  2089.6000     22.9552      9.6587      8.4512      8.0227     93.7889
  2089.7000     22.9552      9.6587      8.4512      8.0227     94.2323
  2089.8000     23.1672      9.2576      8.4051      8.3918     94.5354
  2089.9000     23.1672      9.2576      8.4051      8.3918     94.7357
  2090.0000     23.3421      8.8432      8.3915      9.1296     94.8661
  2090.1000     23.3421      8.8432      8.3915      9.1296     94.9553
  2090.2000     23.3421      8.8432      8.3915      9.1296     95.0266
  2090.3000     23.4871      8.4630      8.3783     10.1212     95.0987
  2090.4000     23.4871      8.4630      8.3783     10.1212     95.1838
  2090.5000     23.6050      8.1482      8.3406     11.2570     95.2839
  2090.6000     23.6050      8.1482      8.3406     11.2570     95.3952
  2090.7000     23.6050      8.1482      8.3406     11.2570     95.5041
  2090.8000     23.6856      7.9129      8.2698     12.3289     95.5927
  2090.9000     23.6856      7.9129      8.2698     12.3289     95.6416
  2091.0000     23.7250      7.7571      8.1732     13.1270     95.6366
  2091.1000     23.7250      7.7571      8.1732     13.1270     95.5672
  2091.2000     23.7250      7.7571      8.1732     13.1270     95.4357
  2091.3000     23.7350      7.6729      8.0646     13.5748     95.2494
  2091.4000     23.7350      7.6729      8.0646     13.5748     95.0211
  2091.5000     23.7319      7.6492      7.9553     13.7029     94.7669
  2091.6000     23.7319      7.6492      7.9553     13.7029     94.5001
  2091.7000     23.7319      7.6492      7.9553     13.7029     94.2306
  2091.8000     23.7232      7.6698      7.8515     13.5567     93.9630
  2091.9000     23.7232      7.6698      7.8515     13.5567     93.6973
  2092.0000     23.7000      7.7127      7.7578     13.1758     93.4312
  2092.1000     23.7000      7.7127      7.7578     13.1758     93.1609
  2092.2000     23.7000      7.7127      7.7578     13.1758     92.8813
  2092.3000     23.6450      7.7558      7.6799     12.6101     92.5864
  2092.4000     23.6450      7.7558      7.6799     12.6101     92.2713
  2092.5000     23.5506      7.7888      7.6278     11.9408     91.9310
  2092.6000     23.5506      7.7888      7.6278     11.9408     91.5616
  2092.7000     23.5506      7.7888      7.6278     11.9408     91.1640
  2092.8000     23.4153      7.8157      7.6126     11.2814     90.7430
  2092.9000     23.4153      7.8157      7.6126     11.2814     90.3106
  2093.0000     23.2189      7.8472      7.6424     10.7392     89.8851
  2093.1000     23.2189      7.8472      7.6424     10.7392     89.4869
  2093.2000     23.2189      7.8472      7.6424     10.7392     89.1358
  2093.3000     22.9241      7.8899      7.7173     10.3764     88.8454
  2093.4000     22.9241      7.8899      7.7173     10.3764     88.6171
  2093.5000     22.5578      7.9428      7.8281     10.1975     88.4370
  2093.6000     22.5578      7.9428      7.8281     10.1975     88.2802
  2093.7000     22.5578      7.9428      7.8281     10.1975     88.1133
  2093.8000     22.2689      8.0018      7.9586     10.1642     87.9040
  2093.9000     22.2689      8.0018      7.9586     10.1642     87.6271
  2094.0000     22.1677      8.0686      8.0917     10.2250     87.2757
  2094.1000     22.1677      8.0686      8.0917     10.2250     86.8623
  2094.2000     22.1677      8.0686      8.0917     10.2250     86.4167
  2094.3000     22.1648      8.1530      8.2165     10.3346     85.9814
  2094.4000     22.1648      8.1530      8.2165     10.3346     85.6014
  2094.5000     22.1181      8.2658      8.3333     10.4629     85.3145
  2094.6000     22.1181      8.2658      8.3333     10.4629     85.1470
  2094.7000     22.1181      8.2658      8.3333     10.4629     85.1061
  2094.8000     21.9981      8.4104      8.4517     10.5996     85.1824
  2094.9000     21.9981      8.4104      8.4517     10.5996     85.3578
  2095.0000     21.8355      8.5833      8.5841     10.7698     85.6108
  2095.1000     21.8355      8.5833      8.5841     10.7698     85.9209
  2095.2000     21.8355      8.5833      8.5841     10.7698     86.2774
  2095.3000     21.6389      8.7816      8.7416     11.0387     86.6746
  2095.4000     21.6389      8.7816      8.7416     11.0387     87.1112
  2095.5000     21.3984      9.0089      8.9323     11.4594     87.5832
  2095.6000     21.3984      9.0089      8.9323     11.4594     88.0791
  2095.7000     21.3984      9.0089      8.9323     11.4594     88.5775
  2095.8000     21.1121      9.2725      9.1607     12.0159     89.0482
  2095.9000     21.1121      9.2725      9.1607     12.0159     89.4586
  2096.0000     20.7882      9.5775      9.4279     12.6413     89.7797
  2096.1000     20.7882      9.5775      9.4279     12.6413     89.9912
  2096.2000     20.7882      9.5775      9.4279     12.6413     90.0874
  2096.3000     20.4316      9.9299      9.7336     13.2631     90.0749
  2096.4000     20.4316      9.9299      9.7336     13.2631     89.9678
  2096.5000     20.0456     10.3411     10.0847     13.8304     89.7771
  2096.6000     20.0456     10.3411     10.0847     13.8304     89.5092
  2096.7000     20.0456     10.3411     10.0847     13.8304     89.1550
  2096.8000     19.6477     10.8223     10.5024     14.3321     88.6920
  2096.9000     19.6477     10.8223     10.5024     14.3321     88.0867
  2097.0000     19.2796     11.3684     11.0193     14.8165     87.3014
  2097.1000     19.2796     11.3684     11.0193     14.8165     86.2985
  2097.2000     19.2796     11.3684     11.0193     14.8165     85.0513
  2097.3000     18.9926     11.9448     11.6626     15.4319     83.5432
  2097.4000     18.9926     11.9448     11.6626     15.4319     81.7726
  2097.5000     18.8176     12.4956     12.4363     16.4476     79.7524
  2097.6000     18.8176     12.4956     12.4363     16.4476     77.5070
  2097.7000     18.8176     12.4956     12.4363     16.4476     75.0695
  2097.8000     18.7473     12.9729     13.3122     18.1175     72.4824
  2097.9000     18.7473     12.9729     13.3122     18.1175     69.7941
  2098.0000     18.7451     13.3648     14.2330     20.4102     67.0592
  2098.1000     18.7451     13.3648     14.2330     20.4102     64.3372
  2098.2000     18.7451     13.3648     14.2330     20.4102     61.6912
  2098.3000     18.7735     13.6980     15.1289     22.9127     59.1884
  2098.4000     18.7735     13.6980     15.1289     22.9127     56.8925
  2098.5000     18.8120     14.0134     15.9438     25.1589     54.8628
  2098.6000     18.8120     14.0134     15.9438     25.1589     53.1444
  2098.7000     18.8120     14.0134     15.9438     25.1589     51.7667
  2098.8000     18.8510     14.3345     16.6547     27.0519     50.7390
