~Version Information
VERS.                      2.0: CWLS Log ASCII Standard - VERSION 2.0
WRAP.                       NO: One line per depth step
~Well Information Block
STRT.FT               -19.2500: 
STOP.FT              2421.5000: 
STEP.FT                 0.2500: 
NULL.                -999.2500: 
COMP.          Petrogulf Corporation: COMPANY
WELL.           Montoya 13-41V: WELL
FLD.           Purgatorie River: FIELD
LOC.           449' FNL & 891' FEL: LOCATION
CNTY.               Las Animas: COUNTY
SRVC.                         : SERVICE COMPANY
DATE.          Mon Sep 13 13:48:36 2004: LOG DATE
UWI.                       N/A: UNIQUE WELL ID
STAT.                 Colorado: STATE
~Curve Information Block
DEPT.FT            0 000 00 00: Depth
TT3.usec                      : CBL 3' Travel Time
AMP3.mV                       : CBL 3' Amplitude
GR.GAPI                       : Gamma Ray
CCL.                          : Casing Collar Locator
~Parameter Information Block
~A  Depth       TT3         AMP3         GR         CCL     
# ...
  1923.7500    707.7018      1.8426     84.0984      0.0000
  1924.0000    722.4561      1.9831     85.1330      0.0000
  1924.2500    733.8169      2.1226     85.1395      0.0000
  1924.5000    738.7113      2.2363     84.8165      0.0000
  1924.7500    739.5067      2.3227     84.1174      0.0000
  1925.0000    739.3556      2.3902     82.1440      0.0000
  1925.2500    739.5919      2.4539     78.0017      0.0000
  1925.5000    741.2021      2.5335     71.8236      0.0000
  1925.7500    745.9650      2.6352     64.9793      0.0000
  1926.0000    753.7400      2.7397     59.2443      0.0000
  1926.2500    759.9777      2.8258     55.7327      0.0000
  1926.5000    760.5354      2.8904     54.5001      0.0000
  1926.7500    757.1635      2.9325     54.8585      0.0000
  1927.0000    753.8622      2.9473     55.8326      0.0000
  1927.2500    751.9108      2.9414     56.4834      0.0000
  1927.5000    750.6926      2.9228     56.2722      0.0000
  1927.7500    750.1296      2.8879     55.3906      0.0000
  1928.0000    751.8262      2.8362     54.6563      0.0000
  1928.2500    757.6924      2.7799     54.8553      0.0000
  1928.5000    766.2411      2.7290     56.1010      0.0000
  1928.7500    772.1476      2.6822     57.9222      0.0000
  1929.0000    771.3526      2.6364     59.8493      0.0000
  1929.2500    765.2877      2.5948     61.6052      0.0000
  1929.5000    759.1342      2.5596     62.8096      0.0000
  1929.7500    756.8519      2.5249     63.0615      0.0000
  1930.0000    759.0414      2.4798     62.5356      0.0000
  1930.2500    763.7415      2.4136     62.0617      0.0000
  1930.5000    767.9672      2.3284     62.3063      0.0000
  1930.7500    770.5339      2.2513     63.0395      0.0000
  1931.0000    772.6646      2.2107     63.3291      0.0000
  1931.2500    774.9592      2.1910     62.4427      0.0000
  1931.5000    775.4517      2.1545     60.6058      0.0000
  1931.7500    771.9758      2.1067     59.0486      0.0000
  1932.0000    766.5361      2.0928     59.4473      0.0000
  1932.2500    762.1354      2.1361     63.1534      0.0000
  1932.5000    756.9058      2.2100     70.5142      0.0000
  1932.7500    746.2662      2.2731     80.5362      0.0000
  1933.0000    726.5688      2.3184     91.0777      0.0000
  1933.2500    702.3643      2.3877     99.7901      0.0000
  1933.5000    691.8201      2.5323    105.5856      0.0000
  1933.7500    707.0445      2.7521    109.2997      0.0000
  1934.0000    736.3236      2.9991    112.5260      0.0000
  1934.2500    762.3104      3.2456    115.8727      0.0000
  1934.5000    777.6774      3.4998    118.6707      0.0000
  1934.7500    781.2578      3.7495    120.0114      0.0000
  1935.0000    779.0640      3.9461    119.7039      0.0000
  1935.2500    779.7913      4.0780    118.6247      0.0000
  1935.5000    782.7661      4.2071    118.2890      0.0000
  1935.7500    782.4362      4.3910    119.6683      0.0000
  1936.0000    779.3376      4.6152    122.4152      0.0000
  1936.2500    776.6902      4.8272    125.5851      0.0000
  1936.5000    774.0167      5.0084    128.9190      0.0000
  1936.7500    769.5726      5.1841    132.9122      0.0000
  1937.0000    763.4787      5.3897    137.6989      0.0000
  1937.2500    754.2917      5.6633    142.4341      0.0000
  1937.5000    736.2039      6.0396    145.9734      0.0000
  1937.7500    705.5994      6.5449    147.7942      0.0000
  1938.0000    664.5719      7.2075    148.1776      0.0000
  1938.2500    609.1907      8.0289    147.9458      0.0000
  1938.5000    533.3450      8.9408    148.1479      0.0000
  1938.7500    453.2744      9.8193    149.4306      0.0000
  1939.0000    396.7613     10.5297    151.3765      0.0000
  1939.2500    370.8021     10.9870    152.7173      0.0000
  1939.5000    363.0862     11.2004    152.4610      0.0000
  1939.7500    361.7438     11.2274    150.7871      0.0000
  1940.0000    361.7928     11.1248    148.8148      0.0000
  1940.2500    361.8864     10.9755    147.6261      0.0000
  1940.5000    361.6748     10.9034    147.5841      0.0000
  1940.7500    361.0889     11.0250    148.5011      0.0000
  1941.0000    360.2251     11.3885    150.2206      0.0000
  1941.2500    359.3372     11.9388    152.7684      0.0000
  1941.5000    358.6829     12.5480    155.9476      0.0000
  1941.7500    358.3122     13.0725    159.0564      0.0000
  1942.0000    358.0729     13.3790    161.2173      0.0000
  1942.2500    357.8510     13.4083    161.9942      0.0000
  1942.5000    357.7108     13.2267    161.7010      0.0000
  1942.7500    357.7959     12.9438    161.1200      0.0000
  1943.0000    358.2284     12.6121    160.9651      0.0000
  1943.2500    359.0211     12.2604    161.4637      0.0000
  1943.5000    359.9702     11.9598    162.2022      0.0000
  1943.7500    360.7344     11.7818    162.4194      0.0000
  1944.0000    361.0864     11.7239    161.7295      0.0000
  1944.2500    361.0359     11.7271    160.4640      0.0000
  1944.5000    360.7629     11.6981    158.9757      0.0000
  1944.7500    360.5194     11.4998    156.7299      0.0000
  1945.0000    360.5345     11.0511    152.6471      0.0000
  1945.2500    360.8398     10.4423    146.6292      0.0000
  1945.5000    361.1825      9.8835    140.4061      0.0000
  1945.7500    361.3188      9.5462    136.3963      0.0000
  1946.0000    361.3466      9.4620    135.6594      0.0000
  1946.2500    361.5926      9.5414    137.1842      0.0000
  1946.5000    362.6883      9.6445    139.2947      0.0000
  1946.7500    366.5552      9.6570    141.4345      0.0000
  1947.0000    376.4231      9.5468    144.2855      0.0000
  1947.2500    391.7645      9.3612    148.3357      0.0000
  1947.5000    402.9504      9.1876    152.8482      0.0000
  1947.7500    399.8383      9.1394    156.3908      0.0000
  1948.0000    385.6250      9.3250    158.0550      0.0000
  1948.2500    371.8682      9.7642    157.9497      0.0000
  1948.5000    364.3609     10.3505    156.8258      0.0000
  1948.7500    361.5816     10.9225    155.5834      0.0000
  1949.0000    360.7557     11.3933    154.9684      0.0000
  1949.2500    360.5334     11.7569    155.1105      0.0000
  1949.5000    360.5758     11.9437    155.2268      0.0000
  1949.7500    360.8894     11.8523    154.3823      0.0000
  1950.0000    361.4258     11.5530    152.7592      0.0000
  1950.2500    362.0109     11.2644    151.5799      0.0000
  1950.5000    362.7331     11.1207    151.6167      0.0000
  1950.7500    364.5043     11.0702    152.3974      0.0000
  1951.0000    368.9250     10.9749    153.1009      0.0000
  1951.2500    376.3778     10.7389    153.7824      0.0000
  1951.5000    384.9009     10.3583    155.4044      0.0000
  1951.7500    393.5239      9.9007    158.7583      0.0000
  1952.0000    404.4322      9.4544    163.3863      0.0000
  1952.2500    419.1316      9.0859    167.5413      0.0000
  1952.5000    433.1925      8.8455    169.1914      0.0000
  1952.7500    435.3957      8.7891    167.1680      0.0000
  1953.0000    419.4556      8.9505    161.8388      0.0000
  1953.2500    395.6786      9.2784    155.1688      0.0000
  1953.5000    381.5280      9.6229    149.7780      0.0000
  1953.7500    389.5195      9.8129    147.1186      0.0000
  1954.0000    427.1307      9.7497    146.5178      0.0000
  1954.2500    487.4807      9.4286    146.3867      0.0000
  1954.5000    543.2432      8.9157    146.1412      0.0000
  1954.7500    580.7338      8.3369    146.4828      0.0000
  1955.0000    621.4902      7.8269    148.1637      0.0000
  1955.2500    679.0374      7.4481    151.1515      0.0000
  1955.5000    732.1912      7.1948    154.7345      0.0000
  1955.7500    755.8943      7.0535    157.7832      0.0000
  1956.0000    744.5894      7.0023    159.0275      0.0000
  1956.2500    713.8755      6.9802    157.7606      0.0000
  1956.5000    696.2974      6.9008    154.3552      0.0000
  1956.7500    711.4960      6.7084    149.7967      0.0000
  1957.0000    742.6067      6.4251    144.9826      0.0000
