~Version Information
VERS.                      2.0: CWLS Log ASCII Standard - VERSION 2.0
WRAP.                       NO: One line per depth step
~Well Information Block
STRT.FT               580.0000: 
STOP.FT              2729.7000: 
STEP.FT                 0.1000: 
NULL.                -999.2500: 
COMP.          Pioneer Natural Resources: COMPANY
WELL.          Sand Pebbles 13-33: WELL
FLD.           Purgatoire River: FIELD
LOC.           1883' FSL & 63' FWL----: LOCATION
PROV.                 Colorado: PROVINCE
CNTY.               Las Animas: COUNTRY
SRVC.                Patterson: SERVICE COMPANY
DATE.          Mon Mar 14 07:33:33 2005: LOG DATE
UWI.           05 071 08224 00: UNIQUE WELL ID
~Curve Information Block
DEPT.FT            0 000 00 00: Depth
DCAL.in                       : CDL Caliper
RHOB.g/cc                     : CDL Bulk Density
RHOC.g/cc                     : CDL Density Correction
DPOR.pu                       : CDL Density Porosity
NPOR.pu                       : Neutron Porosity
GR.GAPI                       : Gamma Ray
~Parameter Information Block
~A  Depth       DCAL        RHOB        RHOC        DPOR        NPOR         GR     
# ...
  2279.2000      7.9603      2.5348      0.0596      6.9795     24.5915     93.4735
  2279.3000      7.9467      2.5267      0.0432      7.4750     23.2601     91.2070
  2279.4000      7.9467      2.5244      0.0054      7.6113     23.3287     98.0272
  2279.5000      7.9376      2.5361      0.0107      6.9030     24.2459    106.3965
  2279.6000      7.9376      2.5444      0.0513      6.3973     24.6147    108.1458
  2279.7000      7.9376      2.5366     -0.0070      6.8744     24.1232    105.8015
  2279.8000      7.9353      2.5352     -0.0004      6.9547     23.2960    103.6954
  2279.9000      7.9353      2.5598      0.0558      5.4650     22.6316     99.4335
  2280.0000      7.9368      2.5995      0.0654      3.0605     22.3581     93.3034
  2280.1000      7.9368      2.6338      0.0732      0.9812     22.0614     88.0449
  2280.2000      7.9368      2.6476      0.0992      0.1434     21.5215     84.2377
  2280.3000      7.9379      2.6358      0.0985      0.8603     21.1659     82.0113
  2280.4000      7.9379      2.6086      0.0621      2.5085     21.1359     81.9658
  2280.5000      7.9356      2.5815      0.0429      4.1531     21.3304     84.5089
  2280.6000      7.9356      2.5629      0.0296      5.2775     21.6718     88.1261
  2280.7000      7.9356      2.5569      0.0226      5.6445     21.8981     89.6630
  2280.8000      7.9278      2.5610      0.0359      5.3933     21.7629     88.1931
  2280.9000      7.9278      2.5626      0.0533      5.2956     21.1857     86.2790
  2281.0000      7.9185      2.5584      0.0250      5.5518     20.4452     85.3475
  2281.1000      7.9185      2.5625      0.0152      5.3011     19.9737     83.5061
  2281.2000      7.9185      2.5722      0.0675      4.7137     19.9963     82.5248
  2281.3000      7.9143      2.5719      0.0223      4.7309     20.3776     84.6221
  2281.4000      7.9143      2.5677      0.0399      4.9858     20.5285     87.9384
  2281.5000      7.9138      2.5676      0.0533      4.9934     20.2701     90.7691
  2281.6000      7.9138      2.5629      0.0615      5.2795     20.0048     90.8346
  2281.7000      7.9138      2.5538      0.0154      5.8317     19.9196     88.5935
  2281.8000      7.9121      2.5522      0.0320      5.9246     20.2476     87.4170
  2281.9000      7.9121      2.5603      0.0342      5.4355     20.9864     90.3118
  2282.0000      7.9090      2.5772      0.0306      4.4134     21.5460     96.1069
  2282.1000      7.9090      2.6001      0.0480      3.0226     21.7898     99.4328
  2282.2000      7.9090      2.6129      0.0676      2.2506     22.1864     96.8595
  2282.3000      7.9077      2.6057      0.0333      2.6872     22.7844     90.7353
  2282.4000      7.9077      2.5885      0.0446      3.7286     22.8374     88.5412
  2282.5000      7.9082      2.5686      0.0426      4.9325     22.1180     94.2445
  2282.6000      7.9082      2.5505      0.0147      6.0304     21.6661    102.2330
  2282.7000      7.9082      2.5373      0.0442      6.8288     21.7362    107.6744
  2282.8000      7.9098      2.5307      0.0220      7.2331     21.5692    114.0647
  2282.9000      7.9098      2.5418      0.0261      6.5565     21.2717    120.7976
  2283.0000      7.9132      2.5709      0.0542      4.7941     21.4494    119.9585
  2283.1000      7.9132      2.5979      0.0671      3.1552     21.7427    110.3283
  2283.2000      7.9132      2.6082      0.0846      2.5332     21.5796    100.1466
  2283.3000      7.9104      2.6048      0.0680      2.7380     21.1362     95.2382
  2283.4000      7.9104      2.6000      0.0625      3.0329     20.6822     92.5113
  2283.5000      7.8974      2.5998      0.0518      3.0403     20.0160     87.2621
  2283.6000      7.8974      2.6011      0.0662      2.9664     19.1306     82.1635
  2283.7000      7.8974      2.6020      0.0458      2.9112     18.5777     81.7676
  2283.8000      7.8882      2.6042      0.0863      2.7778     18.4912     85.8427
  2283.9000      7.8882      2.6058      0.0511      2.6764     18.7900     88.7669
  2284.0000      7.8858      2.6071      0.0634      2.6001     19.7866     85.1899
  2284.1000      7.8858      2.6056      0.0680      2.6926     21.1347     79.0720
  2284.2000      7.8858      2.5943      0.0596      3.3735     21.5529     77.8741
  2284.3000      7.8839      2.5736      0.0776      4.6292     20.6501     82.1229
  2284.4000      7.8839      2.5617      0.0168      5.3503     19.6589     85.1925
  2284.5000      7.8811      2.5731      0.0634      4.6616     19.4646     82.4886
  2284.6000      7.8811      2.5877      0.1103      3.7743     19.6290     78.6729
  2284.7000      7.8811      2.5835      0.0576      4.0303     19.7676     78.3962
  2284.8000      7.8796      2.5674      0.0287      5.0047     20.0557     81.1411
  2284.9000      7.8796      2.5530      0.0065      5.8801     20.2399     83.2623
  2285.0000      7.8812      2.5445      0.0461      6.3962     19.9069     81.4582
  2285.1000      7.8812      2.5406      0.0507      6.6331     19.1055     77.4385
  2285.2000      7.8812      2.5395      0.0548      6.6946     18.1584     71.0582
  2285.3000      7.8838      2.5390      0.0116      6.7244     17.4745     61.7549
  2285.4000      7.8838      2.5347      0.0421      6.9906     17.0861     54.6219
  2285.5000      7.8848      2.5270      0.0212      7.4545     16.7075     51.8420
  2285.6000      7.8848      2.5274      0.0098      7.4306     16.3094     49.7506
  2285.7000      7.8848      2.5391      0.0620      6.7224     16.0425     44.5695
  2285.8000      7.8844      2.5445      0.0603      6.3918     15.8521     39.5622
  2285.9000      7.8844      2.5365      0.0272      6.8800     15.5119     40.4736
  2286.0000      7.8831      2.5319      0.0259      7.1581     14.8438     43.0727
  2286.1000      7.8831      2.5399      0.0614      6.6723     14.2365     40.8175
  2286.2000      7.8831      2.5473      0.0567      6.2248     14.2525     36.8767
  2286.3000      7.8817      2.5464      0.0687      6.2773     14.5411     35.9536
  2286.4000      7.8817      2.5486      0.0744      6.1435     14.3772     36.2391
  2286.5000      7.8806      2.5527      0.0901      5.8954     13.8902     36.2134
  2286.6000      7.8806      2.5364      0.1016      6.8868     13.6521     38.2829
  2286.7000      7.8806      2.4943      0.0465      9.4347     13.8834     41.6079
  2286.8000      7.8795      2.4519     -0.0131     12.0049     14.5258     43.4498
  2286.9000      7.8795      2.4301     -0.0003     13.3272     15.3429     43.9335
  2287.0000      7.8779      2.4291      0.0012     13.3860     15.9366     45.0065
  2287.1000      7.8779      2.4419      0.0047     12.6134     16.2675     46.7847
  2287.2000      7.8779      2.4581      0.0544     11.6324     16.9024     48.1662
  2287.3000      7.8751      2.4675      0.0197     11.0580     17.7620     49.8731
  2287.4000      7.8751      2.4670      0.0558     11.0912     18.0712     52.7210
  2287.5000      7.8686      2.4593      0.0497     11.5593     17.6893     55.4826
  2287.6000      7.8686      2.4554      0.0246     11.7923     17.1181     57.3045
  2287.7000      7.8686      2.4677      0.0546     11.0484     16.9101     58.4467
  2287.8000      7.8638      2.4908      0.0621      9.6490     17.2528     59.8696
  2287.9000      7.8638      2.5052      0.0661      8.7741     17.5741     62.4472
  2288.0000      7.8745      2.5040      0.0747      8.8511     17.4026     63.5215
  2288.1000      7.8745      2.4988      0.0707      9.1629     17.2103     60.3009
  2288.2000      7.8745      2.5046      0.0356      8.8141     17.5289     56.8213
  2288.3000      7.8977      2.5177      0.1398      8.0187     18.0681     57.5749
  2288.4000      7.8977      2.5213      0.0699      7.7996     18.4677     59.9612
  2288.5000      7.9179      2.5166      0.0615      8.0819     18.8641     59.8265
  2288.6000      7.9179      2.5072      0.0745      8.6526     19.0958     58.8046
  2288.7000      7.9179      2.4904      0.0592      9.6735     18.7999     61.3280
