~Version Information
VERS.                      2.0: CWLS Log ASCII Standard - VERSION 2.0
WRAP.                       NO: One line per depth step
~Well Information Block
STRT.FT               948.2500: 
STOP.FT              2134.5000: 
STEP.FT                 0.2500: 
NULL.                -999.2500: 
COMP.          Petrogulf Corporation: COMPANY
WELL.             Valejo 8-12R: WELL
FLD.           Purgatorie River: FIELD
LOC.           1351'' FNL & 1562' FWL: LOCATION
CNTY.               Las Animas: COUNTY
SRVC.                         : SERVICE COMPANY
DATE.          Wed Apr 28 02:30:32 2004: LOG DATE
UWI.           05 071 08038 00: UNIQUE WELL ID
STAT.                 Colorado: STATE
~Curve Information Block
DEPT.FT            0 000 00 00: Depth
SP.mV                         : DIL Spontaneous Potential
RILD.Ohm-m                    : DIL Deep Resistivity
RILM.Ohm-m                    : DIL Medium Resistivity
RLL3.Ohm-m                    : DIL Shallow Resistivity
GR.GAPI                       : Gamma Ray
~Parameter Information Block
~A  Depth        SP         RILD        RILM        RLL3         GR     
# ...
  1732.2500    124.8839      9.0635      9.1999     16.1497    137.7320
  1732.5000    124.7617      9.2742      9.8419     20.7375    126.0341
  1732.7500    124.6247      9.5520     10.5884     25.5645    119.4530
  1733.0000    124.5041      9.9049     11.4153     29.5083    112.6019
  1733.2500    124.4298     10.3290     12.3041     31.6650    110.1903
  1733.5000    124.4142     10.8022     13.2449     32.1798    108.7740
  1733.7500    124.4469     11.2831     14.2276     32.5581    107.9584
  1734.0000    124.5084     11.7192     15.2192     34.9770    104.6109
  1734.2500    124.5884     12.0591     16.1360     40.8530    100.5938
  1734.5000    124.6897     12.2665     16.8308     49.4905     93.6373
  1734.7500    124.8199     12.3263     17.1279     57.8003     90.2435
  1735.0000    124.9868     12.2440     16.9110     61.6953     89.9146
  1735.2500    125.1951     12.0387     16.2106     58.5798     93.6827
  1735.5000    125.4377     11.7330     15.2001     49.1112    104.7679
  1735.7500    125.6836     11.3458     14.0994     36.7189    114.4270
  1736.0000    125.8780     10.8923     13.0748     25.3412    128.8008
  1736.2500    125.9662     10.3882     12.2016     17.3587    136.1550
  1736.5000    125.9275      9.8531     11.4797     13.1012    141.4807
  1736.7500    125.7900      9.3105     10.8666     11.6132    141.2170
  1737.0000    125.6136      8.7837     10.3099     11.5965    137.4022
  1737.2500    125.4525      8.2920      9.7719     11.9531    134.6779
  1737.5000    125.3291      7.8480      9.2412     11.9944    133.5311
  1737.7500    125.2321      7.4580      8.7280     11.4978    135.5425
  1738.0000    125.1381      7.1231      8.2522     10.6282    141.7294
  1738.2500    125.0355      6.8407      7.8310      9.7127    146.4392
  1738.5000    124.9324      6.6057      7.4729      8.9769    151.9620
  1738.7500    124.8451      6.4112      7.1771      8.4319    154.1591
  1739.0000    124.7810      6.2499      6.9361      7.9766    156.1823
  1739.2500    124.7333      6.1153      6.7392      7.5657    157.5537
  1739.5000    124.6884      6.0028      6.5755      7.2502    160.3309
  1739.7500    124.6383      5.9098      6.4368      7.0776    162.3770
  1740.0000    124.5850      5.8350      6.3186      7.0173    164.5681
  1740.2500    124.5373      5.7782      6.2198      7.0117    164.7753
  1740.5000    124.5011      5.7401      6.1417      7.0631    162.4884
  1740.7500    124.4740      5.7225      6.0864      7.2238    159.1320
  1741.0000    124.4479      5.7280      6.0559      7.5010    152.0364
  1741.2500    124.4150      5.7610      6.0521      7.7987    146.9841
  1741.5000    124.3691      5.8265      6.0779      7.9709    141.1044
  1741.7500    124.3045      5.9303      6.1398      7.9353    138.9524
  1742.0000    124.2159      6.0774      6.2480      7.7587    137.6173
  1742.2500    124.1014      6.2699      6.4163      7.6738    136.9797
  1742.5000    123.9675      6.5058      6.6606      8.0261    135.1302
  1742.7500    123.8308      6.7791      6.9975      9.1610    133.0758
  1743.0000    123.7166      7.0812      7.4433     11.2761    128.8479
  1743.2500    123.6486      7.4041      8.0118     14.3209    125.3610
  1743.5000    123.6359      7.7421      8.7093     18.0445    119.2832
  1743.7500    123.6661      8.0929      9.5301     22.1918    114.8089
  1744.0000    123.7137      8.4560     10.4538     26.6660    107.9253
  1744.2500    123.7587      8.8303     11.4485     31.4551    103.6029
  1744.5000    123.7966      9.2088     12.4744     36.4149     98.2242
  1744.7500    123.8309      9.5766     13.4841     41.1776     95.7253
  1745.0000    123.8621      9.9112     14.4152     45.1647     93.9032
  1745.2500    123.8833     10.1869     15.1863     47.5251     93.9174
  1745.5000    123.8887     10.3804     15.7103     47.2359     95.6902
  1745.7500    123.8794     10.4732     15.9250     43.7143     98.2599
  1746.0000    123.8617     10.4550     15.8222     37.5292    104.5725
  1746.2500    123.8429     10.3254     15.4454     30.3944    109.9204
  1746.5000    123.8351     10.0966     14.8601     24.3163    117.3400
  1746.7500    123.8557      9.7923     14.1216     20.5380    120.6904
  1747.0000    123.9226      9.4415     13.2699     18.9680    123.5627
  1747.2500    124.0455      9.0714     12.3443     18.4419    125.3897
  1747.5000    124.2189      8.7023     11.3976     17.6416    130.2407
  1747.7500    124.4187      8.3471     10.4918     15.9656    135.2299
  1748.0000    124.6096      8.0141      9.6807     13.6813    144.2573
  1748.2500    124.7628      7.7083      8.9966     11.4275    150.1146
  1748.5000    124.8707      7.4321      8.4462      9.6885    156.5246
  1748.7500    124.9477      7.1833      8.0165      8.6216    158.3928
  1749.0000    125.0169      6.9565      7.6832      8.1425    157.6786
  1749.2500    125.0947      6.7454      7.4194      8.0556    155.8144
  1749.5000    125.1834      6.5471      7.2015      8.1467    153.2482
  1749.7500    125.2704      6.3631      7.0128      8.2382    152.7912
  1750.0000    125.3349      6.1979      6.8438      8.2168    154.6646
  1750.2500    125.3603      6.0561      6.6903      8.0504    157.2607
  1750.5000    125.3460      5.9402      6.5510      7.7900    161.6542
  1750.7500    125.3095      5.8500      6.4258      7.5336    163.9187
  1751.0000    125.2722      5.7837      6.3151      7.3603    165.3033
  1751.2500    125.2477      5.7385      6.2192      7.2760    164.9382
  1751.5000    125.2404      5.7116      6.1398      7.2104    163.3026
  1751.7500    125.2512      5.7003      6.0806      7.0686    162.0551
  1752.0000    125.2788      5.7012      6.0476      6.8117    160.6692
  1752.2500    125.3186      5.7106      6.0479      6.5203    160.2287
  1752.5000    125.3612      5.7240      6.0864      6.3832    159.7814
  1752.7500    125.3980      5.7373      6.1629      6.5922    158.8946
  1753.0000    125.4318      5.7473      6.2693      7.1938    155.6939
  1753.2500    125.4853      5.7528      6.3902      8.0179    152.5521
  1753.5000    125.5902      5.7552      6.5066      8.7693    148.1425
  1753.7500    125.7617      5.7577      6.6017      9.2112    146.5083
  1754.0000    125.9806      5.7653      6.6674      9.2754    146.5558
  1754.2500    126.2020      5.7824      6.7065      9.0324    147.6771
  1754.5000    126.3824      5.8112      6.7294      8.6114    149.3954
  1754.7500    126.5011      5.8494      6.7488      8.1591    149.8922
  1755.0000    126.5637      5.8907      6.7727      7.8172    149.5486
  1755.2500    126.5925      5.9260      6.8021      7.6726    148.9827
  1755.5000    126.6083      5.9461      6.8307      7.7009    148.2665
  1755.7500    126.6150      5.9449      6.8474      7.7780    147.9667
  1756.0000    126.5977      5.9208      6.8411      7.7755    147.7316
  1756.2500    126.5364      5.8771      6.8052      7.6567    147.8520
  1756.5000    126.4206      5.8207      6.7388      7.4844    149.0402
  1756.7500    126.2566      5.7600      6.6460      7.3482    150.8761
  1757.0000    126.0661      5.7039      6.5338      7.2895    155.3138
  1757.2500    125.8778      5.6608      6.4101      7.2765    158.8741
  1757.5000    125.7140      5.6381      6.2833      7.2291    163.4293
  1757.7500    125.5827      5.6410      6.1638      7.0680    165.1991
  1758.0000    125.4819      5.6720      6.0640      6.7618    166.1750
  1758.2500    125.4105      5.7302      5.9979      6.3546    166.4516
  1758.5000    125.3712      5.8120      5.9794      5.9611    167.3148
  1758.7500    125.3568      5.9116      6.0207      5.7297    168.1599
  1759.0000    125.3398      6.0223      6.1299      5.8000    168.5440
  1759.2500    125.2908      6.1374      6.3100      6.2798    166.9999
  1759.5000    125.2139      6.2516      6.5576      7.2233    160.6760
  1759.7500    125.1542      6.3618      6.8636      8.5699    154.2526
  1760.0000    125.1585      6.4681      7.2140     10.0879    143.6170
