~Version Information
VERS.                      2.0: CWLS Log ASCII Standard - VERSION 2.0
WRAP.                       NO: One line per depth step
~Well Information Block
STRT.FT               710.0000: 
STOP.FT              2304.5000: 
STEP.FT                 0.2500: 
NULL.                -999.2500: 
COMP.          Pioneer Natural Resources: COMPANY
WELL.           Ogallela 44-12: WELL
FLD.           Purgatoire River: FIELD
LOC.           610' FSL & 671' FEL: LOCATION
PROV.                 Colorado: PROVINCE
CNTY.               Las Animas: COUNTRY
SRVC.                Patterson: SERVICE COMPANY
DATE.          Wed Feb 23 00:14:59 2005: LOG DATE
UWI.           05 071 08283 00: UNIQUE WELL ID
~Curve Information Block
DEPT.FT            0 000 00 00: Depth
SN.Ohm-m                      : IEL Short Normal
SP.mV                         : IEL Spontaneous Potential
DIR.Ohm-m                     : IEL Induction Resistivity
GR.GAPI                       : Gamma Ray
~Parameter Information Block
~A  Depth        SN          SP         DIR          GR     
# ...
  1648.0000      9.2594    -14.5164      7.9809    145.3274
  1648.2500      9.6265    -14.4886      8.1936    141.3636
  1648.5000      9.9438    -14.4876      8.4198    136.2208
  1648.7500     10.1668    -14.5004      8.6505    133.4992
  1649.0000     10.2813    -14.5023      8.8773    131.3861
  1649.2500     10.2907    -14.4718      9.0921    131.7974
  1649.5000     10.2392    -14.4015      9.2848    135.1364
  1649.7500     10.2277    -14.2996      9.4433    138.5152
  1650.0000     10.3090    -14.1826      9.5572    143.4488
  1650.2500     10.3993    -14.0693      9.6237    145.6791
  1650.5000     10.3958    -13.9769      9.6488    147.0667
  1650.7500     10.3105    -13.9197      9.6430    147.3435
  1651.0000     10.2382    -13.9104      9.6167    148.2779
  1651.2500     10.2563    -13.9638      9.5795    149.5584
  1651.5000     10.3655    -14.0983      9.5406    151.7470
  1651.7500     10.4926    -14.3313      9.5082    152.7564
  1652.0000     10.5542    -14.6711      9.4866    153.2426
  1652.2500     10.5167    -15.1119      9.4778    153.2134
  1652.5000     10.3916    -15.6356      9.4855    153.4625
  1652.7500     10.2096    -16.2179      9.5177    154.0990
  1653.0000     10.0302    -16.8349      9.5824    155.8232
  1653.2500      9.9233    -17.4670      9.6810    157.3735
  1653.5000      9.9153    -18.1002      9.8034    159.6873
  1653.7500     10.0027    -18.7266      9.9303    160.4308
  1654.0000     10.2102    -19.3402     10.0409    158.3550
  1654.2500     10.5759    -19.9290     10.1213    153.8896
  1654.5000     11.0664    -20.4646     10.1694    142.8331
  1654.7500     11.5543    -20.8991     10.1928    134.0629
  1655.0000     11.9086    -21.1784     10.2018    122.4535
  1655.2500     12.0961    -21.2653     10.2026    117.6296
  1655.5000     12.1887    -21.1585     10.1947    116.7119
  1655.7500     12.2904    -20.8927     10.1739    120.4830
  1656.0000     12.4265    -20.5254     10.1357    131.1255
  1656.2500     12.4857    -20.1169     10.0777    139.6467
  1656.5000     12.3320    -19.7140      9.9969    150.6964
  1656.7500     11.9541    -19.3426      9.8874    155.1939
  1657.0000     11.4436    -19.0117      9.7416    157.0358
  1657.2500     10.8958    -18.7251      9.5545    155.9853
  1657.5000     10.3649    -18.4904      9.3276    153.4026
  1657.7500      9.8749    -18.3233      9.0698    151.9097
  1658.0000      9.4510    -18.2494      8.7957    150.3009
  1658.2500      9.1149    -18.2944      8.5219    149.4928
  1658.5000      8.8516    -18.4622      8.2641    148.7190
  1658.7500      8.6285    -18.7231      8.0336    148.8493
  1659.0000      8.4360    -19.0316      7.8353    150.7852
  1659.2500      8.2752    -19.3613      7.6691    153.3020
  1659.5000      8.1333    -19.7180      7.5313    157.7966
  1659.7500      7.9972    -20.1155      7.4173    160.1808
  1660.0000      7.8791    -20.5378      7.3219    161.5094
  1660.2500      7.8048    -20.9261      7.2380    160.8258
  1660.5000      7.7713    -21.2049      7.1569    158.1597
  1660.7500      7.7402    -21.3228      7.0707    155.8776
  1661.0000      7.6672    -21.2742      6.9767    152.8071
  1661.2500      7.5193    -21.0935      6.8808    151.5583
  1661.5000      7.2895    -20.8308      6.7964    151.2696
  1661.7500      7.0174    -20.5263      6.7394    151.9971
  1662.0000      6.7862    -20.1958      6.7227    153.8590
  1662.2500      6.6764    -19.8338      6.7516    155.0358
  1662.5000      6.7169    -19.4303      6.8232    155.3730
  1662.7500      6.9015    -18.9882      6.9288    154.1092
  1663.0000      7.2205    -18.5290      7.0571    150.4336
  1663.2500      7.6310    -18.0829      7.1981    147.6457
  1663.5000      8.0384    -17.6795      7.3452    143.8382
  1663.7500      8.3501    -17.3434      7.4966    141.3060
  1664.0000      8.5505    -17.0915      7.6543    136.7618
  1664.2500      8.7232    -16.9255      7.8234    133.3091
  1664.5000      8.9997    -16.8263      8.0089    128.6421
  1664.7500      9.4901    -16.7590      8.2157    126.5836
  1665.0000     10.2182    -16.6905      8.4497    125.2291
  1665.2500     11.0669    -16.6026      8.7193    124.9145
  1665.5000     11.8069    -16.4959      9.0350    124.4758
  1665.7500     12.2738    -16.3821      9.4067    124.3817
  1666.0000     12.5181    -16.2769      9.8407    125.3976
  1666.2500     12.7223    -16.1933     10.3393    126.8739
  1666.5000     13.0210    -16.1397     10.9002    129.2061
  1666.7500     13.4474    -16.1232     11.5158    130.0665
  1667.0000     13.9705    -16.1520     12.1701    129.4619
  1667.2500     14.5443    -16.2345     12.8371    127.5710
  1667.5000     15.1741    -16.3721     13.4850    122.5185
  1667.7500     15.9477    -16.5514     14.0867    117.9867
  1668.0000     16.9810    -16.7448     14.6324    110.4101
  1668.2500     18.3370    -16.9169     15.1342    105.4740
  1668.5000     19.9931    -17.0352     15.6169     99.1325
  1668.7500     21.8343    -17.0781     16.1013     95.9001
  1669.0000     23.6603    -17.0385     16.5909     92.5131
  1669.2500     25.2729    -16.9226     17.0701     90.9931
  1669.5000     26.5693    -16.7478     17.5101     89.4353
  1669.7500     27.4832    -16.5391     17.8735     88.8128
  1670.0000     27.9011    -16.3219     18.1125     88.6875
  1670.2500     27.7158    -16.1113     18.1661     89.4501
  1670.5000     26.8985    -15.9048     17.9680     92.8517
  1670.7500     25.5369    -15.6879     17.4763     97.2471
  1671.0000     23.8669    -15.4463     16.7108    107.0337
  1671.2500     22.1188    -15.1783     15.7615    114.6861
  1671.5000     20.2780    -14.9007     14.7504    125.1704
  1671.7500     18.1718    -14.6463     13.7792    130.2073
  1672.0000     15.8176    -14.4475     12.9024    134.2486
  1672.2500     13.5509    -14.3131     12.1347    135.3610
  1672.5000     11.8087    -14.2221     11.4731    137.1402
  1672.7500     10.8499    -14.1437     10.9121    139.6156
  1673.0000     10.6058    -14.0649     10.4464    145.5576
  1673.2500     10.7262    -13.9947     10.0653    150.2637
  1673.5000     10.8237    -13.9504      9.7488    156.8020
  1673.7500     10.7127    -13.9458      9.4706    159.9729
  1674.0000     10.4346    -13.9876      9.2061    161.5975
  1674.2500     10.1181    -14.0745      8.9413    160.0771
  1674.5000      9.8579    -14.1988      8.6766    154.5656
  1674.7500      9.6794    -14.3516      8.4228    150.2501
  1675.0000      9.5568    -14.5301      8.1952    145.8701
  1675.2500      9.4464    -14.7346      8.0086    145.1843
  1675.5000      9.3217    -14.9560      7.8751    146.7378
  1675.7500      9.1916    -15.1703      7.8028    148.5975
  1676.0000      9.0828    -15.3534      7.7953    151.9166
  1676.2500      9.0116    -15.4969      7.8515    154.4907
  1676.5000      8.9757    -15.6053      7.9669    158.5144
  1676.7500      8.9692    -15.6833      8.1335    160.7239
  1677.0000      9.0019    -15.7365      8.3387    162.4134
  1677.2500      9.1054    -15.7747      8.5618    162.1546
  1677.5000      9.3113    -15.8053      8.7745    159.0677
  1677.7500      9.6178    -15.8233      8.9457    154.6834
  1678.0000      9.9918    -15.8144      9.0529    144.4081
  1678.2500     10.4037    -15.7619      9.0901    135.9792
  1678.5000     10.8397    -15.6434      9.0687    124.1155
  1678.7500     11.2720    -15.4278      9.0093    118.7179
  1679.0000     11.6493    -15.0913      8.9320    116.3897
  1679.2500     11.9339    -14.6422      8.8511    118.6383
  1679.5000     12.0921    -14.1230      8.7724    126.2326
  1679.7500     12.0241    -13.5899      8.6919    133.1288
  1680.0000     11.5960    -13.0887      8.5974    144.9061
  1680.2500     10.7864    -12.6421      8.4732    152.9349
  1680.5000      9.7436    -12.2492      8.3076    163.5597
  1680.7500      8.6936    -11.8958      8.0986    168.7681
  1681.0000      7.8209    -11.5680      7.8545    173.1927
  1681.2500      7.2206    -11.2594      7.5897    174.3279
