~Version Information
VERS.                      2.0: CWLS Log ASCII Standard - VERSION 2.0
WRAP.                       NO: One line per depth step
~Well Information Block
STRT.FT                -7.0000: 
STOP.FT              2389.2500: 
STEP.FT                 0.2500: 
NULL.                -999.2500: 
COMP.          Pioneer Natural Resources: COMPANY
WELL.            Victory 12-14: WELL
FLD.           Purgatorie River: FIELD
LOC.           2434' FNL & 188' FWL------: LOCATION
PROV.                       CO: PROVINCE
CNTY.               Las Animas: COUNTRY
SRVC.          Patterson Wireline: SERVICE COMPANY
DATE.          Fri Apr 22 14:29:17 2005: LOG DATE
UWI.           05 071 08332 00: UNIQUE WELL ID
~Curve Information Block
DEPT.FT            0 000 00 00: Depth
CCL.                          : Casing Collar Locator
TT3.usec                      : CBL 3' Travel Time
AMP3.mV                       : CBL 3' Amplitude
GR.GAPI                       : Gamma Ray
~Parameter Information Block
~A  Depth       CCL         TT3         AMP3         GR     
# ...
   931.0000      0.0000    726.4217      6.3797     89.1476
   931.2500      0.0000    721.4899      6.0304     90.6342
   931.5000      0.0000    713.2175      5.7630     93.5520
   931.7500      0.0000    705.9938      5.5642     97.1820
   932.0000      0.0000    702.4275      5.4104    100.5487
   932.2500      0.0000    702.0068      5.3023    103.0724
   932.5000      0.0000    700.9270      5.2483    104.9440
   932.7500      0.0000    693.6536      5.2439    106.5889
   933.0000      0.0000    677.4894      5.2753    108.0977
   933.2500      0.0000    657.4734      5.3324    109.2764
   933.5000      0.0000    645.3257      5.4035    109.6606
   933.7500      0.0000    650.6185      5.4670    108.3298
   934.0000      0.0000    672.3570      5.5072    104.6452
   934.2500      0.0000    700.3364      5.5275     99.7703
   934.5000      0.0000    724.0035      5.5346     96.7804
   934.7500      0.0000    738.0632      5.5263     98.2231
   935.0000      0.0000    740.9092      5.5068    103.4743
   935.2500      0.0000    732.2372      5.4957    109.1445
   935.5000      0.0000    714.3621      5.5091    112.2648
   935.7500      0.0000    693.4319      5.5441    112.6615
   936.0000      0.0000    676.3732      5.5926    112.3667
   936.2500      0.0000    666.6360      5.6582    113.4767
   936.5000      0.0000    663.8834      5.7441    116.7661
   936.7500      0.0000    666.3121      5.8330    121.7461
   937.0000      0.0000    671.7176      5.8959    127.4514
   937.2500      0.0000    677.9316      5.9179    132.9697
   937.5000      0.0000    684.6057      5.9080    137.3939
   937.7500      0.0000    693.9727      5.8907    139.8681
   938.0000      0.0000    707.9851      5.8900    140.0912
   938.2500      0.0000    724.6247      5.9189    138.4529
   938.5000      0.0000    738.3494      5.9797    135.5626
   938.7500      0.0000    744.5800      6.0601    132.1192
   939.0000      0.0000    743.3179      6.1311    129.0959
   939.2500      0.0000    738.3583      6.1674    127.0841
   939.5000      0.0000    733.3820      6.1735    125.3129
   939.7500      0.0000    729.1357      6.1815    122.3508
   940.0000      0.0000    724.4792      6.2218    118.0844
   940.2500      0.0000    719.5593      6.3043    114.0717
   940.5000      0.0000    716.9440      6.4209    111.6111
   940.7500      0.0000    719.4118      6.5486    110.3347
   941.0000      0.0000    727.2932      6.6525    108.9769
   941.2500      0.0000    738.1960      6.6998    106.8009
   941.5000      0.0000    748.7283      6.6723    104.1131
   941.7500      0.0000    756.2679      6.5647    102.0780
   942.0000      0.0000    759.7589      6.3843    102.1594
   942.2500      0.0000    759.6299      6.1604    105.1292
   942.5000      0.0000    757.1614      5.9488    110.0826
   942.7500      0.0000    753.5911      5.8208    114.4877
   943.0000      0.0000    749.6776      5.8322    115.6053
   943.2500      0.0000    746.2965      5.9933    112.2810
   943.5000      0.0000    745.0669      6.2654    105.7494
   943.7500      0.0000    747.3569      6.5793     98.8456
   944.0000      0.0000    752.5952      6.8544     94.2690
   944.2500      0.0000    758.4557      7.0260     93.2178
   944.5000      0.0000    762.8728      7.0759     95.1410
   944.7500      0.0000    765.3332      7.0343     98.3930
   945.0000      0.0000    766.3912      6.9475    101.2722
   945.2500      0.0000    766.6728      6.8437    102.9848
   945.5000      0.0000    766.5233      6.7300    103.8858
   945.7500      0.0000    766.1622      6.6157    104.5955
   946.0000      0.0000    765.8102      6.5276    104.9779
   946.2500      0.0000    765.6465      6.4942    104.6574
   946.5000      0.0000    765.7412      6.5217    104.5045
   946.7500      0.0000    766.0991      6.5886    106.4565
   947.0000      0.0000    766.7392      6.6624    111.1883
   947.2500      0.0000    767.7274      6.7214    116.6782
   947.5000      0.0000    769.0628      6.7656    119.6948
   947.7500      0.0000    770.4169      6.8098    118.4463
   948.0000      0.0000    771.1055      6.8689    113.8131
   948.2500      0.0000    770.7418      6.9435    108.6131
   948.5000      0.0000    770.0623      7.0144    105.8042
   948.7500      0.0000    770.6625      7.0537    106.7505
   949.0000      0.0000    773.4986      7.0413    110.4819
   949.2500      0.0000    777.6979      6.9751    114.4704
   949.5000      0.0000    781.0275      6.8695    116.5744
   949.7500      0.0000    781.7733      6.7518    116.6158
   950.0000      0.0000    780.2529      6.6613    116.0679
   950.2500      0.0000    778.2319      6.6257    116.3770
   950.5000      0.0000    776.8356      6.6234    117.9371
   950.7500      0.0000    775.5439      6.5878    120.4212
   951.0000      0.0000    773.3026      6.4722    123.3850
   951.2500      0.0000    769.8077      6.2908    126.4604
   951.5000      0.0000    765.2878      6.0913    129.4508
   951.7500      0.0000    759.8076      5.9147    132.2518
   952.0000      0.0000    753.7814      5.7891    134.4623
   952.2500      0.0000    749.0935      5.7279    135.4796
   952.5000      0.0000    748.7264      5.7143    135.1983
   952.7500      0.0000    754.3298      5.7087    134.0957
   953.0000      0.0000    764.0568      5.6761    132.3710
   953.2500      0.0000    773.3771      5.6046    129.3969
   953.5000      0.0000    778.3857      5.5051    124.2415
   953.7500      0.0000    778.3516      5.4009    116.7853
   954.0000      0.0000    775.3602      5.3125    108.5650
   954.2500      0.0000    772.1062      5.2472    102.5042
   954.5000      0.0000    770.2129      5.2036    101.2640
   954.7500      0.0000    770.1252      5.1889    105.3825
   955.0000      0.0000    771.6849      5.2192    112.8932
   955.2500      0.0000    774.1541      5.2957    120.7227
   955.5000      0.0000    775.9376      5.3896    126.5115
   955.7500      0.0000    775.2889      5.4664    129.5080
   956.0000      0.0000    772.0159      5.5226    130.5122
   956.2500      0.0000    768.0282      5.5831    131.2877
   956.5000      0.0000    765.6083      5.6619    133.4007
   956.7500      0.0000    765.4417      5.7445    136.9337
   957.0000      0.0000    766.6358      5.8107    140.2573
   957.2500      0.0000    768.0222      5.8579    141.3563
   957.5000      0.0000    768.9101      5.8890    139.5404
   957.7500      0.0000    768.9453      5.8944    135.8831
   958.0000      0.0000    767.8765      5.8675    132.2099
   958.2500      0.0000    765.6934      5.8320    129.8436
   958.5000      0.0000    762.7843      5.8337    128.9375
   958.7500      0.0000    759.5798      5.9001    128.4059
   959.0000      0.0000    755.9385      6.0215    126.5059
   959.2500      0.0000    751.2698      6.1728    122.1809
   959.5000      0.0000    745.4264      6.3384    116.2212
   959.7500      0.0000    739.1506      6.5088    110.9377
   960.0000      0.0000    733.7471      6.6731    108.5785
   960.2500      0.0000    730.9376      6.8251    109.9547
   960.5000      0.0000    732.9012      6.9664    114.2138
   960.7500      0.0000    741.3922      7.0926    119.4652
   961.0000      0.0000    755.8803      7.1809    123.5374
   961.2500      0.0000    772.2594      7.2009    124.7367
   961.5000      0.0000    783.9266      7.1398    122.7581
   961.7500      0.0000    785.5705      7.0138    119.1186
   962.0000      0.0000    777.1454      6.8549    116.1916
   962.2500      0.0000    763.9745      6.6921    115.3690
   962.5000      0.0000    752.3386      6.5442    116.2261
   962.7500      0.0000    744.9589      6.4233    117.4258
   963.0000      0.0000    740.5792      6.3430    117.9783
   963.2500      0.0000    736.8925      6.3190    117.7451
   963.5000      0.0000    733.0027      6.3604    117.4658
   963.7500      0.0000    729.4625      6.4570    118.3751
   964.0000      0.0000    727.0488      6.5756    121.1137
   964.2500      0.0000    726.0117      6.6757    124.8887
