~Version Information
VERS.                      2.0: CWLS Log ASCII Standard - VERSION 2.0
WRAP.                       NO: One line per depth step
~Well Information Block
STRT.FT               528.0000: 
STOP.FT              2251.5000: 
STEP.FT                 0.2500: 
NULL.                -999.2500: 
COMP.          Pioneer Natural Resources: COMPANY
WELL.           Parklane 43-34: WELL
FLD.           Purgatorie River: FIELD
LOC.           1704' FSL & 1119' FEL: LOCATION
PROV.                 Colorado: PROVINCE
CNTY.               Las Animas: COUNTRY
SRVC.                         : SERVICE COMPANY
DATE.          Thu Oct 07 01:37:17 2004: LOG DATE
UWI.           05 071 08162 00: UNIQUE WELL ID
~Curve Information Block
DEPT.FT            0 000 00 00: Depth
LTEN.lb                       : Surface Line Tension
SN.Ohm-m                      : IEL Short Normal
SP.mV                         : IEL Spontaneous Potential
DIR.Ohm-m                     : IEL Induction Resistivity
GR.GAPI                       : Gamma Ray
~Parameter Information Block
~A  Depth       LTEN         SN          SP         DIR          GR     
# ...
   864.0000    737.3164   2000.0000   2000.0000     15.5887    112.0289
   864.2500    736.4531   2000.0000   2000.0000     16.6228    106.4909
   864.5000    735.8277   2000.0000   2000.0000     17.8634     98.9492
   864.7500    735.8194   2000.0000   2000.0000     19.1984     94.5345
   865.0000    736.2299   2000.0000   2000.0000     20.3979     88.4056
   865.2500    736.7733   2000.0000   2000.0000     21.2173     84.7138
   865.5000    737.0557   2000.0000   2000.0000     21.5338     80.7327
   865.7500    736.2769   2000.0000   2000.0000     21.3766     79.5752
   866.0000    733.9125   2000.0000   2000.0000     20.8394     79.6711
   866.2500    730.7434   2000.0000   2000.0000     20.0059     80.1911
   866.5000    728.5378   2000.0000   2000.0000     18.9645     80.5407
   866.7500    728.5278   2000.0000   2000.0000     17.8459     80.3811
   867.0000    730.4178   2000.0000   2000.0000     16.8068     80.3643
   867.2500    732.9168   2000.0000   2000.0000     15.9635     81.3092
   867.5000    734.9318   2000.0000   2000.0000     15.3379     85.5417
   867.7500    736.0702   2000.0000   2000.0000     14.8552     90.7003
   868.0000    736.3183   2000.0000   2000.0000     14.3915    101.5152
   868.2500    735.7579   2000.0000   2000.0000     13.8476    109.8201
   868.5000    734.5770   2000.0000   2000.0000     13.2057    121.8610
   868.7500    732.9791   2000.0000   2000.0000     12.5247    128.5213
   869.0000    731.0753   2000.0000   2000.0000     11.8901    134.9623
   869.2500    729.1249   2000.0000   2000.0000     11.3663    136.5148
   869.5000    727.7825   2000.0000   2000.0000     10.9809    135.6882
   869.7500    727.7484   2000.0000   2000.0000     10.7324    134.2823
   870.0000    728.9873   2000.0000   2000.0000     10.6007    132.7289
   870.2500    730.3201   2000.0000   2000.0000     10.5529    132.5768
   870.5000    730.0591   2000.0000   2000.0000     10.5450    134.0815
   870.7500    727.4719   2000.0000   2000.0000     10.5358    136.3074
   871.0000    723.7148   2000.0000   2000.0000     10.5069    140.6598
   871.2500    721.0756   2000.0000   2000.0000     10.4741    143.0730
   871.5000    721.1582   2000.0000   2000.0000     10.4706    143.9119
   871.7500    723.8653   2000.0000   2000.0000     10.5153    142.3065
   872.0000    728.0231   2000.0000   2000.0000     10.5930    138.1915
   872.2500    732.5494   2000.0000   2000.0000     10.6601    135.6854
   872.5000    736.7672   2000.0000   2000.0000     10.6731    133.4430
   872.7500    740.0444   2000.0000   2000.0000     10.6206    132.5474
   873.0000    741.8843   2000.0000   2000.0000     10.5320    130.7208
   873.2500    742.5045   2000.0000   2000.0000     10.4557    128.9457
   873.5000    742.8221   2000.0000   2000.0000     10.4255    126.5242
   873.7500    743.4664   2000.0000   2000.0000     10.4433    125.9053
   874.0000    744.0284   2000.0000   2000.0000     10.4860    126.6817
   874.2500    743.5949   2000.0000   2000.0000     10.5267    127.6565
   874.5000    741.8820   2000.0000   2000.0000     10.5513    128.5043
   874.7500    739.6064   2000.0000   2000.0000     10.5588    128.4021
   875.0000    737.6913   2000.0000   2000.0000     10.5475    127.5284
   875.2500    736.2793   2000.0000   2000.0000     10.5053    126.7378
   875.5000    734.8552   2000.0000   2000.0000     10.4130    125.7302
   875.7500    733.3695   2000.0000   2000.0000     10.2609    125.5216
   876.0000    732.8395   2000.0000   2000.0000     10.0602    126.3895
   876.2500    734.4340   2000.0000   2000.0000      9.8397    127.7616
   876.5000    737.9930   2000.0000   2000.0000      9.6277    130.4244
   876.7500    741.8508   2000.0000   2000.0000      9.4384    132.1109
   877.0000    744.4003   2000.0000   2000.0000      9.2682    133.9973
   877.2500    745.5157   2000.0000   2000.0000      9.1036    134.8537
   877.5000    746.1060   2000.0000   2000.0000      8.9306    135.8792
   877.7500    746.6356   2000.0000   2000.0000      8.7443    136.5961
   878.0000    746.6082   2000.0000   2000.0000      8.5534    137.9291
   878.2500    745.4633   2000.0000   2000.0000      8.3764    138.8896
   878.5000    743.7317   2000.0000   2000.0000      8.2300    139.8427
   878.7500    743.0609   2000.0000   2000.0000      8.1199    139.8805
   879.0000    744.7012   2000.0000   2000.0000      8.0399    139.2838
   879.2500    747.9255   2000.0000   2000.0000      7.9805    138.9019
   879.5000    750.3545   2000.0000   2000.0000      7.9385    138.8469
   879.7500    750.0264   2000.0000   2000.0000      7.9185    138.9841
   880.0000    746.9172   2000.0000   2000.0000      7.9282    138.4880
   880.2500    742.5056   2000.0000   2000.0000      7.9734    137.1704
   880.5000    738.3028   2000.0000   2000.0000      8.0582    133.7384
   880.7500    734.8967   2000.0000   2000.0000      8.1856    131.1064
   881.0000    732.1293   2000.0000   2000.0000      8.3592    128.0899
   881.2500    730.0190   2000.0000   2000.0000      8.5821    127.2771
   881.5000    729.4079   2000.0000   2000.0000      8.8554    127.9540
   881.7500    731.4791   2000.0000   2000.0000      9.1774    129.3416
   882.0000    736.5983   2000.0000   2000.0000      9.5411    132.1130
   882.2500    743.6632   2000.0000   2000.0000      9.9315    134.0087
   882.5000    750.3401   2000.0000   2000.0000     10.3244    136.0504
   882.7500    753.9043   2000.0000   2000.0000     10.6923    136.2898
   883.0000    752.5869   2000.0000   2000.0000     11.0212    134.3063
   883.2500    746.8774   2000.0000   2000.0000     11.3241    131.3512
   883.5000    739.4843   2000.0000   2000.0000     11.6376    124.3039
   883.7500    733.5194   2000.0000   2000.0000     12.0005    117.4902
   884.0000    730.3727   2000.0000   2000.0000     12.4345    103.8667
   884.2500    729.2336   2000.0000   2000.0000     12.9407     93.3923
   884.5000    728.3948   2000.0000   2000.0000     13.5048     78.8324
   884.7500    726.7302   2000.0000   2000.0000     14.0996     71.9688
   885.0000    724.1677   2000.0000   2000.0000     14.6852     68.3027
   885.2500    721.4045   2000.0000   2000.0000     15.2142     70.6264
   885.5000    719.4603   2000.0000   2000.0000     15.6448     80.1242
   885.7500    719.2914   2000.0000   2000.0000     15.9529     89.0355
   886.0000    721.5085   2000.0000   2000.0000     16.1365    103.3761
   886.2500    726.1064   2000.0000   2000.0000     16.2105    112.2423
   886.5000    732.3652   2000.0000   2000.0000     16.2018    123.4271
   886.7500    739.2634   2000.0000   2000.0000     16.1434    129.3318
   887.0000    746.0481   2000.0000   2000.0000     16.0740    135.5750
   887.2500    752.2040   2000.0000   2000.0000     16.0374    137.7977
   887.5000    757.2269   2000.0000   2000.0000     16.0750    138.6441
   887.7500    760.7717   2000.0000   2000.0000     16.2130    138.3975
   888.0000    762.5245   2000.0000   2000.0000     16.4521    138.4133
   888.2500    761.7886   2000.0000   2000.0000     16.7752    138.9649
   888.5000    758.0833   2000.0000   2000.0000     17.1758    139.4843
   888.7500    752.5620   2000.0000   2000.0000     17.6866    138.5723
   889.0000    748.0786   2000.0000   2000.0000     18.3760    134.3508
   889.2500    747.1282   2000.0000   2000.0000     19.3049    129.7738
   889.5000    749.6619   2000.0000   2000.0000     20.4770    120.8646
   889.7500    753.0254   2000.0000   2000.0000     21.8236    113.8263
   890.0000    754.0994   2000.0000   2000.0000     23.2428    102.3668
   890.2500    751.7303   2000.0000   2000.0000     24.6705     94.8879
   890.5000    747.3622   2000.0000   2000.0000     26.1076     85.0620
   890.7500    743.6251   2000.0000   2000.0000     27.5629     79.5880
   891.0000    742.5854   2000.0000   2000.0000     28.9657     72.5756
   891.2500    744.8820   2000.0000   2000.0000     30.1444     68.5428
   891.5000    749.4243   2000.0000   2000.0000     30.9202     63.7604
   891.7500    753.6104   2000.0000   2000.0000     31.2217     61.6801
