~Version Information
VERS.                      2.0: CWLS Log ASCII Standard - VERSION 2.0
WRAP.                       NO: One line per depth step
~Well Information Block
STRT.FT               250.0000: 
STOP.FT              1017.5000: 
STEP.FT                 0.1000: 
NULL.                -999.2500: 
COMP.          Pioneer Natural Resources: COMPANY
WELL.              Oscar 41-31: WELL
FLD.           Purgatoire River: FIELD
LOC.           412' FNL & 1216' FEL: LOCATION
PROV.                 Colorado: PROVINCE
CNTY.               Las Animas: COUNTRY
SRVC.                Patterson: SERVICE COMPANY
DATE.          Thu Feb 24 15:11:09 2005: LOG DATE
UWI.           05 071 08290 00: UNIQUE WELL ID
~Curve Information Block
DEPT.FT            0 000 00 00: Depth
DCAL.in                       : CDL Caliper
RHOB.g/cc                     : CDL Bulk Density
RHOC.g/cc                     : CDL Density Correction
DPOR.pu                       : CDL Density Porosity
GR.GAPI                       : Gamma Ray
NPOR.pu                       : Neutron Porosity
~Parameter Information Block
~A  Depth       DCAL        RHOB        RHOC        DPOR         GR         NPOR    
# ...
  1008.4000      7.7653      2.5822      0.0621      4.1103   -999.2500   -999.2500
  1008.5000      7.7645      2.5876      0.1076      3.7800   -999.2500   -999.2500
  1008.6000      7.7645      2.5729      0.0630      4.6733   -999.2500   -999.2500
  1008.7000      7.7645      2.5412      0.0385      6.5965   -999.2500   -999.2500
  1008.8000      7.7643      2.5202     -0.0061      7.8694   -999.2500   -999.2500
  1008.9000      7.7643      2.5319      0.0028      7.1575   -999.2500   -999.2500
  1009.0000      7.7639      2.5628      0.0568      5.2846   -999.2500   -999.2500
  1009.1000      7.7639      2.5810      0.0861      4.1820   -999.2500   -999.2500
  1009.2000      7.7639      2.5758      0.0633      4.4941   -999.2500   -999.2500
  1009.3000      7.7634      2.5601      0.0674      5.4508   -999.2500   -999.2500
  1009.4000      7.7634      2.5454      0.0813      6.3408   -999.2500   -999.2500
  1009.5000      7.7634      2.5391      0.0550      6.7188   -999.2500   -999.2500
  1009.6000      7.7634      2.5497      0.0597      6.0795   -999.2500   -999.2500
  1009.7000      7.7634      2.5675      0.0964      5.0025   -999.2500   -999.2500
  1009.8000      7.7639      2.5739      0.0747      4.6142   -999.2500   -999.2500
  1009.9000      7.7639      2.5717      0.0383      4.7461   -999.2500   -999.2500
  1010.0000      7.7641      2.5723      0.0897      4.7070   -999.2500   -999.2500
  1010.1000      7.7641      2.5754      0.0754      4.5191   -999.2500   -999.2500
  1010.2000      7.7641      2.5790      0.0691      4.3022   -999.2500   -999.2500
  1010.3000      7.7643      2.5842      0.0749      3.9871   -999.2500   -999.2500
  1010.4000      7.7643      2.5904      0.1193      3.6149   -999.2500   -999.2500
  1010.5000      7.7646      2.6032      0.0980      2.8362   -999.2500   -999.2500
  1010.6000      7.7646      2.6225      0.1436      1.6648   -999.2500   -999.2500
  1010.7000      7.7646      2.6262      0.1480      1.4422   -999.2500   -999.2500
  1010.8000      7.7644      2.6056      0.1107      2.6914   -999.2500   -999.2500
  1010.9000      7.7644      2.5784      0.0638      4.3402   -999.2500   -999.2500
  1011.0000      7.7624      2.5601      0.0370      5.4460   -999.2500   -999.2500
  1011.1000      7.7624      2.5548      0.0607      5.7720   -999.2500   -999.2500
  1011.2000      7.7624      2.5571      0.0152      5.6319   -999.2500   -999.2500
  1011.3000      7.7602      2.5596      0.0245      5.4771   -999.2500   -999.2500
  1011.4000      7.7602      2.5620      0.0257      5.3327   -999.2500   -999.2500
  1011.5000      7.7605      2.5737      0.0457      4.6252   -999.2500   -999.2500
  1011.6000      7.7605      2.5921      0.0746      3.5100   -999.2500   -999.2500
  1011.7000      7.7605      2.5982      0.1069      3.1420   -999.2500   -999.2500
  1011.8000      7.7617      2.5869      0.0768      3.8226   -999.2500   -999.2500
  1011.9000      7.7617      2.5742      0.0907      4.5943   -999.2500   -999.2500
  1012.0000      7.7625      2.5708      0.0769      4.7989   -999.2500   -999.2500
  1012.1000      7.7625      2.5729      0.0501      4.6726   -999.2500   -999.2500
  1012.2000      7.7625      2.5721      0.0795      4.7221   -999.2500   -999.2500
  1012.3000      7.7633      2.5638      0.0584      5.2228   -999.2500   -999.2500
  1012.4000      7.7633      2.5518      0.0486      5.9493   -999.2500   -999.2500
  1012.5000      7.7632      2.5440      0.0574      6.4272   -999.2500   -999.2500
  1012.6000      7.7632      2.5447      0.0505      6.3820   -999.2500   -999.2500
  1012.7000      7.7632      2.5514      0.0811      5.9728   -999.2500   -999.2500
  1012.8000      7.7624      2.5565      0.1009      5.6642   -999.2500   -999.2500
  1012.9000      7.7624      2.5598      0.0807      5.4637   -999.2500   -999.2500
  1013.0000      7.7619      2.5646      0.0790      5.1728   -999.2500   -999.2500
  1013.1000      7.7619      2.5663      0.0837      5.0733   -999.2500   -999.2500
  1013.2000      7.7619      2.5644      0.0910      5.1886   -999.2500   -999.2500
  1013.3000      7.7620      2.5663      0.0560      5.0735   -999.2500   -999.2500
  1013.4000      7.7620      2.5692      0.0715      4.8992   -999.2500   -999.2500
  1013.5000      7.7623      2.5630      0.0321      5.2705   -999.2500   -999.2500
  1013.6000      7.7623      2.5536      0.0198      5.8424   -999.2500   -999.2500
  1013.7000      7.7623      2.5513      0.0442      5.9819   -999.2500   -999.2500
  1013.8000      7.7624      2.5536      0.0604      5.8401   -999.2500   -999.2500
  1013.9000      7.7624      2.5551      0.0416      5.7533   -999.2500   -999.2500
  1014.0000      7.7557      2.5549      0.0730      5.7659   -999.2500   -999.2500
  1014.1000      7.7557      2.5532      0.0805      5.8674   -999.2500   -999.2500
  1014.2000      7.7557      2.5504      0.0491      6.0383   -999.2500   -999.2500
  1014.3000      7.7184      2.5545      0.0392      5.7907   -999.2500   -999.2500
  1014.4000      7.7184      2.5766      0.0744      4.4513   -999.2500   -999.2500
  1014.5000      7.6167      2.6305      0.0985      1.1836   -999.2500   -999.2500
  1014.6000      7.6167      2.7417      0.0915     -5.5574   -999.2500   -999.2500
  1014.7000      7.6167      2.7818      0.1454     -7.9905   -999.2500   -999.2500
  1014.8000      7.1854      2.3232      0.5611     19.8061   -999.2500   -999.2500
  1014.9000      7.1854      1.3153      0.0000     80.8924   -999.2500   -999.2500
  1015.0000      5.5974      0.4450      0.0000    133.6383   -999.2500   -999.2500
  1015.1000      5.5974      0.0844   -999.2500    155.4925   -999.2500   -999.2500
  1015.2000      5.5974      0.0087   -999.2500    160.0794   -999.2500   -999.2500
  1015.3000      3.1075      0.0005   -999.2500    160.5775   -999.2500   -999.2500
  1015.4000      3.1075      0.0000   -999.2500    160.6061   -999.2500   -999.2500
  1015.5000      1.6235      0.0000   -999.2500    160.6061   -999.2500   -999.2500
  1015.6000      1.6235   -999.2500   -999.2500   -999.2500   -999.2500   -999.2500
  1015.7000      1.6235   -999.2500   -999.2500   -999.2500   -999.2500   -999.2500
  1015.8000      1.2945   -999.2500   -999.2500   -999.2500   -999.2500   -999.2500
  1015.9000      1.2945   -999.2500   -999.2500   -999.2500   -999.2500   -999.2500
  1016.0000      1.2676   -999.2500   -999.2500   -999.2500   -999.2500   -999.2500
  1016.1000      1.2676   -999.2500   -999.2500   -999.2500   -999.2500   -999.2500
  1016.2000      1.2676   -999.2500   -999.2500   -999.2500   -999.2500   -999.2500
  1016.3000   -999.2500   -999.2500   -999.2500   -999.2500   -999.2500   -999.2500
  1016.4000   -999.2500   -999.2500   -999.2500   -999.2500   -999.2500   -999.2500
  1016.5000   -999.2500   -999.2500   -999.2500   -999.2500   -999.2500   -999.2500
  1016.6000   -999.2500   -999.2500   -999.2500   -999.2500   -999.2500   -999.2500
  1016.7000   -999.2500   -999.2500   -999.2500   -999.2500   -999.2500   -999.2500
  1016.8000   -999.2500   -999.2500   -999.2500   -999.2500   -999.2500   -999.2500
  1016.9000   -999.2500   -999.2500   -999.2500   -999.2500   -999.2500   -999.2500
  1017.0000   -999.2500   -999.2500   -999.2500   -999.2500   -999.2500   -999.2500
  1017.1000   -999.2500   -999.2500   -999.2500   -999.2500   -999.2500   -999.2500
  1017.2000   -999.2500   -999.2500   -999.2500   -999.2500   -999.2500   -999.2500
  1017.3000   -999.2500   -999.2500   -999.2500   -999.2500   -999.2500   -999.2500
  1017.4000   -999.2500   -999.2500   -999.2500   -999.2500   -999.2500   -999.2500
  1017.5000   -999.2500   -999.2500   -999.2500   -999.2500   -999.2500   -999.2500
