~Version Information
VERS.                      2.0: CWLS Log ASCII Standard - VERSION 2.0
WRAP.                       NO: One line per depth step
~Well Information Block
STRT.FT               650.0000: 
STOP.FT              2087.0000: 
STEP.FT                 0.2500: 
NULL.                -999.2500: 
COMP.          Pioneer Natural Resources: COMPANY
WELL.           Galloway 32-13: WELL
FLD.           Purgatoire River: FIELD
LOC.           1809' FNL & 2004' FEL: LOCATION
PROV.                 Colorado: PROVINCE
CNTY.               Las Animas: COUNTRY
SRVC.                Patterson: SERVICE COMPANY
DATE.          Fri Jul 08 15:50:04 2005: LOG DATE
UWI.           05 071 08423 00: UNIQUE WELL ID
~Curve Information Block
DEPT.FT            0 000 00 00: Depth
SN.Ohm-m                      : IEL Short Normal
SP.mV                         : IEL Spontaneous Potential
DIR.Ohm-m                     : IEL Induction Resistivity
GR.GAPI                       : Gamma Ray
~Parameter Information Block
~A  Depth        SN          SP         DIR          GR     
# ...
  1119.0000     21.8716   -199.4607     13.7837    130.4687
  1119.2500     17.5541   -199.1804     12.6669    133.7105
  1119.5000     13.9318   -198.4930     11.6786    136.8016
  1119.7500     11.2455   -197.2010     10.8192    138.8669
  1120.0000      9.5248   -195.3190     10.0812    142.8218
  1120.2500      8.6429   -193.0992      9.4569    145.8020
  1120.5000      8.3703   -190.9272      8.9402    149.8507
  1120.7500      8.4398   -189.1474      8.5245    151.9369
  1121.0000      8.6289   -187.9357      8.2011    154.3473
  1121.2500      8.8049   -187.2758      7.9581    155.7588
  1121.5000      8.8946   -187.0179      7.7816    157.6569
  1121.7500      8.8431   -186.9746      7.6572    158.5264
  1122.0000      8.6505   -187.0029      7.5721    158.8532
  1122.2500      8.3867   -187.0260      7.5171    158.5422
  1122.5000      8.1394   -186.9997      7.4864    158.0578
  1122.7500      8.0040   -186.8892      7.4760    158.0596
  1123.0000      8.0795   -186.6947      7.4800    158.1868
  1123.2500      8.3908   -186.4791      7.4898    157.8110
  1123.5000      8.8269   -186.3326      7.4965    156.0756
  1123.7500      9.1997   -186.3000      7.4952    154.2238
  1124.0000      9.4141   -186.3573      7.4881    150.4976
  1124.2500      9.5164   -186.4596      7.4831    147.3461
  1124.5000      9.5587   -186.5938      7.4883    142.2081
  1124.7500      9.5094   -186.7762      7.5086    139.3612
  1125.0000      9.2776   -187.0166      7.5426    137.1229
  1125.2500      8.8391   -187.2956      7.5828    136.7805
  1125.5000      8.3660   -187.5730      7.6181    136.3209
  1125.7500      8.0989   -187.8086      7.6394    135.0961
  1126.0000      8.0931   -187.9806      7.6452    131.4000
  1126.2500      8.2220   -188.0867      7.6446    128.1788
  1126.5000      8.3859   -188.1242      7.6535    123.9387
  1126.7500      8.5695   -188.0576      7.6888    122.5614
  1127.0000      8.7387   -187.8021      7.7635    123.3777
  1127.2500      8.8209   -187.2337      7.8848    125.3489
  1127.5000      8.7879   -186.2214      8.0554    128.7474
  1127.7500      8.7192   -184.6556      8.2726    130.2928
  1128.0000      8.7398   -182.4554      8.5288    130.0847
  1128.2500      8.8969   -179.5769      8.8113    127.7940
  1128.5000      9.1488   -176.0607      9.1034    121.6664
  1128.7500      9.4699   -172.1111      9.3888    116.9142
  1129.0000      9.8935   -168.1170      9.6559    110.9254
  1129.2500     10.4266   -164.5361      9.9030    108.2453
  1129.5000     11.0159   -161.6999     10.1373    105.5796
  1129.7500     11.5906   -159.6981     10.3703    103.9879
  1130.0000     12.0662   -158.4190     10.6094    101.4073
  1130.2500     12.3689   -157.6691     10.8530    100.0358
  1130.5000     12.4960   -157.2657     11.0899    100.0787
  1130.7500     12.5022   -157.0749     11.3038    102.2003
  1131.0000     12.4373   -157.0115     11.4795    108.2249
  1131.2500     12.3276   -157.0208     11.6077    113.0859
  1131.5000     12.2014   -157.0603     11.6852    119.6119
  1131.7500     12.0864   -157.0930     11.7135    122.8928
  1132.0000     11.9589   -157.1010     11.6947    126.4082
  1132.2500     11.7671   -157.1059     11.6302    128.0052
  1132.5000     11.5064   -157.1733     11.5222    129.0311
  1132.7500     11.1978   -157.3799     11.3754    128.5445
  1133.0000     10.8560   -157.7680     11.1991    125.9640
  1133.2500     10.5312   -158.3318     11.0043    123.1658
  1133.5000     10.3089   -159.0435     10.7995    117.9224
  1133.7500     10.2374   -159.8767     10.5865    114.2594
  1134.0000     10.3061   -160.8055     10.3620    109.3877
  1134.2500     10.4923   -161.7948     10.1249    106.7823
  1134.5000     10.7278   -162.8030      9.8823    103.9749
  1134.7500     10.8539   -163.7966      9.6491    103.1065
  1135.0000     10.7811   -164.7620      9.4426    103.9923
  1135.2500     10.5982   -165.7037      9.2743    106.1655
  1135.5000     10.4229   -166.6334      9.1460    111.2160
  1135.7500     10.3214   -167.5580      9.0510    115.2098
  1136.0000     10.3047   -168.4725      8.9777    121.2751
  1136.2500     10.2781   -169.3550      8.9146    124.9737
  1136.5000     10.1248   -170.1652      8.8542    129.4354
  1136.7500      9.8695   -170.8518      8.7941    131.4419
  1137.0000      9.6824   -171.3701      8.7370    132.8363
  1137.2500      9.6850   -171.7012      8.6878    132.6871
  1137.5000      9.7957   -171.8622      8.6507    131.0375
  1137.7500      9.7979   -171.9009      8.6276    129.3998
  1138.0000      9.5416   -171.8794      8.6184    127.2771
  1138.2500      9.1096   -171.8531      8.6224    126.4969
  1138.5000      8.6907   -171.8555      8.6389    125.9536
  1138.7500      8.3009   -171.8939      8.6668    125.6144
  1139.0000      7.8953   -171.9547      8.7041    125.1400
  1139.2500      7.6316   -172.0149      8.7484    125.2016
  1139.5000      7.7418   -172.0563      8.7988    126.3019
  1139.7500      8.2434   -172.0773      8.8569    127.5856
  1140.0000      8.9049   -172.0948      8.9257    129.5538
  1140.2500      9.4814   -172.1353      9.0075    130.3759
  1140.5000      9.9083   -172.2175      9.1013    130.5135
  1140.7500     10.2064   -172.3426      9.2025    130.0885
  1141.0000     10.3832   -172.4986      9.3038    129.3505
  1141.2500     10.5147   -172.6727      9.3980    129.1054
  1141.5000     10.6781   -172.8554      9.4797    129.2580
  1141.7500     10.8292   -173.0338      9.5464    129.4879
  1142.0000     10.8996   -173.1880      9.5964    129.2550
  1142.2500     10.8919   -173.3025      9.6260    128.4427
  1142.5000     10.8463   -173.3770      9.6300    126.8214
  1142.7500     10.8032   -173.4198      9.6054    126.2658
  1143.0000     10.7824   -173.4308      9.5577    127.1670
  1143.2500     10.7647   -173.3926      9.5021    128.7165
  1143.5000     10.7363   -173.2746      9.4589    131.0036
  1143.7500     10.7527   -173.0473      9.4459    131.7331
  1144.0000     10.8769   -172.6940      9.4739    131.7070
  1144.2500     11.0704   -172.2122      9.5457    131.6753
  1144.5000     11.2286   -171.6077      9.6592    132.5552
  1144.7500     11.2973   -170.8905      9.8087    133.5843
  1145.0000     11.2912   -170.0771      9.9855    134.5209
  1145.2500     11.2357   -169.1928     10.1767    133.8617
  1145.5000     11.1759   -168.2639     10.3648    129.7411
  1145.7500     11.2067   -167.3051     10.5289    124.4987
  1146.0000     11.3923   -166.3116     10.6466    112.8279
  1146.2500     11.6999   -165.2692     10.6972    102.9413
  1146.5000     12.1205   -164.1762     10.6662     86.7995
  1146.7500     12.8179   -163.0597     10.5522     76.8423
  1147.0000     14.0498   -161.9732     10.3710     66.1402
  1147.2500     15.8472   -160.9851     10.1531     63.0993
  1147.5000     17.7369   -160.1652      9.9315     65.5412
  1147.7500     18.8205   -159.5623      9.7272     71.5237
  1148.0000     18.3741   -159.1773      9.5420     85.0305
  1148.2500     16.5544   -158.9584      9.3611     95.2066
  1148.5000     14.2625   -158.8285      9.1632    108.8912
  1148.7500     12.2982   -158.7240      8.9317    115.5370
  1149.0000     10.9387   -158.6157      8.6619    120.9308
  1149.2500     10.1101   -158.5094      8.3625    121.9343
  1149.5000      9.6180   -158.4361      8.0524    121.4601
  1149.7500      9.3037   -158.4349      7.7552    121.0735
  1150.0000      9.0929   -158.5314      7.4936    121.5907
  1150.2500      8.9673   -158.7263      7.2851    122.4358
  1150.5000      8.9452   -159.0004      7.1396    123.0433
  1150.7500      8.9994   -159.3276      7.0602    122.4721
  1151.0000      9.0248   -159.6819      7.0450    120.6031
  1151.2500      8.9911   -160.0415      7.0891    119.3107
  1151.5000      8.9948   -160.3898      7.1848    117.8688
  1151.7500      9.0903   -160.7135      7.3212    117.2294
  1152.0000      9.2439   -161.0051      7.4831    116.5412
  1152.2500      9.4418   -161.2673      7.6524    116.0126
