~Version Information
VERS.                      2.0: CWLS Log ASCII Standard - VERSION 2.0
WRAP.                       NO: One line per depth step
~Well Information Block
STRT.FT               250.0000: 
STOP.FT               894.7500: 
STEP.FT                 0.2500: 
NULL.                -999.2500: 
COMP.          Pioneer Natural Resources: COMPANY
WELL.          Santisteven 13-22: WELL
FLD.           Purgatoire River: FIELD
LOC.           1861' FSL & 992' FWL----: LOCATION
PROV.                 Colorado: PROVINCE
CNTY.               Las Animas: COUNTRY
SRVC.                Patterson: SERVICE COMPANY
DATE.          Sat Apr 02 14:49:07 2005: LOG DATE
UWI.           05 071 08337 00: UNIQUE WELL ID
~Curve Information Block
DEPT.FT            0 000 00 00: Depth
SN.Ohm-m                      : IEL Short Normal
SP.mV                         : IEL Spontaneous Potential
DIR.Ohm-m                     : IEL Induction Resistivity
GR.GAPI                       : Gamma Ray
~Parameter Information Block
~A  Depth        SN          SP         DIR          GR     
# ...
   384.0000    557.2525     26.1895     12.1408    100.4050
   384.2500    575.9653     26.1977     11.7286    103.8212
   384.5000    597.5588     26.2053     11.3446    108.1129
   384.7500    610.5825     26.2116     10.9970    110.2095
   385.0000    612.7202     26.2159     10.6944    111.6458
   385.2500    608.4246     26.2181     10.4471    111.1542
   385.5000    603.6342     26.2184     10.2661    108.3427
   385.7500    603.1567     26.2173     10.1605    105.6661
   386.0000    609.4095     26.2157     10.1350    101.9949
   386.2500    621.0731     26.2143     10.1880    100.6203
   386.5000    633.8351     26.2138     10.3096    100.8400
   386.7500    643.6605     26.2146     10.4819    102.1870
   387.0000    649.2668     26.2170     10.6794    104.3089
   387.2500    651.6893     26.2206     10.8705    104.7370
   387.5000    652.4783     26.2252     11.0223    103.5191
   387.7500    652.6278     26.2302     11.1074    102.2680
   388.0000    652.5133     26.2348     11.1103    101.6536
   388.2500    652.1967     26.2385     11.0306    102.7548
   388.5000    651.7158     26.2408     10.8807    106.6433
   388.7500    651.2450     26.2412     10.6806    110.2195
   389.0000    651.0433     26.2398     10.4522    115.7967
   389.2500    651.2255     26.2367     10.2153    118.9200
   389.5000    651.5956     26.2325      9.9872    122.0244
   389.7500    651.6255     26.2277      9.7826    123.1508
   390.0000    650.3661     26.2231      9.6141    123.9771
   390.2500    646.2292     26.2194      9.4900    123.9582
   390.5000    637.4190     26.2167      9.4114    122.3381
   390.7500    623.8030     26.2151      9.3708    119.8251
   391.0000    608.9297     26.2142      9.3536    114.4290
   391.2500    598.4857     26.2136      9.3427    110.7752
   391.5000    594.2491     26.2128      9.3234    107.3132
   391.7500    589.3121     26.2113      9.2855    107.1796
   392.0000    571.3483     26.2092      9.2223    110.4033
   392.2500    533.3309     26.2066      9.1296    114.2531
   392.5000    483.5551     26.2040      9.0044    120.9238
   392.7500    445.0190     26.2018      8.8471    124.9569
   393.0000    440.4804     26.2006      8.6631    129.2207
   393.2500    474.2919     26.2005      8.4663    130.8084
   393.5000    529.4495     26.2018      8.2777    132.0466
   393.7500    582.5421     26.2045      8.1227    132.4903
   394.0000    619.6901     26.2081      8.0240    132.3363
   394.2500    639.8535     26.2123      7.9968    131.2364
   394.5000    648.5751     26.2164      8.0463    127.8643
   394.7500    651.5258     26.2197      8.1676    124.8622
   395.0000    651.8453     26.2217      8.3489    120.1542
   395.2500    649.8040     26.2218      8.5745    117.2543
   395.5000    642.6932     26.2199      8.8273    113.6417
   395.7500    624.9321     26.2161      9.0888    111.8751
   396.0000    590.7867     26.2108      9.3394    110.3134
   396.2500    540.7979     26.2046      9.5568    110.1113
   396.5000    486.7641     26.1983      9.7182    111.5650
   396.7500    446.4793     26.1923      9.8049    114.0184
   397.0000    429.0241     26.1869      9.8088    119.8302
   397.2500    426.2752     26.1823      9.7365    124.4737
   397.5000    423.3932     26.1782      9.6076    130.6761
   397.7500    417.5121     26.1742      9.4486    133.2337
   398.0000    420.9315     26.1702      9.2856    134.2801
   398.2500    444.3965     26.1662      9.1396    133.9472
   398.5000    482.7350     26.1624      9.0262    133.8185
   398.7500    520.8432     26.1595      8.9566    134.2813
   399.0000    549.5719     26.1581      8.9397    134.4976
   399.2500    570.4157     26.1585      8.9826    133.3633
   399.5000    587.2653     26.1608      9.0895    129.4704
   399.7500    599.7639     26.1647      9.2613    126.1311
   400.0000    605.3029     26.1694      9.4938    121.5307
   400.2500    603.7576     26.1742      9.7761    119.1881
   400.5000    599.2244     26.1784     10.0895    116.6804
   400.7500    597.6208     26.1815     10.4073    144.2749
   401.0000    601.5900     26.1833     10.7002    142.2090
   401.2500    606.8438     26.1842     10.9459    140.9232
   401.5000    604.9798     26.1844     11.1374    139.3613
   401.7500    591.8109     26.1845     11.2852    166.5579
   402.0000    573.6590     26.1847     11.4110    166.2825
   402.2500    563.8789     26.1854     11.5379    165.8556
   402.5000    571.1381     26.1866     11.6823    163.2175
   402.7500    591.5991     26.1884     11.8486    159.8907
   403.0000    613.1010     26.1905     12.0292    154.0774
   403.2500    624.6645     26.1928     12.2101    150.9666
   403.5000    621.4107     26.1952     12.3780    148.5625
   403.7500    604.6039     26.1975     12.5251    148.1719
   404.0000    580.7264     26.1996     12.6485    148.3148
   404.2500    558.5523     26.2015     12.7471    148.5732
   404.5000    542.8772     26.2034     12.8189    149.1968
   404.7500    530.4211     26.2054     12.8620    149.5641
   405.0000    514.5936     26.2076     12.8782    149.2441
   405.2500    495.1589     26.2101     12.8760    148.4125
   405.5000    481.7510     26.2127     12.8708    147.5656
   405.7500    486.8056     26.2153     12.8817    148.2055
   406.0000    514.6025     26.2175     12.9281    151.2287
   406.2500    556.6447     26.2193     13.0265    153.7967
   406.5000    597.8287     26.2207     13.1889    156.1520
   406.7500    627.1204     26.2219     13.4233    155.4744
   407.0000    642.4020     26.2232     13.7348    150.2777
   407.2500    647.1655     26.2248     14.1252    144.5415
   407.5000    645.4133     26.2267     14.5929    134.2764
   407.7500    640.1497     26.2287     15.1303    127.2220
   408.0000    634.5776     26.2305     15.7244    117.3534
   408.2500    632.1752     26.2317     16.3599    111.7961
   408.5000    634.5929     26.2318     17.0228    105.9838
   408.7500    640.2632     26.2303     17.7033    104.1505
   409.0000    646.0198     26.2269     18.3926    104.2544
   409.2500    649.7071     26.2214     19.0770    105.6614
   409.5000    650.8054     26.2136     19.7301    108.4788
   409.7500    649.2380     26.2037     20.3091    110.1322
   410.0000    644.4602     26.1924     20.7622    111.5747
   410.2500    635.8499     26.1803     21.0481    111.7810
   410.5000    623.3925     26.1686     21.1572    111.2623
   410.7500    607.3469     26.1583     21.1213    110.6697
   411.0000    588.2563     26.1503     21.0020    110.0470
   411.2500    569.4637     26.1449     20.8675    110.0819
   411.5000    558.9120     26.1422     20.7716    110.6579
   411.7500    564.2814     26.1416     20.7427    110.9539
   412.0000    584.8715     26.1425     20.7841    110.6849
   412.2500    611.0080     26.1438     20.8769    110.1758
   412.5000    632.3398     26.1448     20.9852    109.8090
   412.7500    644.8503     26.1446     21.0646    110.2414
   413.0000    650.3378     26.1429     21.0769    111.8166
   413.2500    652.1698     26.1394     21.0054    113.1537
   413.5000    652.6407     26.1344     20.8598    115.3295
   413.7500    652.7360     26.1282     20.6672    117.1141
   414.0000    652.7505     26.1211     20.4567    120.7672
   414.2500    652.7489     26.1138     20.2498    123.6791
   414.5000    652.7404     26.1068     20.0581    127.5131
   414.7500    652.6989     26.1006     19.8854    129.0234
   415.0000    652.5464     26.0956     19.7287    129.7488
   415.2500    652.1221     26.0919     19.5798    129.8098
   415.5000    651.2429     26.0894     19.4310    130.0933
   415.7500    649.9340     26.0877     19.2831    130.4018
   416.0000    648.6525     26.0863     19.1481    130.6496
   416.2500    648.1069     26.0846     19.0428    130.6375
   416.5000    648.6525     26.0822     18.9781    130.5193
   416.7500    649.9340     26.0791     18.9515    130.1434
   417.0000    651.2429     26.0756     18.9496    128.2442
   417.2500    652.1221     26.0720     18.9565    126.0507
