~Version Information
VERS.                      2.0: CWLS Log ASCII Standard - VERSION 2.0
WRAP.                       NO: One line per depth step
~Well Information Block
STRT.FT                -8.2500: 
STOP.FT               871.5000: 
STEP.FT                 0.2500: 
NULL.                -999.2500: 
COMP.          Pioneer Natural Resources: COMPANY
WELL.             Tomcat 32-10: WELL
FLD.           Purgatorie River: FIELD
LOC.           2286' FNL & 2463' FEL------: LOCATION
PROV.                       CO: PROVINCE
CNTY.               Las Animas: COUNTRY
SRVC.          Patterson Wireline: SERVICE COMPANY
DATE.          Mon Mar 28 09:03:25 2005: LOG DATE
UWI.           05 071 08301 00: UNIQUE WELL ID
~Curve Information Block
DEPT.FT            0 000 00 00: Depth
CCL.                          : Casing Collar Locator
TT3.usec                      : CBL 3' Travel Time
AMP3.mV                       : CBL 3' Amplitude
GR.GAPI                       : Gamma Ray
~Parameter Information Block
~A  Depth       CCL         TT3         AMP3         GR     
# ...
   494.2500      0.0000    761.1620      8.1063    118.8805
   494.5000      0.0000    755.8949      8.0469    119.4366
   494.7500      0.0000    755.0414      7.9513    119.4632
   495.0000      0.0000    758.1157      7.8593    118.2134
   495.2500      0.0000    763.2653      7.7927    115.7155
   495.5000      0.0000    767.7207      7.7642    113.2869
   495.7500      0.0000    769.1225      7.7790    112.7895
   496.0000      0.0000    766.5464      7.8398    115.2508
   496.2500      0.0000    760.7341      7.9457    120.1244
   496.5000      0.0000    753.6411      8.0831    125.8144
   496.7500      0.0000    747.4329      8.2236    130.9275
   497.0000      0.0000    743.3868      8.3367    135.0188
   497.2500      0.0000    741.7543      8.4036    138.3028
   497.5000      0.0000    742.8558      8.4208    141.0124
   497.7500      0.0000    748.2300      8.3992    143.0981
   498.0000      0.0000    760.0933      8.3585    144.2449
   498.2500      0.0000    778.9294      8.3129    143.9932
   498.5000      0.0000    801.2449      8.2600    142.0797
   498.7500      0.0000    820.1650      8.1904    138.9251
   499.0000      0.0000    829.1735      8.1055    135.7552
   499.2500      0.0000    826.0016      8.0154    134.1330
   499.5000      0.0000    813.1340      7.9223    135.1619
   499.7500      0.0000    795.1848      7.8194    138.6889
   500.0000      0.0000    776.6388      7.7077    143.0816
   500.2500      0.0000    761.3690      7.5979    146.0738
   500.5000      0.0000    752.2401      7.4980    146.0919
   500.7500      0.0000    750.1642      7.4122    143.0145
   501.0000      0.0000    753.8570      7.3555    138.1531
   501.2500      0.0000    760.8267      7.3526    133.6117
   501.5000      0.0000    768.5414      7.4105    130.9945
   501.7500      0.0000    774.8657      7.4976    130.0532
   502.0000      0.0000    778.3621      7.5652    128.7914
   502.2500      0.0000    779.5874      7.5870    125.3252
   502.5000      0.0000    781.8887      7.5706    119.6867
   502.7500      0.0000    788.8671      7.5365    113.9229
   503.0000      0.0000    800.0974      7.4978    110.9254
   503.2500      0.0000    810.5527      7.4584    112.8814
   503.5000      0.0000    814.9058      7.4198    119.7975
   503.7500      0.0000    811.5925      7.3881    129.1411
   504.0000      0.0000    802.7857      7.3763    137.4215
   504.2500      0.0000    792.1860      7.3955    142.3181
   504.5000      0.0000    783.3868      7.4351    143.3900
   504.7500      0.0000    778.7235      7.4627    141.3694
   505.0000      0.0000    778.6341      7.4516    137.3127
   505.2500      0.0000    782.5222      7.4068    132.2406
   505.5000      0.0000    789.9779      7.3598    127.1762
   505.7500      0.0000    800.3715      7.3372    123.3279
   506.0000      0.0000    811.3716      7.3398    121.8747
   506.2500      0.0000    819.2125      7.3525    122.9143
   506.5000      0.0000    821.5807      7.3638    124.5670
   506.7500      0.0000    820.1539      7.3691    123.8546
   507.0000      0.0000    819.4230      7.3626    119.1642
   507.2500      0.0000    822.6863      7.3415    111.8998
   507.5000      0.0000    829.8273      7.3175    105.5433
   507.7500      0.0000    838.8544      7.3133    103.1403
   508.0000      0.0000    848.1172      7.3409    105.6281
   508.2500      0.0000    856.5274      7.3890    111.9293
   508.5000      0.0000    862.9547      7.4381    120.0063
   508.7500      0.0000    866.3364      7.4856    127.9937
   509.0000      0.0000    866.0507      7.5467    134.8616
   509.2500      0.0000    862.0421      7.6301    140.1257
   509.5000      0.0000    855.0784      7.7257    143.0929
   509.7500      0.0000    847.1074      7.8187    143.0141
   510.0000      0.0000    840.8687      7.9029    140.1878
   510.2500      0.0000    838.7092      7.9729    136.2773
   510.5000      0.0000    841.4522      8.0199    132.9494
   510.7500      0.0000    848.0690      8.0407    130.3752
   511.0000      0.0000    856.2363      8.0401    127.5844
   511.2500      0.0000    863.5095      8.0183    124.3126
   511.5000      0.0000    868.3719      7.9681    121.8959
   511.7500      0.0000    870.3456      7.8909    121.9846
   512.0000      0.0000    869.1766      7.8043    124.6304
   512.2500      0.0000    864.3184      7.7271    127.9147
   512.5000      0.0000    855.8678      7.6624    129.3228
   512.7500      0.0000    846.1227      7.6008    127.4573
   513.0000      0.0000    839.1206      7.5322    122.8055
   513.2500      0.0000    837.5160      7.4539    117.2326
   513.5000      0.0000    840.3474      7.3750    112.7603
   513.7500      0.0000    844.6011      7.3158    110.5905
   514.0000      0.0000    848.1930      7.2933    110.7999
   514.2500      0.0000    850.7968      7.3014    112.5885
   514.5000      0.0000    852.8872      7.3093    115.0937
   514.7500      0.0000    855.0139      7.2827    118.1259
   515.0000      0.0000    857.5087      7.2096    121.5844
   515.2500      0.0000    860.0349      7.1041    124.0619
   515.5000      0.0000    861.2713      6.9898    122.9075
   515.7500      0.0000    859.3105      6.8819    116.3783
   516.0000      0.0000    852.7831      6.7870    105.4718
   516.2500      0.0000    842.3064      6.7149     93.1675
   516.5000      0.0000    831.2454      6.6856     82.0011
   516.7500      0.0000    824.4625      6.7194     72.6255
   517.0000      0.0000    825.2818      6.8154     64.3802
   517.2500      0.0000    833.2109      6.9400     56.6107
   517.5000      0.0000    844.5327      7.0494     49.3213
   517.7500      0.0000    855.0090      7.1244     42.9976
   518.0000      0.0000    862.1976      7.1767     38.1639
   518.2500      0.0000    865.8159      7.2236     35.0777
   518.5000      0.0000    866.5903      7.2696     33.6908
   518.7500      0.0000    864.9514      7.3149     33.7722
   519.0000      0.0000    860.7601      7.3650     35.1590
   519.2500      0.0000    854.4590      7.4217     38.1298
   519.5000      0.0000    848.4696      7.4705     43.5152
   519.7500      0.0000    846.4231      7.4903     52.1452
   520.0000      0.0000    849.9935      7.4737     64.1662
   520.2500      0.0000    856.9148      7.4296     79.0560
   520.5000      0.0000    862.7892      7.3698     96.0296
   520.7500      0.0000    864.1390      7.3041    113.8487
   521.0000      0.0000    859.3535      7.2470    130.2519
   521.2500      0.0000    848.3227      7.2145    142.2493
   521.5000      0.0000    833.0660      7.2054    147.6306
   521.7500      0.0000    818.5602      7.1989    146.4772
   522.0000      0.0000    811.0981      7.1761    141.2858
   522.2500      0.0000    814.3237      7.1363    135.6116
   522.5000      0.0000    826.5927      7.0930    132.2046
   522.7500      0.0000    842.3035      7.0599    131.6720
   523.0000      0.0000    855.8328      7.0431    132.4378
   523.2500      0.0000    864.5037      7.0402    132.1782
   523.5000      0.0000    868.7255      7.0443    129.6775
   523.7500      0.0000    870.3120      7.0526    125.4876
   524.0000      0.0000    870.9019      7.0697    121.2406
   524.2500      0.0000    871.3490      7.1012    118.6382
   524.5000      0.0000    871.8328      7.1470    118.6568
   524.7500      0.0000    872.1848      7.2002    121.1273
   525.0000      0.0000    872.1807      7.2482    125.0946
   525.2500      0.0000    871.7203      7.2746    129.6012
   525.5000      0.0000    870.8940      7.2698    133.9190
   525.7500      0.0000    869.9595      7.2432    137.1593
   526.0000      0.0000    869.2508      7.2164    138.1597
   526.2500      0.0000    869.0390      7.2002    135.9658
   526.5000      0.0000    869.3820      7.1872    130.2454
   526.7500      0.0000    870.0408      7.1689    121.1580
   527.0000      0.0000    870.5240      7.1507    109.1971
   527.2500      0.0000    870.1615      7.1420     95.5409
   527.5000      0.0000    868.1463      7.1365     82.3093
