~Version Information
VERS.                      2.0: CWLS Log ASCII Standard - VERSION 2.0
WRAP.                       NO: One line per depth step
~Well Information Block
STRT.FT                -7.0000: 
STOP.FT              1656.2500: 
STEP.FT                 0.2500: 
NULL.                -999.2500: 
COMP.          Pioneer Natural Resources: COMPANY
WELL.               Elmo 14-21: WELL
FLD.           Purgatorie River: FIELD
LOC.           623' FSL & 450' FWL--: LOCATION
PROV.                       CO: PROVINCE
CNTY.               Las Animas: COUNTRY
SRVC.          Patterson Wireline: SERVICE COMPANY
DATE.          Mon Jun 27 15:45:41 2005: LOG DATE
UWI.           05 071 08360 00: UNIQUE WELL ID
~Curve Information Block
DEPT.FT            0 000 00 00: Depth
CCL.                          : Casing Collar Locator
TT3.usec                      : CBL 3' Travel Time
AMP3.mV                       : CBL 3' Amplitude
GR.GAPI                       : Gamma Ray
~Parameter Information Block
~A  Depth       CCL         TT3         AMP3         GR     
# ...
   964.5000      0.0000    783.5107      5.0025    115.7324
   964.7500      0.0000    793.8048      5.1235    103.5557
   965.0000      0.0000    799.1189      5.2135     92.3742
   965.2500      0.0000    796.3165      5.2830     83.9669
   965.5000      0.0000    784.9235      5.3330     79.8809
   965.7500      0.0000    769.4545      5.3519     80.4524
   966.0000      0.0000    757.2884      5.3184     84.2110
   966.2500      0.0000    753.0577      5.2210     88.6578
   966.5000      0.0000    755.5782      5.0828     91.8541
   966.7500      0.0000    760.3307      4.9577     93.6173
   967.0000      0.0000    763.7711      4.8872     95.4607
   967.2500      0.0000    764.8167      4.8668     99.1709
   967.5000      0.0000    763.5789      4.8637    105.0872
   967.7500      0.0000    760.3409      4.8547    111.6957
   968.0000      0.0000    756.1345      4.8382    116.7818
   968.2500      0.0000    753.0674      4.8192    118.6217
   968.5000      0.0000    752.6317      4.7999    116.2877
   968.7500      0.0000    753.9457      4.7840    109.7155
   969.0000      0.0000    754.8318      4.7839     99.8976
   969.2500      0.0000    754.5494      4.8184     88.7809
   969.5000      0.0000    754.7562      4.9004     78.7504
   969.7500      0.0000    757.7317      5.0203     72.0182
   970.0000      0.0000    764.2538      5.1405     70.0673
   970.2500      0.0000    773.4430      5.2095     73.3253
   970.5000      0.0000    783.6329      5.1930     81.2056
   970.7500      0.0000    792.3235      5.1005     92.3665
   971.0000      0.0000    796.0012      4.9840    105.0775
   971.2500      0.0000    791.2665      4.9035    117.7105
   971.5000      0.0000    775.9839      4.8840    129.1048
   971.7500      0.0000    749.1268      4.9016    138.5208
   972.0000      0.0000    711.2726      4.9143    145.4419
   972.2500      0.0000    667.3740      4.9001    149.5744
   972.5000      0.0000    628.2764      4.8667    150.8512
   972.7500      0.0000    606.1255      4.8337    149.5219
   973.0000      0.0000    606.1294      4.8130    146.6835
   973.2500      0.0000    623.3682      4.8042    144.5579
   973.5000      0.0000    648.1686      4.8016    145.3580
   973.7500      0.0000    673.4420      4.8031    149.2895
   974.0000      0.0000    696.5436      4.8096    153.7182
   974.2500      0.0000    716.6130      4.8177    154.7415
   974.5000      0.0000    732.7925      4.8181    150.1967
   974.7500      0.0000    744.6863      4.8049    141.6058
   975.0000      0.0000    752.6196      4.7878    133.3110
   975.2500      0.0000    756.9062      4.7878    129.6858
   975.5000      0.0000    757.8890      4.8191    132.5937
   975.7500      0.0000    756.9178      4.8768    140.2864
   976.0000      0.0000    755.8019      4.9450    148.2555
   976.2500      0.0000    754.3176      5.0113    152.0132
   976.5000      0.0000    749.4449      5.0697    149.8367
   976.7500      0.0000    738.6161      5.1135    143.2355
   977.0000      0.0000    723.4224      5.1348    135.4455
   977.2500      0.0000    709.1254      5.1347    129.7309
   977.5000      0.0000    700.7494      5.1304    128.0815
   977.7500      0.0000    699.9413      5.1423    130.3169
   978.0000      0.0000    704.8405      5.1698    134.4428
   978.2500      0.0000    712.1327      5.1846    138.4066
   978.5000      0.0000    719.1284      5.1564    141.2858
   978.7500      0.0000    724.4759      5.0811    142.6086
   979.0000      0.0000    727.8336      4.9808    141.5704
   979.2500      0.0000    729.4091      4.8828    138.0377
   979.5000      0.0000    729.5354      4.8033    133.7988
   979.7500      0.0000    728.3008      4.7467    131.6670
   980.0000      0.0000    725.7071      4.7147    133.2090
   980.2500      0.0000    722.0013      4.7149    137.7253
   980.5000      0.0000    717.4693      4.7575    143.4011
   980.7500      0.0000    712.2281      4.8378    149.1190
   981.0000      0.0000    706.7729      4.9230    154.9840
   981.2500      0.0000    702.2816      4.9628    161.2045
   981.5000      0.0000    699.4949      4.9205    166.7643
   981.7500      0.0000    697.4264      4.8053    169.6199
   982.0000      0.0000    694.1586      4.6813    168.4333
   982.2500      0.0000    689.1136      4.6280    163.9264
   982.5000      0.0000    683.8441      4.6693    158.3365
   982.7500      0.0000    680.3194      4.7471    153.6679
   983.0000      0.0000    678.5383      4.7892    150.6016
   983.2500      0.0000    675.6038      4.7957    148.8440
   983.5000      0.0000    667.4481      4.8340    147.8313
   983.7500      0.0000    652.6519      4.9488    146.8442
   984.0000      0.0000    634.8174      5.1025    145.2116
   984.2500      0.0000    620.3984      5.2097    142.9965
   984.5000      0.0000    614.4766      5.2044    141.1105
   984.7500      0.0000    619.0067      5.0699    140.4810
   985.0000      0.0000    633.1389      4.8377    141.5815
   985.2500      0.0000    653.2572      4.5832    144.8998
   985.5000      0.0000    674.2100      4.3951    151.1630
   985.7500      0.0000    692.8728      4.3084    160.5182
   986.0000      0.0000    710.4946      4.2708    171.5772
   986.2500      0.0000    730.3881      4.2027    181.5578
   986.5000      0.0000    753.3105      4.0929    187.7060
   986.7500      0.0000    775.9733      4.0128    189.0338
   987.0000      0.0000    793.9086      4.0351    186.8135
   987.2500      0.0000    804.5630      4.1579    183.3349
   987.5000      0.0000    807.8623      4.3151    180.3624
   987.7500      0.0000    805.6398      4.4380    178.6603
   988.0000      0.0000    801.0970      4.4916    178.0960
   988.2500      0.0000    797.4484      4.4811    177.7603
   988.5000      0.0000    795.9977      4.4489    176.6295
   988.7500      0.0000    795.5117      4.4496    174.5284
   989.0000      0.0000    793.5661      4.4926    172.2115
   989.2500      0.0000    788.4117      4.5181    170.5735
   989.5000      0.0000    779.9280      4.4592    169.9144
   989.7500      0.0000    769.3721      4.3259    169.6662
   990.0000      0.0000    758.6343      4.2031    168.6858
   990.2500      0.0000    749.6116      4.1619    166.1139
   990.5000      0.0000    743.3372      4.1942    162.0761
   990.7500      0.0000    738.8382      4.2389    157.6270
   991.0000      0.0000    733.5267      4.2442    154.2244
   991.2500      0.0000    725.6984      4.1897    152.9965
   991.5000      0.0000    716.0933      4.0796    153.8296
   991.7500      0.0000    706.3766      3.9395    155.1885
   992.0000      0.0000    697.1807      3.8066    155.4544
   992.2500      0.0000    688.5496      3.6931    154.3911
   992.5000      0.0000    681.4707      3.5622    152.6542
   992.7500      0.0000    678.2972      3.3562    150.0613
   993.0000      0.0000    681.9379      3.0578    145.3412
   993.2500      0.0000    694.0637      2.7263    137.8027
   993.5000      0.0000    712.6425      2.4773    128.4946
   993.7500      0.0000    731.0521      2.4185    119.4726
   994.0000      0.0000    741.3391      2.5765    112.5508
   994.2500      0.0000    740.2636      2.8679    109.1166
   994.5000      0.0000    732.3306      3.1476    110.4272
   994.7500      0.0000    725.2476      3.3082    117.0490
   995.0000      0.0000    721.7314      3.3466    127.8805
   995.2500      0.0000    717.4401      3.3464    140.2739
   995.5000      0.0000    707.8872      3.4144    151.3295
   995.7500      0.0000    695.4252      3.6195    159.1061
   996.0000      0.0000    688.1757      3.9491    163.1562
   996.2500      0.0000    693.1506      4.3084    164.3820
   996.5000      0.0000    710.8109      4.5868    164.1566
   996.7500      0.0000    735.1611      4.7390    163.3062
   997.0000      0.0000    757.8967      4.7974    162.1295
   997.2500      0.0000    772.8102      4.8147    161.2164
   997.5000      0.0000    778.3531      4.8146    161.4059
   997.7500      0.0000    777.9237      4.7942    162.6680
