~Version Information
VERS.                      2.0: CWLS Log ASCII Standard - VERSION 2.0
WRAP.                       NO: One line per depth step
~Well Information Block
STRT.FT               750.3000: 
STOP.FT              1254.0000: 
STEP.FT                 0.1000: 
NULL.                -999.2500: 
COMP.          Petrogulf Corporation: COMPANY
WELL.           Montoya 13-41V: WELL
FLD.           Purgatorie River: FIELD
LOC.           449' FNL & 891' FEL: LOCATION
CNTY.               Las Animas: COUNTY
SRVC.                         : SERVICE COMPANY
DATE.          Tue Aug 17 15:47:43 2004: LOG DATE
UWI.           05 071 08021 00: UNIQUE WELL ID
STAT.                 Colorado: STATE
~Curve Information Block
DEPT.FT            0 000 00 00: Depth
DCAL.in                       : CDL Caliper
RHOB.g/cc                     : CDL Bulk Density
RHOC.g/cc                     : CDL Density Correction
DPOR.pu                       : CDL Density Porosity
GR.GAPI                       : Gamma Ray
NPOR.pu                       : Neutron Porosity
~Parameter Information Block
~A  Depth       DCAL        RHOB        RHOC        DPOR         GR         NPOR    
# ...
  1115.1000      8.3614      1.3622      0.0011     78.0477     54.8576     33.7311
  1115.2000      8.3614      1.4162      0.0392     74.7728     61.9747     33.4290
  1115.3000      8.4814      1.4658      0.0659     71.7683     69.6551     33.5210
  1115.4000      8.4814      1.5143      0.0840     68.8304     72.5062     33.8808
  1115.5000      8.6037      1.5679      0.0913     65.5845     70.6151     34.1004
  1115.6000      8.6037      1.6368      0.1080     61.4037     70.1559     33.9401
  1115.7000      8.6037      1.7337      0.1124     55.5336     75.5538     33.4733
  1115.8000      8.2715      1.8490      0.1594     48.5427     86.7829     32.8412
  1115.9000      8.2715      1.9527      0.1538     42.2603     99.9177     32.1364
  1116.0000      8.1804      2.0362      0.1239     37.2002    111.7108     31.2552
  1116.1000      8.1804      2.1135      0.1833     32.5161    122.4771     30.4117
  1116.2000      8.1804      2.1925      0.1498     27.7246    132.1658     30.2871
  1116.3000      8.2207      2.2814      0.1344     22.3418    140.0244     30.9025
  1116.4000      8.2207      2.3838      0.1558     16.1356    149.9233     31.6653
  1116.5000      8.2230      2.4765      0.1916     10.5148    164.2673     31.9239
  1116.6000      8.2230      2.5263      0.1463      7.4979    180.1499     31.0356
  1116.7000      8.2230      2.5334      0.1191      7.0658    193.3203     29.4314
  1116.8000      8.1670      2.5293      0.1171      7.3157    196.9621     28.7278
  1116.9000      8.1670      2.5355      0.1247      6.9365    188.8149     29.4594
  1117.0000      8.1470      2.5500      0.1476      6.0603    177.3904     30.3119
  1117.1000      8.1470      2.5585      0.1374      5.5426    168.5238     29.9853
  1117.2000      8.1470      2.5536      0.1258      5.8408    163.8138     28.8361
  1117.3000      8.1543      2.5519      0.0676      5.9458    164.8058     27.9472
  1117.4000      8.1543      2.5715      0.0999      4.7599    168.3036     27.7094
  1117.5000      8.1655      2.5928      0.1708      3.4670    170.2414     28.0553
  1117.6000      8.1655      2.5900      0.1077      3.6385    168.7749     28.5969
  1117.7000      8.1655      2.5750      0.0994      4.5464    165.0895     28.5654
  1117.8000      8.1929      2.5687      0.0957      4.9257    162.4357     27.6529
  1117.9000      8.1929      2.5739      0.0663      4.6149    157.5107     26.9096
  1118.0000      8.2403      2.5858      0.0764      3.8883    147.2740     27.1328
  1118.1000      8.2403      2.5974      0.0664      3.1897    138.3026     27.5999
  1118.2000      8.2403      2.6018      0.0812      2.9203    134.3481     27.6187
  1118.3000      8.2506      2.6000      0.0526      3.0308    132.6647     27.5163
  1118.4000      8.2506      2.6012      0.0780      2.9591    133.9087     27.7718
  1118.5000      8.2589      2.6079      0.1291      2.5544    139.7655     28.2469
  1118.6000      8.2589      2.6092      0.1595      2.4715    147.9050     28.2295
  1118.7000      8.2589      2.6076      0.0820      2.5704    155.1208     27.2650
  1118.8000      8.1064      2.6197      0.0803      1.8346    160.2017     26.0029
  1118.9000      8.1064      2.6389      0.1111      0.6705    160.5140     25.2670
  1119.0000      8.0305      2.6406      0.0955      0.5699    154.8397     24.8269
  1119.1000      8.0305      2.6201      0.0451      1.8104    148.3729     24.5163
  1119.2000      8.0305      2.5919      0.0352      3.5232    143.9206     24.7875
  1119.3000      8.0199      2.5695      0.0233      4.8762    140.6024     25.5986
  1119.4000      8.0199      2.5624      0.0105      5.3101    141.2458     26.3126
  1119.5000      8.0004      2.5698      0.0799      4.8625    146.5510     26.1498
  1119.6000      8.0004      2.5824      0.0428      4.0968    150.9960     24.6876
  1119.7000      8.0004      2.5924      0.0501      3.4916    150.5630     22.7819
  1119.8000      8.0014      2.5923      0.0395      3.4984    144.8431     21.7029
  1119.9000      8.0014      2.5847     -0.0296      3.9603    137.5902     21.3303
  1120.0000      8.0024      2.5798      0.0059      4.2524    134.5482     20.7450
  1120.1000      8.0024      2.5769      0.0431      4.4280    134.8074     20.1571
  1120.2000      8.0024      2.5714      0.0254      4.7625    132.6433     19.8885
  1120.3000      8.0017      2.5671      0.0393      5.0271    127.2626     19.4062
  1120.4000      8.0017      2.5668      0.0422      5.0403    122.6761     18.5147
  1120.5000      7.9645      2.5703      0.0456      4.8292    119.5027     17.7742
  1120.6000      7.9645      2.5781      0.0517      4.3601    115.6333     17.6076
  1120.7000      7.9645      2.5856      0.0522      3.9058    112.3750     17.9860
  1120.8000      7.9607      2.5804      0.1011      4.2158    111.6616     18.5556
  1120.9000      7.9607      2.5647      0.0530      5.1691    114.1201     18.8913
  1121.0000      7.9601      2.5611      0.0769      5.3874    119.8405     18.9832
  1121.1000      7.9601      2.5804      0.1043      4.2188    125.0952     18.9987
  1121.2000      7.9601      2.6077      0.1240      2.5607    125.8271     19.0361
  1121.3000      7.9641      2.6227      0.1272      1.6552    125.1335     19.1995
  1121.4000      7.9641      2.6227      0.1432      1.6569    129.9026     19.2194
  1121.5000      7.9788      2.6213      0.1215      1.7400    135.7300     18.8759
  1121.6000      7.9788      2.6262      0.1315      1.4452    133.5156     18.8303
  1121.7000      7.9788      2.6342      0.1047      0.9557    126.2495     19.2893
  1121.8000      7.9826      2.6430      0.0999      0.4238    119.3910     19.1727
  1121.9000      7.9826      2.6490      0.1154      0.0601    113.8171     17.9162
  1122.0000      7.9929      2.6459      0.0827      0.2511    110.3840     16.6308
  1122.1000      7.9929      2.6336      0.0761      0.9916    109.8480     16.4019
  1122.2000      7.9929      2.6220      0.0533      1.6954    111.7269     16.6420
  1122.3000      7.9903      2.6177      0.0700      1.9606    113.6848     16.4792
  1122.4000      7.9903      2.6120      0.0685      2.3005    111.0810     16.1112
  1122.5000      7.9894      2.5964      0.0652      3.2457    103.8572     15.8304
  1122.6000      7.9894      2.5767      0.0290      4.4425     99.3364     15.6746
  1122.7000      7.9894      2.5577      0.0283      5.5960     98.9938     15.7755
  1122.8000      8.0071      2.5361      0.0045      6.9023     95.0827     15.9550
  1122.9000      8.0071      2.5165     -0.0248      8.0936     86.4465     15.8177
  1123.0000      8.0129      2.5086     -0.0054      8.5674     80.8567     15.2582
  1123.1000      8.0129      2.5103      0.0128      8.4686     79.7132     14.6384
  1123.2000      8.0129      2.5067      0.0715      8.6851     79.1224     14.5985
  1123.3000      7.9618      2.4905      0.0418      9.6686     77.5110     15.1296
  1123.4000      7.9618      2.4746      0.0336     10.6302     76.3101     15.5784
  1123.5000      7.9563      2.4737      0.0446     10.6874     77.6904     15.6829
  1123.6000      7.9563      2.4869      0.0444      9.8867     79.1289     15.6796
  1123.7000      7.9563      2.5030      0.0654      8.9118     76.8872     15.7557
  1123.8000      7.9575      2.5082      0.0620      8.5946     74.7158     15.8769
  1123.9000      7.9575      2.5009      0.0123      9.0352     77.2223     15.9046
  1124.0000      7.9572      2.4950      0.0418      9.3924     80.1480     15.7080
  1124.1000      7.9572      2.4966      0.0348      9.2994     78.9736     15.6064
  1124.2000      7.9572      2.4968      0.0708      9.2829     75.8496     15.8137
  1124.3000      7.9564      2.4904      0.0455      9.6714     74.2251     16.1800
  1124.4000      7.9564      2.4842      0.0241     10.0463     74.0493     16.6803
  1124.5000      7.9565      2.4821      0.0522     10.1745     73.2435     16.6832
  1124.6000      7.9565      2.4785      0.0376     10.3943     71.7295     15.5081
