~Version Information
VERS.                      2.0: CWLS Log ASCII Standard - VERSION 2.0
WRAP.                       NO: One line per depth step
~Well Information Block
STRT.FT                -7.5000: 
STOP.FT              1702.2500: 
STEP.FT                 0.2500: 
NULL.                -999.2500: 
COMP.          Pioneer Natural Resources: COMPANY
WELL.          Warrior 33-1 Tr: WELL
FLD.           Purgatoire River: FIELD
LOC.           2648' FSL & 2341' FEL--: LOCATION
PROV.                 Colorado: PROVINCE
CNTY.               Las Animas: COUNTRY
SRVC.                Patterson: SERVICE COMPANY
DATE.          Wed Jun 22 12:18:08 2005: LOG DATE
UWI.           05 071 08412 00: UNIQUE WELL ID
~Curve Information Block
DEPT.FT            0 000 00 00: Depth
CCL.                          : Casing Collar Locator
TT3.usec                      : CBL 3' Travel Time
AMP3.mV                       : CBL 3' Amplitude
GR.GAPI                       : Gamma Ray
~Parameter Information Block
~A  Depth       CCL         TT3         AMP3         GR     
# ...
  1232.0000      0.0000    720.9618     10.1285    145.6887
  1232.2500      0.0000    732.8149     10.6878    130.3428
  1232.5000      0.0000    743.1998     11.1106    115.0132
  1232.7500      0.0000    751.4121     11.3653    101.7950
  1233.0000      0.0000    758.3768     11.4573     91.9451
  1233.2500      0.0000    764.6318     11.4205     86.1330
  1233.5000      0.0000    769.4504     11.3080     85.0024
  1233.7500      0.0000    771.4815     11.1775     89.0629
  1234.0000      0.0000    769.5922     11.0692     97.9322
  1234.2500      0.0000    763.4173     10.9844    109.8046
  1234.5000      0.0000    753.8583     10.8810    121.9345
  1234.7500      0.0000    742.9133     10.7002    131.9359
  1235.0000      0.0000    732.5861     10.4099    138.8425
  1235.2500      0.0000    724.1629     10.0278    143.2215
  1235.5000      0.0000    718.5117      9.6071    146.4569
  1235.7500      0.0000    716.5626      9.2032    149.8096
  1236.0000      0.0000    719.2007      8.8477    153.8817
  1236.2500      0.0000    726.5475      8.5463    158.5982
  1236.5000      0.0000    736.8226      8.2950    163.2316
  1236.7500      0.0000    745.6004      8.0950    166.4689
  1237.0000      0.0000    746.9630      7.9453    166.9089
  1237.2500      0.0000    737.1650      7.8277    163.8650
  1237.5000      0.0000    718.9241      7.7134    157.9546
  1237.7500      0.0000    701.8167      7.5857    150.8226
  1238.0000      0.0000    696.0458      7.4521    143.8101
  1238.2500      0.0000    704.2607      7.3386    136.7894
  1238.5000      0.0000    719.9285      7.2756    128.6842
  1238.7500      0.0000    733.6763      7.2808    119.0951
  1239.0000      0.0000    740.4360      7.3468    109.0507
  1239.2500      0.0000    740.9249      7.4408    100.3852
  1239.5000      0.0000    737.4810      7.5116     94.7526
  1239.7500      0.0000    729.5078      7.4996     92.8321
  1240.0000      0.0000    713.4760      7.3572     93.8853
  1240.2500      0.0000    686.9901      7.0798     96.1783
  1240.5000      0.0000    652.6055      6.7158     98.1253
  1240.7500      0.0000    619.1227      6.3456     99.0692
  1241.0000      0.0000    599.4722      6.0468     99.0358
  1241.2500      0.0000    602.7809      5.8640     98.0138
  1241.5000      2.0000    624.6904      5.7904     95.6601
  1241.7500      0.0000    648.0419      5.7865     91.7818
  1242.0000     -2.0000    657.1687      5.8241     87.0388
  1242.2500      2.0000    651.2587      5.9116     82.8107
  1242.5000      0.0000    642.6016      6.0905     80.0422
  1242.7500      0.0000    643.1350      6.4185     78.3993
  1243.0000      0.0000    654.1761      6.9187     76.8070
  1243.2500      0.0000    668.7340      7.4978     74.7105
  1243.5000      0.0000    681.3600      7.9505     72.6643
  1243.7500      0.0000    693.1222      8.1190     71.9306
  1244.0000      0.0000    707.1190      8.0426     73.7154
  1244.2500      0.0000    721.8145      7.9043     78.5830
  1244.5000      0.0000    730.5968      7.8580     86.2001
  1244.7500      0.0000    727.8652      7.9353     95.5653
  1245.0000      0.0000    715.1189      8.0749    105.6376
  1245.2500      0.0000    700.5604      8.1897    115.7341
  1245.5000      0.0000    692.6605      8.2183    125.3695
  1245.7500      0.0000    694.3650      8.1475    134.1163
  1246.0000      0.0000    703.0409      8.0044    141.5588
  1246.2500      0.0000    714.1905      7.8276    146.8169
  1246.5000      0.0000    724.5135      7.6466    148.3019
  1246.7500      0.0000    732.6030      7.4783    144.8684
  1247.0000      0.0000    738.1286      7.3332    137.2612
  1247.2500      0.0000    741.0903      7.2230    127.7210
  1247.5000      0.0000    741.8543      7.1624    118.2054
  1247.7500      0.0000    741.1785      7.1618    109.6525
  1248.0000      0.0000    739.5646      7.2142    102.7596
  1248.2500      0.0000    736.8976      7.2881     98.5162
  1248.5000      0.0000    733.2614      7.3381     97.5587
  1248.7500      0.0000    729.5795      7.3269     99.5043
  1249.0000      0.0000    726.8041      7.2431    103.3300
  1249.2500      0.0000    724.5833      7.1048    108.1538
  1249.5000      0.0000    721.4203      6.9456    113.2010
  1249.7500      0.0000    716.0668      6.7965    117.1173
  1250.0000      0.0000    708.3683      6.6788    117.9270
  1250.2500      0.0000    699.4652      6.6057    114.1402
  1250.5000      0.0000    692.0753      6.5808    105.9895
  1250.7500      0.0000    689.3824      6.5932     95.4946
  1251.0000      0.0000    691.8430      6.6184     85.3265
  1251.2500      0.0000    695.8781      6.6286     77.6469
  1251.5000      0.0000    697.5298      6.6075     73.5921
  1251.7500      0.0000    696.8066      6.5553     73.1142
  1252.0000      0.0000    696.9657      6.4801     75.1954
  1252.2500      0.0000    700.4898      6.3849     78.7529
  1252.5000      0.0000    707.3170      6.2660     83.6015
  1252.7500      0.0000    716.1505      6.1242     90.4464
  1253.0000      0.0000    725.6235      5.9737     99.8923
  1253.2500      0.0000    734.0015      5.8328    111.3138
  1253.5000      0.0000    739.2046      5.7069    122.5590
  1253.7500      0.0000    740.0623      5.5876    131.0729
  1254.0000      0.0000    737.5123      5.4682    135.6237
  1254.2500      0.0000    734.0594      5.3551    136.8217
  1254.5000      0.0000    731.6106      5.2613    136.1771
  1254.7500      0.0000    729.8533      5.1910    135.1031
  1255.0000      0.0000    727.1291      5.1348    134.5357
  1255.2500      0.0000    722.7510      5.0776    134.7284
  1255.5000      0.0000    717.8892      5.0109    135.3036
  1255.7500      0.0000    714.3566      4.9398    135.7602
  1256.0000      0.0000    713.3119      4.8768    135.8658
  1256.2500      0.0000    715.2007      4.8298    135.5231
  1256.5000      0.0000    719.9897      4.7965    134.6340
  1256.7500      0.0000    726.5817      4.7718    133.3859
  1257.0000      0.0000    732.0022      4.7546    132.3586
  1257.2500      0.0000    732.0075      4.7480    131.8098
  1257.5000      0.0000    723.8088      4.7545    130.7938
  1257.7500      0.0000    709.2203      4.7740    127.4130
  1258.0000      0.0000    694.8252      4.8047    120.4703
  1258.2500      0.0000    687.5590      4.8403    110.7896
  1258.5000      0.0000    689.3420      4.8696    100.4130
  1258.7500      0.0000    696.4011      4.8787     90.7222
  1259.0000      0.0000    703.5182      4.8566     82.1396
  1259.2500      0.0000    707.9787      4.7989     75.4002
  1259.5000      0.0000    709.8970      4.7136     71.9816
  1259.7500      0.0000    710.5123      4.6247     72.9670
  1260.0000      0.0000    711.0515      4.5618     78.1888
  1260.2500      0.0000    712.6827      4.5379     86.6337
  1260.5000      0.0000    716.6046      4.5387     97.0017
  1260.7500      0.0000    723.4185      4.5401    107.6869
  1261.0000      0.0000    731.9891      4.5339    117.0414
  1261.2500      0.0000    739.2291      4.5341    124.4171
  1261.5000      0.0000    741.7938      4.5635    130.8354
  1261.7500      0.0000    738.5749      4.6381    137.9989
  1262.0000      0.0000    731.8021      4.7625    146.3468
  1262.2500      0.0000    725.8931      4.9318    154.1676
  1262.5000      0.0000    724.9422      5.1363    158.7500
  1262.7500      0.0000    730.5204      5.3640    158.3275
  1263.0000      0.0000    740.9870      5.6015    153.0995
  1263.2500      0.0000    752.4273      5.8339    144.9192
  1263.5000      0.0000    760.8889      6.0494    136.2752
  1263.7500      0.0000    764.9365      6.2432    129.3565
  1264.0000      0.0000    766.2186      6.4154    125.7550
  1264.2500      0.0000    767.0366      6.5633    126.5449
  1264.5000      0.0000    767.6935      6.6784    132.1503
  1264.7500      0.0000    766.8633      6.7525    141.8896
  1265.0000      0.0000    763.9829      6.7848    153.4384
  1265.2500      0.0000    760.2456      6.7787    162.9478
