~Version Information
VERS.                      2.0: CWLS Log ASCII Standard - VERSION 2.0
WRAP.                       NO: One line per depth step
~Well Information Block
STRT.FT                -7.0000: 
STOP.FT               867.2500: 
STEP.FT                 0.2500: 
NULL.                -999.2500: 
COMP.          Pioneer Natural Resources: COMPANY
WELL.          Claim Jumper 41-22: WELL
FLD.           Purgatorie River: FIELD
LOC.           1120' FNL & 977' FEL--: LOCATION
PROV.                       CO: PROVINCE
CNTY.               Las Animas: COUNTRY
SRVC.          Patterson Wireline: SERVICE COMPANY
DATE.          Mon Jun 27 12:47:30 2005: LOG DATE
UWI.           05 071 08405 00: UNIQUE WELL ID
~Curve Information Block
DEPT.FT            0 000 00 00: Depth
CCL.                          : Casing Collar Locator
TT3.usec                      : CBL 3' Travel Time
AMP3.mV                       : CBL 3' Amplitude
GR.GAPI                       : Gamma Ray
~Parameter Information Block
~A  Depth       CCL         TT3         AMP3         GR     
# ...
   328.0000      0.0000    861.8655      5.1057     91.0619
   328.2500      0.0000    878.8538      5.0116     93.6259
   328.5000      0.0000    895.4901      4.9538     94.8762
   328.7500      0.0000    904.6763      4.9365     94.2772
   329.0000      0.0000    907.9103      4.9662     91.5528
   329.2500     -2.0000    911.6710      5.0369     86.8732
   329.5000      0.0000    918.9347      5.1514     80.7886
   329.7500      0.0000    925.9529      5.3491     74.2203
   330.0000      0.0000    926.8008      5.7003     68.8203
   330.2500      0.0000    919.3270      6.2411     66.8228
   330.5000      0.0000    906.2749      6.8966     69.7004
   330.7500      0.0000    891.8019      7.4971     76.7754
   331.0000      0.0000    878.1892      7.9016     85.4598
   331.2500      0.0000    866.0493      8.0897     92.9949
   331.5000      0.0000    856.0728      8.1280     98.0979
   331.7500      0.0000    848.9305      8.0868    101.3024
   332.0000      0.0000    844.0084      8.0062    103.9253
   332.2500      0.0000    839.6948      7.9097    106.8016
   332.5000      0.0000    834.8417      7.8176    109.9689
   332.7500      0.0000    829.3889      7.7444    113.0687
   333.0000      0.0000    824.0731      7.6903    115.5503
   333.2500      0.0000    820.1652      7.6414    116.7435
   333.5000      0.0000    819.3270      7.5786    116.1033
   333.7500      0.0000    823.1544      7.4887    113.4054
   334.0000      0.0000    832.0915      7.3724    108.9579
   334.2500      0.0000    843.8876      7.2494    103.8551
   334.5000      0.0000    853.4570      7.1506     99.7632
   334.7500      0.0000    855.9115      7.0988     98.0696
   335.0000      0.0000    850.7719      7.0950     99.1436
   335.2500      0.0000    842.5262      7.1195    102.1612
   335.5000      0.0000    836.1622      7.1458    105.4594
   335.7500      0.0000    832.2742      7.1555    107.4257
   336.0000      0.0000    827.1027      7.1506    107.6060
   336.2500      0.0000    817.4560      7.1555    107.0017
   336.5000      0.0000    805.1494      7.2056    106.9878
   336.7500      0.0000    796.5335      7.3191    107.9649
   337.0000      0.0000    798.1302      7.4746    109.3194
   337.2500      0.0000    812.4470      7.6247    110.4756
   337.5000      0.0000    836.6345      7.7361    111.4693
   337.7500      0.0000    864.1838      7.8126    112.5151
   338.0000      0.0000    888.3547      7.8781    113.5368
   338.2500      0.0000    905.0582      7.9472    114.3027
   338.5000      0.0000    913.5750      8.0173    114.7387
   338.7500      0.0000    915.5178      8.0804    114.9846
   339.0000      0.0000    913.3322      8.1343    115.2326
   339.2500      0.0000    908.9085      8.1784    115.4271
   339.5000      0.0000    903.0090      8.1987    115.0924
   339.7500      0.0000    896.1517      8.1598    113.7050
   340.0000      0.0000    890.0187      8.0257    111.3992
   340.2500      0.0000    887.1923      7.7968    109.2649
   340.5000      0.0000    888.9327      7.5238    108.8907
   340.7500      0.0000    893.7786      7.2799    111.2838
   341.0000      0.0000    898.9134      7.1181    115.8057
   341.2500      0.0000    902.4962      7.0500    120.1155
   341.5000      0.0000    904.3805      7.0530    121.5472
   341.7500      0.0000    905.2689      7.0939    118.9046
   342.0000      0.0000    905.8209      7.1470    113.2371
   342.2500      0.0000    906.3613      7.1951    107.1751
   342.5000      0.0000    906.9342      7.2229    103.2985
   342.7500      0.0000    907.4150      7.2165    102.5849
   343.0000      0.0000    907.6035      7.1708    104.2393
   343.2500      0.0000    907.1408      7.0994    106.8441
   343.5000      0.0000    905.2726      7.0356    109.2760
   343.7500      0.0000    900.7047      7.0179    110.8902
   344.0000      0.0000    892.3087      7.0667    111.8176
   344.2500      0.0000    881.0057      7.1681    113.0969
   344.5000      0.0000    871.0468      7.2796    115.5207
   344.7500      0.0000    867.7800      7.3539    118.1783
   345.0000      0.0000    872.7271      7.3650    118.9651
   345.2500      0.0000    881.5618      7.3189    116.7521
   345.5000      0.0000    887.9022      7.2457    112.3900
   345.7500      0.0000    888.5327      7.1860    107.3908
   346.0000      0.0000    884.6957      7.1754    102.3992
   346.2500      0.0000    879.5859      7.2295     97.3952
   346.5000      0.0000    875.5679      7.3326     92.7202
   346.7500      0.0000    873.2919      7.4406     89.1767
   347.0000      0.0000    872.3418      7.5059     87.2156
   347.2500      0.0000    872.0865      7.5048     86.4844
   347.5000      0.0000    872.0396      7.4456     86.3172
   347.7500      0.0000    871.8445      7.3534     86.4759
   348.0000      0.0000    871.1796      7.2550     87.1874
   348.2500      0.0000    869.5203      7.1757     88.4226
   348.5000      0.0000    865.7441      7.1356     89.4944
   348.7500      0.0000    858.1460      7.1418     89.7123
   349.0000      0.0000    845.9054      7.1803     89.2027
   349.2500      0.0000    831.5967      7.2202     88.6802
   349.5000      0.0000    821.5409      7.2288     88.6572
   349.7500      0.0000    821.4415      7.1887     89.3350
   350.0000      0.0000    830.8316      7.1036     91.0633
   350.2500      0.0000    842.8406      6.9917     94.1351
   350.5000      0.0000    849.8854      6.8749     97.8093
   350.7500      0.0000    849.2662      6.7707    100.1462
   351.0000      0.0000    843.9776      6.6904     99.5443
   351.2500      0.0000    838.8727      6.6402     96.3529
   351.5000      0.0000    835.7497      6.6203     92.5209
   351.7500      0.0000    832.0588      6.6228     89.6623
   352.0000      0.0000    824.4092      6.6333     87.8251
   352.2500      0.0000    812.3900      6.6391     86.1906
   352.5000      0.0000    798.5407      6.6367     84.5907
   352.7500      0.0000    785.7747      6.6322     83.9197
   353.0000      0.0000    775.3579      6.6333     85.0257
   353.2500      0.0000    766.6542      6.6398     87.4261
   353.5000      0.0000    758.5669      6.6424     89.3911
   353.7500      0.0000    751.1489      6.6330     89.3307
   354.0000      0.0000    745.4261      6.6161     86.9361
   354.2500      0.0000    741.9550      6.6081     82.9449
   354.5000      0.0000    740.3333      6.6229     78.1481
   354.7500      0.0000    740.0022      6.6608     72.9821
   355.0000      0.0000    741.0820      6.7097     68.0676
   355.2500      0.0000    744.2062      6.7529     64.6645
   355.5000      0.0000    749.4828      6.7787     64.1751
   355.7500      0.0000    755.7204      6.7857     67.1455
   356.0000      0.0000    761.5233      6.7786     72.8007
   356.2500      0.0000    767.6910      6.7593     79.4187
   356.5000      0.0000    777.3222      6.7252     85.2371
   356.7500      0.0000    792.0521      6.6767     89.2055
   357.0000      0.0000    808.7180      6.6217     90.8699
   357.2500      0.0000    821.2985      6.5712     89.6651
   357.5000      0.0000    826.0226      6.5316     85.0227
   357.7500      0.0000    823.7723      6.5040     77.4795
   358.0000      0.0000    818.4476      6.4857     69.1645
   358.2500      0.0000    814.4429      6.4694     62.7449
   358.5000      0.0000    814.6168      6.4430     59.8318
   358.7500      0.0000    818.5121      6.3993     60.1941
   359.0000      0.0000    822.8215      6.3478     62.3213
   359.2500      0.0000    825.1475      6.3113     64.8377
   359.5000      0.0000    826.6946      6.3069     67.4409
   359.7500      0.0000    829.7913      6.3333     70.5512
   360.0000      0.0000    833.8803      6.3762     74.7100
   360.2500      0.0000    835.9449      6.4224     80.6855
   360.5000      0.0000    834.2264      6.4700     89.2928
   360.7500      0.0000    829.7255      6.5271    100.0474
   361.0000      0.0000    824.2311      6.6015    110.3759
   361.2500      0.0000    818.3563      6.6872    117.2064
