~Version Information
VERS.                      2.0: CWLS Log ASCII Standard - VERSION 2.0
WRAP.                       NO: One line per depth step
~Well Information Block
STRT.FT               -12.5000: 
STOP.FT              2200.2500: 
STEP.FT                 0.2500: 
NULL.                -999.2500: 
COMP.          Pioneer Natural Resources: COMPANY
WELL.           Ogallela 44-12: WELL
FLD.           Purgatorie River: FIELD
LOC.           610' FSL & 671' FEL------: LOCATION
PROV.                       CO: PROVINCE
CNTY.               Las Animas: COUNTRY
SRVC.          Patterson Wireline: SERVICE COMPANY
DATE.          Tue Mar 22 17:18:22 2005: LOG DATE
UWI.           05 071 08283 00: UNIQUE WELL ID
~Curve Information Block
DEPT.FT            0 000 00 00: Depth
CCL.                          : Casing Collar Locator
TT3.usec                      : CBL 3' Travel Time
AMP3.mV                       : CBL 3' Amplitude
GR.GAPI                       : Gamma Ray
~Parameter Information Block
~A  Depth       CCL         TT3         AMP3         GR     
   -12.5000   -999.2500   -999.2500   -999.2500   -999.2500
   -12.2500   -999.2500   -999.2500   -999.2500     66.1298
   -12.0000   -999.2500   -999.2500   -999.2500     65.6297
   -11.7500   -999.2500   -999.2500   -999.2500     65.2893
   -11.5000   -999.2500   -999.2500   -999.2500     64.9080
   -11.2500   -999.2500   -999.2500   -999.2500     64.2968
   -11.0000   -999.2500   -999.2500   -999.2500     63.4055
   -10.7500   -999.2500   -999.2500   -999.2500     62.2976
   -10.5000   -999.2500   -999.2500   -999.2500     61.1272
   -10.2500   -999.2500   -999.2500   -999.2500     60.2642
   -10.0000   -999.2500   -999.2500   -999.2500     60.3218
    -9.7500   -999.2500   -999.2500   -999.2500     61.7092
    -9.5000   -999.2500   -999.2500   -999.2500     64.0675
    -9.2500   -999.2500   -999.2500   -999.2500     66.3423
    -9.0000   -999.2500   -999.2500   -999.2500     67.4638
    -8.7500   -999.2500   -999.2500   -999.2500     66.9321
    -8.5000   -999.2500   -999.2500   -999.2500     64.9514
    -8.2500   -999.2500   -999.2500   -999.2500     62.2573
    -8.0000   -999.2500   -999.2500   -999.2500     59.8596
    -7.7500   -999.2500   -999.2500   -999.2500     58.7053
    -7.5000   -999.2500   -999.2500   -999.2500     59.1490
    -7.2500   -999.2500   -999.2500   -999.2500     60.5460
    -7.0000   -999.2500   1167.0000      2.2665     61.6672
    -6.7500   -999.2500   1167.0000      2.2798     61.8093
    -6.5000   -999.2500   1167.0000      2.2933     61.3772
    -6.2500   -999.2500   1167.0000      2.3002     61.2380
    -6.0000   -999.2500   1167.0000      2.2961     61.6447
    -5.7500   -999.2500   1167.0000      2.2878     61.9468
    -5.5000   -999.2500   1167.0000      2.2894     61.3449
    -5.2500   -999.2500   1167.0000      2.3083     59.7668
    -5.0000   -999.2500   1167.0000      2.3373     57.8954
    -4.7500   -999.2500   1167.0000      2.3597     56.4727
    -4.5000   -999.2500   1167.0000      2.3615     55.7298
    -4.2500   -999.2500   1167.0000      2.3430     55.3597
    -4.0000   -999.2500   1167.0000      2.3188     54.8946
    -3.7500   -999.2500   1167.0000      2.3052     54.1467
    -3.5000   -999.2500   1167.0000      2.3062     53.3666
    -3.2500   -999.2500   1167.0000      2.3129     53.1008
    -3.0000   -999.2500   1167.0000      2.3148     53.9594
    -2.7500   -999.2500   1167.0000      2.3079     56.2181
    -2.5000   -999.2500   1167.0000      2.2941     59.3250
    -2.2500   -999.2500   1167.0000      2.2790     61.9562
    -2.0000   -999.2500   1167.0000      2.2690     62.8922
    -1.7500   -999.2500   1167.0000      2.2680     61.8410
    -1.5000      0.0000   1167.0000      2.2752     59.3134
    -1.2500      0.0000   1167.0000      2.2861     55.9070
    -1.0000      0.0000   1167.0000      2.2951     51.9822
    -0.7500      0.0000   1167.0000      2.2992     47.8529
    -0.5000     -2.0000   1167.0000      2.3005     43.9599
    -0.2500      2.0000   1167.0000      2.3029     40.7858
     0.0000      2.0000   1167.0000      2.3072     38.6092
     0.2500      2.0000   1167.0000      2.3200     37.2740
     0.5000      2.0000   1167.0000      2.3298     36.2179
     0.7500      0.0000   1167.0000      2.3384     34.9136
     1.0000     -2.0000   1167.0000      2.3419     33.5013
     1.2500     -2.0000   1167.0000      2.3396     33.0416
     1.5000      2.0000   1167.0000      2.3320     34.8392
     1.7500      0.0000   1167.0000      2.3199     39.1485
     2.0000      0.0000   1167.0000      2.3072     44.7333
     2.2500      0.0000   1167.0000      2.2999     49.9859
     2.5000     -2.0000   1167.0000      2.3003     54.1240
     2.7500     -2.0000   1167.0000      2.3076     56.9637
     3.0000      0.0000   1167.0000      2.3216     58.1704
     3.2500      0.0000   1167.0000      2.3405     57.5913
     3.5000      0.0000   1167.0000      2.3582     56.1004
     3.7500      0.0000   1167.0000      2.3684     55.2166
     4.0000      0.0000   1167.0000      2.3709     55.6167
     4.2500      0.0000   1167.0000      2.3691     56.4378
     4.5000      0.0000   1167.0000      2.3658     56.2784
     4.7500      0.0000   1167.0000      2.3625     54.7109
     5.0000      0.0000   1167.0000      2.3592     52.7301
     5.2500      0.0000   1167.0000      2.3534     51.8779
     5.5000      0.0000   1167.0000      2.3436     52.9811
     5.7500      0.0000   1167.0000      2.3317     55.5450
     6.0000      0.0000   1167.0000      2.3213     58.1928
     6.2500      0.0000   1167.0000      2.3151     59.5519
     6.5000      0.0000   1167.0000      2.3158     58.7951
     6.7500      0.0000   1167.0000      2.3244     55.7708
     7.0000      0.0000   1167.0000      2.3370     50.9988
     7.2500      0.0000   1167.0000      2.3462     45.5007
     7.5000      0.0000   1167.0000      2.3483     40.4939
     7.7500      0.0000   1167.0000      2.3448     37.1041
     8.0000      0.0000   1166.9401      2.3414     36.0342
     8.2500      0.0000   1166.5491      2.3516     37.3212
     8.5000      0.0000   1164.5638      2.4312     40.4533
     8.7500      0.0000   1156.7114      2.7704     44.6313
     9.0000      0.0000   1132.5233      3.8354     48.8397
     9.2500      0.0000   1074.4954      6.4051     51.9211
     9.5000      0.0000    966.0759     11.2206     52.9441
     9.7500      0.0000    808.3064     18.2576     51.7090
    10.0000      0.0000    629.4937     26.2943     49.0407
    10.2500      2.0000    471.6353     33.4847     46.5364
    10.5000      0.0000    363.0658     38.5478     45.7557
    10.7500      0.0000    304.8671     41.3882     47.3126
    11.0000      0.0000    280.5192     42.7147     50.3696
    11.2500      0.0000    272.5304     43.3203     52.8917
    11.5000      0.0000    270.4293     43.6969     52.9656
    11.7500      0.0000    269.9398     44.0354     50.4440
    12.0000      0.0000    269.7996     44.3646     47.1813
    12.2500      0.0000    269.7394     44.6638     45.3638
    12.5000      0.0000    269.6969     44.9145     45.6211
    12.7500      0.0000    269.6673     45.1144     46.6950
    13.0000      0.0000    269.6457     45.2850     46.7097
    13.2500      0.0000    269.6275     45.4666     44.8090
    13.5000      0.0000    269.6089     45.6891     41.8375
    13.7500      0.0000    269.5868     45.9443     39.6235
    14.0000      0.0000    269.5594     46.1936     39.5821
    14.2500      0.0000    269.5265     46.4072     41.7097
    14.5000      0.0000    269.4878     46.5947     44.5922
    14.7500      0.0000    269.4438     46.7943     46.4130
    15.0000      0.0000    269.3958     47.0387     46.2954
    15.2500      0.0000    269.3446     47.3309     44.8843
    15.5000      0.0000    269.2903     47.6418     43.6884
    15.7500      0.0000    269.2348     47.9254     43.8969
    16.0000      0.0000    269.1818     48.1497     45.7728
    16.2500      0.0000    269.1340     48.3239     48.8039
    16.5000      0.0000    269.0911     48.4869     52.0500
    16.7500      0.0000    269.0517     48.6596     54.4272
    17.0000      0.0000    269.0165     48.8179     55.0754
    17.2500      0.0000    268.9879     48.9231     53.8095
    17.5000      0.0000    268.9666     48.9802     51.4232
    17.7500      0.0000    268.9496     49.0490     49.5118
    18.0000      0.0000    268.9342     49.1889     49.5554
    18.2500      0.0000    268.9205     49.4021     51.8002
    18.5000      0.0000    268.9107     49.6398     55.1242
    18.7500      0.0000    268.9057     49.8579     58.1815
    19.0000      0.0000    268.9028     50.0553     60.6173
    19.2500      0.0000    268.8965     50.2607     63.0511
    19.5000      0.0000    268.8809     50.4912     65.8940
    19.7500      0.0000    268.8540     50.7329     68.4050
    20.0000      0.0000    268.8201     50.9566     69.3307
    20.2500      0.0000    268.7870     51.1434     68.5594
    20.5000      0.0000    268.7616     51.2905     67.5352
    20.7500      0.0000    268.7455     51.4053     67.6327
