~Version Information
VERS.                      2.0: CWLS Log ASCII Standard - VERSION 2.0
WRAP.                       NO: One line per depth step
~Well Information Block
STRT.FT                -6.0000: 
STOP.FT              2490.5000: 
STEP.FT                 0.2500: 
NULL.                -999.2500: 
COMP.          Pioneer Natural Resources: COMPANY
WELL.          Aztec Federal 41-15: WELL
FLD.           Purgatorie River: FIELD
LOC.           706' FNL & 1253' FEL--: LOCATION
CNTY.               Las Animas: COUNTY
SRVC.          Superior Well Services: SERVICE COMPANY
DATE.          Wed May 28 14-18-16 2008: LOG DATE
UWI.           05 071 08342 00: UNIQUE WELL ID
STAT.                       CO: STATE
~Curve Information Block
DEPT.FT            0 000 00 00: Depth
GR.GAPI                       : Gamma Ray
CCL.                          : Casing Collar Locator
AMP3FT.mV                     : AMP3FT Amplitude
TT3FT.usec                    : 3FT Travel Time
AMP5FT.mV                     : AMP5FT Amplitude
~Parameter Information Block
~A  Depth        GR         CCL        AMP3FT      TT3FT       AMP5FT   
# ...
   498.0000     48.7337      0.0000     70.5639    292.3897     71.5110
   498.2500     45.2585      0.0000     70.4190    292.3312     71.2644
   498.5000     43.0074      0.0000     70.3150    292.2554     70.9778
   498.7500     42.0563      0.0000     70.2331    292.1899     70.6677
   499.0000     41.6699      0.0000     70.1389    292.1641     70.3524
   499.2500     41.3083      0.0000     69.9972    292.2038     70.0312
   499.5000     40.9495      0.0000     69.7988    292.3117     69.6759
   499.7500     40.6072      0.0000     69.5719    292.4529     69.2485
   500.0000     40.0308      0.0000     69.3610    292.5719     68.7363
   500.2500     38.9944      0.0000     69.1903    292.6300     68.1731
   500.5000     37.5222      0.0000     69.0495    292.6272     67.6200
   500.7500     35.6869      0.0000     68.9073    292.5896     67.1159
   501.0000     33.5129      0.0000     68.7321    292.5447     66.6404
   501.2500     31.2211      0.0000     68.5016    292.5105     66.1210
   501.5000     29.3542      0.0000     68.1989    292.5027     65.4818
   501.7500     28.5719      0.0000     67.8079    292.5442     64.6985
   502.0000     29.2579      0.0000     67.3186    292.6598     63.8128
   502.2500     31.1588      0.0000     66.7378    292.8545     62.8945
   502.5000     33.4651      0.0000     66.0929    293.0982     61.9963
   502.7500     35.5319      0.0000     65.4242    293.3399     61.1490
   503.0000     37.6171      0.0000     64.7700    293.5395     60.3803
   503.2500     40.7881      0.0000     64.1559    293.6873     59.7142
   503.5000     46.0454      0.0000     63.5863    293.8021     59.1469
   503.7500     53.5080      0.0000     63.0457    293.9253     58.6308
   504.0000     62.2627      0.0000     62.5107    294.1480     58.0918
   504.2500     70.8164      0.0000     61.9682    294.6926     57.4655
   504.5000     77.8063      0.0000     61.4241    296.0393     56.7216
   504.7500     82.5544      0.0000     60.8988    298.9499     55.8636
   505.0000     85.1803      0.0000     60.4134    304.1115     54.9163
   505.2500     86.3753      0.0000     59.9789    311.4190     53.9125
   505.5000     87.1756      0.0000     59.5855    319.5718     52.8836
   505.7500     88.7001      0.0000     59.1930    326.6909     51.8556
   506.0000     91.5693      0.0000     58.7297    331.5314     50.8429
   506.2500     95.3796      0.0000     58.1212    334.0763     49.8365
   506.5000     99.0065      0.0000     57.3317    335.0965     48.8038
   506.7500    101.5386      0.0000     56.3728    335.4040     47.7063
   507.0000    102.7945      0.0000     55.2736    335.4925     46.5208
   507.2500    103.0474      0.0000     54.0537    335.5707     45.2472
   507.5000    102.5501      0.0000     52.7303    335.6922     43.9035
   507.7500    101.3881      0.0000     51.3358    335.8390     42.5101
   508.0000     99.6749      0.0000     49.9152    335.9725     41.0744
   508.2500     97.8061      0.0000     48.5076    336.0688     39.5924
   508.5000     96.3921      0.0000     47.1356    336.1313     38.0669
   508.7500     95.8007      0.0000     45.8070    336.1776     36.5198
   509.0000     95.7316      0.0000     44.5210    336.2250     34.9854
   509.2500     95.2579      0.0000     43.2778    336.2908     33.4908
   509.5000     93.4337      0.0000     42.0843    336.3975     32.0433
   509.7500     90.2475      0.0000     40.9500    336.5656     30.6359
   510.0000     87.0681      0.0000     39.8783    336.7937     29.2675
   510.2500     85.7088      0.0000     38.8622    337.0487     27.9527
   510.5000     86.7062      0.0000     37.8831    337.2878     26.7119
   510.7500     88.6678      0.0000     36.9145    337.4925     25.5553
   511.0000     89.5488      0.0000     35.9374    337.6753     24.4828
   511.2500     88.4239      0.0000     34.9534    337.8593     23.4936
   511.5000     85.9623      0.0000     33.9766    338.0596     22.5833
   511.7500     83.5132      0.0000     33.0127    338.2851     21.7367
   512.0000     82.0865      0.0000     32.0504    338.5444     20.9348
   512.2500     82.0808      0.0000     31.0745    338.8476     20.1712
   512.5000     83.3841      0.0000     30.0815    339.2041     19.4531
   512.7500     85.3734      0.0000     29.0856    339.6364     18.7861
   513.0000     87.2589      0.0000     28.1158    340.2070     18.1640
   513.2500     88.9065      0.0000     27.2063    341.2390     17.5763
   513.5000     90.9625      0.0000     26.3825    343.7852     17.0169
   513.7500     93.7453      0.0000     25.6506    350.1527     16.4820
   514.0000     96.4150      0.0000     24.9972    363.3237     15.9607
   514.2500     97.8213      0.0000     24.3964    384.2589     15.4361
   514.5000     97.8213      0.0000     23.8196    409.1453     14.8986
   514.7500     97.2076      0.0000     23.2442    431.7350     14.3558
   515.0000     96.6001      0.0000     22.6624    450.8195     13.8265
   515.2500     95.9286      0.0000     22.0860    473.3131     13.3292
   515.5000     94.8141      0.0000     21.5412    506.4800     12.8762
   515.7500     92.9918      0.0000     21.0540    548.2313     12.4739
   516.0000     90.6190      0.0000     20.6369    588.0825     12.1217
   516.2500     88.5434      0.0000     20.2888    616.7648     11.8058
   516.5000     88.0648      0.0000     20.0028    632.5052     11.5037
   516.7500     90.1017      0.0000     19.7733    639.1522     11.2092
   517.0000     94.5718      0.0000     19.5935    641.3218     10.9565
   517.2500    100.4847      0.0000     19.4528    641.8745     10.7992
   517.5000    106.4288      0.0000     19.3419    641.9833     10.7529
   517.7500    111.0846      0.0000     19.2550    642.0000     10.7666
   518.0000    113.7442      0.0000     19.1851    642.0000     10.7657
   518.2500    114.5362      0.0000     19.1165    642.0000     10.7098
   518.5000    113.9182      0.0000     19.0279    642.0000     10.6052
   518.7500    111.9739      0.0000     18.9040    642.0000     10.4779
   519.0000    108.5109      0.0000     18.7416    642.0000     10.3514
   519.2500    103.9672      0.0000     18.5492    642.0000     10.2399
   519.5000     99.8198      0.0000     18.3454    642.0000     10.1491
   519.7500     97.4936      0.0000     18.1547    642.0000     10.0762
   520.0000     96.9350      0.0000     17.9963    642.0000     10.0135
   520.2500     96.8896      0.0000     17.8698    642.0000      9.9537
   520.5000     96.5526      0.0000     17.7561    642.0000      9.8968
   520.7500     96.3453      0.0000     17.6376    642.0000      9.8479
   521.0000     97.1078      0.0000     17.5143    642.0000      9.8053
   521.2500     99.0991      0.0000     17.3983    642.0000      9.7539
   521.5000    101.8964      0.0000     17.2993    642.0000      9.6740
   521.7500    104.6917      0.0000     17.2173    642.0000      9.5607
   522.0000    106.4059      0.0000     17.1439    642.0000      9.4308
   522.2500    106.1376      0.0000     17.0668    642.0000      9.3118
   522.5000    104.0486      0.0000     16.9750    642.0000      9.2257
   522.7500    101.3020      0.0000     16.8671    642.0000      9.1802
   523.0000     98.6606      0.0000     16.7559    642.0000      9.1684
   523.2500     95.8356      0.0000     16.6606    642.0000      9.1724
   523.5000     92.6727      0.0000     16.5940    642.0000      9.1731
   523.7500     90.1271      0.0000     16.5566    642.0000      9.1586
   524.0000     89.4377      0.0000     16.5398    642.0000      9.1210
   524.2500     90.8929      0.0000     16.5297    642.0000      9.0493
   524.5000     93.7256      0.0000     16.5095    642.0000      8.9342
   524.7500     96.7192      0.0000     16.4615    641.9805      8.7899
   525.0000     98.6926      0.0000     16.3639    641.8727      8.6647
   525.2500     98.8797      0.0000     16.1837    641.3536      8.5964
   525.5000     97.2390      0.0000     15.8864    639.4435      8.5378
   525.7500     94.4747      0.0000     15.4922    634.1254      8.3686
