~Version Information
VERS.                      2.0: CWLS Log ASCII Standard - VERSION 2.0
WRAP.                       NO: One line per depth step
~Well Information Block
STRT.FT               260.0000: 
STOP.FT              2611.5000: 
STEP.FT                 0.2500: 
NULL.                -999.2500: 
COMP.          Pioneer Natural Resources: COMPANY
WELL.           Costello 44-24: WELL
FLD.           Purgatoire River: FIELD
LOC.           327' FSL & 378' FEL: LOCATION
PROV.                 Colorado: PROVINCE
CNTY.               Las Animas: COUNTRY
SRVC.                Patterson: SERVICE COMPANY
DATE.          Mon Jul 11 00:49:32 2005: LOG DATE
UWI.           05 071 08413 00: UNIQUE WELL ID
~Curve Information Block
DEPT.FT            0 000 00 00: Depth
SN.Ohm-m                      : IEL Short Normal
SP.mV                         : IEL Spontaneous Potential
DIR.Ohm-m                     : IEL Induction Resistivity
GR.GAPI                       : Gamma Ray
~Parameter Information Block
~A  Depth        SN          SP         DIR          GR     
# ...
   561.5000   2000.0000    200.0000     39.7957     78.4524
   561.7500   2000.0000    200.0000     39.8582     77.0724
   562.0000   2000.0000    200.0000     40.1799     77.1363
   562.2500   2000.0000    200.0000     40.7327     77.9486
   562.5000   2000.0000    200.0000     41.4257     78.9548
   562.7500   2000.0000    200.0000     42.1362     78.8736
   563.0000   2000.0000    200.0000     42.7755     77.4082
   563.2500   2000.0000    200.0000     43.3565     75.8288
   563.5000   2000.0000    200.0000     43.9845     73.2096
   563.7500   2000.0000    200.0000     44.7613     71.5156
   564.0000   2000.0000    200.0000     45.6961     69.0866
   564.2500   2000.0000    200.0000     46.7143     67.5250
   564.5000   2000.0000    200.0000     47.7464     65.4851
   564.7500   2000.0000    200.0000     48.7683     64.5508
   565.0000   2000.0000    200.0000     49.7347     63.9518
   565.2500   2000.0000    200.0000     50.4902     63.9713
   565.5000   2000.0000    200.0000     50.8002     64.3433
   565.7500   2000.0000    200.0000     50.5156     64.7770
   566.0000   2000.0000    200.0000     49.7130     65.7711
   566.2500   2000.0000    200.0000     48.6719     66.5716
   566.5000   2000.0000    200.0000     47.7179     67.4042
   566.7500   2000.0000    200.0000     47.0768     67.3438
   567.0000   2000.0000    200.0000     46.8059     66.2359
   567.2500   2000.0000    200.0000     46.8067     65.1279
   567.5000   2000.0000    200.0000     46.8950     63.6165
   567.7500   2000.0000    200.0000     46.9135     62.9555
   568.0000   2000.0000    200.0000     46.8499     62.3914
   568.2500   2000.0000    200.0000     46.8696     62.0028
   568.5000   2000.0000    200.0000     47.2051     60.9597
   568.7500   2000.0000    200.0000     47.9669     59.9930
   569.0000   2000.0000    200.0000     49.0047     58.6111
   569.2500   2000.0000    200.0000     49.9369     57.9994
   569.5000   2000.0000    200.0000     50.3825     57.7427
   569.7500   2000.0000    200.0000     50.2251     58.0396
   570.0000   2000.0000    200.0000     49.6438     59.1589
   570.2500   2000.0000    200.0000     48.8972     60.2066
   570.5000   2000.0000    200.0000     48.1363     61.5074
   570.7500   2000.0000    200.0000     47.3887     61.5780
   571.0000   2000.0000    200.0000     46.6531     59.8257
   571.2500   2000.0000    200.0000     45.9749     57.6638
   571.5000   2000.0000    200.0000     45.4384     54.3064
   571.7500   2000.0000    200.0000     45.1060     52.8182
   572.0000   2000.0000    200.0000     44.9559     52.3365
   572.2500   2000.0000    200.0000     44.8594     53.0831
   572.5000   2000.0000    200.0000     44.6061     55.2738
   572.7500   2000.0000    200.0000     43.9965     57.0519
   573.0000   2000.0000    200.0000     42.9554     59.4745
   573.2500   2000.0000    200.0000     41.5735     60.7032
   573.5000   2000.0000    200.0000     40.0314     62.5437
   573.7500   2000.0000    200.0000     38.4821     64.7376
   574.0000   2000.0000    200.0000     36.9925     71.4962
   574.2500   2000.0000    200.0000     35.5584     79.0458
   574.5000   2000.0000    200.0000     34.1502     94.5804
   574.7500   2000.0000    200.0000     32.7458    106.5630
   575.0000   2000.0000    200.0000     31.3441    123.9426
   575.2500   2000.0000    200.0000     29.9636    133.3445
   575.5000   2000.0000    200.0000     28.6326    142.1835
   575.7500   2000.0000    200.0000     27.3774    144.4149
   576.0000   2000.0000    200.0000     26.2172    143.7459
   576.2500   2000.0000    200.0000     25.1669    142.1339
   576.5000   2000.0000    200.0000     24.2439    140.2522
   576.7500   2000.0000    200.0000     23.4701    139.6938
   577.0000   2000.0000    200.0000     22.8660    138.7580
   577.2500   2000.0000    200.0000     22.4428    137.4193
   577.5000   2000.0000    200.0000     22.1967    134.9752
   577.7500   2000.0000    200.0000     22.1073    134.1721
   578.0000   2000.0000    200.0000     22.1395    135.5206
   578.2500   2000.0000    200.0000     22.2498    138.0685
   578.5000   2000.0000    200.0000     22.3994    143.4641
   578.7500   2000.0000    200.0000     22.5653    147.4042
   579.0000   2000.0000    200.0000     22.7413    152.2086
   579.2500   2000.0000    200.0000     22.9283    153.6695
   579.5000   2000.0000    200.0000     23.1239    152.4702
   579.7500   2000.0000    200.0000     23.3246    149.7856
   580.0000   2000.0000    200.0000     23.5363    144.3003
   580.2500   2000.0000    200.0000     23.7827    140.3227
   580.5000   2000.0000    200.0000     24.1005    134.4007
   580.7500   2000.0000    200.0000     24.5214    130.7172
   581.0000   2000.0000    200.0000     25.0501    126.3082
   581.2500   2000.0000    200.0000     25.6559    124.4490
   581.5000   2000.0000    200.0000     26.2906    122.8615
   581.7500   2000.0000    200.0000     26.9244    121.9459
   582.0000   2000.0000    200.0000     27.5688    120.2328
   582.2500   2000.0000    200.0000     28.2591    119.1466
   582.5000   2000.0000    200.0000     29.0085    118.2491
   582.7500   2000.0000    200.0000     29.7716    118.1322
   583.0000   2000.0000    200.0000     30.4456    118.0938
   583.2500   2000.0000    200.0000     30.9087    117.8333
   583.5000   2000.0000    200.0000     31.0713    117.0200
   583.7500   2000.0000    200.0000     30.9077    116.5131
   584.0000   2000.0000    200.0000     30.4573    116.8318
   584.2500   2000.0000    200.0000     29.8046    118.3980
   584.5000   2000.0000    200.0000     29.0528    123.2387
   584.7500   2000.0000    200.0000     28.2995    127.7268
   585.0000   2000.0000    200.0000     27.6141    134.6159
   585.2500   2000.0000    200.0000     27.0314    138.1285
   585.5000   2000.0000    200.0000     26.5570    140.4578
   585.7500   2000.0000    200.0000     26.1801    140.0652
   586.0000   2000.0000    200.0000     25.8800    137.8930
   586.2500   2000.0000    200.0000     25.6308    136.4219
   586.5000   2000.0000    200.0000     25.4130    135.1058
   586.7500   2000.0000    200.0000     25.2260    134.7447
   587.0000   2000.0000    200.0000     25.0887    134.7265
   587.2500   2000.0000    200.0000     25.0250    135.1188
   587.5000   2000.0000    200.0000     25.0435    136.0907
   587.7500   2000.0000    200.0000     25.1281    136.3779
   588.0000   2000.0000    200.0000     25.2449    134.9034
   588.2500   2000.0000    200.0000     25.3570    132.2090
   588.5000   2000.0000    200.0000     25.4402    126.1570
   588.7500   2000.0000    200.0000     25.4897    121.8855
   589.0000   2000.0000    200.0000     25.5169    117.3636
   589.2500   2000.0000    200.0000     25.5410    116.3331
   589.5000   2000.0000    200.0000     25.5843    117.4261
   589.7500   2000.0000    200.0000     25.6681    119.1157
   590.0000   2000.0000    200.0000     25.8021    121.6246
   590.2500   2000.0000    200.0000     25.9737    122.6705
   590.5000   2000.0000    200.0000     26.1431    122.9039
   590.7500   2000.0000    200.0000     26.2581    122.3613
   591.0000   2000.0000    200.0000     26.2807    121.3187
   591.2500   2000.0000    200.0000     26.2095    120.9048
   591.5000   2000.0000    200.0000     26.0779    121.0440
   591.7500   2000.0000    200.0000     25.9336    121.7532
   592.0000   2000.0000    200.0000     25.8175    123.9690
   592.2500   2000.0000    200.0000     25.7502    126.1552
   592.5000   2000.0000    200.0000     25.7233    129.8092
   592.7500   2000.0000    200.0000     25.6954    131.9294
   593.0000   2000.0000    200.0000     25.6065    133.8335
   593.2500   2000.0000    200.0000     25.4104    134.0233
   593.5000   2000.0000    200.0000     25.1069    132.9176
   593.7500   2000.0000    200.0000     24.7380    131.7628
   594.0000   2000.0000    200.0000     24.3574    130.4812
   594.2500   2000.0000    200.0000     24.0054    130.3722
   594.5000   2000.0000    200.0000     23.7113    131.5875
   594.7500   2000.0000    200.0000     23.5133    133.1580
