~Version Information
VERS.                      2.0: CWLS Log ASCII Standard - VERSION 2.0
WRAP.                       NO: One line per depth step
~Well Information Block
STRT.FT               -11.7500: 
STOP.FT              2025.5000: 
STEP.FT                 0.2500: 
NULL.                -999.2500: 
COMP.          Evergreen Operating Corp.: COMPANY
WELL.            Sumatra 34-22: WELL
FLD.           Purgatorie River: FIELD
LOC.           542 FSL & 2438 FEL--: LOCATION
PROV.                       CO: PROVINCE
CNTY.               Las Animas: COUNTRY
SRVC.          Patterson Wireline, Inc.: SERVICE COMPANY
DATE.          Wed Apr 02 10:17:21 2003: LOG DATE
UWI.           05 071 07804 00: UNIQUE WELL ID
~Curve Information Block
DEPT.FT            0 000 00 00: Depth
CCL.                          : Casing Collar Locator
TT3.usec                      : CBL 3' Travel Time
AMP3.mV                       : CBL 3' Amplitude
GR.GAPI                       : Gamma Ray
~Parameter Information Block
~A  Depth       CCL         TT3         AMP3         GR     
# ...
   524.2500      0.0000    809.4338      4.7020    104.4616
   524.5000      0.0000    809.9766      4.5637    107.9282
   524.7500      0.0000    810.2823      4.3566    112.1692
   525.0000      0.0000    810.7283      4.1197    115.5971
   525.2500      0.0000    811.5214      3.9130    117.5393
   525.5000      0.0000    812.2181      3.7654    119.0720
   525.7500      0.0000    811.5335      3.6536    122.0199
   526.0000      0.0000    807.3085      3.5687    126.9235
   526.2500      0.0000    798.2919      3.5175    132.3740
   526.5000      0.0000    787.7743      3.4899    136.5391
   526.7500      0.0000    782.8088      3.4838    139.0572
   527.0000      0.0000    787.2662      3.5040    141.1573
   527.2500      0.0000    797.5187      3.5636    143.8955
   527.5000      0.0000    806.6415      3.7037    146.5101
   527.7500      0.0000    811.3123      3.9259    146.8167
   528.0000      0.0000    812.6910      4.1404    143.1893
   528.2500      0.0000    812.7411      4.2567    136.0212
   528.5000      0.0000    812.2837      4.2868    127.5375
   528.7500      0.0000    811.4678      4.3120    120.4144
   529.0000      0.0000    810.4356      4.3763    116.2034
   529.2500      0.0000    809.2614      4.4506    114.5175
   529.5000      0.0000    807.4236      4.4790    113.6299
   529.7500      0.0000    803.8220      4.4366    112.1954
   530.0000      0.0000    798.2468      4.3514    110.6829
   530.2500      0.0000    792.2978      4.2573    111.0627
   530.5000      0.0000    787.4839      4.1695    114.9415
   530.7500      0.0000    784.6870      4.1178    122.0613
   531.0000      0.0000    785.2592      4.1122    130.5672
   531.2500      0.0000    788.8121      4.1059    138.3980
   531.5000      0.0000    792.2767      4.0635    144.3594
   531.7500      0.0000    791.0934      4.0067    148.2893
   532.0000      0.0000    781.1251      3.9612    150.7004
   532.2500      0.0000    764.9929      3.9374    152.4458
   532.5000      0.0000    752.7974      3.9731    154.5073
   532.7500      0.0000    752.5905      4.0856    157.5445
   533.0000      0.0000    763.3298      4.2069    161.1689
   533.2500      0.0000    774.5486      4.2699    163.7781
   533.5000      0.0000    774.3648      4.2861    163.8175
   533.7500      0.0000    762.7221      4.2987    161.4789
   534.0000      0.0000    751.2480      4.3246    158.6924
   534.2500      0.0000    749.5015      4.3427    157.1445
   534.5000      0.0000    757.4491      4.3278    156.5759
   534.7500      0.0000    769.2429      4.2868    155.1517
   535.0000      0.0000    781.1042      4.2433    151.1994
   535.2500      0.0000    792.8671      4.2332    144.4254
   535.5000      0.0000    802.7966      4.3142    135.7930
   535.7500      0.0000    808.2270      4.4889    126.6166
   536.0000      0.0000    808.9879      4.6569    118.0552
   536.2500      0.0000    806.1666      4.7216    111.4838
   536.5000      0.0000    801.6935      4.6685    108.5623
   536.7500      0.0000    799.5046      4.5231    109.9987
   537.0000      0.0000    802.6372      4.3168    114.5667
   537.2500      0.0000    810.5945      4.1053    120.2107
   537.5000      0.0000    822.0831      3.9650    126.0652
   537.7500      0.0000    834.4001      3.9205    132.9942
   538.0000      0.0000    840.3295      3.9063    142.1084
   538.2500      0.0000    835.5298      3.8287    152.7742
   538.5000      0.0000    825.8296      3.6542    162.2922
   538.7500      0.0000    818.9460      3.4637    167.7307
   539.0000      0.0000    815.9177      3.3811    167.7332
   539.2500      0.0000    813.5076      3.4150    162.5970
   539.5000      0.0000    808.1375      3.4442    153.8165
   539.7500      0.0000    798.2602      3.3779    144.0592
   540.0000      0.0000    787.2980      3.2741    136.2830
   540.2500      0.0000    781.9591      3.2716    131.9187
   540.5000      0.0000    784.2641      3.4170    130.4707
   540.7500      0.0000    787.0437      3.6183    130.9240
   541.0000      0.0000    781.1538      3.7599    132.6407
   541.2500      0.0000    768.6168      3.7905    134.8451
   541.5000      0.0000    766.8751      3.6837    136.3256
   541.7500      0.0000    793.9771      3.4016    136.2406
   542.0000      0.0000    841.4646      3.0196    134.8910
   542.2500      0.0000    875.1351      2.7537    133.4255
   542.5000      0.0000    877.3748      2.7068    132.8368
   542.7500      0.0000    866.0233      2.7667    133.1741
   543.0000     -5.0000    862.1783      2.7944    133.5892
   543.2500     -5.0000    866.5740      2.7415    133.2650
   543.5000      0.0000    873.0549      2.6300    132.3503
   543.7500      0.0000    878.6640      2.5317    131.8464
   544.0000      0.0000    878.2731      2.5406    132.5963
   544.2500      0.0000    868.5668      2.6892    134.7385
   544.5000      0.0000    853.8768      2.8769    138.1301
   544.7500      0.0000    841.6885      2.9836    142.6843
   545.0000      0.0000    838.1813      3.0582    147.9903
   545.2500      0.0000    844.2598      3.2181    153.0180
   545.5000      0.0000    852.4673      3.4372    156.6918
   545.7500      0.0000    853.7034      3.5849    158.7783
   546.0000      0.0000    845.2811      3.6012    159.9269
   546.2500      0.0000    831.6605      3.5619    160.6706
   546.5000      0.0000    821.6557      3.5800    160.6782
   546.7500      0.0000    822.3636      3.6754    159.1332
   547.0000      0.0000    831.4471      3.7802    155.4035
   547.2500      0.0000    839.1979      3.8345    149.2469
   547.5000      0.0000    840.3168      3.8261    141.0707
   547.7500      0.0000    836.3953      3.8097    132.5943
   548.0000      0.0000    830.0007      3.8832    126.9077
   548.2500      0.0000    823.8445      4.0597    126.8564
   548.5000      0.0000    820.5482      4.2191    132.5273
   548.7500      0.0000    821.0240      4.2593    140.5111
   549.0000      0.0000    825.7597      4.2235    146.3674
   549.2500      0.0000    835.1419      4.2220    148.0314
   549.5000      0.0000    846.7570      4.2829    146.6520
   549.7500      0.0000    855.9649      4.3344    144.5119
   550.0000      0.0000    860.3831      4.3172    142.7056
   550.2500      0.0000    860.4268      4.2528    140.7658
   550.5000      0.0000    856.0110      4.1856    137.9952
   550.7500      0.0000    846.6224      4.1328    134.8680
   551.0000      0.0000    834.6785      4.1181    132.9992
   551.2500      0.0000    825.0328      4.1589    133.6702
   551.5000      0.0000    820.4287      4.2123    136.5493
   551.7500      0.0000    820.6587      4.2154    140.2594
   552.0000      0.0000    825.5717      4.1570    144.0153
   552.2500      0.0000    835.2222      4.0900    148.0151
   552.5000      0.0000    846.9760      4.0782    152.1451
   552.7500      0.0000    856.2120      4.1273    155.2399
   553.0000      0.0000    860.8546      4.2060    156.0527
   553.2500      0.0000    862.3571      4.2721    154.4426
   553.5000      0.0000    862.7314      4.2584    151.3741
   553.7500      0.0000    862.8519      4.1413    148.0661
   554.0000      0.0000    862.8624      3.9916    145.1122
   554.2500      0.0000    862.8165      3.8854    142.3159
   554.5000      0.0000    862.8501      3.8246    139.6003
   554.7500      0.0000    863.0370      3.7863    137.9071
   555.0000      0.0000    863.2697      3.7947    138.4362
   555.2500      0.0000    863.3776      3.8619    140.7939
   555.5000      0.0000    863.0980      3.9249    142.5992
   555.7500      0.0000    861.5098      3.9330    141.5247
   556.0000      0.0000    856.6423      3.9048    137.3513
   556.2500      0.0000    847.2745      3.8704    131.5853
   556.5000      0.0000    836.3117      3.8467    125.4799
   556.7500      0.0000    829.6133      3.8409    119.1722
   557.0000      0.0000    828.9484      3.8279    112.5234
   557.2500      0.0000    829.3249      3.7864    106.0827
   557.5000      0.0000    826.2188      3.7705    101.1891
