~Version Information
VERS.                      2.0: CWLS Log ASCII Standard - VERSION 2.0
WRAP.                       NO: One line per depth step
~Well Information Block
STRT.FT               420.0000: 
STOP.FT              1528.5000: 
STEP.FT                 0.2500: 
NULL.                -999.2500: 
COMP.          Evergreen Operating Corporation: COMPANY
WELL.              Chase 21-10: WELL
FLD.           Purgatoire River: FIELD
LOC.           1122' FNL & 1544' FWL: LOCATION
PROV.                       CO: PROVINCE
CNTY.               Las Animas: COUNTRY
SRVC.                         : SERVICE COMPANY
DATE.          Sun May 23 21:20:45 2004: LOG DATE
UWI.           05 071 08006 00: UNIQUE WELL ID
~Curve Information Block
DEPT.FT            0 000 00 00: Depth
SN.Ohm-m                      : IEL Short Normal
SP.mV                         : IEL Spontaneous Potential
DIR.Ohm-m                     : IEL Induction Resistivity
GR.GAPI                       : Gamma Ray
~Parameter Information Block
~A  Depth        SN          SP         DIR          GR     
# ...
   788.5000     21.8570     97.8350     20.7226    124.3393
   788.7500     21.7536     97.7527     20.5203    126.3726
   789.0000     21.7263     97.7033     20.2524    125.3149
   789.2500     21.7719     97.6836     19.9611    121.7926
   789.5000     21.9344     97.6857     19.6904    113.2365
   789.7500     22.2750     97.6997     19.4832    106.6430
   790.0000     22.8147     97.7150     19.3799     98.4693
   790.2500     23.4904     97.7234     19.4123     95.7274
   790.5000     24.1624     97.7204     19.5934     96.5625
   790.7500     24.6735     97.7061     19.9091     99.7910
   791.0000     24.9222     97.6838     20.3152    106.7383
   791.2500     24.9067     97.6592     20.7456    111.8250
   791.5000     24.7143     97.6384     21.1301    119.1058
   791.7500     24.4697     97.6261     21.4189    123.3083
   792.0000     24.2720     97.6252     21.6008    127.7879
   792.2500     24.1573     97.6364     21.7029    128.9426
   792.5000     24.1048     97.6590     21.7722    127.3252
   792.7500     24.0786     97.6917     21.8534    124.3869
   793.0000     24.0772     97.7335     21.9722    118.8297
   793.2500     24.1532     97.7840     22.1294    115.2149
   793.5000     24.3844     97.8439     22.3013    110.5414
   793.7500     24.8141     97.9144     22.4444    108.0484
   794.0000     25.4029     97.9969     22.5039    105.5041
   794.2500     26.0266     98.0925     22.4238    104.6216
   794.5000     26.5187     98.2020     22.1592    104.1583
   794.7500     26.7290     98.3250     21.6887    104.1884
   795.0000     26.5639     98.4602     21.0245    104.4863
   795.2500     26.0014     98.6051     20.2115    104.6899
   795.5000     25.0881     98.7561     19.3138    104.9296
   795.7500     23.9283     98.9085     18.3953    105.4256
   796.0000     22.6613     99.0565     17.5057    107.7261
   796.2500     21.4244     99.1938     16.6759    110.5560
   796.5000     20.3129     99.3136     15.9187    116.2881
   796.7500     19.3612     99.4099     15.2335    120.8037
   797.0000     18.5537     99.4777     14.6117    128.5569
   797.2500     17.8555     99.5136     14.0426    134.1870
   797.5000     17.2369     99.5169     13.5204    141.9659
   797.7500     16.6840     99.4891     13.0468    145.6792
   798.0000     16.1942     99.4342     12.6307    148.5405
   798.2500     15.7693     99.3590     12.2835    149.4399
   798.5000     15.4102     99.2730     12.0143    151.1481
   798.7500     15.1191     99.1883     11.8256    152.8751
   799.0000     14.9043     99.1196     11.7123    155.2518
   799.2500     14.7855     99.0835     11.6621    155.7846
   799.5000     14.7902     99.0967     11.6565    154.4800
   799.7500     14.9421     99.1741     11.6734    152.6980
   800.0000     15.2404     99.3260     11.6902    149.9387
   800.2500     15.6434     99.5553     11.6888    148.2981
   800.5000     16.0678     99.8564     11.6603    145.1616
   800.7500     16.4128    100.2146     11.6065    141.7234
   801.0000     16.6017    100.6084     11.5370    134.2361
   801.2500     16.6127    101.0121     11.4645    128.6938
   801.5000     16.4766    101.4003     11.3991    122.1964
   801.7500     16.2445    101.7507     11.3458    120.1862
   802.0000     15.9562    102.0476     11.3013    121.1484
   802.2500     15.6336    102.2824     11.2545    124.1484
   802.5000     15.2936    102.4541     11.1883    131.0446
   802.7500     14.9584    102.5671     11.0854    136.2853
   803.0000     14.6504    102.6302     10.9345    143.4893
   803.2500     14.3777    102.6539     10.7342    147.3626
   803.5000     14.1256    102.6491     10.4921    152.0231
   803.7500     13.8664    102.6258     10.2215    154.6884
   804.0000     13.5805    102.5921      9.9365    157.6927
   804.2500     13.2730    102.5541      9.6501    158.3388
   804.5000     12.9728    102.5158      9.3724    156.7917
   804.7500     12.7154    102.4795      9.1112    154.7776
   805.0000     12.5216    102.4460      8.8706    152.1818
   805.2500     12.3892    102.4148      8.6514    151.3856
   805.5000     12.2966    102.3845      8.4507    151.6381
   805.7500     12.2169    102.3524      8.2629    152.5540
   806.0000     12.1292    102.3148      8.0816    154.6367
   806.2500     12.0247    102.2670      7.9015    156.1705
   806.5000     11.9054    102.2033      7.7196    157.9979
   806.7500     11.7798    102.1180      7.5368    158.5452
   807.0000     11.6579    102.0058      7.3569    157.9280
   807.2500     11.5452    101.8631      7.1867    156.3961
   807.5000     11.4377    101.6889      7.0340    152.6253
   807.7500     11.3174    101.4859      6.9064    149.8710
   808.0000     11.1538    101.2603      6.8099    147.6180
   808.2500     10.9119    101.0216      6.7485    148.4821
   808.5000     10.5695    100.7814      6.7246    153.2637
   808.7500     10.1366    100.5511      6.7391    157.4927
   809.0000      9.6718    100.3403      6.7924    162.5762
   809.2500      9.2805    100.1551      6.8848    164.0439
   809.5000      9.0939     99.9968      7.0169    163.2544
   809.7500      9.2308     99.8626      7.1902    161.6191
   810.0000      9.7567     99.7468      7.4074    159.7559
   810.2500     10.6586     99.6422      7.6726    159.7808
   810.5000     11.8511     99.5427      7.9906    161.1404
   810.7500     13.2147     99.4443      8.3672    161.5110
   811.0000     14.6505     99.3462      8.8092    158.8087
   811.2500     16.1180     99.2504      9.3257    154.4163
   811.5000     17.6326     99.1612      9.9289    145.3335
   811.7500     19.2216     99.0839     10.6338    138.9629
   812.0000     20.8758     99.0236     11.4564    130.5939
   812.2500     22.5445     98.9846     12.4114    125.9846
   812.5000     24.1893     98.9692     13.5114    119.6416
   812.7500     25.8559     98.9778     14.7671    115.0264
   813.0000     27.6842     99.0082     16.1875    106.9250
   813.2500     29.8221     99.0564     17.7726    101.1616
   813.5000     32.2974     99.1179     19.4983     93.4095
   813.7500     34.9552     99.1888     21.2947     89.3480
   814.0000     37.5214     99.2679     23.0278     84.6218
   814.2500     39.7478     99.3580     24.5046     81.9431
   814.5000     41.5133     99.4659     25.5190     78.4117
   814.7500     42.7868     99.6011     25.9322     76.6114
   815.0000     43.4885     99.7733     25.7386     75.1917
   815.2500     43.4041     99.9895     25.0637     75.1478
   815.5000     42.2727    100.2514     24.0973     75.9998
   815.7500     40.0045    100.5543     23.0167     76.7611
   816.0000     36.8328    100.8871     21.9450     77.9693
   816.2500     33.2528    101.2342     20.9485     79.3414
   816.5000     29.7918    101.5784     20.0536     83.9555
   816.7500     26.7972    101.9037     19.2672     89.5100
   817.0000     24.3832    102.1984     18.5908    101.2962
   817.2500     22.5138    102.4564     18.0250    110.3629
   817.5000     21.1167    102.6776     17.5698    123.3903
   817.7500     20.1424    102.8671     17.2235    130.5888
   818.0000     19.5641    103.0333     16.9847    137.9473
   818.2500     19.3577    103.1855     16.8553    140.1968
   818.5000     19.4944    103.3317     16.8429    139.9191
   818.7500     19.9532    103.4774     16.9600    138.1550
   819.0000     20.7383    103.6244     17.2199    134.7692
   819.2500     21.8850    103.7708     17.6308    132.2658
   819.5000     23.4433    103.9120     18.1873    127.2746
   819.7500     25.4474    104.0416     18.8616    122.6585
   820.0000     27.8820    104.1520     19.5996    114.1992
   820.2500     30.6533    104.2358     20.3263    108.1823
   820.5000     33.5730    104.2861     20.9596     99.1726
   820.7500     36.3673    104.2972     21.4287     93.0813
   821.0000     38.7180    104.2648     21.6828     83.7565
   821.2500     40.3293    104.1860     21.6904     77.7309
   821.5000     40.9944    104.0595     21.4437     69.7640
   821.7500     40.6335    103.8855     20.9732     65.4975
