~Version Information
VERS.                      2.0: CWLS Log ASCII Standard - VERSION 2.0
WRAP.                       NO: One line per depth step
~Well Information Block
STRT.FT               650.0000: 
STOP.FT              1999.0000: 
STEP.FT                 0.2500: 
NULL.                -999.2500: 
COMP.          Pioneer Natural Resources: COMPANY
WELL.           Firehawk 34-26: WELL
FLD.           Purgatoire River: FIELD
LOC.           1196' FSL & 1595' FEL--: LOCATION
STAT.                 Colorado: State
CNTY.               Las Animas: COUNTY
CTRY. USA : Country
SECT. 26 : Section
TOWN. 32S : Township
RANG. 66W : Range
SRVC.                Patterson: SERVICE COMPANY
DATE.          Sun Oct 16 16:57:28 2005: LOG DATE
API.           05 071 08389 00: UNIQUE WELL ID
~Curve Information Block
DEPT.FT            0 000 00 00: Depth
SN.Ohm-m                      : IEL Short Normal
SP.mV                         : IEL Spontaneous Potential
DIR.Ohm-m                     : IEL Induction Resistivity
GR.GAPI                       : Gamma Ray
~Parameter Information Block
~A  Depth        SN          SP         DIR          GR     
# ...
  1420.5000     23.6000     10.8122     17.0861     60.7088
  1420.7500     24.2698     11.2426     16.8977     62.5619
  1421.0000     24.2800     11.6356     16.6021     66.8871
  1421.2500     23.5037     11.8738     16.2150     71.4062
  1421.5000     22.0499     11.9145     15.7637     80.9637
  1421.7500     20.2087     11.8012     15.2762     88.5257
  1422.0000     18.3222     11.6190     14.7753     99.6403
  1422.2500     16.6489     11.4400     14.2771    105.9323
  1422.5000     15.2831     11.3008     13.7913    112.9441
  1422.7500     14.1913     11.2161     13.3223    115.8640
  1423.0000     13.3202     11.1992     12.8697    117.6538
  1423.2500     12.6464     11.2583     12.4307    117.4342
  1423.5000     12.1430     11.3679     12.0032    115.9367
  1423.7500     11.7583     11.4538     11.5879    114.6176
  1424.0000     11.4432     11.4277     11.1892    112.4860
  1424.2500     11.1722     11.2547     10.8141    111.1227
  1424.5000     10.9326     10.9911     10.4694    109.8183
  1424.7500     10.7049     10.7555     10.1600    109.8957
  1425.0000     10.4675     10.6598      9.8887    111.6877
  1425.2500     10.2177     10.7492      9.6563    113.6759
  1425.5000      9.9762     10.9834      9.4612    116.7217
  1425.7500      9.7690     11.2655      9.2992    118.1191
  1426.0000      9.6097     11.4944      9.1630    118.6350
  1426.2500      9.4979     11.5995      9.0441    117.9923
  1426.5000      9.4262     11.5428      8.9329    116.2065
  1426.7500      9.3757     11.3189      8.8204    114.9379
  1427.0000      9.3205     10.9641      8.6987    113.5906
  1427.2500      9.2463     10.5524      8.5633    113.3357
  1427.5000      9.1547     10.1607      8.4149    114.0528
  1427.7500      9.0564      9.8311      8.2600    115.0604
  1428.0000      8.9653      9.5623      8.1088    116.7178
  1428.2500      8.8919      9.3286      7.9719    117.6367
  1428.5000      8.8415      9.1061      7.8580    118.6079
  1428.7500      8.8125      8.8847      7.7727    118.9381
  1429.0000      8.7930      8.6602      7.7189    118.5772
  1429.2500      8.7670      8.4146      7.6978    117.4732
  1429.5000      8.7325      8.1151      7.7088    114.5232
  1429.7500      8.7132      7.7387      7.7490    112.1809
  1430.0000      8.7407      7.2925      7.8135    109.3699
  1430.2500      8.8320      6.8055      7.8963    108.4511
  1430.5000      8.9800      6.3025      7.9913    108.2726
  1430.7500      9.1553      5.7927      8.0930    108.2999
  1431.0000      9.3257      5.2844      8.1959    107.4349
  1431.2500      9.4650      4.8111      8.2944    106.0611
  1431.5000      9.5296      4.4415      8.3837    103.3286
  1431.7500      9.4554      4.2577      8.4613    101.5124
  1432.0000      9.1983      4.3119      8.5278     99.3079
  1432.2500      8.7705      4.5904      8.5849     98.3503
  1432.5000      8.2544      5.0079      8.6334     97.8345
  1432.7500      7.8000      5.4291      8.6723     98.0842
  1433.0000      7.5795      5.7087      8.6999     99.1565
  1433.2500      7.6912      5.7391      8.7158    100.2123
  1433.5000      8.0940      5.4947      8.7218    102.0373
  1433.7500      8.6424      5.0468      8.7201    103.1818
  1434.0000      9.1768      4.5363      8.7126    104.5386
  1434.2500      9.5862      4.1068      8.6999    105.3266
  1434.5000      9.8292      3.8346      8.6839    106.7833
  1434.7500      9.9306      3.7038      8.6702    107.9691
  1435.0000      9.9499      3.6495      8.6662    109.3180
  1435.2500      9.9347      3.6276      8.6777    109.1900
  1435.5000      9.9071      3.6458      8.7039    106.4848
  1435.7500      9.8879      3.7352      8.7371    103.0535
  1436.0000      9.9070      3.8978      8.7661     96.7932
  1436.2500      9.9846      4.0828      8.7832     92.9723
  1436.5000     10.1087      4.2109      8.7881     89.0426
  1436.7500     10.2426      4.2265      8.7871     87.6994
  1437.0000     10.3544      4.1301      8.7890     87.0682
  1437.2500     10.4267      3.9665      8.8017     87.3883
  1437.5000     10.4411      3.7857      8.8315     89.2098
  1437.7500     10.3766      3.6137      8.8837     91.4334
  1438.0000     10.2274      3.4532      8.9620     95.7737
  1438.2500     10.0127      3.3061      9.0659     98.7601
  1438.5000      9.7711      3.1880      9.1880    102.5882
  1438.7500      9.5562      3.1214      9.3137    104.3800
  1439.0000      9.4313      3.1167      9.4239    105.1783
  1439.2500      9.4448      3.1653      9.5023    104.0055
  1439.5000      9.5967      3.2503      9.5406     99.7934
  1439.7500      9.8293      3.3617      9.5419     96.1280
  1440.0000     10.0554      3.4974      9.5182     91.2163
  1440.2500     10.1939      3.6533      9.4870     89.1790
  1440.5000     10.2082      3.8127      9.4671     88.4556
  1440.7500     10.1452      3.9404      9.4752     89.2292
  1441.0000     10.1088      3.9885      9.5235     91.0597
  1441.2500     10.1621      3.9221      9.6176     91.9746
  1441.5000     10.2819      3.7507      9.7556     92.4239
  1441.7500     10.4163      3.5323      9.9281     92.5014
  1442.0000     10.5365      3.3459     10.1189     93.3188
  1442.2500     10.6270      3.2605     10.3068     94.5090
  1442.5000     10.6781      3.3243     10.4678     96.5935
  1442.7500     10.6961      3.5619     10.5802     97.6203
  1443.0000     10.6992      3.9534     10.6299     98.0119
  1443.2500     10.7129      4.4086     10.6129     97.4492
  1443.5000     10.7674      4.7830     10.5359     95.7408
  1443.7500     10.8687      4.9527     10.4134     94.4347
  1444.0000     10.9647      4.8883     10.2655     92.9278
  1444.2500     10.9768      4.6642     10.1141     92.5850
  1444.5000     10.8637      4.4091      9.9795     93.7394
  1444.7500     10.6448      4.2445      9.8767     95.8395
  1445.0000     10.3814      4.2360      9.8141    100.1763
  1445.2500     10.1430      4.3664      9.7944    102.7370
  1445.5000      9.9773      4.5486      9.8149    104.5706
  1445.7500      9.8939      4.6823      9.8687    104.4568
  1446.0000      9.8703      4.7099      9.9443    103.1927
  1446.2500      9.8819      4.6171     10.0284    101.9678
  1446.5000      9.9317      4.3965     10.1097     99.4984
  1446.7500     10.0371      4.0418     10.1840     97.3487
  1447.0000     10.2006      3.5817     10.2565     93.7170
  1447.2500     10.4197      3.0905     10.3411     91.5268
  1447.5000     10.7114      2.6428     10.4573     89.4839
  1447.7500     11.0976      2.2641     10.6246     89.1234
  1448.0000     11.5754      1.9342     10.8579     89.4679
  1448.2500     12.1158      1.6346     11.1626     89.5823
  1448.5000     12.6835      1.3916     11.5330    110.6528
  1448.7500     13.2362      1.2758     11.9521    108.5009
  1449.0000     13.7243      1.3558     12.3934    103.9758
  1449.2500     14.1241      1.6304     12.8250    100.7045
  1449.5000     14.4538      1.9913     13.2169    115.3111
  1449.7500     14.7485      2.2626     13.5485    111.9469
  1450.0000     15.0350      2.3045     13.8141    107.5291
  1450.2500     15.3167      2.0993     14.0231    105.4038
  1450.5000     15.5712      1.7540     14.1949    104.4486
  1450.7500     15.7665      1.4273     14.3517    105.6684
  1451.0000     15.8815      1.2323     14.5118    109.9898
  1451.2500     15.9220      1.1778     14.6869    113.7182
  1451.5000     15.9259      1.1924     14.8819    118.2941
  1451.7500     15.9494      1.1989     15.0952    119.3106
  1452.0000     16.0333      1.1650     15.3206    116.8455
  1452.2500     16.1713      1.0930     15.5477    113.2324
  1452.5000     16.3075      0.9861     15.7631    107.3598
  1452.7500     16.3885      0.8401     15.9522    104.4374
  1453.0000     16.4515      0.6610     16.1020    102.0968
  1453.2500     16.6344      0.4737     16.2049    101.0902
  1453.5000     17.0678      0.3072     16.2638     98.2215
  1453.7500     17.7531      0.1783     16.2926     94.8526
