~Version Information
 VERS.                                  2.0 : CWLS LAS VERSION
 WRAP.                                   NO : WRAPING MODE
 SWARE .                  MController 2.5.1 : SOFTWARE VERSION
~Well Information
 WELL.                 Big Cat Federal 44-1 : WELL
 COMP.  Pioneer Natural Resources USA, Inc. : COMPANY
 FLD.                      Purgatoire River : FIELD
 LOC.               SE/SE Sec.1, T34S, R66W : LOCATION
 DATE.                04/23/2006-04/23/2006 : DATE(S) LOGGED
 SRVC.                  Entrada GeoSciences : SERVICE COMPANY
 STAT.                             Colorado : STATE
 CNTY.                           Las Animas : COUNTY
 CTRY.                        United States : COUNTRY
 API.                          071-08042-00 : API NUMBER
 STRT.FT                             266.00 : START DEPTH
 STOP.FT                            1570.00 : STOP DEPTH
 STEP.FT                               1.00 : DEPTH INCREMENT
 NULL.                                -9999 : NULL VALUE
~Curve information
 DEPTH.FT                                   :
 ROP.MIN/FT                                 :
 GAS.UNITS                                  :
~ASCII Log data
      266.00         0.65          6.0 
      267.00         0.50          5.8 
      268.00         0.43          6.1 
      269.00         0.23          6.0 
      270.00         0.40          5.8 
      271.00         0.23          5.9 
      272.00         0.47          6.1 
      273.00         0.35          2.8 
      274.00         0.20          2.3 
      275.00         0.10          2.3 
      276.00         0.27          2.4 
      277.00         0.17          2.1 
      278.00         0.13          2.4 
      279.00         0.13          2.8 
      280.00         0.13          2.3 
      281.00         0.10          2.1 
      282.00         0.17          3.1 
      283.00         0.13          2.0 
      284.00         0.13          2.5 
      285.00         0.17          2.1 
      286.00         0.17          2.2 
      287.00         0.17          2.0 
      288.00         0.17          2.1 
      289.00         0.17          2.3 
      290.00         0.13          1.8 
      291.00         0.17          1.9 
      292.00         0.13          1.6 
      293.00         0.13          1.9 
      294.00         0.13          2.2 
      295.00         0.18          6.0 
      296.00         0.13          9.3 
      297.00         0.23          9.4 
      298.00         0.17          9.7 
      299.00         0.17          9.2 
      300.00         0.13          9.1 
      301.00         0.13          8.9 
      302.00         0.27          9.0 
      303.00         0.10         79.2 
      304.00         0.27         68.0 
      305.00         0.30         21.5 
      306.00         0.22         13.0 
      307.00         0.13          9.9 
      308.00         0.17          8.1 
      309.00         0.23          7.1 
      310.00         0.10          8.2 
      311.00         0.10          7.2 
      312.00         0.10          7.7 
      313.00         0.13          7.1 
      314.00         0.17          7.0 
      315.00         0.13          6.6 
      316.00         0.27          8.2 
      317.00         0.13          8.3 
      318.00         0.13          8.8 
      319.00         0.13          8.5 
      320.00         0.13          8.2 
      321.00         0.13          8.4 
      322.00         0.17          8.1 
      323.00         0.13          8.5 
      324.00         0.13          8.7 
      325.00         0.13          8.5 
      326.00         0.10          8.7 
      327.00         0.13          8.8 
      328.00         0.10          8.7 
      329.00         0.10          8.7 
      330.00         0.28          8.4 
      331.00         0.20          8.8 
      332.00         0.27          8.6 
      333.00         0.33          9.5 
      334.00         0.20         10.5 
      335.00         0.17          9.8 
      336.00         0.13         10.1 
      337.00         0.17         10.5 
      338.00         0.13          9.3 
      339.00         0.13          9.3 
      340.00         0.13         10.2 
      341.00         0.18         10.2 
      342.00         0.13          9.6 
      343.00         0.17          9.6 
      344.00         0.20          9.8 
      345.00         0.20         10.1 
      346.00         0.17         10.2 
      347.00         0.13         10.1 
      348.00         0.13         10.8 
      349.00         0.10          9.8 
      350.00         0.10          9.5 
      351.00         0.20         10.1 
      352.00         0.17         10.3 
      353.00         0.13         10.3 
      354.00         0.13          9.3 
      355.00         0.20          9.2 
      356.00         0.27          9.7 
      357.00         0.20         10.3 
      358.00         0.20         10.3 
      359.00         0.13          9.2 
      360.00         0.10          9.2 
      361.00         0.20          9.9 
      362.00         0.28          8.8 
      363.00         0.53          9.5 
      364.00         0.10         10.3 
      365.00         0.27         10.6 
      366.00         0.17          9.3 
      367.00         0.17          9.2 
      368.00         0.13          9.6 
      369.00         0.10          9.9 
      370.00         0.10          9.4 
      371.00         0.17         10.2 
      372.00         0.17          8.8 
      373.00         0.17          9.7 
      374.00         0.18          9.1 
      375.00         0.17          8.9 
      376.00         0.17          8.8 
      377.00         0.20          9.1 
      378.00         0.20          9.5 
      379.00         0.13          9.0 
      380.00         0.20          9.3 
      381.00         0.10          9.4 
      382.00         0.27          9.4 
      383.00         0.27          8.8 
      384.00         0.10          9.3 
      385.00         0.20          9.4 
      386.00         0.27          9.1 
      387.00         0.20          8.6 
      388.00         0.27          9.6 
      389.00         0.27          8.8 
      390.00         0.27          9.5 
      391.00         0.28          9.4 
      392.00         0.10         10.0 
      393.00         0.27          9.7 
      394.00         0.27         10.2 
      395.00         0.20         10.4 
      396.00         0.13         11.5 
      397.00         0.17         10.4 
      398.00         0.17         10.8 
      399.00         0.20         10.2 
      400.00         0.20         10.1 
      401.00         0.17          9.9 
      402.00         0.20          9.8 
      403.00         0.13          9.2 
      404.00         0.17          9.1 
      405.00         0.17          9.2 
      406.00         0.17          9.1 
      407.00         0.13          9.6 
      408.00         0.17         10.1 
      409.00         0.15         10.1 
      410.00         0.20          9.7 
      411.00         0.20         10.1 
      412.00         0.13         10.1 
      413.00         0.17          9.3 
      414.00         0.13         10.0 
      415.00         0.13         10.5 
      416.00         0.17          8.8 
      417.00         0.13          9.5 
      418.00         0.20         10.3 
      419.00         0.17          9.1 
      420.00         0.10          9.1 
      421.00         0.27          9.6 
      422.00         0.27          9.4 
      423.00         0.53          9.8 
      424.00         0.10          9.6 
      425.00         0.17          9.7 
      426.00         0.20         10.9 
      427.00         0.13          9.7 
      428.00         0.33          9.6 
      429.00         0.17         10.2 
      430.00         0.27          9.7 
      431.00         0.10         10.1 
      432.00         0.17         10.4 
      433.00         0.13         10.7 
      434.00         0.23         10.5 
      435.00         0.20         10.9 
      436.00         0.17         10.4 
      437.00         0.17         10.1 
      438.00         0.17         10.1 
      439.00         0.17          9.6 
      440.00         0.22          9.8 
      441.00         0.23          9.7 
      442.00         0.17         10.1 
      443.00         0.17          9.8 
      444.00         0.13          9.9 
      445.00         0.17         10.8 
      446.00         0.20         10.8 
      447.00         0.23          9.5 
      448.00         0.17         10.2 
      449.00         0.17          9.7 
      450.00         0.27         10.8 
      451.00         0.27         10.4 
      452.00         0.27         10.3 
      453.00         0.33         10.5 
      454.00         0.23         10.8 
      455.00         0.17         10.5 
      456.00         0.17          9.9 
      457.00         0.17         10.3 
      458.00         0.17         10.3 
      459.00         0.10         11.0 
      460.00         0.23          9.6 
      461.00         0.17          9.4 
      462.00         0.17          9.9 
      463.00         0.17         10.2 
      464.00         0.17         10.4 
      465.00         0.20         10.5 
