~Version Information
VERS.                      2.0: CWLS Log ASCII Standard - VERSION 2.0
WRAP.                       NO: One line per depth step
~Well Information Block
STRT.FT                -9.0000: 
STOP.FT              2518.0000: 
STEP.FT                 0.2500: 
NULL.                -999.2500: 
COMP.          Petrogulf Corporation: COMPANY
WELL.            Montoya 7-12V: WELL
FLD.           Purgatorie River: FIELD
LOC.           1764' FNL & 728' FWL: LOCATION
CNTY.               Las Animas: COUNTY
SRVC.                         : SERVICE COMPANY
DATE.          Mon Mar 08 16:11:04 2004: LOG DATE
UWI.           05-071-07887-00: UNIQUE WELL ID
STAT.                 Colorado: STATE
~Curve Information Block
DEPT.FT            0 000 00 00: Depth
GR.GAPI                       : Gamma Ray
CCL.                          : Casing Collar Locator
TT3.usec                      : CBL 3' Travel Time
AMP3.mV                       : CBL 3' Amplitude
~Parameter Information Block
~A  Depth        GR         CCL         TT3         AMP3    
# ...
  2302.5000     96.7906      0.0000    306.4471     22.4784
  2302.7500     95.9043      0.0000    306.5999     22.5073
  2303.0000     94.0157      0.0000    305.4111     22.9602
  2303.2500     90.6078      0.0000    301.5438     23.6565
  2303.5000     86.1123      0.0000    293.9020     24.5572
  2303.7500     81.6678      0.0000    284.1248     25.7675
  2304.0000     78.6241      0.0000    275.8630     27.4378
  2304.2500     77.8863      0.0000    271.0489     29.6175
  2304.5000     79.3121      0.0000    268.9079     32.1325
  2304.7500     81.6781      0.0000    268.0423     34.6268
  2305.0000     83.4302      0.0000    267.6944     36.6730
  2305.2500     83.7833      0.0000    267.6265     37.8739
  2305.5000     83.1884      0.0000    267.9496     37.9725
  2305.7500     82.6005      0.0000    269.4153     36.8511
  2306.0000     82.3865      0.0000    273.6375     34.4897
  2306.2500     82.2469      0.0000    281.7501     31.0894
  2306.5000     82.1463      0.0000    291.9785     27.2116
  2306.7500     82.8395      0.0000    300.4542     23.5780
  2307.0000     85.1248      0.0000    305.1992     20.6642
  2307.2500     88.6465      0.0000    307.1479     18.5416
  2307.5000     91.6383      0.0000    307.8617     17.0621
  2307.7500     92.0888      0.0000    308.1649     16.0936
  2308.0000     89.5037      0.0000    308.3083     15.4969
  2308.2500     85.7524      0.0000    308.4018     15.0486
  2308.5000     83.8468      0.0000    308.5856     14.6132
  2308.7500     85.3087      0.0000    308.8818     14.2597
  2309.0000     88.6743      0.0000    309.1172     14.0891
  2309.2500     90.9717      0.0000    309.1507     14.1384
  2309.5000     90.7726      0.0000    309.0025     14.4912
  2309.7500     89.4044      0.0000    308.6809     15.2678
  2310.0000     88.9830      0.0000    308.1107     16.4885
  2310.2500     89.7708      0.0000    307.3233     18.0635
  2310.5000     89.9441      0.0000    306.5211     19.8394
  2310.7500     87.5893      0.0000    305.8765     21.5986
  2311.0000     82.4447      0.0000    305.4303     23.0789
  2311.2500     75.9766      0.0000    305.1738     24.0083
  2311.5000     70.2857      0.0000    305.0916     24.1774
  2311.7500     66.8151      0.0000    305.1695     23.5770
  2312.0000     65.5537      0.0000    305.4049     22.4866
  2312.2500     65.2777      0.0000    305.7993     21.3435
  2312.5000     64.6761      0.0000    306.6241     20.3662
  2312.7500     63.2626      0.0000    309.2099     19.2239
  2313.0000     61.2652      0.0000    315.9729     17.3220
  2313.2500     59.0236      0.0000    327.2811     14.7658
  2313.5000     56.6864      0.0000    339.1577     12.5693
  2313.7500     54.1877      0.0000    348.6397     11.3632
  2314.0000     51.3662      0.0000    356.9138     10.7721
  2314.2500     48.3820      0.0000    363.1389     10.3287
  2314.5000     46.0308      0.0000    364.5199      9.9021
  2314.7500     45.1984      5.0000    362.5981      9.4443
  2315.0000     45.9495      0.0000    362.8859      9.0278
  2315.2500     47.5075      0.0000    372.2762      8.8351
  2315.5000     49.1625      0.0000    396.9514      8.8891
  2315.7500     50.8726      0.0000    436.4992      9.0434
  2316.0000     52.9051      0.0000    477.8556      9.3787
  2316.2500     55.0856      0.0000    498.6463     10.1845
  2316.5000     56.6926      0.0000    490.9174     11.2864
  2316.7500     57.2268      0.0000    480.3867     12.0942
  2317.0000     57.0265      0.0000    489.9438     12.4328
  2317.2500     56.7827      0.0000    495.3846     12.6192
  2317.5000     56.6578      0.0000    464.2560     12.9486
  2317.7500     56.2604      0.0000    411.8621     13.4474
  2318.0000     55.2653      0.0000    377.6229     13.9068
  2318.2500     53.6925      0.0000    380.1872     14.0288
  2318.5000     51.8229      0.0000    410.4985     13.5429
  2318.7500     50.0935      0.0000    441.6602     12.3026
  2319.0000     48.8357      0.0000    455.8423     10.4187
  2319.2500     47.9695      0.0000    470.6770      8.2878
  2319.5000     47.2654      0.0000    513.0344      6.3866
  2319.7500     47.0380      0.0000    574.0390      4.9755
  2320.0000     48.2136      0.0000    621.8210      4.0146
  2320.2500     51.3695      0.0000    644.2150      3.3684
  2320.5000     55.8811      0.0000    650.9996      2.9616
  2320.7500     60.2838      0.0000    652.1260      2.7297
  2321.0000     63.4799      0.0000    652.3549      2.6137
  2321.2500     65.6156      0.0000    655.5153      2.6086
  2321.5000     68.0473      0.0000    663.8529      2.7018
  2321.7500     72.3900      0.0000    674.3763      2.8435
  2322.0000     79.1044      0.0000    678.0438      3.0400
  2322.2500     86.8284      0.0000    667.8665      3.3448
  2322.5000     93.3810      0.0000    650.2297      3.7653
  2322.7500     97.5865      0.0000    639.9060      4.2853
  2323.0000     99.9343      0.0000    642.9363      4.8795
  2323.2500    101.4500      0.0000    650.4191      5.4419
  2323.5000    102.2993      0.0000    648.0553      5.8010
  2323.7500    101.8500      0.0000    628.3478      5.8499
  2324.0000     99.9418      0.0000    595.1090      5.6475
  2324.2500     97.5667      0.0000    557.6578      5.3554
  2324.5000     96.0323      0.0000    522.3808      5.0910
  2324.7500     95.7873      0.0000    491.8999      4.8829
  2325.0000     96.3925      0.0000    467.4558      4.7346
  2325.2500     97.4136      0.0000    449.8987      4.6575
  2325.5000     98.8168      0.0000    441.2019      4.6427
  2325.7500    100.3275      0.0000    445.1752      4.6457
  2326.0000    100.8755      0.0000    465.1647      4.6137
  2326.2500     99.2172      0.0000    495.4387      4.5386
  2326.5000     95.0428      0.0000    516.6118      4.4766
  2326.7500     89.1005      0.0000    512.9258      4.4730
  2327.0000     82.3727      0.0000    489.3593      4.4795
  2327.2500     75.6244      0.0000    460.4516      4.4104
  2327.5000     69.6065      0.0000    435.1783      4.2760
  2327.7500     65.0313      0.0000    418.7894      4.1732
  2328.0000     62.1395      0.0000    416.4207      4.1517
  2328.2500     60.4465      0.0000    430.0727      4.1671
  2328.5000     58.9023      0.0000    456.3997      4.1488
  2328.7500     56.4168      0.0000    485.9664      4.0785
  2329.0000     52.7528      0.0000    505.7311      4.0108
  2329.2500     49.1964      0.0000    509.3643      4.0120
  2329.5000     47.9226      0.0000    500.9965      4.0718
  2329.7500     50.1367      0.0000    485.2766      4.1101
  2330.0000     54.7029      0.0000    463.9508      4.0826
  2330.2500     58.8211      0.0000    443.4849      4.0268
  2330.5000     60.2762      0.0000    431.7421      4.0002
  2330.7500     59.0521      0.0000    425.9661      4.0189
  2331.0000     56.8011      0.0000    419.4176      4.0504
  2331.2500     55.0993      0.0000    414.9602      4.0521
  2331.5000     54.4168      0.0000    416.3467      4.0278
  2331.7500     54.3472      0.0000    417.2373      4.0363
  2332.0000     54.4105      0.0000    414.9139      4.1252
  2332.2500     54.7485      0.0000    422.3968      4.2547
  2332.5000     56.3193      0.0000    447.0782      4.3174
  2332.7500     60.2148      0.0000    471.3194      4.2599
  2333.0000     66.4481      0.0000    477.3255      4.1519
  2333.2500     73.5112      0.0000    470.0126      4.1023
  2333.5000     79.4978      0.0000    458.1239      4.1283
  2333.7500     83.6746      0.0000    443.8114      4.1523
  2334.0000     86.6902      0.0000    433.8517      4.1182
  2334.2500     89.3814      0.0000    434.9998      4.0640
  2334.5000     91.8277      0.0000    444.7688      4.0767
  2334.7500     93.5110      0.0000    457.3767      4.2124
  2335.0000     93.7889      0.0000    469.4228      4.4648
  2335.2500     92.0823      0.0000    478.2520      4.7853
  2335.5000     88.2607      0.0000    482.0039      5.1286
  2335.7500     83.1528      0.0000    479.2615      5.4661
