~Version Information
VERS.                      2.0: CWLS Log ASCII Standard - VERSION 2.0
WRAP.                       NO: One line per depth step
~Well Information Block
STRT.FT               710.0000: 
STOP.FT              2922.5000: 
STEP.FT                 0.2500: 
NULL.                -999.2500: 
COMP.          Petrogulf Corporation: COMPANY
WELL.            Montoya 1-41V: WELL
FLD.           Purgatorie River: FIELD
LOC.           610' FNL & 1205' FEL: LOCATION
PROV.                 Colorado: PROVINCE
CNTY.               Las Animas: COUNTRY
SRVC.                Patterson: SERVICE COMPANY
DATE.          Mon Aug 22 08:00:56 2005: LOG DATE
UWI.                          : UNIQUE WELL ID
~Curve Information Block
DEPT.FT            0 000 00 00: Depth
SP.mV                         : DIL Spontaneous Potential
RILD.Ohm-m                    : DIL Deep Resistivity
RILM.Ohm-m                    : DIL Medium Resistivity
RLL3.Ohm-m                    : DIL Shallow Resistivity
GR.GAPI                       : Gamma Ray
~Parameter Information Block
~A  Depth        SP         RILD        RILM        RLL3         GR     
# ...
  2026.0000     46.0298      7.3878      7.4459     12.3851    178.3202
  2026.2500     44.2249      7.5884      7.5908     13.0252    173.6097
  2026.5000     43.0457      7.7057      7.7972      9.8757    174.6476
  2026.7500     42.3794      7.8844      8.0315     11.5145    169.4285
  2027.0000     42.1718      7.9706      8.3058     11.2921    137.0970
  2027.2500     41.8374      8.2348      8.5948     10.4392    132.4815
  2027.5000     40.9344      8.4920      9.1850     11.8779    137.9085
  2027.7500     39.6048      9.0227      9.7062     13.9089    130.6067
  2028.0000     38.0161      9.5267     10.1982     15.4660    130.2910
  2028.2500     36.4930      9.9715     10.4682     16.1480    121.7483
  2028.5000     34.8420     10.6859     11.0810     15.6419    135.5499
  2028.7500     33.1264     11.2566     11.5565     15.4685    150.3337
  2029.0000     31.5749     11.9861     12.3493     11.7275    152.0352
  2029.2500     30.2103     13.3657     13.3652     13.3104    150.5881
  2029.5000     29.0638     14.0065     14.7515     20.2436    120.1407
  2029.7500     28.2507     14.7456     16.9252     43.6692     86.6178
  2030.0000     27.8958     16.2676     19.0950     95.9381     92.0283
  2030.2500     27.8941     17.3055     21.2479    119.9482     98.7567
  2030.5000     28.0379     18.5313     24.1219     85.7637     96.7243
  2030.7500     28.2978     19.7163     26.7987     56.7033     87.6265
  2031.0000     28.8161     21.0745     27.3729     63.7585     94.5210
  2031.2500     29.8319     22.9219     28.9925     56.2914    103.1816
  2031.5000     31.3514     23.9757     32.0925     51.2582    100.4726
  2031.7500     33.0969     23.8034     38.1587     72.5599     84.8038
  2032.0000     35.3110     23.6901     44.9123    129.6655     61.1808
  2032.2500     38.0744     22.7977     46.7243    178.8694     37.7496
  2032.5000     40.8112     21.5861     48.5202    193.6169     63.8672
  2032.7500     43.4666     19.0243     44.0332    175.3018     70.2374
  2033.0000     46.0887     16.7562     33.2959    137.2316     84.9647
  2033.2500     48.7150     15.4897     26.3417     85.2980    111.2718
  2033.5000     51.6175     14.5041     21.3528     40.2911    123.2099
  2033.7500     54.0827     13.3334     17.1086     16.7447    123.2999
  2034.0000     55.8322     12.5889     14.3238     10.3888    140.0926
  2034.2500     56.8881     11.7079     12.3139      8.7043    163.4679
  2034.5000     57.4279     10.7259     11.1301      8.4162    188.9788
  2034.7500     57.7824     10.0261     10.4003      8.5475    183.0710
  2035.0000     58.1836      9.4555      9.5865      8.9685    171.9018
  2035.2500     58.7211      9.0118      8.9827      9.0139    172.0081
  2035.5000     59.3166      8.5155      8.6185      8.8671    194.4638
  2035.7500     59.9418      7.9156      8.2911      8.2338    188.1496
  2036.0000     60.6014      7.4946      7.9428      7.6539    171.2720
  2036.2500     61.1974      7.3036      7.7343      7.8349    172.4456
  2036.5000     61.6215      7.0713      7.6503      8.5140    169.2870
  2036.7500     61.9045      6.7717      7.4340      8.8321    176.9646
  2037.0000     61.9001      6.6555      7.2147      8.8198    159.0356
  2037.2500     61.6464      6.6394      6.9745      8.7626    159.2925
  2037.5000     61.2016      6.5899      6.7958      8.1714    155.9519
  2037.7500     60.7832      6.5879      6.6162      7.7587    143.4357
  2038.0000     60.2835      6.5448      6.5934      7.5247    152.3034
  2038.2500     59.5053      6.7389      6.5509      7.6775    172.6697
  2038.5000     58.3500      7.1061      6.5552      9.1043    168.6427
  2038.7500     56.7586      7.2509      6.6948      9.8154    156.3713
  2039.0000     54.7432      7.5188      6.8933      8.0744    158.2351
  2039.2500     52.0567      7.6300      7.2378      8.4470    170.1422
  2039.5000     48.8396      7.9613      7.7341      9.3489    157.8244
  2039.7500     45.2626      8.3126      8.3506     10.4329    151.1461
  2040.0000     42.0845      8.5441      8.8913     14.6637    154.7374
  2040.2500     39.0621      8.9436      9.5838     16.9311    142.7261
  2040.5000     36.4394      9.4146     10.4928     13.8811    117.3936
  2040.7500     34.1694      9.9993     11.2846     16.8478    126.8275
  2041.0000     32.1525     10.6143     12.2144     19.0677    113.3925
  2041.2500     30.3242     11.8169     13.3143     18.4301    116.2036
  2041.5000     28.4934     13.1329     14.5536     20.8703    111.6805
  2041.7500     27.0515     13.9156     16.4585     24.5344    113.3041
  2042.0000     25.9026     15.2503     18.4690     18.2196    115.0860
  2042.2500     25.2840     16.0261     20.1106     17.3263    118.3177
  2042.5000     25.2296     17.0196     23.5149     20.5830    102.6738
  2042.7500     25.5669     17.6706     26.5144     31.4243    112.9958
  2043.0000     26.5662     18.3271     30.0739     55.2119     79.8010
  2043.2500     28.0548     18.4926     30.7786     90.7109     88.1566
  2043.5000     29.7570     18.3818     31.0048     57.2378    105.1475
  2043.7500     31.1981     17.8970     30.5692     43.9035    119.6840
  2044.0000     32.6765     17.7075     28.0742     38.6971     87.9216
  2044.2500     34.2276     17.6948     26.0445     29.9660    109.6248
  2044.5000     35.6607     17.5423     24.4286     18.4757    144.6663
  2044.7500     36.8433     17.1141     22.7115     13.3056    142.9043
  2045.0000     38.0010     15.9169     20.7098     12.9344    136.0066
  2045.2500     39.0983     14.9048     19.5889     13.6844    119.5979
  2045.5000     40.3787     13.6048     19.4659     14.0729    121.8866
  2045.7500     41.8159     12.7258     17.8744     16.9377    123.0981
  2046.0000     43.1180     11.3227     16.2179     22.1645    154.8188
  2046.2500     44.7957     10.7398     14.3289     17.8694    152.9690
  2046.5000     46.0517      9.9497     12.5961     13.8336    171.7435
  2046.7500     47.1680      9.4364     10.9756     10.7798    174.8412
  2047.0000     48.0089      8.7806      9.7391      9.3146    156.0186
  2047.2500     48.7906      8.3678      8.8085      8.5019    164.9978
  2047.5000     49.4529      8.0927      8.1842      9.0887    169.1818
  2047.7500     49.9546      7.7547      7.6761     12.9166    183.0579
  2048.0000     50.5600      7.4344      7.1852     13.3912    184.8801
  2048.2500     51.3097      7.3071      6.8449     11.8105    169.2559
  2048.5000     52.4852      7.2097      6.6542      7.1257    163.3495
  2048.7500     53.9927      7.1057      6.5989      6.2822    168.3035
  2049.0000     55.9156      6.8490      6.5674      6.8171    168.7585
  2049.2500     57.9852      6.8385      6.6628      8.7686    167.6548
  2049.5000     59.6870      6.7242      6.8401     13.7788    150.1408
  2049.7500     60.9867      6.6787      7.0296     13.1318    157.2556
  2050.0000     61.8477      6.6032      7.0783     10.6017    169.5298
  2050.2500     62.2998      6.6022      7.3040     14.3561    168.9319
  2050.5000     62.2646      6.5847      7.3364     11.8593    170.4488
  2050.7500     61.7971      6.5534      7.4387     10.3541    162.6565
  2051.0000     61.3107      6.6463      7.4665     12.5609    122.1635
  2051.2500     60.7701      6.6471      7.3753     16.3129    131.6081
  2051.5000     60.0655      6.6935      7.4980     14.9485    156.2017
  2051.7500     59.2900      6.7412      7.5588     10.3736    165.7118
  2052.0000     58.4097      6.8276      7.5008      8.2067    160.4246
  2052.2500     57.3814      6.8597      7.2727      8.3372    161.4508
  2052.5000     56.0385      6.8393      7.1141      8.0049    157.6645
  2052.7500     54.6095      6.7300      7.0439      8.0812    140.8999
  2053.0000     53.0452      6.4302      6.8596      8.9884    135.6753
  2053.2500     51.4095      6.6600      6.8259      7.5328    165.2048
  2053.5000     49.7036      6.7027      6.7198      7.3091    180.8734
  2053.7500     47.8850      6.6740      6.6735      7.2965    182.6177
