~Version Information
VERS.                      2.0: CWLS Log ASCII Standard - VERSION 2.0
WRAP.                       NO: One line per depth step
~Well Information Block
STRT.FT               250.0000: 
STOP.FT              1573.7500: 
STEP.FT                 0.2500: 
NULL.                -999.2500: 
COMP.          Pioneer Natural Resources: COMPANY
WELL.          Big Cat Federal 44-1: WELL
FLD.           Purgatoire River: FIELD
LOC.           197' FSL & 973' FEL--: LOCATION
CNTY.               Las Animas: COUNTY
SRVC.                Patterson: SERVICE COMPANY
DATE.          Sun Apr 23 14:54:11 2006: LOG DATE
UWI.           05 071 08042 00: UNIQUE WELL ID
STAT.                 Colorado: STATE
~Curve Information Block
DEPT.FT            0 000 00 00: Depth
DIR.Ohm-m                     : IEL Induction Resistivity
GR.GAPI                       : Gamma Ray
~Parameter Information Block
~A  Depth       DIR          GR     
   250.0000 100000.0000    124.3513
   250.2500 100000.0000    127.4789
   250.5000 100000.0000    131.1009
   250.7500 100000.0000    132.2887
   251.0000 100000.0000    132.0562
   251.2500 100000.0000    131.2313
   251.5000 100000.0000    130.8553
   251.7500 100000.0000    131.6750
   252.0000 100000.0000    133.2726
   252.2500 100000.0000    133.2875
   252.5000 100000.0000    130.8471
   252.7500 100000.0000    128.4324
   253.0000 100000.0000    126.2557
   253.2500 100000.0000    126.6546
   253.5000 100000.0000    129.0040
   253.7500 100000.0000    130.1578
   254.0000 100000.0000    129.2794
   254.2500 100000.0000    127.0900
   254.5000 100000.0000    123.4251
   254.7500 100000.0000     81.3394
   255.0000 100000.0000     81.5716
   255.2500 100000.0000     82.6143
   255.5000 100000.0000     84.6469
   255.7500 100000.0000     85.8179
   256.0000 100000.0000     86.7561
   256.2500 100000.0000     86.8295
   256.5000 100000.0000     86.8826
   256.7500 100000.0000     87.7325
   257.0000 100000.0000     91.6885
   257.2500 100000.0000     96.5102
   257.5000 100000.0000    106.6429
   257.7500 100000.0000    114.6823
   258.0000 100000.0000    127.2507
   258.2500 100000.0000    135.1225
   258.5000 100000.0000    144.7647
   258.7500 100000.0000    148.9175
   259.0000 100000.0000    150.7071
   259.2500      8.2357    149.1588
   259.5000      3.9595    144.7651
   259.7500      2.8967    141.7864
   260.0000      2.7307    138.2173
   260.2500      3.1658    136.4071
   260.5000      4.4686    134.5580
   260.7500      7.8705    133.9731
   261.0000     18.9307    133.6053
   261.2500     77.8944    133.1084
   261.5000    157.9834    131.4512
   261.7500     38.1694    130.1073
   262.0000     16.0250    128.8551
   262.2500      9.7097    128.7056
   262.5000      7.2515    128.6039
   262.7500      6.1836    127.9182
   263.0000      5.7580    125.6040
   263.2500      5.6855    123.6567
   263.5000      5.8343    121.4541
   263.7500      6.1342    120.9462
   264.0000      6.5338    121.1242
   264.2500      6.9780    120.8998
   264.5000      7.4079    118.3483
   264.7500      7.7914    114.7583
   265.0000      8.1558    107.2027
   265.2500      8.5819    101.7424
   265.5000      9.1559     95.1381
   265.7500      9.9015     92.8635
   266.0000     10.7114     93.1728
   266.2500     11.3324     95.3647
   266.5000     11.4995    100.3407
   266.7500     11.1596    104.2942
   267.0000     10.5065    110.8277
   267.2500      9.7954    115.3718
   267.5000      9.1961    121.7741
   267.7500      8.7769    125.2473
   268.0000      8.5382    128.4471
   268.2500      8.4409    128.9316
   268.5000      8.4263    127.3017
   268.7500      8.4337    125.2334
   269.0000      8.4183    122.1472
   269.2500      8.3600    120.7708
   269.5000      8.2611    120.1031
   269.7500      8.1374    120.4973
   270.0000      8.0087    122.0156
   270.2500      7.8922    123.3838
   270.5000      7.7988    125.3124
   270.7500      7.7329    125.9874
   271.0000      7.6940    125.3210
   271.2500      7.6802    123.8284
   271.5000      7.6895    121.2605
   271.7500      7.7209    120.1188
   272.0000      7.7732    119.3609
   272.2500      7.8449    118.8562
   272.5000      7.9341    117.2116
   272.7500      8.0390    115.6606
   273.0000      8.1575    113.6922
   273.2500      8.2858    113.1520
   273.5000      8.4171    113.7125
   273.7500      8.5424    114.7904
   274.0000      8.6535    116.9396
   274.2500      8.7474    118.4487
   274.5000      8.8288    120.4014
   274.7500      8.9096    121.2327
   275.0000      9.0056    121.3488
   275.2500      9.1323    120.5719
   275.5000      9.3005    118.2591
   275.7500      9.5142    116.0305
   276.0000      9.7708    111.7143
   276.2500     10.0650    108.4416
   276.5000     10.3952    103.9415
   276.7500     10.7672    101.7075
   277.0000     11.1919     99.1862
   277.2500     11.6779     97.1974
   277.5000     12.2203     92.4114
   277.7500     12.7953     88.0866
   278.0000     13.3638     81.6227
   278.2500     13.8848     78.6039
   278.5000     14.3310     77.2528
   278.7500     14.6946     78.3875
   279.0000     14.9794     82.1460
   279.2500     15.1888     85.3913
   279.5000     15.3178     90.6055
   279.7500     15.3565     93.9460
   280.0000     15.2972     97.9387
   280.2500     15.1410     99.4317
   280.5000     14.9006     99.6344
   280.7500     14.5986     98.7640
   281.0000     14.2655     97.1113
   281.2500     13.9336     96.4218
   281.5000     13.6320     96.5192
   281.7500     13.3831     97.2754
   282.0000     13.2010     99.2133
   282.2500     13.0920    101.0262
   282.5000     13.0547    104.3552
   282.7500     13.0815    106.5328
   283.0000     13.1609    108.6928
   283.2500     13.2821    109.0775
   283.5000     13.4378    108.2970
   283.7500     13.6238    107.2153
   284.0000     13.8364    105.2125
   284.2500     14.0703    103.7410
   284.5000     14.3207    101.4260
   284.7500     14.5886     99.9422
   285.0000     14.8845     98.2440
   285.2500     15.2247     97.6480
   285.5000     15.6234     97.2917
   285.7500     16.0849     96.9952
   286.0000     16.6006     96.0037
   286.2500     17.1481     95.0770
   286.5000     17.6926     93.7005
   286.7500     18.1891     92.8142
   287.0000     18.5916     91.1015
   287.2500     18.8662     89.5425
   287.5000     19.0054     87.1409
   287.7500     19.0302     86.2205
   288.0000     18.9752     86.8467
   288.2500     18.8639     88.6407
   288.5000     18.6876     92.6399
   288.7500     18.4036     95.5168
   289.0000     17.9596     98.8833
   289.2500     17.3330     99.7957
   289.5000     16.5581     98.7308
   289.7500     15.7185     96.9738
   290.0000     14.9122     94.7161
   290.2500     14.2145     94.3400
   290.5000     13.6587     95.5612
   290.7500     13.2345     97.0146
   291.0000     12.8983     98.9168
   291.2500     12.5914     99.2862
   291.5000     12.2640     97.7876
   291.7500     11.8957     95.7729
   292.0000     11.5018     93.2461
   292.2500     11.1199     93.1731
   292.5000     10.7868     96.1193
   292.7500     10.5209     99.3038
   293.0000     10.3172    103.7653
   293.2500     10.1534    105.8715
   293.5000     10.0034    108.3156
   293.7500      9.8489    110.2322
   294.0000      9.6865    113.9911
   294.2500      9.5271    116.6016
   294.5000      9.3887    119.4089
   294.7500      9.2871    120.0947
   295.0000      9.2281    119.4058
   295.2500      9.2059    118.2807
   295.5000      9.2069    116.9557
   295.7500      9.2169    117.0710
   296.0000      9.2256    119.0243
   296.2500      9.2259    120.8876
   296.5000      9.2110    122.9179
   296.7500      9.1732    123.2931
   297.0000      9.1059    123.0122
   297.2500      9.0076    123.0105
   297.5000      8.8853    123.9279
   297.7500      8.7550    124.9648
   298.0000      8.6397    126.5437
   298.2500      8.5644    127.4008
   298.5000      8.5510    128.1699
   298.7500      8.6128    128.0635
   299.0000      8.7519    126.1817
   299.2500      8.9570    123.3566
   299.5000      9.2031    116.7254
   299.7500      9.4547    111.1854
   300.0000      9.6725    102.3792
   300.2500      9.8241     96.8437
   300.5000      9.8929     90.4432
   300.7500      9.8796     88.5439
   301.0000      9.7947     90.6083
   301.2500      9.6489     94.9673
   301.5000      9.4487    103.6678
   301.7500      9.1994    109.3991
   302.0000      8.9098    116.4257
   302.2500      8.5961    119.8116
   302.5000      8.2799    122.7561
   302.7500      7.9850    123.2227
   303.0000      7.7325    122.1503
   303.2500      7.5379    121.0070
   303.5000      7.4097    120.1329
   303.7500      7.3496    120.6003
   304.0000      7.3528    122.7154
   304.2500      7.4088    124.5986
   304.5000      7.5029    127.3246
   304.7500      7.6194    128.7264
   305.0000      7.7440    129.6416
   305.2500      7.8656    129.1996
   305.5000      7.9757    127.1706
