~Version Information
 VERS.                                  2.0 : CWLS LAS VERSION
 WRAP.                                   NO : WRAPING MODE
 SWARE .                 MController 2.5.0E : SOFTWARE VERSION
~Well Information
 WELL.                       Montoya 12 44v : WELL
 COMP.                       Petrogulf Corp : COMPANY
 FLD.                      Purgatorie River : FIELD
 LOC.               SE/SE Sec 12 T33S R66W  : LOCATION
 DATE.                             8/7 8/04 : DATE(S) LOGGED
 SRVC.       Blanco Geological Services LLC : SERVICE COMPANY
 STAT.                                   CO : STATE
 CNTY.                           Las Animas : COUNTY
 CTRY.                                  USA : COUNTRY
 API.                       05 071 08094 00 : API NUMBER
 STRT.FT                             804.00 : START DEPTH
 STOP.FT                            2469.00 : STOP DEPTH
 STEP.FT                               1.00 : DEPTH INCREMENT
 NULL.                                 9999 : NULL VALUE
~Curve information
 DEPTH.FT                                   :
 ROP.MIN/FT                                 :
 GAS.UNITS                                  :
~ASCII Log data
      804.00     9999.000          0.0 
      805.00        0.033          0.2 
      806.00        0.233          0.9 
      807.00        0.383          0.6 
      808.00        0.200          0.3 
      809.00        0.333          0.7 
      810.00        0.167          0.6 
      811.00        0.200          0.6 
      812.00        0.233          0.6 
      813.00        0.200          0.6 
      814.00        0.200          0.6 
      815.00        0.133          0.6 
      816.00        0.167          0.4 
      817.00        0.167          0.1 
      818.00        0.167          0.6 
      819.00        0.183          0.2 
      820.00        0.167          0.9 
      821.00        0.133          0.9 
      822.00        0.133          0.3 
      823.00        0.200          0.5 
      824.00        0.167          0.9 
      825.00        0.167          0.3 
      826.00        0.167          0.4 
      827.00        0.200          1.0 
      828.00        0.167          0.8 
      829.00        0.167          0.8 
      830.00        0.167          0.3 
      831.00        0.200          0.5 
      832.00        0.167          0.7 
      833.00        0.133          0.3 
      834.00        0.167          0.6 
      835.00        0.200          0.5 
      836.00        0.317          0.6 
      837.00        0.333          0.6 
      838.00        1.200          0.8 
      839.00        0.100          0.2 
      840.00        0.133          0.8 
      841.00        0.167          0.5 
      842.00        0.217          0.1 
      843.00        0.200          0.8 
      844.00        0.200          1.5 
      845.00        0.167          1.4 
      846.00        0.200          1.5 
      847.00        0.167          1.4 
      848.00        0.167          1.4 
      849.00        0.200          1.4 
      850.00        0.200          1.5 
      851.00        0.200          1.3 
      852.00        0.167          1.0 
      853.00        0.167          1.4 
      854.00        0.167          1.4 
      855.00        0.133          1.3 
      856.00        0.200          0.8 
      857.00        0.183          1.3 
      858.00        0.133          1.4 
      859.00        0.167          0.8 
      860.00        0.167          1.3 
      861.00        0.133          1.2 
      862.00        0.133          1.4 
      863.00        0.133          1.0 
      864.00        0.167          1.3 
      865.00        0.100          1.0 
      866.00        0.133          1.2 
      867.00        0.100          1.0 
      868.00        1.983          1.3 
      869.00        0.067          0.3 
      870.00        0.100          0.6 
      871.00        0.133          1.1 
      872.00        0.133          0.5 
      873.00        0.200          0.7 
      874.00        0.200          1.0 
      875.00        0.167          1.3 
      876.00        0.167          1.4 
      877.00        0.200          1.1 
      878.00        0.167          1.5 
      879.00        0.167          1.6 
      880.00        0.167          1.5 
      881.00        0.133          1.0 
      882.00        0.200          1.2 
      883.00        0.200          1.1 
      884.00        0.217          0.7 
      885.00        0.200          1.1 
      886.00        0.167          0.9 
      887.00        0.167          1.4 
      888.00        0.167          1.4 
      889.00        0.167          0.4 
      890.00        0.167          1.0 
      891.00        0.167          1.1 
      892.00        0.200          0.7 
      893.00        0.167          1.1 
      894.00        0.167          0.9 
      895.00        0.167          1.2 
      896.00        0.200          0.8 
      897.00        0.167          1.5 
      898.00        1.350          1.4 
      899.00        0.367          1.0 
      900.00        0.333          1.1 
      901.00        0.300          1.3 
      902.00        0.167          0.7 
      903.00        0.167          1.2 
      904.00        0.133          0.9 
      905.00        0.200          0.8 
      906.00        0.200          0.3 
      907.00        0.233          1.1 
      908.00        0.200          0.6 
      909.00        0.167          0.9 
      910.00        0.167          0.4 
      911.00        0.167          1.2 
      912.00        0.183          0.8 
      913.00        0.200          1.0 
      914.00        0.200          1.0 
      915.00        0.200          0.5 
      916.00        0.200          1.1 
      917.00        0.167          0.9 
      918.00        0.200          0.6 
      919.00        0.200          0.7 
      920.00        0.167          0.8 
      921.00        0.200          0.5 
      922.00        0.167          0.8 
      923.00        0.133          0.9 
      924.00        0.200          3.4 
      925.00        0.200         90.0 
      926.00        0.100        112.1 
      927.00        0.167        117.6 
      928.00        1.917        102.2 
      929.00        0.267          2.7 
      930.00        0.200          2.6 
      931.00        0.200          2.5 
      932.00        0.233          2.3 
      933.00        0.233          2.0 
      934.00        0.167          2.3 
      935.00        0.200          2.0 
      936.00        0.167          1.8 
      937.00        0.133          0.7 
      938.00        0.133          1.8 
      939.00        0.117          1.9 
      940.00        0.100          1.8 
      941.00        0.167          1.9 
      942.00        0.167          2.1 
      943.00        0.167          2.4 
      944.00        0.167          2.4 
      945.00        0.167          2.3 
      946.00        0.133          2.3 
      947.00        0.167          2.2 
      948.00        0.167          2.4 
      949.00        0.200          2.3 
      950.00        0.167          2.4 
      951.00        0.200          2.4 
      952.00        0.167          2.4 
      953.00        0.133          2.6 
      954.00        0.200          2.6 
      955.00        0.167          2.5 
      956.00        0.167          2.3 
      957.00        0.167          1.6 
      958.00        1.917          2.6 
      959.00        0.200          1.7 
      960.00        0.233          2.0 
      961.00        0.133          2.2 
      962.00        0.167          2.2 
      963.00        0.233          2.2 
      964.00        0.167          1.5 
      965.00        0.167          2.1 
      966.00        0.200          2.4 
      967.00        0.200          2.1 
      968.00        0.217          1.6 
      969.00        0.200          2.1 
      970.00        0.233          1.6 
      971.00        0.233          2.1 
      972.00        0.233          2.3 
      973.00        0.167          2.3 
      974.00        0.200          1.6 
      975.00        0.167          2.2 
      976.00        0.167          1.6 
      977.00        0.200          2.3 
      978.00        0.167          2.2 
      979.00        0.333          2.4 
      980.00        0.333          2.5 
      981.00        0.200          2.4 
      982.00        0.267          2.3 
      983.00        0.183          1.9 
      984.00        0.133          2.2 
      985.00        0.167          1.8 
      986.00        0.167          2.1 
      987.00        0.233          2.4 
      988.00        1.633          2.4 
      989.00        0.233          2.0 
      990.00        0.233          1.9 
      991.00        0.233          2.0 
      992.00        0.217          1.6 
      993.00        0.167          1.8 
      994.00        0.167          2.1 
      995.00        0.167          1.7 
      996.00        0.167          2.3 
      997.00        0.167          2.3 
      998.00        0.167          1.5 
      999.00        0.200          2.1 
     1000.00        0.167          2.2 
     1001.00        0.167          1.5 
     1002.00        0.200          2.2 
     1003.00        0.167          2.5 
