~Version Information
VERS.                      2.0: CWLS Log ASCII Standard - VERSION 2.0
WRAP.                       NO: One line per depth step
~Well Information Block
STRT.FT               -12.5000: 
STOP.FT              2200.2500: 
STEP.FT                 0.2500: 
NULL.                -999.2500: 
COMP.          Pioneer Natural Resources: COMPANY
WELL.           Ogallela 44-12: WELL
FLD.           Purgatorie River: FIELD
LOC.           610' FSL & 671' FEL------: LOCATION
PROV.                       CO: PROVINCE
CNTY.               Las Animas: COUNTRY
SRVC.          Patterson Wireline: SERVICE COMPANY
DATE.          Tue Mar 22 17:18:22 2005: LOG DATE
UWI.           05 071 08283 00: UNIQUE WELL ID
~Curve Information Block
DEPT.FT            0 000 00 00: Depth
CCL.                          : Casing Collar Locator
TT3.usec                      : CBL 3' Travel Time
AMP3.mV                       : CBL 3' Amplitude
GR.GAPI                       : Gamma Ray
~Parameter Information Block
~A  Depth       CCL         TT3         AMP3         GR     
# ...
  2165.0000      0.0000    714.1395      7.3576     69.1049
  2165.2500      0.0000    698.2897      7.5061     71.9000
  2165.5000      0.0000    687.8129      7.6127     74.3905
  2165.7500      0.0000    683.4865      7.6854     76.8717
  2166.0000      0.0000    684.7609      7.7504     79.2457
  2166.2500      0.0000    690.8930      7.8312     81.1997
  2166.5000      0.0000    700.7914      7.9293     82.3058
  2166.7500      0.0000    712.5997      8.0186     81.9713
  2167.0000      0.0000    724.4413      8.0601     79.9328
  2167.2500      0.0000    735.4954      8.0301     77.0214
  2167.5000      0.0000    745.6448      7.9413     75.0563
  2167.7500      0.0000    754.3546      7.8297     75.8085
  2168.0000      0.0000    760.7420      7.7247     80.0285
  2168.2500      0.0000    764.5396      7.6309     87.1922
  2168.5000      0.0000    766.2415      7.5334     95.9088
  2168.7500      0.0000    766.3376      7.4186    104.5698
  2169.0000      0.0000    764.9314      7.2949    111.9117
  2169.2500      0.0000    762.3223      7.1859    117.4339
  2169.5000      0.0000    759.7317      7.1052    121.5149
  2169.7500      0.0000    758.9082      7.0504    124.8162
  2170.0000      0.0000    760.6505      7.0178    127.3513
  2170.2500      0.0000    763.9603      7.0000    128.3951
  2170.5000      0.0000    767.0021      6.9725    127.4109
  2170.7500      0.0000    768.6534      6.9113    124.5952
  2171.0000      0.0000    768.8791      6.8292    120.3781
  2171.2500      0.0000    767.9717      6.7707    114.9877
  2171.5000      0.0000    765.7570      6.7648    108.9539
  2171.7500      0.0000    761.4813      6.8032    103.6846
  2172.0000      0.0000    754.3990      6.8657    101.0546
  2172.2500      0.0000    744.5964      6.9373    102.1899
  2172.5000      0.0000    733.3126      6.9913    106.5792
  2172.7500      0.0000    722.6512      6.9939    112.2406
  2173.0000      0.0000    715.1997      6.9435    116.6207
  2173.2500      0.0000    713.0025      6.8827    117.7345
  2173.5000      0.0000    715.3824      6.8489    115.2819
  2173.7500      0.0000    718.0146      6.8316    110.9078
  2174.0000      0.0000    715.9243      6.7931    106.8488
  2174.2500      0.0000    707.9451      6.7188    104.0379
  2174.5000      0.0000    697.4669      6.6342    101.6494
  2174.7500      0.0000    689.0753      6.5799     98.3301
  2175.0000      0.0000    685.4749      6.5863     93.6236
  2175.2500      0.0000    687.2023      6.6693     88.3899
  2175.5000      0.0000    693.6716      6.8241     84.3137
  2175.7500      0.0000    703.9168      7.0046     82.8472
  2176.0000      0.0000    716.8501      7.1291     84.0762
  2176.2500      0.0000    731.1447      7.1361     86.5227
  2176.5000      0.0000    744.9335      7.0429     88.5015
  2176.7500      0.0000    756.1354      6.9347     89.7692
  2177.0000      0.0000    763.4954      6.8833     91.6196
  2177.2500      0.0000    767.1251      6.8859     95.2447
  2177.5000      0.0000    767.8704      6.8917    100.1119
  2177.7500      0.0000    766.4521      6.8706    104.0434
  2178.0000      0.0000    763.4249      6.8311    105.0289
  2178.2500      0.0000    759.6658      6.7782    103.2219
  2178.5000      0.0000    756.2842      6.6860    100.9842
  2178.7500      0.0000    753.9490      6.5112    100.5348
  2179.0000      0.0000    752.7650      6.2183    101.7804
  2179.2500      0.0000    752.4861      5.8018    102.9766
  2179.5000      0.0000    752.0428      5.3141    102.9812
  2179.7500      0.0000    749.3539      4.8705    101.8285
  2180.0000      0.0000    742.9700      4.5935     99.5604
  2180.2500      0.0000    733.6198      4.5305     95.7964
  2180.5000     -2.0000    723.2977      4.6236     90.5625
  2180.7500      2.0000    713.5665      4.7606     84.7840
  2181.0000      0.0000    705.5009      4.8581     79.7232
  2181.2500      0.0000    700.7482      4.9082     76.0472
  2181.5000      0.0000    701.6645      4.9580     73.3969
  2181.7500      0.0000    709.5228      5.0473     70.9114
  2182.0000      0.0000    722.1856      5.1667     68.4091
  2182.2500      0.0000    734.3158      5.2833     66.8961
  2182.5000      0.0000    741.0090      5.3924     67.5229
  2182.7500      0.0000    741.3898      5.5205     70.1460
  2183.0000      0.0000    738.4172      5.6812     73.3621
  2183.2500      0.0000    735.7108      5.8498     75.9683
  2183.5000      0.0000    735.0402      5.9829     77.9618
  2183.7500      0.0000    736.0245      6.0496     79.9260
  2184.0000      0.0000    737.3621      6.0416     81.8331
  2184.2500      0.0000    738.1686      5.9659     82.8953
  2184.5000      0.0000    738.1002      5.8338     82.5760
  2184.7500      0.0000    736.3742      5.6608     81.3957
  2185.0000      0.0000    731.8741      5.4747     80.5003
  2185.2500      0.0000    725.1983      5.3163     80.5268
  2185.5000      0.0000    719.6840      5.2189     81.0818
  2185.7500      0.0000    719.1794      5.1867     81.1757
  2186.0000      0.0000    724.7910      5.1936     79.5983
  2186.2500      0.0000    733.8139      5.2038     74.7757
  2186.5000      0.0000    741.1834      5.1944     65.1690
  2186.7500      0.0000    742.6135      5.1637     50.7686
  2187.0000      0.0000    737.8373      5.1227     34.1467
  2187.2500      0.0000    730.4249      5.0771     19.2781
  2187.5000      0.0000    723.2693      5.0193      8.9439
  2187.7500      0.0000    715.4398      4.9396      3.3576
  2188.0000      0.0000    705.0572      4.8437      1.0089
  2188.2500      0.0000    693.7616      4.7573      0.2403
  2188.5000      0.0000    686.5945      4.7145      0.0447
  2188.7500      0.0000    688.4993      4.7354      0.0061
  2189.0000      0.0000    701.7395      4.8109      0.0000
  2189.2500      0.0000    724.9968      4.9103   -999.2500
  2189.5000      0.0000    753.5784      5.0067   -999.2500
  2189.7500      0.0000    781.3455      5.0899   -999.2500
  2190.0000      0.0000    803.4598      5.1643   -999.2500
  2190.2500      0.0000    817.4605      5.2444   -999.2500
  2190.5000      0.0000    822.2777      5.3484   -999.2500
  2190.7500      0.0000    816.8524      5.4777   -999.2500
  2191.0000      0.0000    799.0474      5.5935   -999.2500
  2191.2500      0.0000    763.7289      5.6184   -999.2500
  2191.5000      0.0000    701.0049      5.4643   -999.2500
  2191.7500      0.0000    600.1896      5.0788   -999.2500
  2192.0000      0.0000    462.1235      4.4936   -999.2500
  2192.2500      0.0000    308.6003      3.8351   -999.2500
  2192.5000      0.0000    173.4126      3.2625   -999.2500
  2192.7500      0.0000     80.1638      2.8739   -999.2500
  2193.0000      0.0000     29.9988      2.6677   -999.2500
  2193.2500      0.0000      8.9847      2.5822   -999.2500
  2193.5000      0.0000      2.1341      2.5546   -999.2500
  2193.7500      0.0000      0.3963      2.5476   -999.2500
  2194.0000      0.0000      0.0532      2.5462   -999.2500
  2194.2500      0.0000   -999.2500   -999.2500   -999.2500
  2194.5000      0.0000   -999.2500   -999.2500   -999.2500
  2194.7500      0.0000   -999.2500   -999.2500   -999.2500
  2195.0000      0.0000   -999.2500   -999.2500   -999.2500
  2195.2500      0.0000   -999.2500   -999.2500   -999.2500
  2195.5000      0.0000   -999.2500   -999.2500   -999.2500
  2195.7500      0.0000   -999.2500   -999.2500   -999.2500
  2196.0000      0.0000   -999.2500   -999.2500   -999.2500
  2196.2500      0.0000   -999.2500   -999.2500   -999.2500
  2196.5000      0.0000   -999.2500   -999.2500   -999.2500
  2196.7500      0.0000   -999.2500   -999.2500   -999.2500
  2197.0000      0.0000   -999.2500   -999.2500   -999.2500
  2197.2500      0.0000   -999.2500   -999.2500   -999.2500
  2197.5000      0.0000   -999.2500   -999.2500   -999.2500
  2197.7500      0.0000   -999.2500   -999.2500   -999.2500
  2198.0000      0.0000   -999.2500   -999.2500   -999.2500
  2198.2500      0.0000   -999.2500   -999.2500   -999.2500
