~Version Information
VERS.                      2.0: CWLS Log ASCII Standard - VERSION 2.0
WRAP.                       NO: One line per depth step
~Well Information Block
STRT.FT                60.5000: 
STOP.FT              1875.7500: 
STEP.FT                 0.2500: 
NULL.                -999.2500: 
COMP.          Petrogulf Corporation: COMPANY
WELL.             State 16-14R: WELL
FLD.           Purgatorie River: FIELD
LOC.           598' FSL & 682' FWL--: LOCATION
PROV.                       CO: PROVINCE
CNTY.               Las Animas: COUNTRY
SRVC.                         : SERVICE COMPANY
DATE.          Fri Nov 12 08:50:45 2004: LOG DATE
UWI.            005 071 08034 : UNIQUE WELL ID
~Curve Information Block
DEPT.FT            0 000 00 00: Depth
GR.GAPI                       : Gamma Ray
CCL.                          : Casing Collar Locator
TT3.usec                      : CBL 3' Travel Time
AMP3.mV                       : CBL 3' Amplitude
~Parameter Information Block
~A  Depth        GR         CCL         TT3         AMP3    
# ...
  1132.5000    114.6551      0.0000    738.2288     11.3470
  1132.7500    121.9685      0.0000    730.2861     11.3408
  1133.0000    131.2517      0.0000    722.0316     11.2667
  1133.2500    139.0945      0.0000    715.1046     11.1168
  1133.5000    144.0667      0.0000    710.7960     10.8892
  1133.7500    147.4149      0.0000    710.3477     10.5846
  1134.0000    151.1133      0.0000    714.4169     10.2169
  1134.2500    155.5634      0.0000    721.8857      9.8197
  1134.5000    159.5039      0.0000    730.1357      9.4364
  1134.7500    161.7589      0.0000    737.1616      9.0990
  1135.0000    162.1257      0.0000    743.0791      8.8083
  1135.2500    160.6294      0.0000    749.4780      8.5217
  1135.5000    157.0789      0.0000    757.6980      8.1561
  1135.7500    151.6937      0.0000    767.8374      7.6194
  1136.0000    145.3810      0.0000    779.0754      6.8634
  1136.2500    139.0529      0.0000    790.7265      5.9225
  1136.5000    133.1470      0.0000    802.2161      4.9055
  1136.7500    127.7917      0.0000    811.3091      3.9445
  1137.0000    122.8536      0.0000    813.9808      3.1348
  1137.2500    117.7132      0.0000    808.2112      2.5045
  1137.5000    111.4443      0.0000    796.7720      2.0283
  1137.7500    103.4857      0.0000    784.4441      1.6670
  1138.0000     94.1841      0.0000    773.6242      1.3989
  1138.2500     84.6333      0.0000    763.9591      1.2217
  1138.5000     75.9825      0.0000    754.7548      1.1314
  1138.7500     68.9147      0.0000    746.3348      1.1078
  1139.0000     63.6372      0.0000    739.8199      1.1200
  1139.2500     60.1279      0.0000    736.4965      1.1416
  1139.5000     58.3910      0.0000    736.4966      1.1597
  1139.7500     58.6916      0.0000    737.2947      1.1723
  1140.0000     61.4020      0.0000    734.8317      1.1798
  1140.2500     66.2759      0.0000    728.0875      1.1801
  1140.5000     72.0430      0.0000    722.0046      1.1702
  1140.7500     77.1636      0.0000    723.7825      1.1547
  1141.0000     81.0899      0.0000    735.8590      1.1516
  1141.2500     84.7886      0.0000    753.7964      1.1942
  1141.5000     90.2399      0.0000    770.6563      1.3278
  1141.7500     99.2554      0.0000    781.6921      1.6005
  1142.0000    112.0273      0.0000    785.0901      2.0477
  1142.2500    126.2492      0.0000    781.0276      2.6791
  1142.5000    137.8789      0.0000    771.4324      3.4773
  1142.7500    143.5629      0.0000    759.1796      4.4067
  1143.0000    143.0859      0.0000    746.4261      5.4197
  1143.2500    139.6166      0.0000    734.4175      6.4598
  1143.5000    137.2902      0.0000    724.5564      7.4669
  1143.7500    138.3145      0.0000    718.3503      8.3819
  1144.0000    142.1107      0.0000    716.3442      9.1531
  1144.2500    146.6334      0.0000    717.7515      9.7491
  1144.5000    150.0422      0.0000    720.9407     10.1757
  1144.7500    151.4160      0.0000    724.1375     10.4758
  1145.0000    150.6790      0.0000    726.1827     10.7049
  1145.2500    148.3380      0.0000    727.1797     10.8991
  1145.5000    145.2665      0.0000    728.3350     11.0634
  1145.7500    142.4699      0.0000    730.8430     11.1812
  1146.0000    140.6919      0.0000    734.6556     11.2336
  1146.2500    139.9666      0.0000    738.3449     11.2166
  1146.5000    139.6331      0.0000    740.2313     11.1511
  1146.7500    138.8222      0.0000    739.5746     11.0751
  1147.0000    136.7387      0.0000    736.7860     11.0219
  1147.2500    132.7669      0.0000    732.6744     11.0036
  1147.5000    127.0770      0.0000    727.3864     11.0164
  1147.7500    121.0517      0.0000    719.9117     11.0529
  1148.0000    116.5040      0.0000    708.3994     11.1081
  1148.2500    114.5157      0.0000    691.1642     11.1745
  1148.5000    115.0837      0.0000    668.6179     11.2381
  1148.7500    117.1698      0.0000    645.2415     11.2836
  1149.0000    118.8838      0.0000    627.4893     11.3039
  1149.2500    118.5378      0.0000    616.3001     11.3056
  1149.5000    115.9769      0.0000    603.0107     11.3028
  1149.7500    112.3415      0.0000    577.3190     11.2994
  1150.0000    108.6515      0.0000    539.5457     11.2778
  1150.2500    105.5413      0.0000    501.9170     11.2062
  1150.5000    104.1641      0.0000    478.8534     11.0637
  1150.7500    105.9262      0.0000    479.0141     10.8567
  1151.0000    110.7612      0.0000    504.1877     10.6122
  1151.2500    116.3853      0.0000    549.7484     10.3596
  1151.5000    119.9603      0.0000    604.8770     10.1196
  1151.7500    120.4693      0.0000    656.4159      9.9037
  1152.0000    119.3974      0.0000    695.4587      9.7152
  1152.2500    119.3314      0.0000    720.3726      9.5522
  1152.5000    121.9730      0.0000    734.2537      9.4132
  1152.7500    127.0127      0.0000    741.0938      9.2994
  1153.0000    132.6158      0.0000    743.9864      9.2102
  1153.2500    137.1308      0.0000    744.9662      9.1386
  1153.5000    140.2623      0.0000    745.1770      9.0757
  1153.7500    142.4583      0.0000    745.0228      9.0252
  1154.0000    143.7196      0.0000    744.1045      9.0206
  1154.2500    143.7199      0.0000    740.8341      9.1264
  1154.5000    142.8239      0.0000    731.8528      9.4097
  1154.7500    142.2057      0.0000    712.7099      9.8767
  1155.0000    142.6387      0.0000    680.9384     10.4237
  1155.2500    143.3807      0.0000    639.5708     10.8803
  1155.5000    142.6523      0.0000    596.7885     11.1439
  1155.7500    139.4301      0.0000    561.8247     11.2652
  1156.0000    134.4761      0.0000    541.3137     11.3938
  1156.2500    129.3247      0.0000    536.3798     11.6719
  1156.5000    124.7823      0.0000    539.5522     12.1588
  1156.7500    120.9371      0.0000    537.3448     12.7870
  1157.0000    118.1004      0.0000    521.3481     13.3771
  1157.2500    116.7731     -2.0000    497.2191     13.7381
  1157.5000    116.7435      2.0000    481.1475     13.7597
  1157.7500    116.9426      0.0000    487.7773     13.4215
  1158.0000    116.2996      0.0000    520.0036     12.7660
  1158.2500    114.5090      0.0000    567.0740     11.8896
  1158.5000    112.1665      0.0000    612.2168     10.9257
  1158.7500    110.5509      0.0000    644.3005     10.0008
  1159.0000    111.2021      0.0000    662.6415      9.2118
  1159.2500    115.1366      0.0000    671.7725      8.6264
  1159.5000    121.8885      0.0000    674.5583      8.2612
  1159.7500    129.2881      0.0000    671.3303      8.0688
  1160.0000    134.6164      0.0000    663.0649      7.9768
  1160.2500    136.3615      0.0000    652.9932      7.9380
  1160.5000    135.1609      0.0000    644.7458      7.9373
  1160.7500    133.2286      0.0000    639.5658      7.9714
  1161.0000    132.6176      0.0000    635.7937      8.0275
  1161.2500    133.6373      0.0000    631.0068      8.0818
  1161.5000    134.9415      0.0000    624.4958      8.1128
  1161.7500    135.1597      0.0000    618.1064      8.1182
  1162.0000    134.1995      0.0000    615.2142      8.1125
  1162.2500    132.9969      0.0000    618.1877      8.1088
  1162.5000    132.2939      0.0000    625.4391      8.1052
  1162.7500    131.8487      0.0000    630.2451      8.0891
  1163.0000    131.0592      0.0000    623.1583      8.0521
  1163.2500    130.3236      0.0000    597.9220      8.0016
  1163.5000    131.0370      0.0000    558.4307      7.9560
  1163.7500    133.6769      0.0000    520.8691      7.9317
  1164.0000    136.5246      0.0000    505.4629      7.9388
  1164.2500    137.0638      0.0000    521.7919      7.9854
  1164.5000    134.4379      0.0000    561.3339      8.0741
  1164.7500    130.0219      0.0000    605.1646      8.1884
  1165.0000    125.8326      0.0000    638.3649      8.2948
  1165.2500    122.9166      0.0000    657.1346      8.3676
  1165.5000    121.1803      0.0000    665.4448      8.4100
  1165.7500    120.2743      0.0000    668.5974      8.4466
