~Version Information
VERS.                      2.0: CWLS Log ASCII Standard - VERSION 2.0
WRAP.                       NO: One line per depth step
~Well Information Block
STRT.FT                15.0000: 
STOP.FT              2620.5000: 
STEP.FT                 0.2500: 
NULL.                -999.2500: 
COMP.          Pioneer Natural Resources: COMPANY
WELL.               Zink 44-10: WELL
FLD.           Purgatoire River: FIELD
LOC.           548' FSL & 473' FEL: LOCATION
PROV.                 Colorado: PROVINCE
CNTY.               Las Animas: COUNTRY
SRVC.                Patterson: SERVICE COMPANY
DATE.          Tue Jun 21 13:36:23 2005: LOG DATE
UWI.           05 071 08380 00: UNIQUE WELL ID
~Curve Information Block
DEPT.FT            0 000 00 00: Depth
GR.GAPI                       : Gamma Ray
CCL.                          : Casing Collar Locator
TT3.usec                      : CBL 3' Travel Time
AMP3.mV                       : CBL 3' Amplitude
~Parameter Information Block
~A  Depth        GR         CCL         TT3         AMP3    
# ...
  2427.0000     98.0723      0.0000    608.7369      2.4675
  2427.2500     97.6340      0.0000    613.9627      2.4782
  2427.5000     95.9296      0.0000    613.6950      2.4652
  2427.7500     92.8434      0.0000    603.0955      2.4360
  2428.0000     88.9996      0.0000    580.9111      2.4018
  2428.2500     85.6352      0.0000    549.7593      2.3776
  2428.5000     83.9230      0.0000    515.9634      2.3798
  2428.7500     84.1634      0.0000    486.4358      2.4171
  2429.0000     85.6345      0.0000    464.2285      2.4820
  2429.2500     87.3098      0.0000    448.0803      2.5568
  2429.5000     88.5175      0.0000    435.8451      2.6268
  2429.7500     88.8587      0.0000    426.5907      2.6858
  2430.0000     87.9699      0.0000    419.9605      2.7346
  2430.2500     85.7302      0.0000    415.5200      2.7756
  2430.5000     82.5221      0.0000    413.4273      2.8077
  2430.7500     79.0590      0.0000    415.3364      2.8239
  2431.0000     75.9203      0.0000    423.9466      2.8179
  2431.2500     73.2584      0.0000    440.1688      2.7932
  2431.5000     70.9668      0.0000    459.3436      2.7604
  2431.7500     69.0192      0.0000    471.4995      2.7290
  2432.0000     67.4724      0.0000    468.4034      2.7064
  2432.2500     66.2926      0.0000    451.0734      2.7014
  2432.5000     65.4512      0.0000    428.8068      2.7210
  2432.7500     65.0693      0.0000    410.9902      2.7620
  2433.0000     65.1637      0.0000    401.3074      2.8126
  2433.2500     65.2539      0.0000    398.9375      2.8600
  2433.5000     64.5058      0.0000    402.7991      2.8945
  2433.7500     62.5711      0.0000    413.6676      2.9105
  2434.0000     60.3456      0.0000    432.3492      2.9076
  2434.2500     59.5745      0.0000    455.8031      2.8915
  2434.5000     61.3139      0.0000    476.2810      2.8711
  2434.7500     64.7922      0.0000    486.8279      2.8555
  2435.0000     68.0227      0.0000    487.5467      2.8529
  2435.2500     69.4380      0.0000    483.6207      2.8654
  2435.5000     68.7761      0.0000    477.6996      2.8861
  2435.7500     66.8670      0.0000    468.5386      2.9023
  2436.0000     65.1199      0.0000    457.8879      2.9061
  2436.2500     64.9076      0.0000    454.1808      2.8984
  2436.5000     66.7204      0.0000    466.0745      2.8832
  2436.7500     69.7880      0.0000    492.4112      2.8623
  2437.0000     72.6786      0.0000    519.6035      2.8354
  2437.2500     74.1695      0.0000    530.4133      2.8056
  2437.5000     73.6912      0.0000    517.2012      2.7795
  2437.7500     71.4935      0.0000    487.4829      2.7633
  2438.0000     68.6102      0.0000    457.0319      2.7587
  2438.2500     66.3321      0.0000    438.0972      2.7635
  2438.5000     65.3920      0.0000    432.9468      2.7728
  2438.7500     65.6555      0.0000    435.4076      2.7826
  2439.0000     66.6834      0.0000    437.0898      2.7916
  2439.2500     68.4329      0.0000    433.8607      2.8006
  2439.5000     71.0463      0.0000    428.2263      2.8085
  2439.7500     74.0055      0.0000    425.7732      2.8109
  2440.0000     76.0425      0.0000    429.2383      2.8027
  2440.2500     76.1378      0.0000    435.7028      2.7854
  2440.5000     74.3693      0.0000    439.2513      2.7691
  2440.7500     71.8010      0.0000    436.4301      2.7666
  2441.0000     69.7291      0.0000    429.2162      2.7821
  2441.2500     68.8503      0.0000    423.1325      2.8069
  2441.5000     68.7900      0.0000    424.0787      2.8259
  2441.7500     68.3973      0.0000    437.1854      2.8268
  2442.0000     66.7738      0.0000    465.7149      2.8044
  2442.2500     64.1156      0.0000    507.3636      2.7606
  2442.5000     61.4276      0.0000    551.6179      2.7017
  2442.7500     59.4443      0.0000    583.6968      2.6347
  2443.0000     57.9956      0.0000    593.2169      2.5638
  2443.2500     56.3866      0.0000    579.7369      2.4889
  2443.5000     54.2355      0.0000    552.0114      2.4066
  2443.7500     52.0118      0.0000    523.7343      2.3169
  2444.0000     50.8617      0.0000    507.7763      2.2266
  2444.2500     51.7105      0.0000    510.3656      2.1475
  2444.5000     54.2888      0.0000    529.2588      2.0886
  2444.7500     57.1897      0.0000    557.5777      2.0490
  2445.0000     59.1402      0.0000    588.8504      2.0176
  2445.2500     60.1625      0.0000    618.9199      1.9824
  2445.5000     61.2621      0.0000    645.5787      1.9416
  2445.7500     63.0223      0.0000    667.9703      1.9049
  2446.0000     64.8021      0.0000    685.7787      1.8827
  2446.2500     65.4938      0.0000    698.4256      1.8757
  2446.5000     64.8415      0.0000    705.3516      1.8756
  2446.7500     63.7435      0.0000    706.7836      1.8735
  2447.0000     63.4423      0.0000    703.8141      1.8660
  2447.2500     64.7242      0.0000    697.9869      1.8569
  2447.5000     67.8202      0.0000    690.8851      1.8535
  2447.7500     72.7126      0.0000    683.4510      1.8637
  2448.0000     79.2196      0.0000    675.4891      1.8981
  2448.2500     86.6065      0.0000    666.4886      1.9715
  2448.5000     93.3440      0.0000    657.2385      2.0952
  2448.7500     97.7962      0.0000    649.9191      2.2632
  2449.0000     99.3229      0.0000    645.7444      2.4485
  2449.2500     98.5368      0.0000    642.1473      2.6166
  2449.5000     96.6439      0.0000    632.4667      2.7431
  2449.7500     94.7160      0.0000    609.5132      2.8201
  2450.0000     93.1679      0.0000    571.4075      2.8529
  2450.2500     91.5530      0.0000    524.8608      2.8535
  2450.5000     89.2055      0.0000    481.5615      2.8341
  2450.7500     86.3526      0.0000    450.2528      2.8038
  2451.0000     84.1324      0.0000    432.2914      2.7694
  2451.2500     83.3121      0.0000    423.8142      2.7399
  2451.5000     83.6253      0.0000    420.2355      2.7256
  2451.7500     84.5015      0.0000    418.6049      2.7329
  2452.0000     85.6385      0.0000    417.5903      2.7582
  2452.2500     86.5591      0.0000    416.7589      2.7880
  2452.5000     86.4534      0.0000    416.0431      2.8048
  2452.7500     85.0568      0.0000    415.4401      2.7957
  2453.0000     83.3351      0.0000    414.9063      2.7581
  2453.2500     82.8250      0.0000    414.3696      2.7002
  2453.5000     84.3311      0.0000    413.7988      2.6340
  2453.7500     87.3883      0.0000    413.2171      2.5694
  2454.0000     90.7816      0.0000    412.6653      2.5142
  2454.2500     93.3196      0.0000    412.1934      2.4792
  2454.5000     94.3126      0.0000    412.0422      2.4774
  2454.7500     93.7387      0.0000    413.0546      2.5157
  2455.0000     92.0009      0.0000    417.1001      2.5881
  2455.2500     89.4127      0.0000    426.6230      2.6760
  2455.5000     86.0838      0.0000    442.2689      2.7549
  2455.7500     82.3766      0.0000    459.8293      2.8028
  2456.0000     79.1348      0.0000    470.8577      2.8086
  2456.2500     77.1265      0.0000    468.8774      2.7776
  2456.5000     76.3892      0.0000    455.2857      2.7278
  2456.7500     76.3639      0.0000    437.7920      2.6779
  2457.0000     76.5695      0.0000    423.4980      2.6387
  2457.2500     76.8740      0.0000    414.6353      2.6124
  2457.5000     77.2040      0.0000    409.6937      2.5970
  2457.7500     77.3729      0.0000    406.2345      2.5917
  2458.0000     77.3003      0.0000    402.2623      2.5974
  2458.2500     77.1801      0.0000    396.4878      2.6138
  2458.5000     77.2780      0.0000    388.7280      2.6341
  2458.7500     77.6490      0.0000    380.3015      2.6462
  2459.0000     78.1107      0.0000    373.5850      2.6393
  2459.2500     78.4083      0.0000    370.7444      2.6132
  2459.5000     78.3395      0.0000    372.5789      2.5792
  2459.7500     77.8994      0.0000    378.3543      2.5533
  2460.0000     77.5112      0.0000    387.0073      2.5451
  2460.2500     78.0906      0.0000    399.3478      2.5511
