~Version Information
VERS.                      2.0: CWLS Log ASCII Standard - VERSION 2.0
WRAP.                       NO: One line per depth step
~Well Information Block
STRT.FT               742.5000: 
STOP.FT              2463.5000: 
STEP.FT                 0.2500: 
NULL.                -999.2500: 
COMP.          Petrogulf Corporation: COMPANY
WELL.           Montoya 12-44V: WELL
FLD.           Purgatorie River: FIELD
LOC.           698' FSL & 599' FEL: LOCATION
CNTY.               Las Animas: COUNTY
SRVC.                         : SERVICE COMPANY
DATE.          Sun Aug 08 06:43:17 2004: LOG DATE
UWI.           05 071 08094 00: UNIQUE WELL ID
STAT.                 Colorado: STATE
~Curve Information Block
DEPT.FT            0 000 00 00: Depth
SN.Ohm-m                      : IEL Short Normal
SP.mV                         : IEL Spontaneous Potential
DIR.Ohm-m                     : IEL Induction Resistivity
GR.GAPI                       : Gamma Ray
~Parameter Information Block
~A  Depth        SN          SP         DIR          GR     
   742.5000   -999.2500   -999.2500   -999.2500   -999.2500
   742.7500   -999.2500   -999.2500   -999.2500     35.3185
   743.0000   -999.2500   -999.2500   -999.2500     38.1922
   743.2500   -999.2500   -999.2500   -999.2500     41.5303
   743.5000   -999.2500   -999.2500   -999.2500     48.3977
   743.7500   -999.2500   -999.2500   -999.2500     53.8149
   744.0000   -999.2500   -999.2500   -999.2500     62.1704
   744.2500   -999.2500   -999.2500   -999.2500     67.1387
   744.5000   -999.2500   -999.2500   -999.2500     72.6698
   744.7500   -999.2500   -999.2500   -999.2500     75.0440
   745.0000   -999.2500   -999.2500   -999.2500     77.6032
   745.2500   -999.2500   -999.2500   -999.2500     79.3448
   745.5000   -999.2500   -999.2500   -999.2500     82.5955
   745.7500   -999.2500   -999.2500   -999.2500     85.1015
   746.0000   -999.2500   -999.2500   -999.2500     88.8158
   746.2500   -999.2500   -999.2500   -999.2500     90.8573
   746.5000   -999.2500   -999.2500   -999.2500     92.7644
   746.7500   -999.2500   -999.2500   -999.2500     93.3040
   747.0000   -999.2500   -999.2500   -999.2500     93.6575
   747.2500   -999.2500   -999.2500   -999.2500     94.0419
   747.5000   -999.2500   -999.2500   -999.2500     95.3051
   747.7500   -999.2500   -999.2500   -999.2500     96.5628
   748.0000   -999.2500   -999.2500   -999.2500     98.4204
   748.2500   -999.2500   -999.2500   -999.2500     99.1186
   748.5000   -999.2500   -999.2500   -999.2500     98.8065
   748.7500   -999.2500   -999.2500   -999.2500     97.7131
   749.0000   -999.2500   -999.2500   -999.2500     95.2221
   749.2500   -999.2500   -999.2500   -999.2500     93.4559
   749.5000   -999.2500   -999.2500   -999.2500     91.6149
   749.7500   -999.2500   -999.2500   -999.2500     91.3705
   750.0000   -999.2500   -999.2500   -999.2500     92.4647
   750.2500   -999.2500   -999.2500   -999.2500     93.6374
   750.5000   -999.2500   -999.2500   -999.2500     94.7739
   750.7500   -999.2500   -999.2500   -999.2500     94.5669
   751.0000   -999.2500   -999.2500   -999.2500     92.6767
   751.2500   -999.2500   -999.2500   -999.2500     90.7492
   751.5000   -999.2500   -999.2500   -999.2500     87.8566
   751.7500   -999.2500   -999.2500   -999.2500     86.3627
   752.0000   -999.2500   -999.2500   -999.2500     84.9829
   752.2500   -999.2500   -999.2500   -999.2500     84.5810
   752.5000   -999.2500   -999.2500   -999.2500     84.6431
   752.7500   -999.2500   -999.2500   -999.2500     84.9716
   753.0000   -999.2500   -999.2500   -999.2500     85.2601
   753.2500   -999.2500   -999.2500   -999.2500     84.8399
   753.5000   -999.2500   -999.2500   -999.2500     82.8494
   753.7500   -999.2500   -999.2500   -999.2500     80.8588
   754.0000   -999.2500   -999.2500   -999.2500     78.3292
   754.2500   -999.2500   -999.2500   -999.2500     78.0943
   754.5000   -999.2500   -999.2500   -999.2500     81.0072
   754.7500   -999.2500   -999.2500   -999.2500     84.6052
   755.0000   -999.2500   -999.2500   -999.2500     90.0058
   755.2500   -999.2500   -999.2500   -999.2500     92.1328
   755.5000   -999.2500   -999.2500   -999.2500     91.8998
   755.7500   -999.2500   -999.2500   -999.2500     89.6560
   756.0000   -999.2500   -999.2500   -999.2500     84.5651
   756.2500   -999.2500   -999.2500   -999.2500     81.0719
   756.5000   -999.2500   -999.2500   -999.2500     77.1052
   756.7500   -999.2500   -999.2500   -999.2500     75.7212
   757.0000   -999.2500   -999.2500   -999.2500     75.7774
   757.2500   -999.2500   -999.2500   -999.2500     77.2844
   757.5000   -999.2500   -999.2500   -999.2500     81.4908
   757.7500   -999.2500   -999.2500   -999.2500     85.0790
   758.0000   -999.2500   -999.2500   -999.2500     90.5369
   758.2500   -999.2500   -999.2500   -999.2500     93.8259
   758.5000   -999.2500   -999.2500   -999.2500     97.8916
   758.7500   -999.2500   -999.2500   -999.2500     99.6319
   759.0000   2000.0000   -999.2500   -999.2500     99.7137
   759.2500   2000.0000   -999.2500   -999.2500     97.7233
   759.5000   2000.0000   -999.2500    265.9109     92.3053
   759.7500   2000.0000   -999.2500    295.4022     88.0217
   760.0000   2000.0000   2000.0000    265.2365     82.2089
   760.2500   2000.0000   2000.0000    210.9271     79.2964
   760.5000   2000.0000   2000.0000    169.6434     76.6403
   760.7500   2000.0000   2000.0000    146.1102     75.9675
   761.0000   2000.0000   2000.0000    134.8655     76.4230
   761.2500   2000.0000   2000.0000    130.5553     77.5453
   761.5000   2000.0000   2000.0000    129.6032     79.9861
   761.7500   2000.0000   2000.0000    130.6592     81.7341
   762.0000   2000.0000   2000.0000    134.5449     83.9133
   762.2500   2000.0000   2000.0000    143.4749     84.8756
   762.5000   2000.0000   2000.0000    160.1014     85.5789
   762.7500   2000.0000   2000.0000    186.1584     85.7051
   763.0000   2000.0000   2000.0000    219.5448     85.8158
   763.2500   2000.0000   2000.0000    250.4958     86.0642
   763.5000   2000.0000   2000.0000    264.5012     86.7003
   763.7500   2000.0000   2000.0000    254.7807     87.0407
   764.0000   2000.0000   2000.0000    226.9751     86.9114
   764.2500   2000.0000   2000.0000    192.1352     86.3075
   764.5000   2000.0000   2000.0000    159.9099     85.0506
   764.7500   2000.0000   2000.0000    135.2542     84.4920
   765.0000   2000.0000   2000.0000    118.8034     84.7986
   765.2500   2000.0000   2000.0000    109.1083     85.6532
   765.5000   2000.0000   2000.0000    104.2633     86.6995
   765.7500   2000.0000   2000.0000    102.4093     86.4570
   766.0000   2000.0000   2000.0000    101.7090     84.1527
   766.2500   2000.0000   2000.0000    100.4594     81.4767
   766.5000   2000.0000   2000.0000     97.6454     76.4378
   766.7500   2000.0000   2000.0000     93.5068     73.0460
   767.0000   2000.0000   2000.0000     89.2139     69.1644
   767.2500   2000.0000   2000.0000     85.9427     67.5992
   767.5000   2000.0000   2000.0000     84.2379     65.5576
   767.7500   2000.0000   2000.0000     83.9799     63.2686
   768.0000   2000.0000   2000.0000     84.6558     57.7028
   768.2500   2000.0000   2000.0000     85.7241     53.2664
   768.5000   2000.0000   2000.0000     86.8942     47.5730
   768.7500   2000.0000   2000.0000     88.1187     45.1824
   769.0000   2000.0000   2000.0000     89.3292     43.4928
   769.2500   2000.0000   2000.0000     90.1752     42.8835
   769.5000   2000.0000   2000.0000     90.0757     41.4680
   769.7500   2000.0000   2000.0000     88.5761     39.9296
   770.0000   2000.0000   2000.0000     85.7177     37.3348
   770.2500   2000.0000   2000.0000     81.9630     36.0758
   770.5000   2000.0000   2000.0000     77.7983     35.6222
   770.7500   2000.0000   2000.0000     73.5398     36.1732
   771.0000   2000.0000   2000.0000     69.5745     37.5326
   771.2500   2000.0000   2000.0000     66.5765     38.4344
   771.5000   2000.0000   2000.0000     65.4039     39.6227
   771.7500   2000.0000   2000.0000     66.7536     40.3606
   772.0000   2000.0000   2000.0000     70.8683     41.5132
   772.2500   2000.0000   2000.0000     77.2478     42.4261
   772.5000   2000.0000   2000.0000     84.4429     44.2372
   772.7500   2000.0000   2000.0000     90.5074     45.7233
   773.0000   2000.0000   2000.0000     94.2987     47.8750
   773.2500   2000.0000   2000.0000     96.2533     48.8657
   773.5000   2000.0000   2000.0000     97.6256     49.3886
   773.7500   2000.0000   2000.0000     99.3125     49.1790
   774.0000   2000.0000   2000.0000    101.5664     48.1967
   774.2500   2000.0000   2000.0000    104.5337     47.1046
   774.5000   2000.0000   2000.0000    108.8216     44.9342
   774.7500   2000.0000   2000.0000    115.2620     43.3741
   775.0000   2000.0000   2000.0000    123.8899     41.3789
   775.2500   2000.0000   2000.0000    132.6917     40.4609
   775.5000   2000.0000   2000.0000    137.6367     39.7131
   775.7500   2000.0000   2000.0000    135.6874     39.5657
