~Version Information
 VERS.                                  2.0 : CWLS LAS VERSION
 WRAP.                                   NO : WRAPING MODE
 SWARE .                 MController 2.5.0J : SOFTWARE VERSION
~Well Information
 WELL.                         Leier 17-24V : WELL
 COMP.                Petrogulf Corporation : COMPANY
 FLD.                      Purgatoire River : FIELD
 LOC.                SE/NE Sec 17 T33S R67W : LOCATION
 DATE.                             09/21/05 : DATE(S) LOGGED
 SRVC.       BLANCO Geological Services LLC : SERVICE COMPANY
 STAT.                                   CO : STATE
 CNTY.                           Las Animas : COUNTY
 CTRY.                                  USA : COUNTRY
 API.                       05-071-08409-00 : API NUMBER
 STRT.FT                             1.00 : START DEPTH
 STOP.FT                            2455.00 : STOP DEPTH
 STEP.FT                               1.00 : DEPTH INCREMENT
 NULL.                                -9999 : NULL VALUE
~Curve information
 DEPTH.FT                                   :
 ROP.MIN/FT                                 :
 GAS.UNITS                                  :
~ASCII Log data
# ...
      1796.0         3.68         45.9 
      1797.0         0.40         26.3 
      1798.0         0.22         27.3 
      1799.0         0.13         29.7 
      1800.0         0.30         30.6 
      1801.0         0.27         29.6 
      1802.0         0.33         28.0 
      1803.0         0.37         28.1 
      1804.0         0.30         28.1 
      1805.0         0.33         27.1 
      1806.0         0.27         25.0 
      1807.0         0.27         23.7 
      1808.0         0.23         23.1 
      1809.0         0.27         22.6 
      1810.0         0.22         22.1 
      1811.0         0.23         21.6 
      1812.0         0.23         21.5 
      1813.0         0.23         21.4 
      1814.0         0.23         21.2 
      1815.0         0.17         21.8 
      1816.0         0.23         22.1 
      1817.0         0.23         22.3 
      1818.0         0.23         22.2 
      1819.0         0.23         21.8 
      1820.0         0.23         21.6 
      1821.0         0.23         21.3 
      1822.0         0.20         20.5 
      1823.0         0.27         20.8 
      1824.0         0.28         20.8 
      1825.0         0.30         20.5 
      1826.0         3.62         50.0 
      1827.0         0.37         27.8 
      1828.0         0.30         25.9 
      1829.0         0.30         25.4 
      1830.0         0.43         25.0 
      1831.0         0.47         23.7 
      1832.0         0.30         23.1 
      1833.0         0.30         22.8 
      1834.0         0.32         22.2 
      1835.0         0.33         21.6 
      1836.0         0.27         21.1 
      1837.0         0.27         20.7 
      1838.0         0.27         20.7 
      1839.0         0.27         20.5 
      1840.0         0.27         20.4 
      1841.0         0.27         20.4 
      1842.0         0.23         20.3 
      1843.0         0.20         20.2 
      1844.0         0.23         19.9 
      1845.0         0.23         19.7 
      1846.0         0.22         19.8 
      1847.0         0.20         19.4 
      1848.0         0.23         19.4 
      1849.0         0.27         19.5 
      1850.0         0.20         19.5 
      1851.0         0.20         19.5 
      1852.0         0.23         19.2 
      1853.0         0.20         19.3 
      1854.0         0.23         19.6 
      1855.0         0.30         19.3 
      1856.0         2.98         48.5 
      1857.0         0.47         48.0 
      1858.0         0.33         39.5 
      1859.0         0.38         33.2 
      1860.0         0.37         28.5 
      1861.0         0.37         26.2 
      1862.0         0.30         24.8 
      1863.0         0.23         25.5 
      1864.0         0.23         25.7 
      1865.0         0.33         25.9 
      1866.0         0.30         24.7 
      1867.0         0.27         32.8 
      1868.0         0.25         71.0 
      1869.0         0.20         86.1 
      1870.0         0.20         87.5 
      1871.0         0.23         84.2 
      1872.0         0.23         72.6 
      1873.0         0.20         60.6 
      1874.0         0.27         52.1 
      1875.0         0.27         46.2 
      1876.0         0.20         41.0 
      1877.0         0.20         37.5 
      1878.0         0.23         36.3 
      1879.0         0.20         35.4 
      1880.0         0.17         34.5 
      1881.0         0.25         33.3 
      1882.0         0.27         32.6 
      1883.0         0.27         32.0 
      1884.0         0.23         30.6 
      1885.0         0.23         28.8 
      1886.0         4.70         92.4 
      1887.0         0.27         41.6 
      1888.0         0.20         42.5 
      1889.0         0.30         42.3 
      1890.0         0.40         41.5 
      1891.0         0.37         40.7 
      1892.0         0.30         39.1 
      1893.0         0.17         36.9 
      1894.0         0.27         35.8 
      1895.0         0.27         34.4 
      1896.0         0.33         33.5 
      1897.0         0.25         32.3 
      1898.0         0.27         30.8 
      1899.0         0.40         30.4 
      1900.0         0.20         29.5 
      1901.0         0.23         29.6 
      1902.0         0.23         29.4 
      1903.0         0.23         29.3 
      1904.0         0.17         29.1 
      1905.0         0.20         30.7 
      1906.0         0.30         33.8 
      1907.0         0.33         35.3 
      1908.0         0.33         35.8 
      1909.0         0.18         36.0 
      1910.0         0.23         35.8 
      1911.0         0.20         36.2 
      1912.0         0.23         36.2 
      1913.0         0.20         36.4 
      1914.0         0.20         36.1 
      1915.0         0.40         35.2 
      1916.0         4.90         63.7 
      1917.0         0.30         53.8 
      1918.0         0.30         60.8 
      1919.0         0.30         63.8 
      1920.0         0.63         82.9 
      1921.0         0.43         82.2 
      1922.0         0.25         74.5 
      1923.0         0.23         65.9 
      1924.0         0.23         58.2 
      1925.0         0.27         53.1 
      1926.0         0.20         48.1 
      1927.0         0.13         44.9 
      1928.0         0.17         43.0 
      1929.0         0.20         40.2 
      1930.0         0.23         39.5 
      1931.0         0.23         38.2 
      1932.0         0.30         37.6 
      1933.0         0.27         37.6 
      1934.0         0.27         37.3 
      1935.0         0.27         37.3 
      1936.0         0.22         36.5 
      1937.0         0.20         35.5 
      1938.0         0.23         34.9 
      1939.0         0.17         34.4 
      1940.0         0.23         34.3 
      1941.0         0.17         34.2 
      1942.0         0.20         34.3 
      1943.0         0.23         34.3 
      1944.0         0.23         34.2 
      1945.0         0.30         33.1 
      1946.0         4.63         80.0 
      1947.0         0.30         54.5 
      1948.0         0.37         59.7 
      1949.0         0.53         61.3 
      1950.0         0.27         61.1 
      1951.0         0.27         57.4 
      1952.0         0.30         52.9 
      1953.0         0.22         49.4 
      1954.0         0.23         46.9 
      1955.0         0.23         45.8 
      1956.0         0.27         44.7 
      1957.0         0.57         44.0 
      1958.0         0.50         36.6 
      1959.0         0.53         36.5 
      1960.0         0.55         48.1 
      1961.0         0.53         62.1 
      1962.0         0.50         77.0 
      1963.0         0.50         87.1 
      1964.0         0.50         93.5 
      1965.0         0.57         93.6 
      1966.0         0.62         92.6 
      1967.0         0.77         87.3 
      1968.0         0.77         80.8 
      1969.0         0.90         75.1 
      1970.0         0.50         72.7 
      1971.0         0.45         74.2 
      1972.0         0.37         73.9 
      1973.0         0.43         72.0 
      1974.0         0.47         69.9 
      1975.0         0.50         68.3 
      1976.0         4.77        126.9 
      1977.0         0.40         98.6 
      1978.0         0.40        101.4 
      1979.0         0.47        100.7 
      1980.0         0.40         95.5 
      1981.0         0.37         93.6 
      1982.0         0.42         90.8 
      1983.0         0.40         85.0 
      1984.0         0.13         78.0 
      1985.0         0.17         75.0 
      1986.0         0.17         71.9 
      1987.0         0.20         69.9 
      1988.0         0.20         69.0 
      1989.0         0.27         68.2 
      1990.0         0.23         67.3 
      1991.0         0.27         66.1 
      1992.0         0.27         64.5 
      1993.0         0.28         63.2 
      1994.0         0.33         61.9 
      1995.0         0.37         60.8 
