~Version Information
 VERS.                      2.0: CWLS Log ASCII Standard - VERSION 2.0
 WRAP.                       NO: One line per depth step
 ~Well Information Block
 STRT.FT               462.4000: 
 STOP.FT              2260.5000: 
 STEP.FT                 0.1000: 
 NULL.                -999.2500: 
 COMP.          Petrogulf Corporation: COMPANY
 WELL.             McLeod 9-42V: WELL
 FLD.           Purgatorie River: FIELD
 LOC.           1658' FNL & 415' FEL: LOCATION
 CNTY.               Las Animas: COUNTY
 SRVC.                         : SERVICE COMPANY
 DATE.          Fri Nov 12 10:12:24 2004: LOG DATE
 UWI.           05 071 08071 00: UNIQUE WELL ID
 STAT.                 Colorado: STATE
 PROV.                         :Province
 ~Curve Information Block
 DEPT.FT            0 000 00 00: Depth
 DCAL.in                       : CDL Caliper
 RHOB.g/cc                     : CDL Bulk Density
 RHOC.g/cc                     : CDL Density Correction
 DPOR.pu                       : CDL Density Porosity
 GR.GAPI                       : Gamma Ray
 NPOR.pu                       : Neutron Porosity
 ~Parameter Information Block
 ~A  Depth       DCAL        RHOB        RHOC        DPOR         GR         NPOR    
# ...
   472.0000   -999.2500   -999.2500   -999.2500   -999.2500     43.1668     43.3129
   472.1000   -999.2500   -999.2500   -999.2500   -999.2500     43.9300     43.0215
   472.2000   -999.2500   -999.2500   -999.2500   -999.2500     45.1102     42.9610
   472.3000   -999.2500   -999.2500   -999.2500   -999.2500     46.8883     43.3113
   472.4000   -999.2500   -999.2500   -999.2500   -999.2500     48.2519     43.7332
   472.5000   -999.2500   -999.2500   -999.2500   -999.2500     48.3111     43.9524
   472.6000   -999.2500   -999.2500   -999.2500   -999.2500     48.4844     43.9923
   472.7000   -999.2500   -999.2500   -999.2500   -999.2500     50.9238     43.8865
   472.8000   -999.2500   -999.2500   -999.2500   -999.2500     55.3792     43.7912
   472.9000   -999.2500   -999.2500   -999.2500   -999.2500     59.9197     43.9105
   473.0000   -999.2500   -999.2500   -999.2500   -999.2500     63.0109     44.2886
   473.1000   -999.2500   -999.2500   -999.2500   -999.2500     63.8317     44.6889
   473.2000   -999.2500   -999.2500   -999.2500   -999.2500     63.3378     44.7007
   473.3000   -999.2500   -999.2500   -999.2500   -999.2500     64.4873     44.4096
   473.4000   -999.2500   -999.2500   -999.2500   -999.2500     67.1474     44.2583
   473.5000   -999.2500   -999.2500   -999.2500   -999.2500     67.5666     44.3157
   473.6000   -999.2500   -999.2500   -999.2500   -999.2500     64.9273     44.3707
   473.7000   -999.2500   -999.2500   -999.2500   -999.2500     62.7514     44.4230
   473.8000   -999.2500   -999.2500   -999.2500   -999.2500     62.6694     44.6199
   473.9000   -999.2500   -999.2500   -999.2500   -999.2500     63.5273     44.7899
   474.0000   -999.2500   -999.2500   -999.2500   -999.2500     64.8973     44.7222
   474.1000   -999.2500   -999.2500   -999.2500   -999.2500     65.7058     44.7461
   474.2000   -999.2500   -999.2500   -999.2500   -999.2500     66.5618     45.0593
   474.3000   -999.2500   -999.2500   -999.2500   -999.2500     69.7881     45.3743
   474.4000   -999.2500   -999.2500   -999.2500   -999.2500     73.0430     45.7112
   474.5000   -999.2500   -999.2500   -999.2500   -999.2500     72.7516     46.1052
   474.6000   -999.2500   -999.2500   -999.2500   -999.2500     70.3331     46.3117
   474.7000   -999.2500   -999.2500   -999.2500   -999.2500     70.1621     46.4096
   474.8000   -999.2500   -999.2500   -999.2500   -999.2500     74.2210     46.7353
   474.9000   -999.2500   -999.2500   -999.2500   -999.2500     79.6009     47.2178
   475.0000   -999.2500   -999.2500   -999.2500   -999.2500     83.5317     47.5306
   475.1000   -999.2500   -999.2500   -999.2500   -999.2500     87.1555     47.6689
   475.2000   -999.2500   -999.2500   -999.2500   -999.2500     90.7079     47.7900
   475.3000   -999.2500   -999.2500   -999.2500   -999.2500     92.9011     47.8840
   475.4000   -999.2500   -999.2500   -999.2500   -999.2500     93.9340     48.0038
   475.5000   -999.2500   -999.2500   -999.2500   -999.2500     95.5333     48.2648
   475.6000   -999.2500   -999.2500   -999.2500   -999.2500     99.8074     48.6137
   475.7000   -999.2500   -999.2500   -999.2500   -999.2500    106.1924     48.8597
   475.8000   -999.2500   -999.2500   -999.2500   -999.2500    111.7326     48.9594
   475.9000   -999.2500   -999.2500   -999.2500   -999.2500    115.3484     49.0424
   476.0000   -999.2500   -999.2500   -999.2500   -999.2500    117.9009     49.1105
   476.1000   -999.2500   -999.2500   -999.2500   -999.2500    121.8847     49.0558
   476.2000   -999.2500   -999.2500   -999.2500   -999.2500    127.1104     48.9405
   476.3000   -999.2500   -999.2500   -999.2500   -999.2500    129.6876     49.0150
   476.4000   -999.2500   -999.2500   -999.2500   -999.2500    130.2563     49.2765
   476.5000   -999.2500   -999.2500   -999.2500   -999.2500    132.4079     49.3858
   476.6000   -999.2500   -999.2500   -999.2500   -999.2500    135.7694     49.1150
   476.7000   -999.2500   -999.2500   -999.2500   -999.2500    137.2735     48.5779
   476.8000     18.1384   -999.2500     -0.5370   -999.2500    136.0287     48.1231
   476.9000     18.1384   -999.2500     -0.4871   -999.2500    133.3832     48.1042
   477.0000     18.1379   -999.2500     -0.4987   -999.2500    129.0479     48.5206
   477.1000     18.1379   -999.2500     -0.4529   -999.2500    124.1865     48.9401
   477.2000     18.1379   -999.2500     -0.4614   -999.2500    121.1642     49.1557
   477.3000     18.1353      2.2132     -0.4915     26.4719    119.9804     49.2392
   477.4000     18.1353      2.2292     -0.4449     25.5010    119.1755     49.2126
   477.5000     18.1321      2.2451     -0.4533     24.5387    117.3909     49.2567
   477.6000     18.1321      2.2588     -0.4496     23.7108    114.9358     49.4956
   477.7000     18.1321      2.2858     -0.5278     22.0737    111.7558     49.6414
   477.8000     18.1339      2.3322     -0.4276     19.2592    107.3744     49.5783
   477.9000     18.1339      2.3707     -0.4103     16.9248    102.4605     49.6273
   478.0000     18.1356      2.3808     -0.4573     16.3143     98.0323     49.7886
   478.1000     18.1356      2.3820     -0.4283     16.2423     95.8349     49.6840
   478.2000     18.1356      2.3967     -0.4111     15.3521     94.7149     49.2436
   478.3000     18.1379      2.4146     -0.3840     14.2662     91.6950     48.6855
   478.4000     18.1379      2.4159     -0.4266     14.1872     87.6524     48.2755
   478.5000     18.1380      2.4021     -0.4173     15.0219     86.6216     48.0809
   478.6000     18.1380      2.3858     -0.4120     16.0145     88.9239     47.9383
   478.7000     18.1380      2.3696     -0.4380     16.9956     90.5995     47.6728
   478.8000     18.1375      2.3465     -0.4009     18.3962     92.0099     47.3061
   478.9000     18.1375      2.3264     -0.4743     19.6124     94.5587     47.1369
   479.0000     18.1413      2.3352     -0.4537     19.0773     95.0369     47.3527
   479.1000     18.1413      2.3667     -0.3759     17.1708     92.7372     47.7478
   479.2000     18.1413      2.3836     -0.3865     16.1448     90.3470     48.0060
   479.3000     18.1395      2.3767     -0.4556     16.5640     88.9721     48.0230
   479.4000     18.1395      2.3678     -0.4410     17.1034     89.4044     48.0311
   479.5000     18.1369      2.3601     -0.3720     17.5679     92.1698     48.2452
   479.6000     18.1369      2.3446     -0.4109     18.5104     95.5851     48.4148
   479.7000     18.1369      2.3309     -0.4474     19.3374     97.4264     48.3846
   479.8000     18.1356      2.3247     -0.3910     19.7144     97.2349     48.4085
   479.9000     18.1356      2.3176     -0.4675     20.1473     96.6634     48.4930
   480.0000     18.1354      2.3168     -0.4928     20.1964     97.9757     48.5342
   480.1000     18.1354      2.3324     -0.4724     19.2498    102.6560     48.5973
   480.2000     18.1354      2.3511     -0.4452     18.1125    108.3105     48.5706
   480.3000     18.1354      2.3546     -0.4034     17.9049    109.7226     48.4046
   480.4000     18.1354      2.3392     -0.4019     18.8355    106.2836     48.2897
   480.5000     18.1356      2.3187     -0.4582     20.0806    101.0560     48.2652
   480.6000     18.1356      2.3244     -0.5581     19.7319     96.6996     48.2416
   480.7000     18.1356      2.3640     -0.4222     17.3359     94.7120     48.3420
   480.8000     18.1369      2.3869     -0.3450     15.9478     94.4093     48.6083
   480.9000     18.1369      2.3516     -0.4140     18.0872     93.8554     48.9303
   481.0000     18.1388      2.2916     -0.5217     21.7183     92.8953     49.2848
   481.1000     18.1388      2.2611     -0.4874     23.5686     92.5597     49.5298
   481.2000     18.1388      2.2665     -0.4858     23.2415     93.3962     49.5169
   481.3000     18.1354      2.2854     -0.4029     22.0953     96.6374     49.3358
   481.4000     18.1354      2.3059     -0.4854     20.8524    100.4387     49.0901
   481.5000     18.1318      2.3369     -0.4395     18.9742    100.8348     48.8573
