~Version Information
 VERS.                                  2.0 : CWLS LAS VERSION
 WRAP.                                   NO : WRAPING MODE
 SWARE .                 MController 2.5.0E : SOFTWARE VERSION
~Well Information
 WELL.                                  N/A : WELL
 COMP.                                  N/A : COMPANY
 FLD.                                   N/A : FIELD
 LOC.                                   N/A : LOCATION
 DATE.                                  N/A : DATE(S) LOGGED
 SRVC.                                  N/A : SERVICE COMPANY
 STAT.                                  N/A : STATE
 CNTY.                                  N/A : COUNTY
 CTRY.                                  N/A : COUNTRY
 API.                                   N/A : API NUMBER
 STRT.FT                              94.00 : START DEPTH
 STOP.FT                            1931.00 : STOP DEPTH
 STEP.FT                               1.00 : DEPTH INCREMENT
 NULL.                                -9999 : NULL VALUE
~Curve information
 DEPTH.FT                                   :
 ROP.MIN/FT                                 :
 GAS.UNITS                                  :
~ASCII Log data
# ...
     1494.00        0.233        108.8 
     1495.00        0.267        107.6 
     1496.00        5.267        440.3 
     1497.00        0.600        224.2 
     1498.00        0.367        222.0 
     1499.00        0.367        209.6 
     1500.00        0.333        195.4 
     1501.00        0.300        188.1 
     1502.00        0.333        170.6 
     1503.00        0.300        166.8 
     1504.00        0.200        154.9 
     1505.00        0.250        150.2 
     1506.00        0.233        140.4 
     1507.00        0.233        137.2 
     1508.00        0.200        137.2 
     1509.00        0.167        135.6 
     1510.00        0.200        134.5 
     1511.00        0.233        134.0 
     1512.00        0.233        133.8 
     1513.00        0.267        134.0 
     1514.00        0.200        133.7 
     1515.00        0.200        132.1 
     1516.00        0.233        130.1 
     1517.00        0.267        123.1 
     1518.00        0.483        121.2 
     1519.00        0.267        120.9 
     1520.00        0.267        121.6 
     1521.00        0.200        120.1 
     1522.00        0.133        120.1 
     1523.00        0.267        112.8 
     1524.00        0.200        108.1 
     1525.00        0.133        100.9 
     1526.00        7.467       1104.8 
     1527.00        0.133        471.1 
     1528.00        0.533        475.6 
     1529.00        0.400        450.8 
     1530.00        0.383        440.0 
     1531.00        0.333        190.7 
     1532.00        0.267        182.4 
     1533.00        0.233        181.4 
     1534.00        0.267        169.4 
     1535.00        0.300        168.7 
     1536.00        0.267        162.6 
     1537.00        0.267        151.7 
     1538.00        0.233        146.6 
     1539.00        0.233        146.0 
     1540.00        0.267        142.2 
     1541.00        0.267        141.6 
     1542.00        0.283        137.2 
     1543.00        0.300        132.7 
     1544.00        0.300        129.5 
     1545.00        0.267        126.8 
     1546.00        0.267        125.0 
     1547.00        0.267        125.0 
     1548.00        0.333        123.9 
     1549.00        0.367        122.7 
     1550.00        0.367        120.7 
     1551.00        0.333        119.5 
     1552.00        0.300        118.4 
     1553.00        0.317        116.9 
     1554.00        0.300        111.6 
     1555.00        0.267        105.5 
     1556.00        4.750        943.4 
     1557.00        0.300        488.0 
     1558.00        0.300        457.0 
     1559.00        0.367        450.4 
     1560.00        0.450        200.0 
     1561.00        0.367        179.6 
     1562.00        0.333        169.4 
     1563.00        0.400        166.3 
     1564.00        0.233        161.6 
     1565.00        0.267        157.6 
     1566.00        0.267        154.3 
     1567.00        0.267        145.9 
     1568.00        0.267        145.2 
     1569.00        0.300        142.7 
     1570.00        0.267        136.2 
     1571.00        0.250        131.9 
     1572.00        0.233        130.4 
     1573.00        0.233        126.1 
     1574.00        0.200        124.0 
     1575.00        0.233        121.0 
     1576.00        0.267        118.7 
     1577.00        0.267        117.1 
     1578.00        0.200        115.5 
     1579.00        0.200        113.7 
     1580.00        0.233        112.0 
     1581.00        0.267        111.3 
     1582.00        0.233        111.5 
     1583.00        0.200        107.6 
     1584.00        0.200        107.6 
     1585.00        0.283        105.3 
     1586.00        4.317        240.6 
     1587.00        0.300        242.1 
     1588.00        0.333        234.3 
     1589.00        0.433        223.8 
     1590.00        0.433        203.9 
     1591.00        0.433        202.1 
     1592.00        0.383        181.7 
     1593.00        0.333        175.2 
     1594.00        0.300        163.8 
     1595.00        0.200        155.5 
     1596.00        0.200        151.9 
     1597.00        0.200        147.6 
     1598.00        0.333        142.9 
     1599.00        0.400        141.8 
     1600.00        0.333        134.7 
     1601.00        0.167        133.2 
     1602.00        0.367        132.7 
     1603.00        0.333        128.9 
     1604.00        0.217        128.0 
     1605.00        0.233        127.6 
     1606.00        0.267        126.0 
     1607.00        0.300        124.7 
     1608.00        0.367        119.9 
     1609.00        0.333        118.2 
     1610.00        0.167        117.3 
     1611.00        0.267        116.5 
     1612.00        0.233        114.6 
     1613.00        0.233        107.1 
     1614.00        0.267        103.1 
     1615.00        0.233         94.3 
     1616.00        4.700        236.4 
     1617.00        0.467        229.5 
     1618.00        0.333        226.5 
     1619.00        0.333        225.6 
     1620.00        0.400        215.1 
     1621.00        0.367        187.8 
     1622.00        0.400        177.5 
     1623.00        0.283        164.4 
     1624.00        0.400        152.9 
     1625.00        0.300        144.7 
     1626.00        0.300        137.0 
     1627.00        0.300        132.9 
     1628.00        0.267        128.5 
     1629.00        0.233        128.5 
     1630.00        0.267        126.3 
     1631.00        0.300        123.9 
     1632.00        0.333        124.2 
     1633.00        0.300        120.1 
     1634.00        0.350        120.9 
     1635.00        0.433        119.3 
     1636.00        0.300        116.8 
     1637.00        0.267        117.4 
     1638.00        0.267        117.6 
     1639.00        0.333        117.8 
     1640.00        0.500        117.3 
     1641.00        0.367        114.6 
     1642.00        0.333        111.8 
     1643.00        0.300        106.6 
     1644.00        0.283         98.8 
     1645.00        0.300         95.5 
     1646.00        4.250        233.8 
     1647.00        0.267        220.5 
     1648.00        0.433        213.5 
     1649.00        0.300        207.6 
     1650.00        0.233        204.4 
     1651.00        0.333        203.9 
     1652.00        0.383        189.0 
     1653.00        0.367        182.9 
     1654.00        0.267        166.0 
     1655.00        0.267        163.6 
     1656.00        0.267        149.4 
     1657.00        0.267        144.3 
     1658.00        0.233        137.8 
     1659.00        0.233        134.3 
     1660.00        0.233        133.8 
     1661.00        0.233        128.8 
     1662.00        0.200        125.1 
     1663.00        0.267        122.5 
     1664.00        0.200        120.5 
     1665.00        0.233        119.3 
     1666.00        0.250        118.2 
     1667.00        0.200        115.2 
     1668.00        0.333        111.7 
     1669.00        0.300        111.4 
     1670.00        0.233        113.5 
     1671.00        0.200        116.2 
     1672.00        0.233        117.1 
     1673.00        0.200        112.4 
     1674.00        0.200        112.4 
     1675.00        0.267        105.6 
     1676.00        5.433        884.9 
     1677.00        0.500        498.3 
     1678.00        0.233        492.4 
     1679.00        0.233        483.8 
     1680.00        0.367        468.7 
     1681.00        0.367        440.0 
     1682.00        0.367        194.3 
     1683.00        0.350        181.1 
     1684.00        0.267        170.8 
     1685.00        0.267        158.5 
     1686.00        0.267        157.0 
     1687.00        0.200        150.3 
     1688.00        0.200        144.9 
     1689.00        0.200        144.2 
     1690.00        0.233        139.7 
     1691.00        0.300        134.7 
     1692.00        0.300        130.4 
     1693.00        0.267        126.8 
