~Version Information
VERS.                      2.0: CWLS Log ASCII Standard - VERSION 2.0
WRAP.                       NO: One line per depth step
~Well Information Block
STRT.FT               840.0000: 
STOP.FT              2448.5000: 
STEP.FT                 0.2500: 
NULL.                -999.2500: 
COMP.          Petrogulf Corporation: COMPANY
WELL.             Leier 17-42V: WELL
FLD.           Purgatorie River: FIELD
LOC.           2309' FNL & 1062' FEL SENE 17 33S 67W: LOCATION
PROV.                 Colorado: PROVINCE
CNTY.               Las Animas: COUNTRY
SRVC.                Patterson: SERVICE COMPANY
DATE.          Thu Sep 22 09:40:29 2005: LOG DATE
UWI.                 071 08409: UNIQUE WELL ID
~Curve Information Block
DEPT.FT            0 000 00 00: Depth
SP.mV                         : DIL Spontaneous Potential
RILD.Ohm-m                    : DIL Deep Resistivity
RILM.Ohm-m                    : DIL Medium Resistivity
RLL3.Ohm-m                    : DIL Shallow Resistivity
GR.GAPI                       : Gamma Ray
~Parameter Information Block
~A  Depth        SP         RILD        RILM        RLL3         GR     
# ...
  1260.0000    204.2971     11.3371     11.6678     13.1500    174.0052
  1260.2500    204.1925     11.4430     11.8128     13.0765    180.3148
  1260.5000    204.0296     11.3587     11.9240     13.5161    163.6983
  1260.7500    203.8112     11.4187     11.9486     14.5148    185.2229
  1261.0000    203.4885     11.4340     12.1002     15.6837    197.9778
  1261.2500    203.1187     11.5500     12.2861     15.6102    177.8985
  1261.5000    202.8195     11.5596     12.3544     14.8009    166.4438
  1261.7500    202.6038     11.6834     12.2980     14.5361    156.9547
  1262.0000    202.3232     11.6973     12.4585     14.7508    148.9825
  1262.2500    202.1068     11.7494     12.4794     14.8952    153.9715
  1262.5000    201.9426     11.7887     12.5927     15.2056    156.6329
  1262.7500    201.8958     11.8173     12.5774     15.4203    155.8900
  1263.0000    201.9554     11.9214     12.6775     14.9947    171.9889
  1263.2500    202.0224     11.9131     12.5865     14.4001    171.5208
  1263.5000    202.1224     11.8087     12.6180     14.3460    155.4462
  1263.7500    202.3683     11.8421     12.5015     14.7786    164.1109
  1264.0000    202.6269     11.6950     12.3955     14.9248    159.4201
  1264.2500    202.8303     11.5448     12.1152     14.6859    152.8929
  1264.5000    202.9869     11.4067     11.8832     14.0948    137.2275
  1264.7500    203.0970     11.3355     11.7352     13.1290    136.2528
  1265.0000    203.0726     11.2574     11.5754     12.0161    173.3004
  1265.2500    202.7432     10.8666     11.5425     11.8821    175.8701
  1265.5000    202.2165     10.6974     11.3933     12.5308    152.3055
  1265.7500    201.4770     10.3838     11.1378     13.2908    165.9836
  1266.0000    200.5662     10.1872     10.8737     13.8628    157.3277
  1266.2500    199.6918      9.9493     10.3991     13.7495    166.7285
  1266.5000    198.6744      9.7099      9.9485     12.8406    133.4061
  1266.7500    197.6765      9.4748      9.5114     11.5633    137.1178
  1267.0000    196.7147      9.3947      9.1630      9.8064    123.6406
  1267.2500    195.7382      9.2573      8.8127      9.2299    116.8915
  1267.5000    194.8832      9.0886      8.6682      9.4039    120.0286
  1267.7500    194.0698      8.9930      8.5844     10.0144    128.0163
  1268.0000    193.2598      8.9178      8.4457     10.5179    110.1873
  1268.2500    192.6860      8.9149      8.2484     10.8584    102.9396
  1268.5000    192.3757      8.8585      8.1249     10.4151    115.3790
  1268.7500    192.1425      8.7964      8.0147      9.7911    136.6629
  1269.0000    191.9951      8.7892      8.0086      9.1983    146.9047
  1269.2500    191.9241      8.8067      8.0783      9.0272    158.2831
  1269.5000    191.8714      8.8233      8.2027      9.7738    133.7093
  1269.7500    191.7701      8.8008      8.3830     10.8494    116.1655
  1270.0000    191.5402      8.8165      8.6280     11.7322    116.6916
  1270.2500    191.1776      8.8454      8.7489     11.8292    119.6594
  1270.5000    190.7728      8.8679      8.7999     12.0756    116.1193
  1270.7500    190.3310      8.7987      8.7858     12.3022    115.6682
  1271.0000    189.8900      8.9441      8.7636     12.6928    131.1318
  1271.2500    189.3871      9.1412      8.7200     13.2416    134.2486
  1271.5000    188.8895      9.4823      8.6448     13.4464    139.2043
  1271.7500    188.4470      9.8225      8.5952     11.7666    149.4912
  1272.0000    188.0285     10.1637      8.7498      9.8067    160.5172
  1272.2500    187.4894     10.5865      8.8955      9.1408    148.7809
  1272.5000    186.6725     10.9867      9.3119      9.6274    147.2303
  1272.7500    185.9382     11.5025      9.9694     10.4855    130.9535
  1273.0000    185.3170     11.9510     10.7361     11.5883    146.1236
  1273.2500    184.7689     12.3806     11.6835     14.2200    154.2602
  1273.5000    184.4048     12.6804     12.8759     20.8253    146.9239
  1273.7500    184.0793     13.1086     13.9398     27.0936    121.6137
  1274.0000    183.9035     13.6010     14.8330     27.1716    119.7271
  1274.2500    183.6827     14.3091     16.0051     27.5216    112.8978
  1274.5000    183.3718     15.2498     17.4262     29.3020    112.2235
  1274.7500    182.9333     16.3096     18.3328     39.2399    104.1024
  1275.0000    182.5768     17.8008     19.4643     56.8288     90.8688
  1275.2500    182.3687     19.3270     20.5449     45.1705    107.6370
  1275.5000    182.0811     20.7951     22.3742     28.9543    105.3212
  1275.7500    181.7853     22.6919     24.5001     26.6035     95.6133
  1276.0000    181.4966     24.4758     27.3960     32.2258     97.4280
  1276.2500    181.3923     26.1263     30.6277     45.5654     95.8576
  1276.5000    181.5814     27.8492     34.8087     76.5855     93.0124
  1276.7500    181.9230     28.5750     39.8921    133.6035     94.0842
  1277.0000    182.4222     28.4788     44.8988    175.2540     84.6969
  1277.2500    183.0994     28.8878     48.3058    184.1353     55.0212
  1277.5000    183.8207     29.3489     51.9253    185.0612     57.7519
  1277.7500    184.5698     29.2918     54.4145    187.2402     62.6120
  1278.0000    185.4779     29.5155     52.1715    194.0342     36.0604
  1278.2500    186.6660     30.5720     53.9706    203.9649     32.6279
  1278.5000    188.2815     31.1104     56.1621    205.8762     38.0140
  1278.7500    189.9935     30.9751     54.4713    182.9237     37.1972
  1279.0000    191.8417     30.3649     49.6758    143.1272     27.2623
  1279.2500    193.4968     30.3446     43.9048    100.8334     36.3572
  1279.5000    194.9288     29.2040     38.6074     63.5233     37.2995
  1279.7500    196.3203     30.0622     34.6258     38.0989     36.6169
  1280.0000    197.3687     29.3350     33.4330     24.2618     61.0461
  1280.2500    198.0646     28.3815     33.3251     22.9079     74.9095
  1280.5000    198.4302     27.3761     32.8621     31.9258     71.6684
  1280.7500    198.6146     25.8359     33.1826     44.6420     82.7480
  1281.0000    198.7794     25.3298     32.4994     45.8598     95.5109
  1281.2500    198.9512     24.9949     30.5801     39.1708    101.2195
  1281.5000    199.2046     24.2619     28.6543     30.4705     95.6364
  1281.7500    199.7333     23.2345     28.2044     24.9987     80.8784
  1282.0000    200.5916     22.6684     27.1787     25.9958     96.4592
  1282.2500    201.6392     22.5375     26.5593     31.2245    107.7736
  1282.5000    202.8882     22.0802     26.5870     30.7889    127.5543
  1282.7500    204.3332     21.3568     27.1152     26.4977    124.9455
  1283.0000    205.7031     20.7508     25.8966     25.6342    119.4094
  1283.2500    207.0187     19.7817     24.8458     26.9560     95.7428
  1283.5000    208.3464     19.3333     24.0555     26.2012    102.9540
  1283.7500    209.3141     18.6305     22.9748     22.5438    102.2428
  1284.0000    210.0079     17.5914     22.0923     20.4566     93.7655
  1284.2500    210.6071     16.9686     21.2899     22.0848     92.3689
  1284.5000    210.9768     15.9810     20.4388     24.5970    116.6848
  1284.7500    211.1884     14.8286     18.8496     22.7457    122.3383
  1285.0000    211.2675     13.9764     16.8406     18.5113    107.4404
  1285.2500    211.2525     13.1725     15.5175     15.7660    121.8403
  1285.5000    211.1148     12.3600     13.9710     14.1352    114.0870
  1285.7500    210.9193     11.6774     12.8025     12.9859    128.1926
  1286.0000    210.7101     11.1280     11.8245     12.0582     96.5856
  1286.2500    210.4619     10.5560     11.0957     11.3726    104.3460
  1286.5000    210.3397     10.0437     10.2241     11.1967    138.1593
  1286.7500    210.2134      9.6260      9.5443     10.9855    120.9765
  1287.0000    210.0683      9.1993      8.9762     10.5565    143.6419
  1287.2500    209.8642      8.9828      8.4197      9.9863    139.6838
  1287.5000    209.7017      8.6545      8.0181      9.4058    146.6247
  1287.7500    209.5362      8.3997      7.8266      8.9259    132.4107
