~Version Information
VERS.                      2.0: CWLS Log ASCII Standard - VERSION 2.0
WRAP.                       NO: One line per depth step
~Well Information Block
STRT.FT               675.0000: 
STOP.FT              2373.5000: 
STEP.FT                 0.2500: 
NULL.                -999.2500: 
COMP.          Pioneer Natural Resources: COMPANY
WELL.            Harrier 44-33: WELL
FLD.           Purgatoire River: FIELD
LOC.           456' FSL & 930' FEL: LOCATION
PROV.                 Colorado: PROVINCE
CNTY.               Las Animas: COUNTRY
SRVC.                Patterson: SERVICE COMPANY
DATE.          Mon Jun 20 07:40:56 2005: LOG DATE
UWI.           05 071 08398 00: UNIQUE WELL ID
~Curve Information Block
DEPT.FT            0 000 00 00: Depth
SN.Ohm-m                      : IEL Short Normal
SP.mV                         : IEL Spontaneous Potential
DIR.Ohm-m                     : IEL Induction Resistivity
GR.GAPI                       : Gamma Ray
~Parameter Information Block
~A  Depth        SN          SP         DIR          GR     
   675.0000   2000.0000   2000.0000      5.2063    127.6448
   675.2500   2000.0000   2000.0000      5.1505    126.1354
   675.5000   2000.0000   2000.0000      5.1396    123.4749
   675.7500   2000.0000   2000.0000      5.1891    121.6932
   676.0000   2000.0000   2000.0000      5.2939    119.1269
   676.2500   2000.0000   2000.0000      5.4308    117.2212
   676.5000   2000.0000   2000.0000      5.5694    113.2505
   676.7500   2000.0000   2000.0000      5.6840    109.6152
   677.0000   2000.0000   2000.0000      5.7615    103.4359
   677.2500   2000.0000   2000.0000      5.7991     99.9023
   677.5000   2000.0000   2000.0000      5.7999     97.2470
   677.7500   2000.0000   2000.0000      5.7698     97.4533
   678.0000   2000.0000   2000.0000      5.7187     99.1859
   678.2500   2000.0000   2000.0000      5.6605     99.8708
   678.5000   2000.0000   2000.0000      5.6070     98.7203
   678.7500   2000.0000   2000.0000      5.5609     96.6670
   679.0000   2000.0000   2000.0000      5.5119     92.8863
   679.2500   2000.0000   2000.0000      5.4441     90.5492
   679.5000   2000.0000   2000.0000      5.3502     88.0410
   679.7500   2000.0000   2000.0000      5.2439     87.2986
   680.0000   2000.0000   2000.0000      5.1557     87.4569
   680.2500   2000.0000   2000.0000      5.1191     87.8294
   680.5000   2000.0000   2000.0000      5.1536     87.5195
   680.7500   2000.0000   2000.0000      5.2564     86.4629
   681.0000   2000.0000   2000.0000      5.3989     84.4707
   681.2500   2000.0000   2000.0000      5.5332     83.8577
   681.5000   2000.0000   2000.0000      5.6097     85.5457
   681.7500   2000.0000   2000.0000      5.6014     88.8853
   682.0000   2000.0000   2000.0000      5.5172     97.1864
   682.2500   2000.0000   2000.0000      5.3927    104.3161
   682.5000   2000.0000   2000.0000      5.2680    115.3698
   682.7500   2000.0000   2000.0000      5.1715    121.6653
   683.0000   2000.0000   2000.0000      5.1156    128.4336
   683.2500   2000.0000   2000.0000      5.1016    131.5430
   683.5000   2000.0000   2000.0000      5.1256    135.6205
   683.7500   2000.0000   2000.0000      5.1828    138.5170
   684.0000   2000.0000   2000.0000      5.2669    142.5566
   684.2500   2000.0000   2000.0000      5.3663    144.0133
   684.5000   2000.0000   2000.0000      5.4613    142.9438
   684.7500   2000.0000   2000.0000      5.5269    140.1911
   685.0000   2000.0000   2000.0000      5.5418    134.7715
   685.2500   2000.0000   2000.0000      5.5018    131.6261
   685.5000   2000.0000   2000.0000      5.4231    129.2825
   685.7500   2000.0000   2000.0000      5.3342    129.6336
   686.0000   2000.0000   2000.0000      5.2611    132.5614
   686.2500   2000.0000   2000.0000      5.2172    135.4897
   686.5000   2000.0000   2000.0000      5.2015    140.0321
   686.7500   2000.0000   2000.0000      5.2024    142.3043
   687.0000   2000.0000   2000.0000      5.2052    143.2271
   687.2500   2000.0000   2000.0000      5.2000    141.8351
   687.5000   2000.0000   2000.0000      5.1867    137.4188
   687.7500   2000.0000   2000.0000      5.1740    133.9223
   688.0000   2000.0000   2000.0000      5.1734    129.2855
   688.2500   2000.0000   2000.0000      5.1928    126.4765
   688.5000   2000.0000   2000.0000      5.2336    120.9063
   688.7500   2000.0000   2000.0000      5.2926    115.3466
   689.0000   2000.0000   2000.0000      5.3667    104.4643
   689.2500   2000.0000   2000.0000      5.4535     96.7060
   689.5000   2000.0000   2000.0000      5.5516     87.2250
   689.7500   2000.0000   2000.0000      5.6616     84.0312
   690.0000   2000.0000   2000.0000      5.7945     85.5872
   690.2500   2000.0000   2000.0000      5.9792     90.3836
   690.5000   2000.0000   2000.0000      6.2606     99.9076
   690.7500   2000.0000   2000.0000      6.6815    105.4388
   691.0000   2000.0000   2000.0000      7.2512    110.2082
   691.2500   2000.0000   2000.0000      7.9117    111.3246
   691.5000   2000.0000   2000.0000      8.5293    112.1640
   691.7500   2000.0000   2000.0000      8.9589    113.4486
   692.0000   2000.0000   2000.0000      9.1526    117.5082
   692.2500   2000.0000   2000.0000      9.1959    121.6925
   692.5000   2000.0000   2000.0000      9.2505    129.7784
   692.7500   2000.0000   2000.0000      9.5174    135.8394
   693.0000   2000.0000   2000.0000     10.3107    144.5815
   693.2500   2000.0000   2000.0000     12.3581    149.4340
   693.5000   2000.0000   2000.0000     18.2260    154.5221
   693.7500   2000.0000   2000.0000     50.1538    156.2307
   694.0000   2000.0000   2000.0000 100000.0000    155.6458
   694.2500   2000.0000   2000.0000 100000.0000    152.5656
   694.5000   2000.0000   2000.0000 100000.0000    143.2975
   694.7500   2000.0000   2000.0000 100000.0000    134.4921
   695.0000   2000.0000   2000.0000 100000.0000    119.7137
   695.2500   2000.0000   2000.0000 100000.0000    110.6462
   695.5000   2000.0000   2000.0000 100000.0000    101.5276
   695.7500   2000.0000   2000.0000 100000.0000    100.3293
   696.0000   2000.0000   2000.0000 100000.0000    107.9408
   696.2500   2000.0000   2000.0000 100000.0000    118.8799
   696.5000   2000.0000   2000.0000 100000.0000    140.1073
   696.7500   2000.0000   2000.0000 100000.0000    154.2068
   697.0000   2000.0000   2000.0000 100000.0000    170.7607
   697.2500   2000.0000   2000.0000 100000.0000    177.5433
   697.5000   2000.0000   2000.0000 100000.0000    181.2870
   697.7500   2000.0000   2000.0000     94.9660    179.8820
   698.0000   2000.0000   2000.0000     10.1053    172.5797
   698.2500   2000.0000   2000.0000      6.6778    164.8008
   698.5000   2000.0000   2000.0000      6.4618    150.6204
   698.7500   2000.0000   2000.0000      7.9458    141.0609
   699.0000   2000.0000   2000.0000     12.2809    128.9714
   699.2500   2000.0000   2000.0000     27.8556    122.9705
   699.5000   2000.0000   2000.0000 100000.0000    116.4735
   699.7500   2000.0000   2000.0000 100000.0000    113.1540
   700.0000   2000.0000   2000.0000 100000.0000    109.0036
   700.2500   2000.0000   2000.0000 100000.0000    106.6964
   700.5000   2000.0000   2000.0000     16.2235    104.0044
   700.7500   2000.0000   2000.0000      5.0323     96.1994
   701.0000   2000.0000   2000.0000      2.4098     95.9730
   701.2500   2000.0000   2000.0000      1.4029     97.4482
   701.5000   2000.0000   2000.0000      0.9224    103.6553
   701.7500   2000.0000   2000.0000      0.6595    103.4088
   702.0000   2000.0000   2000.0000      0.4999    117.7534
   702.2500   2000.0000   2000.0000      0.3941    128.3457
   702.5000   2000.0000   2000.0000      0.3187    141.0726
   702.7500   2000.0000   2000.0000      0.2633    133.8373
   703.0000   2000.0000   2000.0000      0.2240    129.3687
   703.2500   2000.0000   2000.0000      0.1989    121.0994
   703.5000   2000.0000   2000.0000      0.1864    105.6093
   703.7500   2000.0000   2000.0000      0.1834     88.9301
   704.0000   2000.0000   2000.0000      0.1863     82.6157
   704.2500   2000.0000   2000.0000      0.1915     83.4102
   704.5000   2000.0000   2000.0000      0.1974     91.1700
   704.7500   2000.0000   2000.0000      0.2052     90.4275
   705.0000   2000.0000   2000.0000      0.2177    101.8097
   705.2500   2000.0000   2000.0000      0.2374    108.4566
   705.5000   2000.0000   2000.0000      0.2652    116.1237
   705.7500   2000.0000   2000.0000      0.3010    108.4737
   706.0000   2000.0000   2000.0000      0.3463    112.4774
   706.2500   2000.0000   2000.0000      0.4073    114.6497
   706.5000   2000.0000   2000.0000      0.4977    116.9766
   706.7500   2000.0000   2000.0000      0.6422    117.6185
   707.0000   2000.0000   2000.0000      0.8856    116.8869
   707.2500   2000.0000   2000.0000      1.3206    115.3153
   707.5000   2000.0000   2000.0000      2.1702    111.9541
   707.7500   2000.0000   2000.0000      4.1141    109.7438
   708.0000   2000.0000   2000.0000     10.5900    107.9184
   708.2500   2000.0000   2000.0000  33266.7031    108.2443
