~Version Information
 VERS.                                  2.0 : CWLS LAS VERSION
 WRAP.                                   NO : WRAPING MODE
 SWARE .                 MController 2.5.0I : SOFTWARE VERSION
~Well Information
 WELL.                        Montoya 6-14v : WELL
 COMP.                       Petrogulf Corp : COMPANY
 FLD.                      Purgatorie River : FIELD
 LOC.                 SW/SW Sec 6 T33S R67W : LOCATION
 DATE.                              8/12/04 : DATE(S) LOGGED
 SRVC.       Blanco Geological Services LLC : SERVICE COMPANY
 STAT.                                   CO : STATE
 CNTY.                           Las Animas : COUNTY
 CTRY.                                  USA : COUNTRY
 API.                       05-071-08070-00 : API NUMBER
 STRT.FT                             803.00 : START DEPTH
 STOP.FT                            2673.00 : STOP DEPTH
 STEP.FT                               1.00 : DEPTH INCREMENT
 NULL.                                -9999 : NULL VALUE
~Curve information
 DEPTH.FT                                   :
 ROP.MIN/FT                                 :
 GAS.UNITS                                  :
~ASCII Log data
# ...
      1203.0          0.2          2.0 
      1204.0          0.3          1.9 
      1205.0          0.2          2.0 
      1206.0          0.2          2.2 
      1207.0          0.2          1.9 
      1208.0          0.2          1.8 
      1209.0          0.2          1.6 
      1210.0          0.2          1.9 
      1211.0          0.2          2.1 
      1212.0          0.2          2.0 
      1213.0          0.2          1.7 
      1214.0          0.2          1.7 
      1215.0          0.2          1.5 
      1216.0          0.2          1.8 
      1217.0          0.1          1.7 
      1218.0          0.2          1.8 
      1219.0          0.2          1.7 
      1220.0          0.2          2.0 
      1221.0          0.2          2.0 
      1222.0          0.2          1.7 
      1223.0          0.2          1.9 
      1224.0          0.2          2.0 
      1225.0          0.2          1.7 
      1226.0          0.2          1.8 
      1227.0          0.3          1.7 
      1228.0          3.1          2.0 
      1229.0          0.2          1.9 
      1230.0          0.3          1.9 
      1231.0          0.3          1.8 
      1232.0          0.1          1.7 
      1233.0          0.2          1.7 
      1234.0          0.2          1.8 
      1235.0          0.2          1.7 
      1236.0          0.2          1.9 
      1237.0          0.2          2.0 
      1238.0          0.2          1.7 
      1239.0          0.2          1.8 
      1240.0          0.2          1.6 
      1241.0          0.2          1.8 
      1242.0          0.2          1.6 
      1243.0          0.2          1.5 
      1244.0          0.3          1.6 
      1245.0          0.3          1.5 
      1246.0          0.3          1.8 
      1247.0          0.3          2.0 
      1248.0          0.3          1.7 
      1249.0          0.3          1.9 
      1250.0          0.3          2.1 
      1251.0          0.3          2.2 
      1252.0          0.3          2.3 
      1253.0          0.2          2.9 
      1254.0          0.3          6.3 
      1255.0          0.3          6.1 
      1256.0          0.3          3.2 
      1257.0          0.3          0.7 
      1258.0          3.7         20.5 
      1259.0          0.7         17.5 
      1260.0          0.3          2.6 
      1261.0          0.3          2.1 
      1262.0          0.3          1.6 
      1263.0          0.2          1.4 
      1264.0          0.3          1.2 
      1265.0          0.3          1.2 
      1266.0          0.3          1.1 
      1267.0          0.3          1.2 
      1268.0          0.3          1.1 
      1269.0          0.3          1.2 
      1270.0          0.3          1.6 
      1271.0          0.2          1.3 
      1272.0          0.3          1.5 
      1273.0          0.3          1.4 
      1274.0          0.2          1.3 
      1275.0          0.2          1.3 
      1276.0          0.3          1.2 
      1277.0          0.3          1.3 
      1278.0          0.3          1.3 
      1279.0          0.3          1.4 
      1280.0          0.2          1.3 
      1281.0          0.3          1.4 
      1282.0          0.4          1.3 
      1283.0          0.5          1.4 
      1284.0          0.3          5.4 
      1285.0          0.3          6.2 
      1286.0          0.3          3.5 
      1287.0          0.1          0.4 
      1288.0          0.3          0.1 
      1289.0          0.3          0.2 
      1290.0          4.6        137.8 
      1291.0          0.4         11.8 
      1292.0          0.3          6.8 
      1293.0          0.2          5.6 
      1294.0          0.2          4.3 
      1295.0          0.3          3.5 
      1296.0          0.3          1.9 
      1297.0          0.3          1.6 
      1298.0          0.3          1.3 
      1299.0          0.2          1.5 
      1300.0          0.3          1.4 
      1301.0          0.3          1.5 
      1302.0          0.3          1.4 
      1303.0          0.3          1.4 
      1304.0          0.3          1.4 
      1305.0          0.3          1.6 
      1306.0          0.2          1.6 
      1307.0          0.3          1.6 
      1308.0          0.3          1.7 
      1309.0          0.3          1.6 
      1310.0          0.3          2.0 
      1311.0          0.3          2.6 
      1312.0          0.3          2.4 
      1313.0          0.2          1.5 
      1314.0          0.2          1.1 
      1315.0          0.2          1.2 
      1316.0          0.2          1.8 
      1317.0          0.2          5.5 
      1318.0          0.3          6.9 
      1319.0          0.3          4.9 
      1320.0          5.9        107.1 
      1321.0          0.4          0.6 
      1322.0          0.3          0.5 
      1323.0          0.3          0.7 
      1324.0          0.5          1.1 
      1325.0          0.4          1.5 
      1326.0          0.3          2.0 
      1327.0          0.4          2.3 
      1328.0          0.4          2.1 
      1329.0          0.4          2.0 
      1330.0          0.3          1.7 
      1331.0          0.3          1.5 
      1332.0          0.3          1.9 
      1333.0          0.3          2.2 
      1334.0          0.3          2.4 
      1335.0          0.3          2.3 
      1336.0          0.3          2.1 
      1337.0          0.2          2.1 
      1338.0          0.2          2.4 
      1339.0          0.3          2.6 
      1340.0          0.2          2.5 
      1341.0          0.2          2.2 
      1342.0          0.2          2.0 
      1343.0          0.2          1.7 
      1344.0          0.2          1.9 
      1345.0          0.2          2.7 
      1346.0          0.3          5.8 
      1347.0          0.3          6.5 
      1348.0          0.3          4.2 
      1349.0          0.1          1.5 
      1350.0          5.0         81.2 
      1351.0          0.2          1.3 
      1352.0          0.5          1.2 
      1353.0          0.4          1.5 
      1354.0          0.4          1.4 
      1355.0          0.3          2.0 
      1356.0          0.3          2.3 
      1357.0          0.4          2.5 
      1358.0          0.4          2.4 
      1359.0          0.3          2.4 
      1360.0          0.3          2.4 
      1361.0          0.4          2.3 
      1362.0          0.4          1.9 
      1363.0          0.4          1.9 
      1364.0          0.5          1.9 
      1365.0          0.3          1.8 
      1366.0          0.4          1.8 
      1367.0          0.4          1.8 
      1368.0          0.3          1.6 
      1369.0          0.3          1.6 
      1370.0          0.3          1.6 
      1371.0          0.3          1.6 
      1372.0          0.3          1.4 
      1373.0          0.3          1.3 
      1374.0          0.3          1.2 
      1375.0          0.3          1.2 
      1376.0          0.4          1.2 
      1377.0          0.4          1.1 
      1378.0          0.4          5.9 
      1379.0          0.4          5.5 
      1380.0          5.1         37.4 
      1381.0          0.5          2.5 
      1382.0          0.6          1.9 
      1383.0          0.5          1.9 
      1384.0          0.4          1.8 
      1385.0          0.4          1.5 
      1386.0          0.4          1.5 
      1387.0          0.4          1.1 
      1388.0          0.5          1.1 
      1389.0          0.3          1.4 
      1390.0          0.4          1.1 
      1391.0          0.4          1.0 
      1392.0          0.4          1.1 
      1393.0          0.3          1.4 
      1394.0          0.3          2.2 
      1395.0          0.3          3.4 
      1396.0          0.3          3.2 
      1397.0          0.2          2.1 
      1398.0          0.1          1.9 
      1399.0          0.2          1.6 
      1400.0          0.2          1.2 
      1401.0          0.1          1.1 
      1402.0          0.2          2.0 
