~Version Information
VERS.                      2.0: CWLS Log ASCII Standard - VERSION 2.0
WRAP.                       NO: One line per depth step
~Well Information Block
STRT.FT               866.0000: 
STOP.FT              2029.0000: 
STEP.FT                 0.2500: 
NULL.                -999.2500: 
COMP.          Petrogulf Corporation: COMPANY
WELL.             State 16-21R: WELL
FLD.           Purgatorie River: FIELD
LOC.           203' FNL & 1560' FWL: LOCATION
PROV.                 Colorado: PROVINCE
CNTY.               Las Animas: COUNTRY
SRVC.                Patterson: SERVICE COMPANY
DATE.          Tue Aug 16 12:55:36 2005: LOG DATE
UWI.                071 08313 : UNIQUE WELL ID
~Curve Information Block
DEPT.FT            0 000 00 00: Depth
SP.mV                         : DIL Spontaneous Potential
RILD.Ohm-m                    : DIL Deep Resistivity
RILM.Ohm-m                    : DIL Medium Resistivity
RLL3.Ohm-m                    : DIL Shallow Resistivity
GR.GAPI                       : Gamma Ray
~Parameter Information Block
~A  Depth        SP         RILD        RILM        RLL3         GR     
# ...
  1706.0000    131.0251      7.5997      8.3585      9.2369    145.3542
  1706.2500    130.1961      7.5549      8.0589      8.2884    145.1919
  1706.5000    129.5214      7.4585      7.8256      7.9691    141.6145
  1706.7500    128.6294      7.3059      7.7544      7.6960    138.7057
  1707.0000    128.3249      7.0942      7.6977      8.1671    140.1708
  1707.2500    128.6016      6.9285      7.6061      9.2908    143.1228
  1707.5000    129.0895      6.7963      7.5201     10.6759    144.2800
  1707.7500    129.2890      6.7436      7.3924     11.1056    156.1975
  1708.0000    129.0725      6.7895      7.2499     10.0991    151.0806
  1708.2500    128.4519      6.7767      7.2082      8.8065    150.3376
  1708.5000    128.0457      6.7868      7.2770      8.3968    135.1296
  1708.7500    127.7449      6.8883      7.5344      9.2379    124.8401
  1709.0000    126.9432      7.0914      7.8031     11.2787    124.9720
  1709.2500    125.6598      7.3241      8.1479     12.9981    120.5804
  1709.5000    124.3527      7.5679      8.3820     14.1056    118.6614
  1709.7500    122.5684      7.8273      8.5460     13.3143    112.6520
  1710.0000    120.5286      8.0555      8.7434     12.3771    116.8136
  1710.2500    119.1684      8.2723      9.1455     12.3457    111.6869
  1710.5000    118.1095      8.6154      9.4548     13.3991    110.2097
  1710.7500    117.0546      8.9637      9.8720     14.6978    118.0459
  1711.0000    115.4234      9.3975     10.2593     15.2156    112.9331
  1711.2500    113.2552      9.7840     10.6704     15.0489    103.7670
  1711.5000    110.5920     10.0952     11.1142     14.6801    114.2787
  1711.7500    107.9603     10.4235     11.5673     14.6452    112.9947
  1712.0000    104.9897     10.7697     11.9866     14.8432    102.4852
  1712.2500    102.6905     11.2766     12.6052     15.9161    102.5023
  1712.5000    101.4303     11.4458     13.1339     18.0155     96.7059
  1712.7500    100.4700     11.8831     13.7959     20.0298     99.3886
  1713.0000     99.3612     12.0352     14.4210     21.5840     95.2122
  1713.2500     97.8496     12.4257     14.7519     22.1090     91.7922
  1713.5000     95.7169     13.1119     15.1708     22.4199     91.9463
  1713.7500     93.9996     13.3210     15.6238     21.8411     95.6421
  1714.0000     92.6776     13.6766     15.9257     21.4422     96.0975
  1714.2500     91.5805     13.8956     16.1935     22.6064     94.6275
  1714.5000     90.5047     14.1820     16.5703     23.5708     91.2389
  1714.7500     89.9288     14.7224     16.8506     23.8009     85.8336
  1715.0000     89.7471     15.0673     17.2181     22.7317     90.5427
  1715.2500     89.4136     15.1580     17.5681     21.9054     90.7242
  1715.5000     88.9007     15.3785     17.4856     22.9083     83.6032
  1715.7500     88.7044     15.4367     17.9130     24.2698     78.0796
  1716.0000     88.6490     15.6829     18.0438     24.5712     82.1927
  1716.2500     88.9540     15.9785     17.9935     24.1888     86.9345
  1716.5000     89.8374     16.5332     17.7881     22.7279     90.2242
  1716.7500     90.7392     16.8256     17.7399     19.7870     92.6232
  1717.0000     91.5589     17.2085     17.9207     17.7214     90.3996
  1717.2500     92.2116     17.3074     18.4563     18.5478     85.4328
  1717.5000     92.6739     17.9969     19.0738     22.0120     79.0199
  1717.7500     93.1509     18.1577     20.2029     27.0841     74.4493
  1718.0000     93.4495     18.2804     21.0706     31.6881     73.8063
  1718.2500     94.3950     18.9749     21.6493     32.4057     72.5900
  1718.5000     95.5906     19.2616     21.9108     32.2426     67.5697
  1718.7500     96.7357     19.1378     22.1249     30.5735     64.0668
  1719.0000     97.3472     19.8023     22.2895     28.2931     67.1781
  1719.2500     97.0136     20.1475     22.8971     28.3723     65.1717
  1719.5000     97.4591     20.9018     24.3059     29.9612     65.5283
  1719.7500     97.8987     21.1225     24.8671     31.2382     66.7220
  1720.0000     98.1298     21.8771     25.3397     31.7772     66.8576
  1720.2500     98.3404     22.1107     25.4089     32.1660     69.4503
  1720.5000     98.7709     22.4459     25.3503     31.7319     75.7037
  1720.7500     99.4405     22.5443     24.9592     30.2969     71.7550
  1721.0000     99.5217     23.1637     25.0144     27.3542     70.2178
  1721.2500     99.4219     23.5387     24.9696     25.7528     70.2134
  1721.5000     99.3626     23.1405     24.6204     28.2621     61.8447
  1721.7500     99.2412     22.9927     25.0975     32.1465     63.2130
  1722.0000     98.7870     23.2426     25.2886     32.9092     72.2648
  1722.2500     98.5864     22.6687     25.3672     30.3316     71.7926
  1722.5000     98.2888     22.6837     24.9846     27.5848     64.0935
  1722.7500     98.1403     23.1120     24.9867     27.2286     64.2794
  1723.0000     98.0921     22.4120     25.1976     27.6369     57.3407
  1723.2500     98.1458     22.0635     25.0462     27.7551     56.7044
  1723.5000     97.8384     22.4561     25.0841     28.8349     63.1117
  1723.7500     97.9638     21.9875     24.7529     28.8569     61.2791
  1724.0000     98.5322     22.2428     24.4185     27.2726     66.9598
  1724.2500     99.1978     21.6096     24.2481     26.7948     68.6929
  1724.5000     99.6591     21.7294     23.2998     27.0419     62.5304
  1724.7500     99.6309     21.9064     22.8327     27.3046     57.5293
  1725.0000     99.4244     21.7556     22.7605     27.4322     57.6916
  1725.2500     99.7933     21.9401     22.5575     27.5832     58.1367
  1725.5000    100.2018     21.7551     22.8314     28.0480     58.2049
  1725.7500    100.9079     21.6222     22.6950     28.5462     59.8224
  1726.0000    101.6016     21.5772     22.5957     28.1837     57.0724
  1726.2500    102.2311     21.7819     22.6754     26.4530     56.0863
  1726.5000    102.1673     22.1471     22.7230     25.1626     56.1935
  1726.7500    101.0047     22.1703     22.5142     25.1564     50.7695
  1727.0000     99.7473     21.9690     23.2961     26.2637     56.7365
  1727.2500     98.6438     21.5955     23.0949     27.1160     59.4649
  1727.5000     97.8098     21.5068     23.3193     28.8519     62.1043
  1727.7500     96.9597     21.3443     23.3610     30.7165     58.3603
  1728.0000     96.0177     21.5148     22.8326     29.9470     59.7396
  1728.2500     95.2013     21.6008     23.2118     27.6771     61.4439
  1728.5000     94.9011     22.0255     22.8400     26.3827     61.9786
  1728.7500     94.4618     22.0525     22.8400     26.4121     62.6103
  1729.0000     93.6495     22.3272     23.2875     26.6848     68.3375
  1729.2500     93.2985     22.5268     23.5091     26.3043     68.2892
  1729.5000     92.9760     22.9460     24.1004     25.7722     62.2843
  1729.7500     92.4194     23.5769     24.4179     26.3631     59.7865
  1730.0000     92.3963     24.3434     25.0177     27.2520     57.8179
  1730.2500     92.6229     24.6913     25.7046     27.6988     57.4541
  1730.5000     92.1334     24.4194     26.3423     28.4683     63.2169
  1730.7500     91.5458     24.8900     26.4608     29.7413     60.4683
  1731.0000     91.2663     25.3143     26.9415     31.9227     61.6555
  1731.2500     91.0141     24.9145     28.0044     34.3883     60.6694
  1731.5000     90.3296     25.8595     28.3060     35.6053     56.5254
  1731.7500     89.7046     26.3732     28.5102     34.1648     50.9749
  1732.0000     88.8503     26.8709     28.9632     32.3762     56.0183
  1732.2500     88.4467     27.5400     28.0653     31.9781     56.0968
  1732.5000     88.7222     27.8053     28.8561     33.3780     56.0192
  1732.7500     89.3462     28.3963     29.8241     35.5626     57.0199
  1733.0000     89.8397     28.1635     28.7984     35.3449     63.9869
  1733.2500     89.5997     28.1511     28.7083     33.7478     54.6534
  1733.5000     89.4059     27.2172     28.9639     30.1437     57.1471
  1733.7500     89.0241     27.5581     29.1466     27.6833     54.2615
