~Version Information
VERS.                      2.0: CWLS Log ASCII Standard - VERSION 2.0
WRAP.                       NO: One line per depth step
~Well Information Block
STRT.FT               350.0000: 
STOP.FT              2531.5000: 
STEP.FT                 0.1000: 
NULL.                -999.2500: 
COMP.          Pioneer Natural Resources: COMPANY
WELL.          Cock-a-doodle-doo: WELL
FLD.           Purgatoire River: FIELD
LOC.           163' FSL & 54' FEL: LOCATION
PROV.                 Colorado: PROVINCE
CNTY.               Las Animas: COUNTRY
SRVC.                Patterson: SERVICE COMPANY
DATE.          Fri Jul 01 09:34:59 2005: LOG DATE
UWI.           05 071 08429 00: UNIQUE WELL ID
~Curve Information Block
DEPT.FT            0 000 00 00: Depth
DCAL.in                       : CDL Caliper
RHOB.g/cc                     : CDL Bulk Density
RHOC.g/cc                     : CDL Density Correction
DPOR.pu                       : CDL Density Porosity
GR.GAPI                       : Gamma Ray
NPOR.pu                       : Neutron Porosity
~Parameter Information Block
~A  Depth       DCAL        RHOB        RHOC        DPOR         GR         NPOR    
# ...
  1511.6000      8.0129      2.5736      0.1051      4.6288     84.9428     22.4962
  1511.7000      8.0129      2.5821      0.1363      4.1127     74.9300     22.5069
  1511.8000      8.0460      2.5876      0.1578      3.7819     67.1976     22.5714
  1511.9000      8.0460      2.5883      0.1183      3.7371     65.7367     22.5484
  1512.0000      8.0480      2.5866      0.1118      3.8416     66.9429     22.4170
  1512.1000      8.0480      2.5764      0.1063      4.4610     66.1043     22.1694
  1512.2000      8.0480      2.5450      0.1026      6.3608     63.3493     21.9357
  1512.3000      8.0337      2.4917      0.0609      9.5956     60.9830     21.7952
  1512.4000      8.0337      2.4297      0.0327     13.3506     60.7005     21.7124
  1512.5000      8.0324      2.3671     -0.0235     17.1439     61.1524     21.7564
  1512.6000      8.0324      2.3148     -0.0142     20.3172     60.6507     21.9751
  1512.7000      8.0324      2.3068     -0.0556     20.7981     59.4622     22.3403
  1512.8000      8.0435      2.3652      0.1261     17.2608     59.1811     22.8338
  1512.9000      8.0435      2.4643      0.1454     11.2574     60.7854     23.2080
  1513.0000      8.0331      2.5743      0.1628      4.5896     63.6965     23.2537
  1513.1000      8.0331      2.6695      0.2416     -1.1802     67.3159     23.1240
  1513.2000      8.0331      2.7181      0.3507     -4.1287     68.2411     22.8349
  1513.3000      7.9477      2.7216      0.2528     -4.3398     63.9341     22.3235
  1513.4000      7.9477      2.7104      0.2316     -3.6632     59.1221     21.9838
  1513.5000      7.9312      2.6930      0.2712     -2.6057     58.8561     21.9361
  1513.6000      7.9312      2.6647      0.1848     -0.8903     61.9146     21.6788
  1513.7000      7.9312      2.6302      0.1157      1.2005     65.2897     21.2015
  1513.8000      7.9428      2.5903      0.0604      3.6170     67.9109     20.8583
  1513.9000      7.9428      2.5597      0.0104      5.4756     68.5243     20.4648
  1514.0000      7.9531      2.5609      0.0172      5.3985     66.9980     19.7241
  1514.1000      7.9531      2.5797      0.0905      4.2619     64.4032     19.0359
  1514.2000      7.9531      2.5844      0.0566      3.9763     60.3990     18.7427
  1514.3000      7.9593      2.5767      0.0487      4.4448     56.8642     18.5906
  1514.4000      7.9593      2.5738      0.0461      4.6165     57.0760     18.4908
  1514.5000      7.9991      2.5783      0.0542      4.3445     60.8848     18.6237
  1514.6000      7.9991      2.5781      0.0945      4.3580     65.4047     19.0114
  1514.7000      7.9991      2.5702      0.0337      4.8354     68.0175     19.2621
  1514.8000      7.9810      2.5702      0.0045      4.8348     67.5904     19.1486
  1514.9000      7.9810      2.5801      0.0823      4.2368     65.6544     18.9577
  1515.0000      8.0384      2.5833      0.0012      4.0427     65.2537     18.8321
  1515.1000      8.0384      2.5698      0.0693      4.8634     67.3491     18.6144
  1515.2000      8.0384      2.5325      0.0871      7.1219     70.3663     18.5545
  1515.3000      8.0922      2.4799      0.0192     10.3093     71.3104     18.8097
  1515.4000      8.0922      2.4451     -0.0288     12.4201     71.4204     18.8085
  1515.5000      8.0419      2.4472     -0.0020     12.2928     75.1032     18.3305
  1515.6000      8.0419      2.4747     -0.0026     10.6272     81.6964     17.9349
  1515.7000      8.0419      2.5061      0.1007      8.7231     87.7235     17.8565
  1515.8000      8.0200      2.5256      0.0667      7.5374     91.5148     17.8260
  1515.9000      8.0200      2.5369      0.1017      6.8574     93.6249     17.7379
  1516.0000      8.0108      2.5475      0.1206      6.2146     95.9902     17.6391
  1516.1000      8.0108      2.5563      0.2100      5.6758    100.2019     17.7128
  1516.2000      8.0108      2.5578      0.2098      5.5897    104.5495     18.1120
  1516.3000      8.0058      2.5440      0.2049      6.4236    103.3724     18.4803
  1516.4000      8.0058      2.5168      0.1251      8.0721     96.7742     18.5852
  1516.5000      7.9019      2.4953      0.0621      9.3740     91.9317     18.5731
  1516.6000      7.9019      2.4966      0.0844      9.2966     93.3340     18.5516
  1516.7000      7.9019      2.5180      0.1330      8.0014     97.3080     18.7017
  1516.8000      7.9300      2.5509      0.1195      6.0051     98.3235     19.0262
  1516.9000      7.9300      2.5760      0.2460      4.4856     97.7982     19.3155
  1517.0000      7.9435      2.5683      0.1940      4.9535     97.1024     19.5297
  1517.1000      7.9435      2.5419      0.1729      6.5500     93.7507     20.0316
  1517.2000      7.9435      2.5254      0.1332      7.5526     89.1801     21.0130
  1517.3000      7.9807      2.5209      0.1166      7.8263     87.2873     21.7698
  1517.4000      7.9807      2.5245      0.0756      7.6055     86.2030     21.9435
  1517.5000      7.9885      2.5391      0.0625      6.7206     83.2143     21.9068
  1517.6000      7.9885      2.5593      0.1080      5.4963     81.7668     21.7799
  1517.7000      7.9885      2.5730      0.1064      4.6673     83.9891     21.6823
  1517.8000      7.9997      2.5740      0.1477      4.6051     86.0729     21.6496
  1517.9000      7.9997      2.5622      0.1204      5.3185     84.3783     21.4777
  1518.0000      7.9986      2.5482      0.0452      6.1715     79.5763     21.2436
  1518.1000      7.9986      2.5432      0.1028      6.4737     76.2829     21.1643
  1518.2000      7.9986      2.5389      0.0434      6.7323     75.5662     21.2999
  1518.3000      7.9929      2.5253      0.0571      7.5599     72.9364     21.5855
  1518.4000      7.9929      2.5058      0.0371      8.7394     68.4989     21.5998
  1518.5000      8.0013      2.4931      0.0499      9.5076     67.0522     21.0606
  1518.6000      8.0013      2.4990      0.0294      9.1496     69.7878     20.3565
  1518.7000      8.0013      2.5218      0.0740      7.7674     75.8795     20.0169
  1518.8000      8.0358      2.5447      0.1152      6.3839     84.4888     20.1047
  1518.9000      8.0358      2.5626      0.1038      5.2996     90.1034     20.4878
  1519.0000      8.0326      2.5839      0.1150      4.0090     88.3443     20.8564
  1519.1000      8.0326      2.6009      0.1625      2.9756     83.4462     20.9703
  1519.2000      8.0326      2.6075      0.1128      2.5740     81.2558     20.9370
  1519.3000      7.9705      2.6105      0.1061      2.3923     81.1931     20.8491
  1519.4000      7.9705      2.6015      0.1206      2.9377     80.9436     20.6246
  1519.5000      7.9808      2.5756      0.0614      4.5110     80.9808     20.1989
  1519.6000      7.9808      2.5522      0.0751      5.9262     82.0012     19.8299
  1519.7000      7.9808      2.5316      0.1140      7.1787     83.8140     19.5702
  1519.8000      7.9883      2.5012     -0.0284      9.0182     85.5953     19.2944
  1519.9000      7.9883      2.4788     -0.0245     10.3773     85.3780     19.4075
  1520.0000      8.0154      2.4876     -0.0062      9.8448     83.4636     20.1349
  1520.1000      8.0154      2.5253      0.0381      7.5565     82.5532     20.7100
  1520.2000      8.0154      2.5615      0.1233      5.3649     83.9696     20.6789
  1520.3000      8.0460      2.5680      0.0857      4.9704     85.2302     20.6727
  1520.4000      8.0460      2.5585      0.0509      5.5478     83.4381     21.0867
  1520.5000      8.0441      2.5645      0.0519      5.1836     80.7218     21.6019
  1520.6000      8.0441      2.5854      0.1337      3.9132     78.7427     22.0418
  1520.7000      8.0441      2.5996      0.0966      3.0575     75.8129     22.4327
  1520.8000      8.0612      2.5957      0.1281      3.2929     72.7355     22.6280
  1520.9000      8.0612      2.5713      0.0728      4.7680     73.6590     22.4963
  1521.0000      8.0570      2.5370      0.0284      6.8498     79.5755     22.1741
  1521.1000      8.0570      2.5136      0.0412      8.2674     85.3800     21.9590
