~Version Information
VERS.                      2.0: CWLS Log ASCII Standard - VERSION 2.0
WRAP.                       NO: One line per depth step
~Well Information Block
STRT.FT                 6.5000: 
STOP.FT              1054.0000: 
STEP.FT                 0.2500: 
NULL.                -999.2500: 
COMP.          Pioneer Natural Resources: COMPANY
WELL.            Galileo 21-11: WELL
FLD.           Purgatoire River: FIELD
LOC.           407' FNL & 2394' FWL: LOCATION
PROV.                 Colorado: PROVINCE
CNTY.               Las Animas: COUNTRY
SRVC.                Patterson: SERVICE COMPANY
DATE.          Sat Apr 16 10:31:00 2005: LOG DATE
UWI.           05 071 08353 00: UNIQUE WELL ID
~Curve Information Block
DEPT.FT            0 000 00 00: Depth
GR.GAPI                       : Gamma Ray
CCL.                          : Casing Collar Locator
TT3.usec                      : CBL 3' Travel Time
AMP3.mV                       : CBL 3' Amplitude
~Parameter Information Block
~A  Depth        GR         CCL         TT3         AMP3    
# ...
   207.5000    113.8264      0.0000   1310.2034      7.4989
   207.7500    113.3364      0.0000   1269.9098      7.5635
   208.0000    110.7531      0.0000   1219.6993      7.6622
   208.2500    105.9841      0.0000   1176.6240      7.7965
   208.5000     99.5486      0.0000   1159.5652      7.9517
   208.7500     92.6762      0.0000   1176.7013      8.1139
   209.0000     86.7938      0.0000   1219.8088      8.2739
   209.2500     83.0014      0.0000   1270.0023      8.4213
   209.5000     82.0546      0.0000   1310.2584      8.5453
   209.7500     84.5640      0.0000   1334.2115      8.6475
   210.0000     90.7555      0.0000   1345.0275      8.7491
   210.2500     99.8252      0.0000   1348.7662      8.8766
   210.5000    109.7555      0.0000   1349.7642      9.0368
   210.7500    118.0630      0.0000   1349.9639      9.2107
   211.0000    122.8541      0.0000   1350.0000      9.3774
   211.2500    123.3063      0.0000   1350.0000      9.5488
   211.5000    119.5876      0.0000   1350.0000      9.7766
   211.7500    112.9117      0.0000   1350.0000     10.1148
   212.0000    105.5313      0.0000   1350.0000     10.5636
   212.2500     99.7628      0.0000   1350.0000     11.0461
   212.5000     96.4786      0.0000   1350.0000     11.4465
   212.7500     94.8415      0.0000   1350.0000     11.6807
   213.0000     93.7155      0.0000   1350.0000     11.7391
   213.2500     92.9963      0.0000   1350.0000     11.6686
   213.5000     93.3646      0.0000   1350.0000     11.5276
   213.7500     95.1147      0.0000   1350.0000     11.3646
   214.0000     97.6104      0.0000   1350.0000     11.2235
   214.2500     99.9393      0.0000   1350.0000     11.1440
   214.5000    101.8451      0.0000   1350.0000     11.1436
   214.7500    103.9066      0.0000   1349.9736     11.1955
   215.0000    106.9854      0.0000   1349.8284     11.2295
   215.2500    111.4080      0.0000   1349.1285     11.1677
   215.5000    116.1139      0.0000   1346.5531     10.9732
   215.7500    118.6954      0.0000   1339.3468     10.6726
   216.0000    117.1931      0.0000   1324.2954     10.3339
   216.2500    112.1270      0.0000   1301.2211     10.0258
   216.5000    106.3160      0.0000   1276.0089      9.7902
   216.7500    102.8598      0.0000   1256.7997      9.6392
   217.0000    103.4025      0.0000   1244.8885      9.5675
   217.2500    107.3877      0.0000   1233.4020      9.5707
   217.5000    112.1645      0.0000   1217.6674      9.6532
   217.7500    114.4328      0.0000   1201.4978      9.8166
   218.0000    112.6235      0.0000   1189.4031     10.0421
   218.2500    108.0968      0.0000   1179.6965     10.2912
   218.5000    104.0119      0.0000   1171.1880     10.5214
   218.7500    103.1968      0.0000   1171.1947     10.7028
   219.0000    106.5660      0.0000   1190.0181     10.8244
   219.2500    112.6124      0.0000   1228.2903     10.8927
   219.5000    118.3120      0.0000   1273.8126     10.9242
   219.7500    121.1368      0.0000   1311.5420     10.9419
   220.0000    120.5243      0.0000   1334.5477     10.9718
   220.2500    117.6534      0.0000   1345.0945     11.0345
   220.5000    114.3720      0.0000   1348.7767     11.1336
   220.7500    112.2622      0.0000   1349.7643     11.2537
   221.0000    111.6932      0.0000   1349.9639     11.3708
   221.2500    111.3709      0.0000   1350.0000     11.4663
   221.5000    109.6014      0.0000   1349.9807     11.5319
   221.7500    106.4088      0.0000   1349.8545     11.5668
   222.0000    103.8282      0.0000   1349.2167     11.5707
   222.2500    103.9352      0.0000   1346.7177     11.5383
   222.5000    106.9792      0.0000   1339.0950     11.4617
   222.7500    111.3437      0.0000   1321.1644     11.3423
   223.0000    114.8247      0.0000   1288.8540     11.2049
   223.2500    115.8761      0.0000   1244.8390     11.0947
   223.5000    114.1971      0.0000   1200.4835     11.0467
   223.7500    110.8420      0.0000   1168.1927     11.0542
   224.0000    107.8728      0.0000   1150.1122     11.0776
   224.2500    107.2224      0.0000   1137.0844     11.0854
   224.5000    109.2667      0.0000   1119.8885     11.0752
   224.7500    112.6280      0.0000   1098.3611     11.0518
   225.0000    115.8072      0.0000   1078.3922     11.0037
   225.2500    118.8198      0.0000   1063.9177     10.9126
   225.5000    122.6194      0.0000   1054.3882     10.7802
   225.7500    126.9470      0.0000   1047.7700     10.6343
   226.0000    129.6384      0.0000   1043.2919     10.5062
   226.2500    128.7008      0.0000   1041.4203     10.4086
   226.5000    124.6372      0.0000   1042.4293     10.3343
   226.7500    120.2440      0.0000   1045.3217     10.2712
   227.0000    118.3729      0.0000   1047.5287     10.2151
   227.2500    119.8648      0.0000   1045.0592     10.1706
   227.5000    122.9342      0.0000   1032.9490     10.1438
   227.7500    124.3725      0.0000   1007.0812     10.1319
   228.0000    121.9332      0.0000    967.9045     10.1213
   228.2500    115.9775      0.0000    923.0159     10.1007
   228.5000    108.9565      0.0000    884.1545     10.0739
   228.7500    103.5736      0.0000    859.9482     10.0564
   229.0000    101.4059      0.0000    851.6880     10.0624
   229.2500    102.5003      0.0000    856.2300     10.0994
   229.5000    105.4705      0.0000    871.4082     10.1693
   229.7500    108.0650      0.0000    896.9987     10.2656
   230.0000    108.4279      0.0000    930.1974     10.3709
   230.2500    106.3520      0.0000    961.9924     10.4668
   230.5000    103.2773      0.0000    980.6303     10.5505
   230.7500    100.9225      0.0000    979.6216     10.6363
   231.0000    100.0164      0.0000    961.7700     10.7388
   231.2500    100.2752      0.0000    935.8430     10.8547
   231.5000    101.1241      0.0000    910.3934     10.9602
   231.7500    102.2231      0.0000    889.3978     11.0247
   232.0000    103.5029      0.0000    871.7489     11.0265
   232.2500    104.8794      0.0000    855.3189     10.9612
   232.5000    106.1920      0.0000    842.0594     10.8368
   232.7500    107.5546      0.0000    839.1220     10.6658
   233.0000    109.3838      0.0000    855.6808     10.4604
   233.2500    111.6904      0.0000    897.8326     10.2365
   233.5000    113.5337      0.0000    962.5074     10.0178
   233.7500    113.4773      0.0000   1034.4940      9.8321
   234.0000    110.6202      0.0000   1093.0682      9.6981
   234.2500    105.4004      0.0000   1126.4370      9.6201
   234.5000     99.6907      0.0000   1140.7568      9.5955
   234.7500     95.8149      0.0000   1152.6093      9.6209
   235.0000     95.0308      0.0000   1171.1602      9.6850
   235.2500     96.8971      0.0000   1189.7395      9.7621
   235.5000     99.9060      0.0000   1196.4836      9.8227
   235.7500    102.5919      0.0000   1189.5854      9.8513
   236.0000    104.3943      0.0000   1177.9801      9.8528
   236.2500    105.7131      0.0000   1169.1591      9.8419
   236.5000    107.0103      0.0000   1161.1118      9.8323
   236.7500    107.9731      0.0000   1147.2566      9.8308
   237.0000    107.9222      0.0000   1127.6584      9.8360
   237.2500    106.8459      0.0000   1114.2808      9.8391
   237.5000    105.3492      0.0000   1123.5294      9.8272
   237.7500    103.4848      0.0000   1161.8698      9.7878
   238.0000    100.4547      0.0000   1218.6810      9.7139
   238.2500     95.9323      0.0000   1273.7473      9.6068
   238.5000     91.1301      0.0000   1310.9218      9.4740
   238.7500     87.9929      0.0000   1324.1348      9.3243
   239.0000     87.5111      0.0000   1314.1118      9.1587
   239.2500     89.1127      0.0000   1285.7770      8.9527
   239.5000     91.5183      0.0000   1250.9956      8.6371
   239.7500     93.7627      0.0000   1228.1646      8.1198
   240.0000     95.3318      0.0000   1231.3710      7.3680
   240.2500     95.8326      0.0000   1258.6453      6.4968
   240.5000     94.9794      0.0000   1294.3506      5.7495
   240.7500     92.7543      0.0000   1323.1885      5.3377
