~Version Information
VERS.                      2.0: CWLS Log ASCII Standard - VERSION 2.0
WRAP.                       NO: One line per depth step
~Well Information Block
STRT.FT               742.5000: 
STOP.FT              2463.5000: 
STEP.FT                 0.2500: 
NULL.                -999.2500: 
COMP.          Petrogulf Corporation: COMPANY
WELL.           Montoya 12-44V: WELL
FLD.           Purgatorie River: FIELD
LOC.           698' FSL & 599' FEL: LOCATION
CNTY.               Las Animas: COUNTY
SRVC.                         : SERVICE COMPANY
DATE.          Sun Aug 08 06:43:17 2004: LOG DATE
UWI.           05 071 08094 00: UNIQUE WELL ID
STAT.                 Colorado: STATE
~Curve Information Block
DEPT.FT            0 000 00 00: Depth
SN.Ohm-m                      : IEL Short Normal
SP.mV                         : IEL Spontaneous Potential
DIR.Ohm-m                     : IEL Induction Resistivity
GR.GAPI                       : Gamma Ray
~Parameter Information Block
~A  Depth        SN          SP         DIR          GR     
# ...
  1077.5000     17.1982    -52.1791     13.0031    151.9332
  1077.7500     16.7658    -52.0778     13.1182    152.9245
  1078.0000     16.3044    -52.3292     13.2944    152.7900
  1078.2500     15.8412    -52.9618     13.4600    151.5867
  1078.5000     15.4132    -53.9704     13.5381    148.8064
  1078.7500     15.0681    -55.3143     13.4755    146.7925
  1079.0000     14.8676    -56.9096     13.2754    143.8882
  1079.2500     14.8793    -58.6322     13.0038    141.9978
  1079.5000     15.1510    -60.3245     12.7597    139.0875
  1079.7500     15.6848    -61.8221     12.6336    136.9610
  1080.0000     16.4330    -62.9797     12.6828    133.3409
  1080.2500     17.3190    -63.7023     12.9291    130.8915
  1080.5000     18.2682    -63.9679     13.3709    128.1870
  1080.7500     19.2316    -63.8342     14.0021    127.4983
  1081.0000     20.1977    -63.4304     14.8277    127.9551
  1081.2500     21.1928    -62.9285     15.8700    128.5601
  1081.5000     22.2697    -62.5020     17.1573    128.2263
  1081.7500     23.4856    -62.2823     18.6987    126.4110
  1082.0000     24.8802    -62.3296     20.4575    121.4581
  1082.2500     26.4641    -62.6125     22.3472    117.6947
  1082.5000     28.2195    -63.0214     24.2643    113.1604
  1082.7500     30.1086    -63.4018     26.1375    110.9841
  1083.0000     32.0823    -63.5908     27.9483    107.7537
  1083.2500     34.0876    -63.4556     29.6962    105.1988
  1083.5000     36.0689    -62.9233     31.3506    101.7739
  1083.7500     37.9651    -61.9852     32.8460    100.7808
  1084.0000     39.7071    -60.6914     34.1453    101.9484
  1084.2500     41.2244    -59.1348     35.3261    104.0855
  1084.5000     42.4617    -57.4377     36.5558    107.9232
  1084.7500     43.3981    -55.7369     37.9386    110.1426
  1085.0000     44.0546    -54.1713     39.3402    112.1806
  1085.2500     44.4790    -52.8732     40.3540    112.4729
  1085.5000     44.7150    -51.9499     40.5187    111.0175
  1085.7500     44.7750    -51.4692     39.6621    108.6241
  1086.0000     44.6363    -51.4441     38.0034    103.1132
  1086.2500     44.2595    -51.8311     35.9208     98.8017
  1086.5000     43.6047    -52.5367     33.6971     93.3159
  1086.7500     42.6283    -53.4382     31.4875     91.5273
  1087.0000     41.2732    -54.4113     29.3964     92.7106
  1087.2500     39.4816    -55.3535     27.5128     95.7732
  1087.5000     37.2396    -56.2018     25.8714    102.4831
  1087.7500     34.6229    -56.9362     24.4181    107.8603
  1088.0000     31.8038    -57.5739     23.0381    116.8225
  1088.2500     29.0071    -58.1568     21.6358    122.7382
  1088.5000     26.4411    -58.7287     20.2070    129.4489
  1088.7500     24.2406    -59.3197     18.8404    131.4492
  1089.0000     22.4484    -59.9329     17.6576    130.6647
  1089.2500     21.0391    -60.5386     16.7491    128.4352
  1089.5000     19.9687    -61.0904     16.1496    124.1386
  1089.7500     19.2204    -61.5424     15.8485    121.3513
  1090.0000     18.8214    -61.8764     15.8100    118.3731
  1090.2500     18.8279    -62.1218     15.9850    117.7874
  1090.5000     19.2959    -62.3607     16.3125    119.2365
  1090.7500     20.2590    -62.7131     16.7250    121.0003
  1091.0000     21.7212    -63.3055     17.1756    122.4110
  1091.2500     23.6609    -64.2363     17.6764    121.3485
  1091.5000     26.0342    -65.5423     18.3084    116.7213
  1091.7500     28.7714    -67.1810     19.1740    112.6881
  1092.0000     31.7728    -69.0372     20.3313    107.2480
  1092.2500     34.9172    -70.9412     21.7658    104.5405
  1092.5000     38.0904    -72.7052     23.4370    101.6031
  1092.7500     41.2162    -74.1626     25.3851    100.1234
  1093.0000     44.2678    -75.2001     27.8007     98.6182
  1093.2500     47.2539    -75.7794     30.9800     98.2000
  1093.5000     50.1939    -75.9343     35.1804     98.2340
  1093.7500     53.1059    -75.7616     40.4361     98.2886
  1094.0000     56.0057    -75.3901     46.4238     97.6991
  1094.2500     58.9082    -74.9548     52.5259     96.6152
  1094.5000     61.8186    -74.5682     58.1055     93.7966
  1094.7500     64.7187    -74.3046     62.7235     91.1426
  1095.0000     67.5581    -74.1950     66.1072     86.3135
  1095.2500     70.2585    -74.2254     68.0720     82.8924
  1095.5000     72.7325    -74.3515     68.5668     78.0330
  1095.7500     74.9082    -74.5068     67.7154     75.0338
  1096.0000     76.7475    -74.6242     65.8195     70.5677
  1096.2500     78.2539    -74.6413     63.3468     67.5492
  1096.5000     79.4671    -74.5121     60.9052     63.7530
  1096.7500     80.4495    -74.2134     59.1296     62.5394
  1097.0000     81.2678    -73.7399     58.5070     63.4461
  1097.2500     81.9779    -73.1010     59.1688     65.3853
  1097.5000     82.6182    -72.3158     60.7307     68.3051
  1097.7500     83.2092    -71.4102     62.2940     69.1851
  1098.0000     83.7549    -70.4174     62.8827     68.2741
  1098.2500     84.2427    -69.3822     62.1896     66.5106
  1098.5000     84.6466    -68.3668     60.7755     63.0771
  1098.7500     84.9365    -67.4492     59.4578     60.6810
  1099.0000     85.0924    -66.7199     58.6627     57.4587
  1099.2500     85.1153    -66.2649     58.3245     55.9115
  1099.5000     85.0269    -66.1533     58.2265     55.0007
  1099.7500     84.8590    -66.4118     58.4740     55.3769
  1100.0000     84.6379    -67.0156     59.7166     57.0447
  1100.2500     84.3726    -67.8857     63.0132     58.6048
  1100.5000     84.0515    -68.9002     69.5195     61.3160
  1100.7500     83.6523    -69.9141     79.9364     63.3164
  1101.0000     83.1612    -70.7837     93.0493     66.5192
  1101.2500     82.5928    -71.3921    103.8019     68.6712
  1101.5000     81.9952    -71.6621    106.0013     71.6505
  1101.7500     81.4380    -71.5651    100.1720     73.2513
  1102.0000     80.9877    -71.1165     92.6085     74.5259
  1102.2500     80.6887    -70.3671     87.8677     74.3868
  1102.5000     80.5578    -69.3898     86.9520     72.9782
  1102.7500     80.5880    -68.2653     88.6494     71.7473
  1103.0000     80.7522    -67.0742     90.5485     70.2048
  1103.2500     81.0025    -65.8938     90.3354     69.5570
  1103.5000     81.2718    -64.7968     87.3945     69.2689
  1103.7500     81.4880    -63.8527     82.7366     69.4577
  1104.0000     81.5958    -63.1256     77.4090     69.6018
  1104.2500     81.5720    -62.6591     71.8088     69.0389
  1104.5000     81.4247    -62.4679     66.2521     66.9367
  1104.7500     81.1731    -62.5200     61.4359     65.1213
  1105.0000     80.8222    -62.7421     58.0905     62.7312
  1105.2500     80.3482    -63.0289     56.4294     61.6195
  1105.5000     79.7029    -63.2735     55.9504     60.7152
  1105.7500     78.8298    -63.3931     55.6192     60.7195
  1106.0000     77.6794    -63.3468     54.5030     61.9395
  1106.2500     76.2153    -63.1389     52.5331     63.4436
  1106.5000     74.4140    -62.7962     50.4692     65.6591
  1106.7500     72.2632    -62.3430     49.1006     66.4408
  1107.0000     69.7578    -61.7735     48.6493     66.8045
  1107.2500     66.8922    -61.0396     48.7164     67.6114
  1107.5000     63.6565    -60.0608     48.5998     71.5508
  1107.7500     60.0532    -58.7486     47.8055     75.9439
  1108.0000     56.1349    -57.0571     46.3625     82.9658
  1108.2500     52.0429    -55.0118     44.5804     86.5562
  1108.5000     48.0065    -52.7343     42.5808     90.1128
  1108.7500     44.2884    -50.4312     40.1465     92.6038
  1109.0000     41.1009    -48.3631     37.0611     99.3917
  1109.2500     38.5462    -46.7843     33.5637    106.6136
  1109.5000     36.6168    -45.8854     30.3116    119.9081
  1109.7500     35.2450    -45.7529     27.9113    128.5460
  1110.0000     34.3627    -46.3520     26.6207    138.2631
  1110.2500     33.9343    -47.5453     26.3742    141.6060
  1110.5000     33.9614    -49.1381     26.8944    141.5105
  1110.7500     34.4736    -50.9216     27.7959    138.4223
