~Version Information
VERS.                      2.0: CWLS Log ASCII Standard - VERSION 2.0
WRAP.                       NO: One line per depth step
~Well Information Block
STRT.FT                -8.5000: 
STOP.FT              1968.0000: 
STEP.FT                 0.2500: 
NULL.                -999.2500: 
COMP.          Pioneer Natural Resources: COMPANY
WELL.           Firehawk 34-26: WELL
FLD.           Purgatorie River: FIELD
LOC.           1196' FSL & 1595' FEL--: LOCATION
STAT.                       CO: State
CNTY.               Las Animas: COUNTY
CTRY. USA : Country
SECT. 26 : Section
TOWN. 32S : Township
RANG. 66W : Range 
SRVC.          Patterson Wireline: SERVICE COMPANY
DATE.          Tue Oct 25 14:45:07 2005: LOG DATE
API.           05 071 08389 00: UNIQUE WELL ID
~Curve Information Block
DEPT.FT            0 000 00 00: Depth
CCL.                          : Casing Collar Locator
TT3.usec                      : CBL 3' Travel Time
AMP3.mV                       : CBL 3' Amplitude
GR.GAPI                       : Gamma Ray
~Parameter Information Block
~A  Depth       CCL         TT3         AMP3         GR     
# ...
   393.5000      0.0000    720.3443      1.3890     96.8379
   393.7500      0.0000    725.2892      1.5197    101.0702
   394.0000      0.0000    728.4568      1.6270    104.1863
   394.2500      0.0000    729.8224      1.6904    106.1530
   394.5000      0.0000    729.2840      1.7148    106.9700
   394.7500      0.0000    727.2610      1.7173    106.5375
   395.0000      0.0000    725.3784      1.7092    104.7670
   395.2500      0.0000    725.3713      1.6994    102.0538
   395.5000      0.0000    727.2589      1.7088     99.6292
   395.7500      0.0000    729.4435      1.7713     99.0127
   396.0000      0.0000    730.6589      1.9173    100.8082
   396.2500      0.0000    730.9103      2.1623    104.0884
   396.5000      0.0000    730.2942      2.5025    107.1938
   396.7500      0.0000    727.9573      2.9135    109.2052
   397.0000      0.0000    723.0554      3.3550    110.3919
   397.2500      0.0000    716.2786      3.7862    111.2680
   397.5000      0.0000    709.6735      4.1777    111.7954
   397.7500      0.0000    705.1046      4.5109    111.7728
   398.0000      0.0000    703.3929      4.7743    111.5321
   398.2500      0.0000    704.7442      4.9633    111.5369
   398.5000      0.0000    709.2335      5.0814    111.1045
   398.7500      0.0000    716.4194      5.1355    108.2958
   399.0000      0.0000    724.8076      5.1285    102.0529
   399.2500      0.0000    732.2674      5.0561     94.2850
   399.5000      0.0000    737.1522      4.9146     88.8132
   399.7500      0.0000    738.8144      4.7137     88.0755
   400.0000      0.0000    737.1651      4.4842     91.5947
   400.2500      0.0000    732.2925      4.2735     97.4438
   400.5000      0.0000    724.8869      4.1317    104.0490
   400.7500      0.0000    716.7838      4.0924    110.2835
   401.0000      0.0000    710.5748      4.1576    114.7445
   401.2500      0.0000    708.4279      4.3021    115.8471
   401.5000      0.0000    711.1184      4.4987    112.8820
   401.7500      0.0000    717.6600      4.7369    106.8400
   402.0000      0.0000    725.4396      5.0144     99.9299
   402.2500      0.0000    730.8481      5.3143     94.0597
   402.5000      0.0000    730.3111      5.5982     89.8588
   402.7500      0.0000    721.6346      5.8275     86.9785
   403.0000      0.0000    706.0802      5.9940     84.7016
   403.2500      0.0000    690.6268      6.1182     82.1621
   403.5000      0.0000    687.2918      6.2029     78.6609
   403.7500      0.0000    706.2900      6.2017     74.1957
   404.0000      0.0000    746.1035      6.0622     69.4955
   404.2500      0.0000    791.0914      5.7942     65.3500
   404.5000      0.0000    822.6143      5.4676     62.1568
   404.7500     -2.0000    833.1851      5.1510     60.3216
   405.0000      2.0000    828.0806      4.8749     60.7753
   405.2500      0.0000    815.6785      4.6444     64.6333
   405.5000      0.0000    800.3470      4.4790     72.2036
   405.7500      0.0000    783.0164      4.4408     82.1288
   406.0000      0.0000    764.2022      4.6079     91.3012
   406.2500      0.0000    745.8928      4.9915     96.1662
   406.5000      0.0000    731.6019      5.4848     95.1657
   406.7500      0.0000    724.0718      5.9315     89.9867
   407.0000      0.0000    722.9731      6.2423     83.8886
   407.2500      0.0000    725.5452      6.4233     79.0428
   407.5000      0.0000    728.7504      6.5157     75.7778
   407.7500      0.0000    730.1947      6.5466     73.4762
   408.0000      0.0000    728.3007      6.5297     71.3868
   408.2500      0.0000    722.9926      6.4792     69.1989
   408.5000      0.0000    716.0959      6.4068     67.5979
   408.7500      0.0000    710.3365      6.3117     67.7641
   409.0000      0.0000    707.4078      6.1777     69.7560
   409.2500      0.0000    706.8244      5.9803     71.8469
   409.5000      0.0000    706.6260      5.7001     72.0350
   409.7500      0.0000    705.2740      5.3403     69.8968
   410.0000      0.0000    702.8148      4.9368     66.6655
   410.2500      0.0000    700.3256      4.5504     64.0364
   410.5000      0.0000    698.6716      4.2443     63.2829
   410.7500      0.0000    697.9677      4.0639     64.8795
   411.0000      0.0000    697.8624      4.0275     68.2517
   411.2500      0.0000    697.9771      4.1204     71.9598
   411.5000      0.0000    698.0973      4.2974     74.5342
   411.7500      0.0000    698.1457      4.5032     75.4072
   412.0000      0.0000    698.0934      4.6968     75.2185
   412.2500      0.0000    697.9266      4.8578     75.3005
   412.5000      0.0000    697.6900      4.9808     76.7534
   412.7500      0.0000    697.5406      5.0785     79.7751
   413.0000      0.0000    697.8307      5.1864     83.6272
   413.2500      0.0000    699.2659      5.3502     87.0346
   413.5000      0.0000    702.9927      5.6025     88.7718
   413.7500      0.0000    710.1407      5.9429     88.4798
   414.0000      0.0000    720.6218      6.3234     87.3220
   414.2500      0.0000    732.2026      6.6478     87.4323
   414.5000      0.0000    741.4235      6.8092     90.0927
   414.7500      0.0000    746.0682      6.7552     94.3574
   415.0000      0.0000    746.6247      6.5220     97.6903
   415.2500      0.0000    745.2476      6.2023     98.2173
   415.5000      0.0000    743.7764      5.8804     96.3922
   415.7500      0.0000    742.8914      5.5979     94.4776
   416.0000      0.0000    742.4628      5.3646     94.6767
   416.2500      0.0000    742.0068      5.1861     97.8841
   416.5000      0.0000    740.7464      5.0744    103.5717
   416.7500      0.0000    737.6268      5.0306    110.0892
   417.0000      0.0000    731.7842      5.0241    115.1842
   417.2500      0.0000    723.4045      4.9998    117.1046
   417.5000      0.0000    714.1193      4.9161    115.7100
   417.7500      0.0000    706.2194      4.7812    112.2809
   418.0000      0.0000    701.3200      4.6504    108.1959
   418.2500      0.0000    699.8777      4.5868    104.3153
   418.5000      0.0000    701.8064      4.6184    101.6308
   418.7500      0.0000    706.9928      4.7235    101.5340
   419.0000      0.0000    714.8773      4.8497    104.7550
   419.2500      0.0000    723.8322      4.9488    110.2748
   419.5000      0.0000    731.5421      5.0016    115.4643
   419.7500      0.0000    736.2047      5.0156    117.1892
   420.0000      0.0000    737.3448      4.9975    113.2976
   420.2500      0.0000    735.8065      4.9391    104.2204
   420.5000      0.0000    733.3448      4.8403     93.4385
   420.7500      0.0000    731.8394      4.7393     85.5048
   421.0000      0.0000    732.1244      4.6999     82.7977
   421.2500      0.0000    733.3622      4.7544     83.9338
   421.5000      0.0000    733.7730      4.8679     85.1767
   421.7500      0.0000    732.0112      4.9665     83.4607
   422.0000      0.0000    727.8868      5.0023     78.4380
   422.2500      0.0000    722.0875      4.9889     72.0771
   422.5000      0.0000    715.5466      4.9852     66.7342
   422.7500      0.0000    709.1694      5.0514     63.6427
   423.0000      0.0000    703.8317      5.2148     62.6263
   423.2500      0.0000    700.1382      5.4595     62.5685
   423.5000      0.0000    698.0842      5.7423     62.1422
   423.7500      0.0000    697.1404      6.0160     60.5976
   424.0000      0.0000    696.7089      6.2459     58.1443
   424.2500      0.0000    696.4408      6.4133     55.5503
   424.5000      0.0000    696.2272      6.5148     53.4313
   424.7500      0.0000    696.0509      6.5599     51.9766
   425.0000      0.0000    695.9081      6.5664     51.0608
   425.2500      0.0000    695.8205      6.5544     50.4240
   425.5000      0.0000    695.8845      6.5395     49.9541
   425.7500      0.0000    696.2838      6.5296     49.8697
   426.0000      0.0000    697.2937      6.5191     50.3514
   426.2500      0.0000    699.1903      6.4845     51.1327
   426.5000      0.0000    701.9592      6.3928     51.9978
   426.7500      0.0000    705.1171      6.2255     53.7351
