~Version Information
VERS.                      2.0: CWLS Log ASCII Standard - VERSION 2.0
WRAP.                       NO: One line per depth step
~Well Information Block
STRT.FT               860.0000: 
STOP.FT              1907.0000: 
STEP.FT                 0.1000: 
NULL.                -999.2500: 
COMP.          Pioneer Natural Resources: COMPANY
WELL.          Victory 12-14 Tr: WELL
FLD.           Purgatoire River: FIELD
LOC.           2522' FNL & 276' FWL: LOCATION
PROV.                 Colorado: PROVINCE
CNTY.               Las Animas: COUNTRY
SRVC.                Patterson: SERVICE COMPANY
DATE.          Mon Jul 18 06:52:40 2005: LOG DATE
UWI.           05 071 08433 00: UNIQUE WELL ID
~Curve Information Block
DEPT.FT            0 000 00 00: Depth
DCAL.in                       : CDL Caliper
RHOB.g/cc                     : CDL Bulk Density
RHOC.g/cc                     : CDL Density Correction
DPOR.pu                       : CDL Density Porosity
GR.GAPI                       : Gamma Ray
NPOR.pu                       : Neutron Porosity
~Parameter Information Block
~A  Depth       DCAL        RHOB        RHOC        DPOR         GR         NPOR    
# ...
  1484.0000      8.0389      2.5520      0.0803      5.9393     62.5707     17.5052
  1484.1000      8.0389      2.5780      0.1273      4.3609     62.1070     18.1142
  1484.2000      8.0389      2.5978      0.1580      3.1608     64.7529     18.6681
  1484.3000      8.0292      2.6044      0.0879      2.7637     67.8137     18.5774
  1484.4000      8.0292      2.6023      0.1425      2.8881     70.1709     18.2409
  1484.5000      8.0200      2.5949      0.1363      3.3364     71.7542     18.4105
  1484.6000      8.0200      2.5812      0.1596      4.1677     74.1973     19.1999
  1484.7000      8.0200      2.5608      0.1259      5.4086     79.4040     20.0231
  1484.8000      8.0118      2.5474      0.0630      6.2179     85.9439     20.4191
  1484.9000      8.0118      2.5542      0.0781      5.8050     92.2732     20.6232
  1485.0000      8.0104      2.5730      0.0887      4.6664     96.7736     21.0532
  1485.1000      8.0104      2.5925      0.0651      3.4820     99.0022     21.7214
  1485.2000      8.0104      2.6136      0.1100      2.2034    104.6740     22.5055
  1485.3000      8.0244      2.6320      0.1847      1.0888    114.4078     23.0740
  1485.4000      8.0244      2.6348      0.1836      0.9220    120.1914     23.1320
  1485.5000      8.0782      2.6257      0.1670      1.4716    117.6970     22.9780
  1485.6000      8.0782      2.6186      0.1441      1.9047    109.8782     22.7956
  1485.7000      8.0782      2.6189      0.1482      1.8852    105.6384     22.4214
  1485.8000      8.0533      2.6295      0.1188      1.2414    109.0836     22.0867
  1485.9000      8.0533      2.6467      0.1394      0.2001    113.5895     22.2317
  1486.0000      7.9993      2.6628      0.1300     -0.7775    114.2807     22.6322
  1486.1000      7.9993      2.6819      0.1412     -1.9321    114.8530     22.6209
  1486.2000      7.9993      2.6997      0.1850     -3.0115    119.8991     22.1872
  1486.3000      8.0353      2.6979      0.1450     -2.9055    124.0745     21.9262
  1486.4000      8.0353      2.6733      0.1267     -1.4149    121.2188     21.9989
  1486.5000      8.0546      2.6434      0.0757      0.3989    115.3358     22.0330
  1486.6000      8.0546      2.6242      0.1206      1.5647    112.1441     21.9908
  1486.7000      8.0546      2.6125      0.0908      2.2728    113.2600     22.0502
  1486.8000      8.0574      2.6054      0.0812      2.7036    118.7021     22.1564
  1486.9000      8.0574      2.6100      0.0644      2.4269    126.2862     22.2369
  1487.0000      8.0595      2.6227      0.1024      1.6573    129.5847     22.2951
  1487.1000      8.0595      2.6349      0.0252      0.9133    127.5670     22.4733
  1487.2000      8.0595      2.6512      0.0784     -0.0701    126.5618     22.9018
  1487.3000      8.0551      2.6627      0.1214     -0.7681    126.0084     23.3082
  1487.4000      8.0551      2.6544      0.1077     -0.2638    121.5342     23.1201
  1487.5000      8.0806      2.6389      0.0811      0.6726    116.0467     22.3010
  1487.6000      8.0806      2.6368      0.0842      0.8006    113.8144     21.7331
  1487.7000      8.0806      2.6443      0.1238      0.3450    111.9312     22.1710
  1487.8000      8.0554      2.6432      0.1028      0.4139    107.9039     23.2583
  1487.9000      8.0554      2.6273      0.1023      1.3766    104.4832     24.1043
  1488.0000      8.0156      2.6044      0.0604      2.7623    101.1700     24.2996
  1488.1000      8.0156      2.5901      0.0579      3.6315     97.0543     23.9947
  1488.2000      8.0156      2.5987      0.1296      3.1113     94.8399     23.6465
  1488.3000      7.9840      2.6267      0.1672      1.4145     97.0494     23.6901
  1488.4000      7.9840      2.6567      0.1869     -0.4041    103.8977     23.9715
  1488.5000      7.9980      2.6760      0.1522     -1.5774    110.7657     23.9410
  1488.6000      7.9980      2.6816      0.1532     -1.9170    113.2937     23.6856
  1488.7000      7.9980      2.6759      0.1071     -1.5700    111.2801     23.4548
  1488.8000      8.0122      2.6584      0.1240     -0.5066    107.0034     23.2070
  1488.9000      8.0122      2.6260      0.1192      1.4561    105.1355     23.0371
  1489.0000      8.0402      2.5873      0.0884      3.7979    107.5962     22.8767
  1489.1000      8.0402      2.5560      0.0426      5.6959    109.4169     22.6954
  1489.2000      8.0402      2.5423      0.0551      6.5243    109.3380     22.7405
  1489.3000      8.0549      2.5469      0.0629      6.2462    111.5651     22.7886
  1489.4000      8.0549      2.5596      0.0443      5.4761    115.9888     22.6089
  1489.5000      8.0522      2.5738      0.0665      4.6164    119.7700     22.5102
  1489.6000      8.0522      2.5834      0.0974      4.0372    121.5198     22.4834
  1489.7000      8.0522      2.5824      0.0622      4.0984    121.0007     22.2477
  1489.8000      8.0507      2.5792      0.1193      4.2889    119.0959     21.8618
  1489.9000      8.0507      2.5802      0.1478      4.2300    119.7441     21.7218
  1490.0000      8.0700      2.5859      0.1191      3.8848    125.1227     22.2055
  1490.1000      8.0700      2.6008      0.1611      2.9820    130.9081     23.0300
  1490.2000      8.0700      2.6192      0.1470      1.8640    132.7110     23.6935
  1490.3000      8.0426      2.6298      0.1386      1.2255    129.3293     24.2550
  1490.4000      8.0426      2.6279      0.1259      1.3374    124.5220     24.6541
  1490.5000      8.0320      2.6196      0.1030      1.8397    123.6033     24.7995
  1490.6000      8.0320      2.6204      0.0866      1.7921    126.5396     24.9326
  1490.7000      8.0320      2.6360      0.1590      0.8463    130.1331     24.9822
  1490.8000      8.0456      2.6537      0.1498     -0.2265    132.8486     24.6842
  1490.9000      8.0456      2.6628      0.1391     -0.7741    134.4648     24.1106
  1491.0000      8.0586      2.6602      0.0984     -0.6173    137.1933     23.4357
  1491.1000      8.0586      2.6390      0.1379      0.6683    143.3801     22.8862
  1491.2000      8.0586      2.6022      0.1009      2.8996    149.9175     22.5772
  1491.3000      8.0747      2.5604      0.0981      5.4329    151.7390     22.2357
  1491.4000      8.0747      2.5142      0.0880      8.2322    149.2358     21.6001
  1491.5000      8.0654      2.4745      0.0069     10.6376    144.7447     20.8229
  1491.6000      8.0654      2.4654     -0.0101     11.1851    140.0447     20.2080
  1491.7000      8.0654      2.4817      0.0485     10.1980    136.4176     19.7963
  1491.8000      8.0575      2.4948      0.0966      9.4087    134.1635     19.4604
  1491.9000      8.0575      2.4963      0.1227      9.3153    133.9800     19.3584
  1492.0000      8.0283      2.5023      0.1168      8.9505    136.3847     19.4187
  1492.1000      8.0283      2.5276      0.2218      7.4160    140.2485     19.4219
  1492.2000      8.0283      2.5623      0.2471      5.3135    141.3387     19.5804
  1492.3000      8.0290      2.5879      0.2844      3.7607    137.4836     20.1492
  1492.4000      8.0290      2.6024      0.2770      2.8863    133.3300     21.1113
  1492.5000      8.0274      2.6194      0.2068      1.8528    134.5984     22.1744
  1492.6000      8.0274      2.6444      0.2494      0.3406    140.4767     22.8661
  1492.7000      8.0274      2.6604      0.2602     -0.6319    146.9798     23.2477
  1492.8000      8.0462      2.6555      0.2577     -0.3304    154.4196     23.9604
  1492.9000      8.0462      2.6332      0.2265      1.0159    160.7546     25.2260
  1493.0000      8.1211      2.6050      0.1551      2.7256    161.1728     26.2489
  1493.1000      8.1211      2.5817      0.1423      4.1421    159.4680     26.2367
  1493.2000      8.1211      2.5645      0.1009      5.1803    160.8851     25.6712
  1493.3000      8.1985      2.5470      0.1265      6.2396    163.4656     25.4789
  1493.4000      8.1985      2.5283      0.0364      7.3778    164.0479     25.7741
  1493.5000      8.1386      2.5186      0.0500      7.9613    160.4115     26.0500
