~Version Information
VERS.                      2.0: CWLS Log ASCII Standard - VERSION 2.0
WRAP.                       NO: One line per depth step
~Well Information Block
STRT.FT               350.0000: 
STOP.FT              2264.0000: 
STEP.FT                 0.1000: 
NULL.                -999.2500: 
COMP.          Pioneer Natural Resources: COMPANY
WELL.             Warrior 32-1: WELL
FLD.           Purgatoire River: FIELD
LOC.           2624' FNL & 2392' FEL: LOCATION
PROV.                 Colorado: PROVINCE
CNTY.               Las Animas: COUNTRY
SRVC.                Patterson: SERVICE COMPANY
DATE.          Tue Oct 05 06:54:20 2004: LOG DATE
UWI.           05 071 08176 00: UNIQUE WELL ID
~Curve Information Block
DEPT.FT            0 000 00 00: Depth
DCAL.in                       : CDL Caliper
RHOB.g/cc                     : CDL Bulk Density
RHOC.g/cc                     : CDL Density Correction
DPOR.pu                       : CDL Density Porosity
NPOR.pu                       : Neutron Porosity
GR.GAPI                       : Gamma Ray
~Parameter Information Block
~A  Depth       DCAL        RHOB        RHOC        DPOR        NPOR         GR     
# ...
  1866.8000      7.8444      2.5570      0.0769      5.6378     18.4063     92.0290
  1866.9000      7.8444      2.5679      0.0534      4.9746     18.6686     99.3394
  1867.0000      7.8926      2.5900      0.0837      3.6349     19.2831     99.0617
  1867.1000      7.8926      2.6105      0.1181      2.3940     19.6190     94.7085
  1867.2000      7.8926      2.6088      0.0768      2.4946     19.2379     88.6841
  1867.3000      7.9178      2.5867      0.0901      3.8360     18.6355     82.4586
  1867.4000      7.9178      2.5724      0.0142      4.7059     18.2697     75.0750
  1867.5000      7.9221      2.5849      0.0595      3.9477     18.1884     66.5733
  1867.6000      7.9221      2.5983      0.1072      3.1321     18.2325     62.6964
  1867.7000      7.9221      2.5821      0.0633      4.1152     18.1784     65.0196
  1867.8000      7.9208      2.5483      0.0162      6.1650     18.1323     68.2171
  1867.9000      7.9208      2.5250      0.0126      7.5762     18.3660     70.5491
  1868.0000      7.9188      2.5184      0.0434      7.9745     18.6012     75.6678
  1868.1000      7.9188      2.5159      0.0600      8.1272     18.4183     81.1162
  1868.2000      7.9188      2.5138      0.0212      8.2523     17.9664     77.5823
  1868.3000      7.9171      2.5183      0.0478      7.9821     17.5509     64.5173
  1868.4000      7.9171      2.5259      0.0472      7.5204     17.3313     52.7012
  1868.5000      7.9130      2.5364      0.0142      6.8851     17.1388     49.4392
  1868.6000      7.9130      2.5504      0.0648      6.0358     16.9569     53.9608
  1868.7000      7.9130      2.5568      0.0680      5.6515     17.0063     59.2772
  1868.8000      7.9032      2.5575      0.0598      5.6083     17.2751     59.3113
  1868.9000      7.9032      2.5614      0.0937      5.3685     17.5140     55.5274
  1869.0000      7.8952      2.5654      0.0593      5.1278     17.3187     52.4853
  1869.1000      7.8952      2.5707      0.0577      4.8067     16.7145     54.2563
  1869.2000      7.8952      2.5819      0.0741      4.1275     16.3736     61.3306
  1869.3000      7.8932      2.5894      0.1348      3.6727     16.8368     66.5960
  1869.4000      7.8932      2.5851      0.0768      3.9340     17.8741     67.4393
  1869.5000      7.8937      2.5737      0.0899      4.6233     18.6855     70.7037
  1869.6000      7.8937      2.5592      0.0527      5.5034     18.8236     78.8478
  1869.7000      7.8937      2.5498      0.0249      6.0728     18.2634     85.8002
  1869.8000      7.8920      2.5533      0.0539      5.8609     17.4788     86.3414
  1869.9000      7.8920      2.5615      0.0695      5.3618     16.9310     82.2841
  1870.0000      7.8875      2.5648      0.0461      5.1643     16.5347     77.7285
  1870.1000      7.8875      2.5688      0.0259      4.9232     16.3347     76.2023
  1870.2000      7.8875      2.5779      0.0664      4.3707     16.4383     78.1869
  1870.3000      7.8861      2.5821      0.0581      4.1159     16.6519     81.8642
  1870.4000      7.8861      2.5685      0.0714      4.9382     16.6753     86.2787
  1870.5000      7.8916      2.5388      0.0312      6.7389     16.4334     89.1078
  1870.6000      7.8916      2.5146     -0.0187      8.2036     16.1550     87.8110
  1870.7000      7.8916      2.5125      0.0099      8.3319     16.1954     83.3993
  1870.8000      7.8961      2.5243      0.0461      7.6158     16.7453     79.6846
  1870.9000      7.8961      2.5335      0.0572      7.0616     17.2625     75.9437
  1871.0000      7.8956      2.5377      0.0327      6.8081     17.0580     71.4320
  1871.1000      7.8956      2.5440      0.0568      6.4261     16.5848     68.5487
  1871.2000      7.8956      2.5526      0.0491      5.9009     16.4758     69.7577
  1871.3000      7.8939      2.5594      0.0663      5.4885     16.4603     72.5177
  1871.4000      7.8939      2.5625      0.0726      5.3024     16.3751     70.6791
  1871.5000      7.8945      2.5645      0.0312      5.1830     16.5046     66.0943
  1871.6000      7.8945      2.5633      0.0820      5.2517     16.7454     64.3104
  1871.7000      7.8945      2.5532      0.0378      5.8692     16.6093     66.2898
  1871.8000      7.8972      2.5439      0.0138      6.4316     16.0193     69.3760
  1871.9000      7.8972      2.5460      0.0461      6.3043     15.4668     68.7074
  1872.0000      7.8979      2.5555     -0.0063      5.7272     15.2024     63.2563
  1872.1000      7.8979      2.5656      0.0734      5.1151     14.8858     59.4904
  1872.2000      7.8979      2.5739      0.0359      4.6105     14.3548     60.7779
  1872.3000      7.8953      2.5834      0.0691      4.0380     13.8965     63.9600
  1872.4000      7.8953      2.5896      0.0706      3.6595     13.6971     66.0762
  1872.5000      7.8917      2.5897      0.0454      3.6546     13.8428     68.7345
  1872.6000      7.8917      2.5836      0.0511      4.0220     14.3080     72.3494
  1872.7000      7.8917      2.5697      0.0653      4.8681     14.7550     70.5933
  1872.8000      7.8794      2.5547      0.0225      5.7728     14.8027     63.6913
  1872.9000      7.8794      2.5494      0.0327      6.0997     14.6257     60.6603
  1873.0000      7.8655      2.5538      0.0483      5.8295     14.7292     63.3469
  1873.1000      7.8655      2.5585      0.0399      5.5440     15.5119     65.6851
  1873.2000      7.8655      2.5569      0.0126      5.6442     16.8323     63.8487
  1873.3000      7.8750      2.5512      0.0439      5.9893     17.8094     59.6384
  1873.4000      7.8750      2.5462      0.0450      6.2921     18.0790     57.4928
  1873.5000      7.8890      2.5409      0.0538      6.6104     18.1061     58.3398
  1873.6000      7.8890      2.5259      0.0466      7.5189     18.1577     60.3926
  1873.7000      7.8890      2.5023      0.0084      8.9525     18.3206     63.9679
  1873.8000      7.8921      2.4872     -0.0003      9.8687     18.5205     68.3050
  1873.9000      7.8921      2.4937     -0.0132      9.4753     18.5247     69.9065
  1874.0000      7.8912      2.5168      0.0235      8.0757     18.1824     65.2320
  1874.1000      7.8912      2.5396      0.0340      6.6931     17.5538     56.6256
  1874.2000      7.8912      2.5489      0.0614      6.1297     17.2360     50.5101
  1874.3000      7.8916      2.5437      0.0235      6.4450     17.5838     46.5020
  1874.4000      7.8916      2.5356      0.0330      6.9313     18.1710     44.2542
  1874.5000      7.8923      2.5380      0.0193      6.7873     18.4861     46.8717
  1874.6000      7.8923      2.5548      0.0414      5.7704     18.4361     52.8811
  1874.7000      7.8923      2.5737      0.0477      4.6229     18.5346     58.1986
  1874.8000      7.8916      2.5835      0.0569      4.0276     19.1642     61.4622
  1874.9000      7.8916      2.5931      0.0226      3.4463     19.8034     65.9214
  1875.0000      7.8916      2.6060      0.0854      2.6668     20.0029     70.4923
  1875.1000      7.8916      2.6021      0.0819      2.9003     20.3458     72.4919
  1875.2000      7.8916      2.5741      0.0382      4.5991     21.2965     76.4784
  1875.3000      7.8931      2.5472     -0.0164      6.2282     22.3322     84.8880
  1875.4000      7.8931      2.5418      0.0291      6.5599     22.7901     93.9242
  1875.5000      7.8931      2.5428      0.0468      6.4941     22.7719     98.0789
  1875.6000      7.8931      2.5296      0.0311      7.2976     23.0600     95.6134
  1875.7000      7.8931      2.5067      0.0016      8.6870     23.6840     91.5660
  1875.8000      7.8925      2.4923     -0.0113      9.5576     23.8062     89.0137
  1875.9000      7.8925      2.4950      0.0156      9.3916     23.1660     88.3128
  1876.0000      7.8969      2.5078      0.0288      8.6176     22.5426     91.8943
  1876.1000      7.8969      2.5167      0.0823      8.0761     22.7454    100.7906
  1876.2000      7.8969      2.5197      0.0629      7.8940     23.4034    109.0235
  1876.3000      7.9005      2.5325      0.0851      7.1200     23.6157    111.3037
