~Version Information
VERS.                      2.0: CWLS Log ASCII Standard - VERSION 2.0
WRAP.                       NO: One line per depth step
~Well Information Block
STRT.FT               845.0000: 
STOP.FT              2308.2000: 
STEP.FT                 0.1000: 
NULL.                -999.2500: 
COMP.          Pioneer Natural Resources: COMPANY
WELL.             Vector 33-23: WELL
FLD.           Purgatoire River: FIELD
LOC.           1560' FEL & 1988' FSL----: LOCATION
PROV.                 Colorado: PROVINCE
CNTY.               Las Animas: COUNTRY
SRVC.                Patterson: SERVICE COMPANY
DATE.          Mon Mar 28 08:17:25 2005: LOG DATE
UWI.           05 071 08336 00: UNIQUE WELL ID
~Curve Information Block
DEPT.FT            0 000 00 00: Depth
DCAL.in                       : CDL Caliper
RHOB.g/cc                     : CDL Bulk Density
RHOC.g/cc                     : CDL Density Correction
DPOR.pu                       : CDL Density Porosity
NPOR.pu                       : Neutron Porosity
GR.GAPI                       : Gamma Ray
~Parameter Information Block
~A  Depth       DCAL        RHOB        RHOC        DPOR        NPOR         GR     
# ...
  1603.4000      8.1405      2.5583      0.0466      5.5577     26.0130    148.9540
  1603.5000      8.1414      2.6193      0.1000      1.8623     25.5463    145.6598
  1603.6000      8.1414      2.6875      0.1115     -2.2700     25.3561    138.8500
  1603.7000      8.1414      2.7532      0.1471     -6.2534     25.3515    133.7640
  1603.8000      8.1425      2.8065      0.1794     -9.4846     25.2844    131.6911
  1603.9000      8.1425      2.8318      0.1457    -11.0186     24.9828    125.9692
  1604.0000      8.1432      2.8348      0.1544    -11.2019     24.3457    114.9149
  1604.1000      8.1432      2.8267      0.1429    -10.7112     23.5600    103.3496
  1604.2000      8.1432      2.8017      0.1191     -9.1924     22.7975     96.0269
  1604.3000      8.1431      2.7696      0.0158     -7.2470     22.2243     92.0812
  1604.4000      8.1431      2.7571      0.0135     -6.4879     21.9510     86.9462
  1604.5000      8.1425      2.7550      0.0227     -6.3639     21.7652     82.0979
  1604.6000      8.1425      2.7330      0.0045     -5.0325     21.6145     81.9637
  1604.7000      8.1425      2.6942      0.0120     -2.6804     21.6498     86.0717
  1604.8000      8.1425      2.6655     -0.0260     -0.9406     21.8290     91.9129
  1604.9000      8.1425      2.6524      0.0597     -0.1449     22.1256     98.0219
  1605.0000      8.1428      2.6369      0.0642      0.7965     22.4008    102.5978
  1605.1000      8.1428      2.6238      0.0083      1.5858     22.4140    103.1991
  1605.2000      8.1428      2.6325      0.0365      1.0623     22.3837    100.5705
  1605.3000      8.1411      2.6503      0.0822     -0.0178     22.5656     97.8275
  1605.4000      8.1411      2.6475      0.0779      0.1502     22.9169     96.8432
  1605.5000      8.1389      2.6277      0.0166      1.3539     23.5776     97.3950
  1605.6000      8.1389      2.6174      0.0354      1.9742     24.3280    101.1652
  1605.7000      8.1389      2.6227      0.0547      1.6538     24.8598    108.1581
  1605.8000      8.1391      2.6349      0.0800      0.9168     25.3818    113.0737
  1605.9000      8.1391      2.6447      0.0716      0.3222     25.9181    114.5744
  1606.0000      8.1407      2.6414      0.0945      0.5232     26.4493    118.1134
  1606.1000      8.1407      2.6275      0.0657      1.3633     27.0349    126.5930
  1606.2000      8.1407      2.6133      0.0923      2.2262     27.2892    135.4456
  1606.3000      8.1425      2.5988      0.0526      3.1008     26.9091    136.4568
  1606.4000      8.1425      2.5886      0.0329      3.7223     26.3077    129.2285
  1606.5000      8.1438      2.5864      0.0880      3.8532     26.0407    123.5584
  1606.6000      8.1438      2.5876      0.0594      3.7818     26.4422    126.2254
  1606.7000      8.1438      2.5879      0.0694      3.7623     27.0616    134.1009
  1606.8000      8.1444      2.5827      0.0665      4.0774     27.1558    141.4486
  1606.9000      8.1444      2.5750      0.0494      4.5441     26.7251    145.4652
  1607.0000      8.1443      2.5720      0.0417      4.7298     25.9949    143.5140
  1607.1000      8.1443      2.5707      0.0450      4.8065     25.3684    136.2063
  1607.2000      8.1443      2.5662      0.0537      5.0797     25.0509    129.5826
  1607.3000      8.1432      2.5598      0.0863      5.4677     24.8975    124.5392
  1607.4000      8.1432      2.5515      0.0764      5.9720     24.9073    121.0684
  1607.5000      8.1415      2.5362      0.0914      6.8941     24.8988    122.2057
  1607.6000      8.1415      2.5184      0.0562      7.9784     24.6497    125.6811
  1607.7000      8.1415      2.5080      0.1016      8.6066     24.3711    129.3016
  1607.8000      8.1408      2.5022      0.1022      8.9580     24.2610    135.1094
  1607.9000      8.1408      2.5012      0.0832      9.0164     24.3209    139.3642
  1608.0000      8.1423      2.5185      0.0669      7.9673     24.5380    136.2376
  1608.1000      8.1423      2.5517      0.1054      5.9568     24.8291    129.0314
  1608.2000      8.1423      2.5785      0.1425      4.3322     25.0738    125.4666
  1608.3000      8.1429      2.5866      0.1315      3.8432     25.4274    126.2006
  1608.4000      8.1429      2.5815      0.1126      4.1502     25.9756    125.6249
  1608.5000      8.1419      2.5735      0.1093      4.6388     26.2308    120.8694
  1608.6000      8.1419      2.5763      0.0826      4.4686     25.7841    115.6184
  1608.7000      8.1419      2.5952      0.1178      3.3233     25.1544    116.1079
  1608.8000      8.1425      2.6099      0.1150      2.4295     25.0391    123.7604
  1608.9000      8.1425      2.6049      0.0674      2.7308     25.2549    131.8863
  1609.0000      8.1437      2.5839      0.0863      4.0078     25.2923    136.4006
  1609.1000      8.1437      2.5567      0.0411      5.6563     25.2093    138.4047
  1609.2000      8.1437      2.5492      0.0203      6.1092     25.1893    136.4993
  1609.3000      8.1433      2.5757      0.0879      4.5001     25.2927    132.6076
  1609.4000      8.1433      2.6094      0.0996      2.4614     25.5964    131.3637
  1609.5000      8.1421      2.6242      0.1081      1.5615     26.1192    131.7866
  1609.6000      8.1421      2.6250      0.1138      1.5143     26.7663    133.0180
  1609.7000      8.1421      2.6207      0.0900      1.7777     27.3988    133.7265
  1609.8000      8.1417      2.6083      0.1130      2.5289     27.9301    133.3416
  1609.9000      8.1417      2.5853      0.0699      3.9207     28.1810    133.6728
  1610.0000      8.1412      2.5619      0.0961      5.3378     27.9543    131.9231
  1610.1000      8.1412      2.5456      0.0808      6.3284     27.6632    128.9304
  1610.2000      8.1412      2.5267      0.0775      7.4749     28.1121    131.8653
  1610.3000      8.1399      2.4948      0.0311      9.4041     29.1220    135.0948
  1610.4000      8.1399      2.4620     -0.0132     11.3955     29.6463    129.0531
  1610.5000      8.1406      2.4449      0.0343     12.4305     29.2043    121.1671
  1610.6000      8.1406      2.4343      0.0603     13.0716     28.5202    123.6650
  1610.7000      8.1406      2.4145      0.0290     14.2711     28.3876    136.2999
  1610.8000      8.1416      2.4003      0.0121     15.1320     28.4052    145.5677
  1610.9000      8.1416      2.4147      0.0402     14.2594     27.7273    143.1424
  1611.0000      8.1406      2.4490      0.1107     12.1799     26.7558    136.8434
  1611.1000      8.1406      2.4807      0.1419     10.2596     26.3409    133.4826
  1611.2000      8.1406      2.5047      0.1629      8.8045     26.1757    130.1996
  1611.3000      8.1384      2.5244      0.2080      7.6151     25.6361    124.8814
  1611.4000      8.1384      2.5422      0.2301      6.5314     25.0142    120.1922
  1611.5000      8.1334      2.5715      0.1734      4.7600     24.7213    115.8917
  1611.6000      8.1334      2.6159      0.2445      2.0686     24.3292    109.0942
  1611.7000      8.1334      2.6486      0.2054      0.0861     23.4543    101.4747
  1611.8000      8.1254      2.6553      0.1409     -0.3214     22.4858     96.2054
  1611.9000      8.1254      2.6558      0.0871     -0.3535     21.7179     92.2621
  1612.0000      8.1210      2.6613      0.0983     -0.6862     20.9329     88.4716
  1612.1000      8.1210      2.6596      0.0867     -0.5797     20.6348     87.1994
  1612.2000      8.1210      2.6442      0.0826      0.3539     21.4791     91.5059
  1612.3000      8.1210      2.6287      0.0285      1.2932     22.6350     98.8549
  1612.4000      8.1210      2.6295      0.0512      1.2400     22.9789    102.5037
  1612.5000      8.1199      2.6324      0.0979      1.0659     22.6697    101.6520
  1612.6000      8.1199      2.6121      0.0558      2.2963     22.6255    100.5188
  1612.7000      8.1199      2.5795      0.0140      4.2700     23.4339    102.9620
  1612.8000      8.1156      2.5617      0.0258      5.3522     24.5138    109.6648
  1612.9000      8.1156      2.5660      0.0199      5.0930     25.0362    114.8903
