~Version Information
VERS.                      2.0: CWLS Log ASCII Standard - VERSION 2.0
WRAP.                       NO: One line per depth step
~Well Information Block
STRT.FT                -7.5000: 
STOP.FT              1129.7500: 
STEP.FT                 0.2500: 
NULL.                -999.2500: 
COMP.          Pioneer Natural Resources: COMPANY
WELL.          Drewmeister 34-34: WELL
FLD.           Purgatorie River: FIELD
LOC.           958' FSL & 1857' FEL: LOCATION
STAT.                       CO: State
CNTY.               Las Animas: COUNTRY
CTRY. USA : Country
SECT. 34 : Section
TOWN. 32S : Township
RANG. 65W : Range
SRVC.          Patterson Wireline: SERVICE COMPANY
DATE.          Fri Oct 14 14:02:00 2005: LOG DATE
API.           05 071 08131 00: UNIQUE WELL ID
~Curve Information Block
DEPT.FT            0 000 00 00: Depth
CCL.                          : Casing Collar Locator
TT3.usec                      : CBL 3' Travel Time
AMP3.mV                       : CBL 3' Amplitude
GR.GAPI                       : Gamma Ray
~Parameter Information Block
~A  Depth       CCL         TT3         AMP3         GR     
    -7.5000   -999.2500   -999.2500   -999.2500    113.2799
    -7.2500   -999.2500   -999.2500   -999.2500    107.5970
    -7.0000   -999.2500   -999.2500   -999.2500    103.8666
    -6.7500   -999.2500   -999.2500   -999.2500    102.8149
    -6.5000   -999.2500   -999.2500   -999.2500    102.9373
    -6.2500   -999.2500   -999.2500   -999.2500    102.1613
    -6.0000   -999.2500   -999.2500   -999.2500     99.8352
    -5.7500   -999.2500   -999.2500   -999.2500     96.8444
    -5.5000   -999.2500   -999.2500   -999.2500     94.2817
    -5.2500   -999.2500   -999.2500   -999.2500     92.5572
    -5.0000   -999.2500   -999.2500   -999.2500     91.5079
    -4.7500   -999.2500   -999.2500   -999.2500     90.7551
    -4.5000   -999.2500   -999.2500   -999.2500     89.8909
    -4.2500   -999.2500   -999.2500   -999.2500     88.7269
    -4.0000   -999.2500   -999.2500   -999.2500     87.6726
    -3.7500   -999.2500   -999.2500   -999.2500     87.5984
    -3.5000   -999.2500   -999.2500   -999.2500     88.8451
    -3.2500   -999.2500   -999.2500   -999.2500     90.4406
    -3.0000   -999.2500   -999.2500   -999.2500     90.8182
    -2.7500   -999.2500   -999.2500   -999.2500     89.3675
    -2.5000   -999.2500   1158.0000     -0.9526     86.8209
    -2.2500   -999.2500   1158.0000     -0.9493     84.2997
    -2.0000   -999.2500   1158.0000     -0.9456     82.6569
    -1.7500   -999.2500   1158.0000     -0.9422     82.5838
    -1.5000   -999.2500   1158.0000     -0.9400     84.3977
    -1.2500   -999.2500   1158.0000     -0.9394     87.3206
    -1.0000   -999.2500   1158.0000     -0.9397     89.3983
    -0.7500   -999.2500   1158.0000     -0.9392     88.5218
    -0.5000   -999.2500   1158.0000     -0.9366     83.7527
    -0.2500   -999.2500   1158.0000     -0.9325     75.9782
     0.0000   -999.2500   1158.0000     -0.9284     67.4335
     0.2500   -999.2500   1158.0000     -0.9248     60.4176
     0.5000   -999.2500   1158.0000     -0.9210     56.2621
     0.7500   -999.2500   1158.0000     -0.9185     55.2103
     1.0000   -999.2500   1158.0000     -0.9309     59.6195
     1.2500   -999.2500   1158.0000     -0.9452     62.0086
     1.5000   -999.2500   1158.0000     -0.9568     62.3437
     1.7500   -999.2500   1158.0000     -0.9607     60.4468
     2.0000   -999.2500   1158.0000     -0.9570     57.4685
     2.2500   -999.2500   1158.0000     -0.9507     54.7412
     2.5000   -999.2500   1158.0000     -0.9466     52.8584
     2.7500   -999.2500   1158.0000     -0.9467     51.4683
     3.0000      0.0000   1158.0000     -0.9491     49.3924
     3.2500      0.0000   1158.0000     -0.9508     45.2230
     3.5000      0.0000   1158.0000     -0.9506     38.5708
     3.7500      0.0000   1158.0000     -0.9499     30.8543
     4.0000      0.0000   1157.9440     -0.9483     24.4206
     4.2500      0.0000   1157.5784     -0.9338     20.7838
     4.5000      0.0000   1155.7217     -0.8547     19.7875
     4.7500      0.0000   1148.3784     -0.5529     20.1835
     5.0000      0.0000   1125.7593      0.3423     20.6597
     5.2500      0.0000   1071.4979      2.4412     20.4868
     5.5000      0.0000    970.1199      6.3186     19.7663
     5.7500      0.0000    822.6005     11.9420     19.4141
     6.0000      0.0000    655.3732     18.3465     20.7524
     6.2500      0.0000    507.5410     24.1463     24.6664
     6.5000      2.0000    405.1453     28.5936     30.8431
     6.7500     -2.0000    348.4003     32.2102     37.8422
     7.0000     -2.0000    321.0494     36.4898     44.0471
     7.2500      0.0000    306.6719     42.9536     48.7168
     7.5000      0.0000    296.6825     52.0918     52.2783
     7.7500      0.0000    289.0455     62.8121     55.6465
     8.0000      0.0000    284.0172     72.9618     59.2226
     8.2500      0.0000    281.4758     80.6721     62.5012
     8.5000      0.0000    280.5575     85.3683     64.5690
     8.7500      0.0000    280.3653     87.6658     64.9314
     9.0000      0.0000    280.3781     88.5771     63.9637
     9.2500      0.0000    280.4154     88.8858     62.6438
     9.5000      0.0000    280.4467     88.9961     61.8452
     9.7500      0.0000    280.4733     89.0519     61.8854
    10.0000      0.0000    280.4941     89.0824     62.5741
    10.2500      0.0000    280.5073     89.0893     63.3823
    10.5000      0.0000    280.5139     89.0786     63.5330
    10.7500      0.0000    280.5169     89.0649     62.2791
    11.0000      0.0000    280.5197     89.0637     59.4174
    11.2500      0.0000    280.5243     89.0795     55.6763
    11.5000      0.0000    280.5309     89.1004     52.5278
    11.7500      0.0000    280.5387     89.1074     51.3112
    12.0000      0.0000    280.5470     89.0833     52.2940
    12.2500      0.0000    280.5555     88.9999     54.7015
    12.5000      0.0000    280.5660     88.7822     57.7039
    12.7500      0.0000    280.5961     88.2849     61.0715
    13.0000      0.0000    280.7074     87.3095     64.8733
    13.2500      0.0000    281.0258     85.6561     68.9816
    13.5000      0.0000    281.7009     83.1813     72.9624
    13.7500      0.0000    282.7947     79.8888     76.1212
    14.0000      0.0000    284.1838     76.0815     77.6943
    14.2500      0.0000    285.5900     72.4310     77.3186
    14.5000      0.0000    286.7345     69.7032     75.2865
    14.7500      0.0000    287.4844     68.2170     72.3331
    15.0000      0.0000    287.8796     67.5455     69.5133
    15.2500      0.0000    288.0570     66.7903     68.2584
    15.5000     -2.0000    288.1552     65.1379     69.7928
    15.7500      0.0000    288.2584     62.2233     74.0249
    16.0000      0.0000    288.3815     58.1844     79.3463
    16.2500      0.0000    288.4853     53.5591     83.6926
    16.5000      0.0000    288.5316     49.1106     85.6521
    16.7500      0.0000    288.6078     45.5415     84.8395
    17.0000      0.0000    289.1231     43.1168     81.6650
    17.2500      0.0000    290.9021     41.4348     76.7527
    17.5000      0.0000    294.8483     39.6408     70.5819
    17.7500      0.0000    301.1624     37.0261     63.8765
    18.0000      0.0000    308.9301     33.5023     58.0830
    18.2500      0.0000    316.9698     29.5419     54.8940
    18.5000      0.0000    325.4742     25.7568     55.2136
    18.7500      0.0000    336.6503     22.5624     58.7138
    19.0000      0.0000    353.0014     20.1086     64.0142
    19.2500      0.0000    374.3388     18.3557     69.0644
    19.5000      0.0000    396.8736     17.1636     72.0580
    19.7500      0.0000    416.1827     16.3581     72.7152
    20.0000      0.0000    430.7600     15.7818     72.5589
    20.2500      0.0000    441.8218     15.3268     73.5604
    20.5000      0.0000    450.5102     14.9416     76.5136
    20.7500      0.0000    456.7314     14.6107     80.4785
    21.0000      0.0000    459.9676     14.3331     83.4507
    21.2500      0.0000    459.6521     14.1122     83.8068
    21.5000      0.0000    454.9837     13.9521     81.5055
    21.7500      0.0000    445.7255     13.8492     77.9237
    22.0000      0.0000    433.6908     13.7883     74.5190
    22.2500      0.0000    422.9703     13.7463     71.8207
    22.5000      0.0000    418.1696     13.7014     69.6250
    22.7500      0.0000    421.6178     13.6426     67.8839
    23.0000      0.0000    431.4591     13.5787     67.3778
    23.2500      0.0000    442.3653     13.5387     69.5808
    23.5000      0.0000    448.7501     13.5569     75.5143
    23.7500      0.0000    448.2571     13.6525     84.3450
    24.0000      0.0000    444.0315     13.8224     93.2343
    24.2500      0.0000    443.6707     14.0475     98.9596
    24.5000      0.0000    452.3482     14.3011     99.9112
    24.7500      0.0000    464.5648     14.5538     96.6527
    25.0000      0.0000    466.2755     14.7777     91.0637
    25.2500      0.0000    448.9605     14.9528     85.4027
    25.5000      0.0000    419.2861     15.0735     81.6763
    25.7500      0.0000    393.1607     15.1448     80.8801
