~Version Information
VERS.                      2.0: CWLS Log ASCII Standard - VERSION 2.0
WRAP.                       NO: One line per depth step
~Well Information Block
STRT.FT               580.0000: 
STOP.FT              1756.7500: 
STEP.FT                 0.2500: 
NULL.                -999.2500: 
COMP.          Pioneer Natural Resources: COMPANY
WELL.          Lookout Point 31-23 Tr: WELL
FLD.           Purgatoire River: FIELD
LOC.           541' FNL & 1786' FEL: LOCATION
PROV.                 Colorado: PROVINCE
CNTY.               Las Animas: COUNTRY
SRVC.                Patterson: SERVICE COMPANY
DATE.          Sun Jan 23 04:14:25 2005: LOG DATE
UWI.           05 071 08260 00: UNIQUE WELL ID
~Curve Information Block
DEPT.FT            0 000 00 00: Depth
DIR.Ohm-m                     : IEL Induction Resistivity
GR.GAPI                       : Gamma Ray
SN.Ohm-m                      : IEL Short Normal
SP.mV                         : IEL Spontaneous Potential
~Parameter Information Block
~A  Depth       DIR          GR          SN          SP     
# ...
  1049.0000      9.2382    111.5222      8.7184     45.6336
  1049.2500      9.2344    109.0224      8.7750     46.4688
  1049.5000      9.2315    106.4245      8.9366     47.3123
  1049.7500      9.2162    105.2954      9.1153     48.1028
  1050.0000      9.1762    104.1152      9.2372     48.7781
  1050.2500      9.1062    103.5965      9.2787     49.2947
  1050.5000      9.0107    103.1825      9.2778     49.6427
  1050.7500      8.9041    102.9765      9.3038     49.8488
  1051.0000      8.8054    102.2482      9.4039     49.9603
  1051.2500      8.7311    101.2819      9.5705     50.0197
  1051.5000      8.6906     99.3200      9.7564     50.0419
  1051.7500      8.6843     98.0532      9.9130     50.0109
  1052.0000      8.7067     96.8692     10.0157     49.8983
  1052.2500      8.7505     96.7833     10.0661     49.6926
  1052.5000      8.8117     97.7131     10.0817     49.4201
  1052.7500      8.8902     98.7555     10.0847     49.1405
  1053.0000      8.9878    100.2590     10.0953     48.9223
  1053.2500      9.1036    101.1163     10.1264     48.8126
  1053.5000      9.2319    102.6478     10.1800     48.8231
  1053.7500      9.3623    104.0098     10.2486     48.9397
  1054.0000      9.4821    106.1526     10.3208     49.1470
  1054.2500      9.5787    107.2260     10.3864     49.4453
  1054.5000      9.6419    107.7686     10.4387     49.8482
  1054.7500      9.6686    107.2402     10.4755     50.3601
  1055.0000      9.6650    105.2140     10.4982     50.9540
  1055.2500      9.6443    103.4862     10.5072     51.5643
  1055.5000      9.6202    101.4664     10.5022     52.1026
  1055.7500      9.6020    100.9983     10.4887     52.4876
  1056.0000      9.5934    101.7825     10.4793     52.6708
  1056.2500      9.5943    103.0503     10.4837     52.6472
  1056.5000      9.6031    105.3672     10.4994     52.4458
  1056.7500      9.6184    106.8527     10.5159     52.1096
  1057.0000      9.6393    108.9506     10.5259     51.6777
  1057.2500      9.6649    110.4440     10.5308     51.1773
  1057.5000      9.6935    112.7475     10.5402     50.6291
  1057.7500      9.7211    113.7882     10.5644     50.0584
  1058.0000      9.7422    113.3967     10.6055     49.5023
  1058.2500      9.7511    111.5596     10.6529     49.0065
  1058.5000      9.7433    107.2974     10.6928     48.6145
  1058.7500      9.7179    104.4568     10.7205     48.3551
  1059.0000      9.6780    101.6305     10.7432     48.2330
  1059.2500      9.6310    101.0112     10.7689     48.2284
  1059.5000      9.5864    101.8841     10.7951     48.3017
  1059.7500      9.5521    103.4250     10.8055     48.4056
  1060.0000      9.5331    106.2919     10.7777     48.4973
  1060.2500      9.5305    107.8519     10.6943     48.5499
  1060.5000      9.5434    108.9244     10.5475     48.5582
  1060.7500      9.5693    108.9597     10.3370     48.5400
  1061.0000      9.6045    108.8418     10.0708     48.5325
  1061.2500      9.6435    109.0480      9.7735     48.5842
  1061.5000      9.6775    110.0461      9.4935     48.7416
  1061.7500      9.6946    111.1214      9.2955     49.0342
  1062.0000      9.6819    112.8031      9.2363     49.4597
  1062.2500      9.6303    113.4062      9.3384     49.9798
  1062.5000      9.5408    112.7913      9.5784     50.5280
  1062.7500      9.4285    111.3998      9.9034     51.0276
  1063.0000      9.3207    108.5462     10.2624     51.4112
  1063.2500      9.2519    106.6239     10.6317     51.6338
  1063.5000      9.2546    104.2756     11.0166     51.6767
  1063.7500      9.3534    103.0350     11.4401     51.5432
  1064.0000      9.5602    100.7320     11.9325     51.2548
  1064.2500      9.8752     98.0187     12.5264     50.8501
  1064.5000     10.2895     90.9260     13.2524     50.3875
  1064.7500     10.7904     84.0573     14.1357     49.9446
  1065.0000     11.3640     71.7299     15.1977     49.6101
  1065.2500     11.9949     63.4842     16.4559     49.4673
  1065.5000     12.6614     53.6186     17.9044     49.5755
  1065.7500     13.3315     49.9744     19.4693     49.9567
  1066.0000     13.9632     50.3088     20.9757     50.5910
  1066.2500     14.5112     54.5591     22.1758     51.4229
  1066.5000     14.9352     65.8233     22.8434     52.3738
  1066.7500     15.2095     75.2028     22.8792     53.3594
  1067.0000     15.3277     89.2181     22.3560     54.3031
  1067.2500     15.3039     96.9978     21.4795     55.1461
  1067.5000     15.1665    104.5640     20.4919     55.8518
  1067.7500     14.9490    106.6487     19.5835     56.4080
  1068.0000     14.6806    106.5332     18.8604     56.8268
  1068.2500     14.3838    105.5820     18.3598     57.1411
  1068.5000     14.0749    104.7754     18.0753     57.3914
  1068.7500     13.7664    105.0993     17.9671     57.6089
  1069.0000     13.4685    106.5007     17.9698     57.8014
  1069.2500     13.1889    107.5025     18.0100     57.9538
  1069.5000     12.9328    108.2531     18.0298     58.0399
  1069.7500     12.7035    108.0332     18.0020     58.0391
  1070.0000     12.5058    106.7378     17.9313     57.9451
  1070.2500     12.3495    105.3542     17.8421     57.7644
  1070.5000     12.2503    102.4522     17.7626     57.5105
  1070.7500     12.2254     99.8270     17.7127     57.1988
  1071.0000     12.2869     94.5005     17.7007     56.8482
  1071.2500     12.4381     89.7016     17.7256     56.4866
  1071.5000     12.6732     80.2487     17.7876     56.1570
  1071.7500     12.9799     72.8731     17.9104     55.9188
  1072.0000     13.3392     62.3835     18.1626     55.8406
  1072.2500     13.7243     57.2037     18.6469     55.9837
  1072.5000     14.1000     53.3577     19.4287     56.3793
  1072.7500     14.4252     53.3653     20.4405     57.0101
  1073.0000     14.6593     56.9922     21.4532     57.8041
  1073.2500     14.7741     61.8874     22.1700     58.6469
  1073.5000     14.7702     72.6458     22.3911     59.4073
  1073.7500     14.6852     81.0786     22.1252     59.9697
  1074.0000     14.5818     92.5697     21.5677     60.2608
  1074.2500     14.5202     97.7462     20.9756     60.2657
  1074.5000     14.5369    100.3975     20.5375     60.0288
  1074.7500     14.6408     98.9804     20.3166     59.6386
  1075.0000     14.8213     93.6051     20.2755     59.2017
  1075.2500     15.0574     89.0172     20.3436     58.8125
  1075.5000     15.3246     82.4930     20.4758     58.5305
  1075.7500     15.5971     79.1552     20.6605     58.3749
  1076.0000     15.8476     76.3087     20.8780     58.3355
  1076.2500     16.0408     75.9478     21.0567     58.3924
  1076.5000     16.1287     77.7455     21.0782     58.5330
  1076.7500     16.0525     80.4931     20.8360     58.7527
  1077.0000     15.7621     86.5489     20.2958     59.0455
  1077.2500     15.2464     91.2050     19.5120     59.3918
  1077.5000     14.5512     97.4672     18.5937     59.7592
  1077.7500     13.7663    100.4994     17.6491     60.1206
  1078.0000     12.9882    103.5886     16.7433     60.4807
  1078.2500     12.2846    105.3490     15.8956     60.8910
  1078.5000     11.6844    108.1766     15.1074     61.4354
  1078.7500     11.1870    109.8867     14.3883     62.1877
  1079.0000     10.7795    111.2523     13.7588     63.1579
  1079.2500     10.4485    111.1098     13.2359     64.2609
  1079.5000     10.1825    109.6309     12.8190     65.3286
  1079.7500      9.9707    108.2659     12.4897     66.1660
  1080.0000      9.8001    106.5485     12.2246     66.6235
  1080.2500      9.6572    105.8829     12.0092     66.6507
  1080.5000      9.5285    105.3061     11.8404     66.3083
  1080.7500      9.4025    104.9974     11.7138     65.7356
  1081.0000      9.2698    105.1435     11.6123     65.0946
  1081.2500      9.1236    106.1736     11.5102     64.5152
  1081.5000      8.9613    109.0351     11.3867     64.0627
  1081.7500      8.7851    111.0360     11.2320     63.7349
  1082.0000      8.6012    112.8371     11.0440     63.4854
  1082.2500      8.4184    113.1470     10.8263     63.2557
