~Version Information
VERS.                      2.0: CWLS Log ASCII Standard - VERSION 2.0
WRAP.                       NO: One line per depth step
~Well Information Block
STRT.FT                -6.7500: 
STOP.FT              1766.5000: 
STEP.FT                 0.2500: 
NULL.                -999.2500: 
COMP.          Pioneer Natural Resources: COMPANY
WELL.            Hill 33-22 Tr: WELL
FLD.           Purgatorie River: FIELD
LOC.           1573' FSL & 1585' FEL: LOCATION
PROV.                 Colorado: PROVINCE
CNTY.               Las Animas: COUNTRY
SRVC.          Patterson Wireline: SERVICE COMPANY
DATE.          Tue Apr 19 09:26:19 2005: LOG DATE
UWI.           05-071-08316-00: UNIQUE WELL ID
~Curve Information Block
DEPT.FT            0 000 00 00: Depth
CCL.                          : Casing Collar Locator
TT3.usec                      : CBL 3' Travel Time
AMP3.mV                       : CBL 3' Amplitude
GR.GAPI                       : Gamma Ray
~Parameter Information Block
~A  Depth       CCL         TT3         AMP3         GR     
# ...
  1634.7500      0.0000    740.8608     26.0799    128.5776
  1635.0000      0.0000    743.2634     26.0532    122.0115
  1635.2500      0.0000    745.4897     26.0696    115.5050
  1635.5000      0.0000    746.0979     26.1141    111.9156
  1635.7500      0.0000    743.5060     26.1896    112.0583
  1636.0000      0.0000    735.1686     26.3187    114.8265
  1636.2500      0.0000    718.5228     26.5168    118.5695
  1636.5000      0.0000    694.9921     26.7678    122.0914
  1636.7500      0.0000    673.3768     27.0310    124.5797
  1637.0000      0.0000    665.6735     27.2692    124.9539
  1637.2500      0.0000    676.0287     27.4691    121.7320
  1637.5000      0.0000    694.6638     27.6397    114.1737
  1637.7500      0.0000    705.0776     27.8030    103.7481
  1638.0000      0.0000    697.3742     27.9895     93.9282
  1638.2500      0.0000    674.0264     28.2368     87.9369
  1638.5000      0.0000    642.7447     28.5809     86.6336
  1638.7500      0.0000    605.3347     29.0355     88.6495
  1639.0000      0.0000    557.9088     29.5630     92.0843
  1639.2500      0.0000    503.2661     30.0656     95.4511
  1639.5000      0.0000    457.5091     30.4243     97.2295
  1639.7500      0.0000    440.4501     30.5702     95.6076
  1640.0000      0.0000    460.4440     30.5273     89.5134
  1640.2500      0.0000    506.7683     30.3947     79.8506
  1640.5000      0.0000    553.0193     30.2963     69.3325
  1640.7500      0.0000    571.1346     30.3297     61.0495
  1641.0000      0.0000    549.4351     30.5240     57.1767
  1641.2500      0.0000    499.7569     30.8250     58.4832
  1641.5000      0.0000    446.0500     31.1336     64.4233
  1641.7500      0.0000    406.2668     31.3754     73.7349
  1642.0000      0.0000    384.4024     31.5394     85.3705
  1642.2500      0.0000    375.2461     31.6588     98.8674
  1642.5000      0.0000    372.2948     31.7724    113.5882
  1642.7500      0.0000    371.4999     31.9060    127.7026
  1643.0000      0.0000    371.0854     32.0673    138.3837
  1643.2500      0.0000    370.3198     32.2386    143.3973
  1643.5000      0.0000    368.9172     32.3736    142.6257
  1643.7500      0.0000    367.4160     32.4137    138.0261
  1644.0000      0.0000    368.2943     32.3194    132.2586
  1644.2500      0.0000    376.6451     32.0968    127.4061
  1644.5000      0.0000    398.5773     31.7892    124.4506
  1644.7500      0.0000    435.9280     31.4235    123.2976
  1645.0000      0.0000    480.1496     30.9354    123.2185
  1645.2500      0.0000    514.4461     30.1369    123.3561
  1645.5000      0.0000    528.8987     28.8142    123.1349
  1645.7500      0.0000    534.7484     26.9314    122.9402
  1646.0000      0.0000    557.0040     24.7231    124.4128
  1646.2500      0.0000    608.9547     22.5249    129.1268
  1646.5000      0.0000    677.3249     20.5554    136.5482
  1646.7500      0.0000    734.5557     18.9199    143.6452
  1647.0000      0.0000    762.6525     17.7038    146.6776
  1647.2500      0.0000    763.7012     16.9347    143.6792
  1647.5000      0.0000    751.8849     16.5153    135.8802
  1647.7500      5.0000    740.0083     16.3061    126.9504
  1648.0000      0.0000    732.0552     16.2739    120.4937
  1648.2500      0.0000    723.4209     16.5740    118.0154
  1648.5000      0.0000    706.2352     17.4899    119.0070
  1648.7500      0.0000    676.6818     19.1871    122.1772
  1649.0000      0.0000    639.0654     21.4345    125.9949
  1649.2500      0.0000    601.1995     23.6707    128.6610
  1649.5000      0.0000    564.9564     25.4498    128.8683
  1649.7500      0.0000    525.1804     26.7196    127.1410
  1650.0000      0.0000    479.6250     27.6359    125.8567
  1650.2500      0.0000    435.0116     28.3023    127.3762
  1650.5000      0.0000    400.6006     28.7548    132.0055
  1650.7500      0.0000    379.7619     29.0380    137.7630
  1651.0000      0.0000    370.2030     29.2064    141.9862
  1651.2500      0.0000    369.2237     29.3109    143.1533
  1651.5000      0.0000    376.5977     29.4165    141.5363
  1651.7500      0.0000    393.2005     29.6063    138.6995
  1652.0000      0.0000    417.0347     29.9407    136.3673
  1652.2500      0.0000    440.2128     30.4172    135.2086
  1652.5000      0.0000    452.5336     30.9648    134.5054
  1652.7500      0.0000    451.5904     31.4808    133.2047
  1653.0000      0.0000    447.8387     31.8860    131.1637
  1653.2500      0.0000    455.8276     32.1586    129.1626
  1653.5000      0.0000    480.3016     32.3227    128.1533
  1653.7500      0.0000    512.2107     32.4134    128.9202
  1654.0000      0.0000    536.5483     32.4547    131.9173
  1654.2500      0.0000    543.4317     32.4571    136.6571
  1654.5000      0.0000    536.3704     32.4174    141.2984
  1654.7500      0.0000    532.8259     32.3133    143.6072
  1655.0000      0.0000    551.5200     32.1113    142.7129
  1655.2500      0.0000    594.5532     31.7997    139.7037
  1655.5000      0.0000    644.5574     31.4212    136.3329
  1655.7500      0.0000    680.2240     31.0690    133.5352
  1656.0000      0.0000    690.4728     30.8376    131.3966
  1656.2500      0.0000    674.0411     30.7625    130.0797
  1656.5000      0.0000    633.1293     30.8043    130.1959
  1656.7500      0.0000    573.1357     30.8935    132.1785
  1657.0000      0.0000    505.6278     30.9880    135.5128
  1657.2500      0.0000    445.0775     31.0940    138.8028
  1657.5000      0.0000    400.1367     31.2527    140.6522
  1657.7500      0.0000    369.6847     31.5124    140.5714
  1658.0000      0.0000    347.6939     31.8969    139.2443
  1658.2500      0.0000    330.0626     32.3865    137.8665
  1658.5000      0.0000    316.3829     32.9298    137.0143
  1658.7500      0.0000    307.4067     33.4793    136.1918
  1659.0000      0.0000    302.8239     34.0168    134.5447
  1659.2500      0.0000    301.3743     34.5444    131.8152
  1659.5000      0.0000    301.8516     35.0508    128.4387
  1659.7500      0.0000    303.4235     35.4947    125.0059
  1660.0000      0.0000    305.3142     35.8210    121.9667
  1660.2500      0.0000    306.8890     35.9865    119.8746
  1660.5000      0.0000    308.3276     35.9659    119.5263
  1660.7500      0.0000    310.8377     35.7471    121.3456
  1661.0000      0.0000    315.7557     35.3355    124.6049
  1661.2500      0.0000    323.4731     34.7601    127.7065
  1661.5000      0.0000    333.3108     34.0697    129.2431
  1661.7500      0.0000    344.0006     33.3205    128.5696
  1662.0000      0.0000    354.0177     32.5683    125.7750
  1662.2500      0.0000    361.9436     31.8666    121.7683
  1662.5000      0.0000    367.0877     31.2567    118.2006
  1662.7500      0.0000    369.7777     30.7533    116.4729
  1663.0000      0.0000    370.9182     30.3484    116.6078
  1663.2500      0.0000    371.3341     30.0325    117.5293
  1663.5000      0.0000    371.4818     29.8080    118.4997
  1663.7500      0.0000    371.5334     29.6780    119.7044
  1664.0000      0.0000    371.5414     29.6349    121.2140
  1664.2500      0.0000    371.5324     29.6659    122.0376
  1664.5000      0.0000    371.5593     29.7611    120.8711
  1664.7500      0.0000    371.7455     29.9027    117.6350
  1665.0000      0.0000    372.5773     30.0466    113.7946
  1665.2500      0.0000    375.4646     30.1295    111.0446
  1665.5000      0.0000    383.4916     30.1055    109.7585
  1665.7500      0.0000    401.1593     29.9751    108.9244
  1666.0000      0.0000    431.6626     29.7732    107.7676
  1666.2500      0.0000    472.8023     29.5394    107.0069
  1666.5000      0.0000    515.4269     29.3077    107.8864
  1666.7500      0.0000    546.5516     29.1117    110.4210
  1667.0000      0.0000    555.3586     28.9821    113.5037
  1667.2500      0.0000    540.2006     28.9400    116.4927
  1667.5000      0.0000    512.4501     28.9972    119.6159
  1667.7500      0.0000    489.6961     29.1568    122.6093
  1668.0000      0.0000    481.3155     29.4134    123.9161
