~Version Information
VERS.                      2.0: CWLS Log ASCII Standard - VERSION 2.0
WRAP.                       NO: One line per depth step
~Well Information Block
STRT.FT                 0.6000: 
STOP.FT              2735.2000: 
STEP.FT                 0.1000: 
NULL.                -999.2500: 
COMP.          Pioneer Natural Resources: COMPANY
WELL.              Cluck 21-25: WELL
FLD.           Purgatoire River: FIELD
LOC.           91' FNL & 1834' FWL--: LOCATION
PROV.                 Colorado: PROVINCE
CNTY.               Las Animas: COUNTRY
SRVC.                Patterson: SERVICE COMPANY
DATE.          Mon Jun 06 19:08:34 2005: LOG DATE
UWI.           05 071 08397 00: UNIQUE WELL ID
~Curve Information Block
DEPT.FT            0 000 00 00: Depth
SN.Ohm-m                      : IEL Short Normal
SP.mV                         : IEL Spontaneous Potential
DIR.Ohm-m                     : IEL Induction Resistivity
GR.GAPI                       : Gamma Ray
~Parameter Information Block
~A  Depth        SN          SP         DIR          GR     
# ...
  2184.8000     17.6456    -31.3610     16.9730    153.5598
  2184.9000     17.6456    -31.3610     16.9730    153.2400
  2185.0000     17.3115    -30.6661     16.6522    152.1166
  2185.1000     17.3115    -30.6661     16.6522    150.3627
  2185.2000     17.3115    -30.6661     16.6522    148.1209
  2185.3000     17.0285    -30.3737     16.4443    145.4877
  2185.4000     17.0285    -30.3737     16.4443    142.5084
  2185.5000     16.8434    -30.4687     16.3530    139.1881
  2185.6000     16.8434    -30.4687     16.3530    135.5075
  2185.7000     16.8434    -30.4687     16.3530    131.4473
  2185.8000     16.8025    -30.8983     16.3869    127.0059
  2185.9000     16.8025    -30.8983     16.3869    122.2139
  2186.0000     16.9445    -31.5819     16.5597    117.1405
  2186.1000     16.9445    -31.5819     16.5597    111.8880
  2186.2000     16.9445    -31.5819     16.5597    106.5829
  2186.3000     17.2917    -32.4233     16.8848    101.3625
  2186.4000     17.2917    -32.4233     16.8848     96.3555
  2186.5000     17.8387    -33.3244     17.3640     91.6736
  2186.6000     17.8387    -33.3244     17.3640     87.3975
  2186.7000     17.8387    -33.3244     17.3640     83.5769
  2186.8000     18.5453    -34.1974     17.9759     80.2291
  2186.9000     18.5453    -34.1974     17.9759     77.3458
  2187.0000     19.3364    -34.9733     18.6696     74.8972
  2187.1000     19.3364    -34.9733     18.6696     72.8420
  2187.2000     19.3364    -34.9733     18.6696     71.1333
  2187.3000     20.1131    -35.6075     19.3686     69.7254
  2187.4000     20.1131    -35.6075     19.3686     68.5757
  2187.5000     20.7787    -36.0796     19.9870     67.6463
  2187.6000     20.7787    -36.0796     19.9870     66.9068
  2187.7000     20.7787    -36.0796     19.9870     66.3286
  2187.8000     21.2673    -36.3900     20.4545     65.8876
  2187.9000     21.2673    -36.3900     20.4545     65.5580
  2188.0000     21.5580    -36.5545     20.7382     65.3156
  2188.1000     21.5580    -36.5545     20.7382     65.1368
  2188.2000     21.5580    -36.5545     20.7382     64.9970
  2188.3000     21.6685    -36.5981     20.8491     64.8741
  2188.4000     21.6685    -36.5981     20.8491     64.7515
  2188.5000     21.6354    -36.5494     20.8306     64.6167
  2188.6000     21.6354    -36.5494     20.8306     64.4648
  2188.7000     21.6354    -36.5494     20.8306     64.2957
  2188.8000     21.4975    -36.4372     20.7370     64.1168
  2188.9000     21.4975    -36.4372     20.7370     63.9314
  2189.0000     21.2893    -36.2879     20.6161     63.7437
  2189.1000     21.2893    -36.2879     20.6161     63.5528
  2189.2000     21.2893    -36.2879     20.6161     63.3505
  2189.3000     21.0410    -36.1252     20.5008     63.1209
  2189.4000     21.0410    -36.1252     20.5008     62.8460
  2189.5000     20.7797    -35.9699     20.4088     62.5078
  2189.6000     20.7797    -35.9699     20.4088     62.0923
  2189.7000     20.7797    -35.9699     20.4088     61.5969
  2189.8000     20.5298    -35.8408     20.3457     61.0302
  2189.9000     20.5298    -35.8408     20.3457     60.4139
  2190.0000     20.3163    -35.7546     20.3093     59.7806
  2190.1000     20.3163    -35.7546     20.3093     59.1716
  2190.2000     20.3163    -35.7546     20.3093     58.6291
  2190.3000     20.1696    -35.7262     20.2944     58.1942
  2190.4000     20.1696    -35.7262     20.2944     57.8972
  2190.5000     20.1220    -35.7686     20.2974     57.7594
  2190.6000     20.1220    -35.7686     20.2974     57.7863
  2190.7000     20.1220    -35.7686     20.2974     57.9688
  2190.8000     20.1931    -35.8930     20.3185     58.2854
  2190.9000     20.1931    -35.8930     20.3185     58.7015
  2191.0000     20.3747    -36.1090     20.3611     59.1728
  2191.1000     20.3747    -36.1090     20.3611     59.6469
  2191.2000     20.3747    -36.1090     20.3611     60.0695
  2191.3000     20.6313    -36.4251     20.4273     60.3810
  2191.4000     20.6313    -36.4251     20.4273     60.5283
  2191.5000     20.9172    -36.8488     20.5159     60.4661
  2191.6000     20.9172    -36.8488     20.5159     60.1655
  2191.7000     20.9172    -36.8488     20.5159     59.6194
  2191.8000     21.1953    -37.3867     20.6240     58.8477
  2191.9000     21.1953    -37.3867     20.6240     57.8938
  2192.0000     21.4483    -38.0431     20.7525     56.8214
  2192.1000     21.4483    -38.0431     20.7525     55.7036
  2192.2000     21.4483    -38.0431     20.7525     54.6096
  2192.3000     21.6789    -38.8185     20.9090     53.5967
  2192.4000     21.6789    -38.8185     20.9090     52.7006
  2192.5000     21.9062    -39.7076     21.1065     51.9331
  2192.6000     21.9062    -39.7076     21.1065     51.2861
  2192.7000     21.9062    -39.7076     21.1065     50.7373
  2192.8000     22.1594    -40.6976     21.3576     50.2592
  2192.9000     22.1594    -40.6976     21.3576     49.8258
  2193.0000     22.4665    -41.7674     21.6692     49.4199
  2193.1000     22.4665    -41.7674     21.6692     49.0325
  2193.2000     22.4665    -41.7674     21.6692     48.6593
  2193.3000     22.8400    -42.8886     22.0404     48.3013
  2193.4000     22.8400    -42.8886     22.0404     47.9555
  2193.5000     23.2667    -44.0273     22.4613     47.6121
  2193.6000     23.2667    -44.0273     22.4613     47.2545
  2193.7000     23.2667    -44.0273     22.4613     46.8585
  2193.8000     23.7101    -45.1470     22.9116     46.3956
  2193.9000     23.7101    -45.1470     22.9116     45.8408
  2194.0000     24.1253    -46.2116     23.3600     45.1779
  2194.1000     24.1253    -46.2116     23.3600     44.4067
  2194.2000     24.1253    -46.2116     23.3600     43.5450
  2194.3000     24.4759    -47.1885     23.7683     42.6323
  2194.4000     24.4759    -47.1885     23.7683     41.7223
  2194.5000     24.7452    -48.0507     24.1014     40.8800
  2194.6000     24.7452    -48.0507     24.1014     40.1720
  2194.7000     24.7452    -48.0507     24.1014     39.6601
  2194.8000     24.9361    -48.7773     24.3383     39.3950
  2194.9000     24.9361    -48.7773     24.3383     39.4107
  2195.0000     25.0629    -49.3546     24.4787     39.7246
  2195.1000     25.0629    -49.3546     24.4787     40.3357
  2195.2000     25.0629    -49.3546     24.4787     41.2260
  2195.3000     25.1383    -49.7757     24.5407     42.3597
  2195.4000     25.1383    -49.7757     24.5407     43.6897
  2195.5000     25.1627    -50.0402     24.5500     45.1544
  2195.6000     25.1627    -50.0402     24.5500     46.6849
  2195.7000     25.1627    -50.0402     24.5500     48.2096
  2195.8000     25.1234    -50.1546     24.5242     49.6601
  2195.9000     25.1234    -50.1546     24.5242     50.9767
  2196.0000     25.0074    -50.1311     24.4650     52.1152
  2196.1000     25.0074    -50.1311     24.4650     53.0493
  2196.2000     25.0074    -50.1311     24.4650     53.7755
  2196.3000     24.8183    -49.9875     24.3638     54.3113
  2196.4000     24.8183    -49.9875     24.3638     54.6947
  2196.5000     24.5825    -49.7456     24.2169     54.9771
  2196.6000     24.5825    -49.7456     24.2169     55.2245
  2196.7000     24.5825    -49.7456     24.2169     55.5072
  2196.8000     24.3367    -49.4295     24.0354     55.8968
  2196.9000     24.3367    -49.4295     24.0354     56.4601
  2197.0000     24.1064    -49.0638     23.8377     57.2543
  2197.1000     24.1064    -49.0638     23.8377     58.3210
  2197.2000     24.1064    -49.0638     23.8377     59.6838
  2197.3000     23.8935    -48.6723     23.6338     61.3458
  2197.4000     23.8935    -48.6723     23.6338     63.2845
  2197.5000     23.6817    -48.2763     23.4202     65.4566
  2197.6000     23.6817    -48.2763     23.4202     67.7964
  2197.7000     23.6817    -48.2763     23.4202     70.2220
  2197.8000     23.4529    -47.8936     23.1922     72.6436
  2197.9000     23.4529    -47.8936     23.1922     74.9698
  2198.0000     23.2021    -47.5386     22.9604     77.1175
  2198.1000     23.2021    -47.5386     22.9604     79.0220
