~Version Information
VERS.                      2.0: CWLS Log ASCII Standard - VERSION 2.0
WRAP.                       NO: One line per depth step
~Well Information Block
STRT.FT                -9.7500: 
STOP.FT              2566.5000: 
STEP.FT                 0.2500: 
NULL.                -999.2500: 
COMP.          Petrogulf Corporation: COMPANY
WELL.             Valejo 8-12V: WELL
FLD.           Purgatorie River: FIELD
LOC.           1510' FNL & 1460' FWL: LOCATION
CNTY.               Las Animas: COUNTY
SRVC.                         : SERVICE COMPANY
DATE.          Tue Nov 18 14:36:15 2003: LOG DATE
UWI.                          : UNIQUE WELL ID
STAT.                 Colorado: STATE
~Curve Information Block
DEPT.FT            0 000 00 00: Depth
CCL.                          : Casing Collar Locator
TT3.usec                      : CBL 3' Travel Time
AMP3.mV                       : CBL 3' Amplitude
GR.GAPI                       : Gamma Ray
~Parameter Information Block
~A  Depth       CCL         TT3         AMP3         GR     
    -9.7500   -999.2500   -999.2500   -999.2500    183.3999
    -9.5000   -999.2500   -999.2500   -999.2500    188.8932
    -9.2500   -999.2500   -999.2500   -999.2500    190.4775
    -9.0000   -999.2500   -999.2500   -999.2500    186.6639
    -8.7500   -999.2500   -999.2500   -999.2500    178.9574
    -8.5000   -999.2500   -999.2500   -999.2500    170.6339
    -8.2500   -999.2500   -999.2500   -999.2500    163.9212
    -8.0000   -999.2500   -999.2500   -999.2500    158.3444
    -7.7500   -999.2500   -999.2500   -999.2500    152.0594
    -7.5000   -999.2500   -999.2500   -999.2500    144.5879
    -7.2500   -999.2500   -999.2500   -999.2500    137.8518
    -7.0000   -999.2500   -999.2500   -999.2500    134.5996
    -6.7500   -999.2500   -999.2500   -999.2500    135.9208
    -6.5000   -999.2500   -999.2500   -999.2500    140.1569
    -6.2500   -999.2500   -999.2500   -999.2500    144.2584
    -6.0000   -999.2500   -999.2500   -999.2500    146.3350
    -5.7500   -999.2500   -999.2500   -999.2500    146.6074
    -5.5000   -999.2500   -999.2500   -999.2500    145.8001
    -5.2500   -999.2500   -999.2500   -999.2500    143.3362
    -5.0000   -999.2500   -999.2500   -999.2500    137.8496
    -4.7500   -999.2500   1480.0000      1.0999    129.2341
    -4.5000   -999.2500   1480.0000      1.0837    119.3597
    -4.2500   -999.2500   1480.0000      1.0817    110.5806
    -4.0000   -999.2500   1480.0000      1.1010    103.9830
    -3.7500   -999.2500   1480.0000      1.1369     99.0639
    -3.5000   -999.2500   1480.0000      1.1759     94.6387
    -3.2500   -999.2500   1480.0000      1.2060     90.0601
    -3.0000   -999.2500   1480.0000      1.2232     85.9451
    -2.7500   -999.2500   1480.0000      1.2287     83.5972
    -2.5000   -999.2500   1480.0000      1.2217     83.3310
    -2.2500   -999.2500   1480.0000      1.2003     83.5414
    -2.0000   -999.2500   1480.0000      1.1680     81.9073
    -1.7500   -999.2500   1480.0000      1.1363     77.3626
    -1.5000   -999.2500   1480.0000      1.1200     70.6381
    -1.2500   -999.2500   1480.0000      1.1271     63.4369
    -1.0000   -999.2500   1480.0000      1.1522     57.6601
    -0.7500   -999.2500   1480.0000      1.1783     54.8508
    -0.5000   -999.2500   1480.0000      1.1885     55.4587
    -0.2500   -999.2500   1480.0000      1.1784     58.6317
     0.0000   -999.2500   1480.0000      1.1606     63.0260
     0.2500   -999.2500   1480.0000      1.1556     67.6625
     0.5000   -999.2500   1480.0000      1.1790     71.8833
     0.7500      0.0000   1480.0000      1.2345     74.9445
     1.0000      0.0000   1480.0000      1.3127     76.1799
     1.2500      0.0000   1480.0000      1.3934     75.6297
     1.5000      0.0000   1480.0000      1.4543     74.3454
     1.7500      0.0000   1480.0000      1.4885     73.8018
     2.0000      0.0000   1480.0000      1.5116     74.7538
     2.2500      0.0000   1480.0000      1.5484     76.6758
     2.5000      0.0000   1480.0000      1.6133     78.5245
     2.7500      0.0000   1480.0000      1.7045     79.9096
     3.0000      0.0000   1480.0000      1.8063     81.0962
     3.2500      0.0000   1480.0000      1.8948     81.9830
     3.5000      0.0000   1480.0000      1.9518     81.7353
     3.7500      0.0000   1480.0000      1.9762     79.5895
     4.0000      0.0000   1480.0000      1.9814     75.5963
     4.2500      0.0000   1480.0000      1.9829     70.4950
     4.5000      0.0000   1480.0000      1.9867     65.1899
     4.7500      0.0000   1480.0000      1.9869     60.5395
     5.0000      0.0000   1480.0000      1.9728     57.3963
     5.2500     -2.0000   1480.0000      1.9375     56.4317
     5.5000      0.0000   1480.0000      1.8831     57.5921
     5.7500      0.0000   1480.0000      1.8179     59.7682
     6.0000      0.0000   1480.0000      1.7491     61.4188
     6.2500      0.0000   1480.0000      1.6783     61.7327
     6.5000      2.0000   1480.0000      1.6043     61.0174
     6.7500      0.0000   1480.0000      1.5334     60.0191
     7.0000      0.0000   1480.0000      1.4791     59.3001
     7.2500      0.0000   1480.0000      1.4454     59.2634
     7.5000      0.0000   1480.0000      1.4175     60.1341
     7.7500      0.0000   1480.0000      1.3804     61.5318
     8.0000      0.0000   1480.0000      1.3449     62.4855
     8.2500      0.0000   1480.0000      1.3400     62.3229
     8.5000      0.0000   1480.0000      1.3823     61.3281
     8.7500      0.0000   1480.0000      1.4630     60.4058
     9.0000      0.0000   1480.0000      1.5639     60.4611
     9.2500      0.0000   1480.0000      1.6749     62.1024
     9.5000      0.0000   1480.0000      1.7913     65.3328
     9.7500      0.0000   1480.0000      1.9024     69.3100
    10.0000      0.0000   1480.0000      1.9938     72.6824
    10.2500      0.0000   1480.0000      2.0577     74.2611
    10.5000      0.0000   1480.0000      2.0956     73.4459
    10.7500      0.0000   1480.0000      2.1109     70.4720
    11.0000      0.0000   1480.0000      2.1062     66.5373
    11.2500      0.0000   1479.9210      2.0902     63.2296
    11.5000      0.0000   1479.4034      2.0879     61.3569
    11.7500      0.0000   1476.7716      2.1862     60.4532
    12.0000      0.0000   1466.3442      2.6634     59.5683
    12.2500      0.0000   1434.1548      4.2146     58.3436
    12.5000      0.0000   1356.7172      8.0592     57.3140
    12.7500      0.0000   1211.5184     15.4854     57.3758
    13.0000      0.0000    999.2720     26.7332     58.8905
    13.2500      0.0000    757.3321     40.1357     61.1572
    13.5000      0.0000    542.1931     52.7389     62.8412
    13.7500      0.0000    392.8878     62.1318     62.9806
    14.0000      0.0000    311.9704     67.7248     61.5622
    14.2500      0.0000    277.6926     70.4401     59.2572
    14.5000      0.0000    266.3219     71.5822     56.8093
    14.7500      0.0000    263.3495     72.0762     54.6876
    15.0000      0.0000    262.7155     72.3675     53.1650
    15.2500      0.0000    262.5785     72.6160     52.5127
    15.5000      0.0000    262.5304     72.8642     52.9603
    15.7500      0.0000    262.4846     73.1143     54.5277
    16.0000      0.0000    262.4431     73.3579     57.1043
    16.2500      0.0000    262.4076     73.5973     60.5964
    16.5000      0.0000    262.3753     73.8511     64.6916
    16.7500      0.0000    262.3417     74.1365     68.5405
    17.0000      0.0000    262.3064     74.4466     71.0692
    17.2500      0.0000    262.2752     74.7446     71.8035
    17.5000      0.0000    262.2567     74.9796     71.2403
    17.7500      0.0000    262.2564     75.1124     70.3129
    18.0000      0.0000    262.2722     75.1415     69.6027
    18.2500      0.0000    262.2948     75.1104     69.1623
    18.5000      0.0000    262.3128     75.0823     68.9633
    18.7500      0.0000    262.3205     75.0990     69.2048
    19.0000      0.0000    262.3190     75.1646     70.0298
    19.2500      0.0000    262.3124     75.2652     71.1155
    19.5000      0.0000    262.3028     75.3958     71.7989
    19.7500      0.0000    262.2904     75.5643     71.5387
    20.0000      0.0000    262.2753     75.7731     70.2415
    20.2500      0.0000    262.2599     76.0011     68.3353
    20.5000      0.0000    262.2483     76.2050     66.4208
    20.7500      0.0000    262.2433     76.3396     64.6393
    21.0000      0.0000    262.2466     76.3803     62.6568
    21.2500      0.0000    262.2573     76.3367     60.5011
    21.5000      0.0000    262.2722     76.2535     58.9654
    21.7500      0.0000    262.2847     76.1928     58.9737
    22.0000      0.0000    262.2878     76.2021     61.0628
    22.2500      0.0000    262.2778     76.2937     65.6494
    22.5000      0.0000    262.2560     76.4551     73.1569
    22.7500      0.0000    262.2268     76.6678     83.3409
    23.0000      0.0000    262.1956     76.9078     94.4954
    23.2500      0.0000    262.1674     77.1383    103.5660
    23.5000      0.0000    262.1446     77.3243    107.5934
