~Version Information
 VERS.                                  2.0 : CWLS LAS VERSION
 WRAP.                                   NO : WRAPING MODE
 SWARE .                 MController 2.5.0I : SOFTWARE VERSION
~Well Information
 WELL.                           J&P 12-33v : WELL
 COMP.             Petrogulf Operating Corp : COMPANY
 FLD.                      Purgatorie River : FIELD
 LOC.                NW/SE Sec 12 T33S R68W : LOCATION
 DATE.                              8/27/04 : DATE(S) LOGGED
 SRVC.       Blanco Geological services LLC : SERVICE COMPANY
 STAT.                                   CO : STATE
 CNTY.                           Las Animas : COUNTY
 CTRY.                                  USA : COUNTRY
 API.                       05-071-08091-00 : API NUMBER
 STRT.FT                             770.00 : START DEPTH
 STOP.FT                            2580.00 : STOP DEPTH
 STEP.FT                               1.00 : DEPTH INCREMENT
 NULL.                                -9999 : NULL VALUE
~Curve information
 DEPTH.FT                                   :
 ROP.MIN/FT                                 :
 GAS.UNITS                                  :
~ASCII Log data
# ...
      1770.0          4.2         55.3 
      1771.0          0.4         16.9 
      1772.0          0.5         26.2 
      1773.0          0.3         26.4 
      1774.0          0.3         24.1 
      1775.0          0.3         19.5 
      1776.0          0.3         16.8 
      1777.0          0.3         15.1 
      1778.0          0.3         14.6 
      1779.0          0.4         13.2 
      1780.0          0.4         11.5 
      1781.0          0.3         11.0 
      1782.0          0.3          9.5 
      1783.0          0.2          8.4 
      1784.0          0.3          7.9 
      1785.0          0.3          7.9 
      1786.0          0.3          8.0 
      1787.0          0.3          7.9 
      1788.0          0.3          7.3 
      1789.0          0.3          7.1 
      1790.0          0.3          7.1 
      1791.0          0.3          6.9 
      1792.0          0.3          6.7 
      1793.0          0.2          6.6 
      1794.0          0.3          6.4 
      1795.0          0.3          6.6 
      1796.0          0.2          6.4 
      1797.0          0.2          6.4 
      1798.0          0.2          6.4 
      1799.0          0.2          6.4 
      1800.0          4.9         58.5 
      1801.0          0.3         22.4 
      1802.0          0.3         23.3 
      1803.0          0.4         22.7 
      1804.0          0.3         19.1 
      1805.0          0.4         17.6 
      1806.0          0.4         15.0 
      1807.0          0.3         13.7 
      1808.0          0.3         12.5 
      1809.0          0.2         10.7 
      1810.0          0.2          9.2 
      1811.0          0.2          8.4 
      1812.0          0.3          8.1 
      1813.0          0.3          8.0 
      1814.0          0.4          7.9 
      1815.0          0.2          7.7 
      1816.0          0.2          7.6 
      1817.0          0.2          7.7 
      1818.0          0.2          7.8 
      1819.0          0.1          7.5 
      1820.0          0.1          7.3 
      1821.0          0.2          8.6 
      1822.0          0.2          9.9 
      1823.0          0.2         10.9 
      1824.0          0.2         10.5 
      1825.0          0.2         10.2 
      1826.0          0.2         10.0 
      1827.0          0.3          9.6 
      1828.0          0.2          9.7 
      1829.0          0.2          9.0 
      1830.0          4.4         75.7 
      1831.0          0.3         26.4 
      1832.0          0.3         27.3 
      1833.0          0.5         26.6 
      1834.0          0.6         24.6 
      1835.0          0.8         17.6 
      1836.0          0.8         13.2 
      1837.0          0.5          9.2 
      1838.0          0.4         10.1 
      1839.0          0.4         10.1 
      1840.0          0.4          8.8 
      1841.0          0.3          9.5 
      1842.0          0.3         10.6 
      1843.0          0.3         10.4 
      1844.0          0.3         10.2 
      1845.0          0.3          9.8 
      1846.0          0.4          9.4 
      1847.0          0.4          8.9 
      1848.0          0.2          9.0 
      1849.0          0.3          9.7 
      1850.0          0.2         10.3 
      1851.0          0.3         11.1 
      1852.0          0.2         10.8 
      1853.0          0.1         10.8 
      1854.0          0.2         11.0 
      1855.0          0.2         11.6 
      1856.0          0.2         11.0 
      1857.0          0.2         11.3 
      1858.0          0.2         11.2 
      1859.0          0.2         11.7 
      1860.0          5.6         60.8 
      1861.0          0.4         18.2 
      1862.0          0.3         20.6 
      1863.0          0.3         20.8 
      1864.0          0.3         20.9 
      1865.0          0.4         20.3 
      1866.0          0.3         17.8 
      1867.0          0.3         15.8 
      1868.0          0.3         14.2 
      1869.0          0.4         11.5 
      1870.0          0.3         10.3 
      1871.0          0.3          9.8 
      1872.0          0.2          8.3 
      1873.0          0.3          8.1 
      1874.0          0.3          7.6 
      1875.0          0.4          8.3 
      1876.0          0.3          8.4 
      1877.0          0.3          8.7 
      1878.0          0.3          8.8 
      1879.0          0.3          9.8 
      1880.0          0.3         10.2 
      1881.0          0.3         10.8 
      1882.0          0.3         11.0 
      1883.0          0.3         11.2 
      1884.0          0.3         11.2 
      1885.0          0.2         11.1 
      1886.0          0.2         10.5 
      1887.0          0.2         10.4 
      1888.0          0.3         10.7 
      1889.0          0.3         11.1 
      1890.0          0.4         11.3 
      1891.0          0.3         11.2 
      1892.0          5.0         47.6 
      1893.0          0.1         22.8 
      1894.0          0.3         26.8 
      1895.0          0.4         26.5 
      1896.0          0.4         24.9 
      1897.0          0.4         22.6 
      1898.0          0.4         19.8 
      1899.0          0.4         14.8 
      1900.0          0.4         13.1 
      1901.0          0.4         10.9 
      1902.0          0.4          9.8 
      1903.0          0.4          8.4 
      1904.0          0.4          7.5 
      1905.0          0.4          7.0 
      1906.0          0.5          8.2 
      1907.0          0.4          8.9 
      1908.0          0.4          9.1 
      1909.0          0.4          9.3 
      1910.0          0.4          8.9 
      1911.0          0.4          8.6 
      1912.0          0.4          8.9 
      1913.0          0.4          8.3 
      1914.0          0.4          8.4 
      1915.0          0.4          8.3 
      1916.0          0.3          7.7 
      1917.0          0.4          8.1 
      1918.0          0.4          8.4 
      1919.0          0.4          7.8 
      1920.0          0.3          7.7 
      1921.0          0.3          9.1 
      1922.0          4.2         35.7 
      1923.0          0.4         19.6 
      1924.0          0.4         27.5 
      1925.0          0.6         27.8 
      1926.0          0.6         20.6 
      1927.0          0.7         15.4 
      1928.0          0.8         11.9 
      1929.0          0.8          9.2 
      1930.0          1.0         10.1 
      1931.0          1.0         10.3 
      1932.0          1.0          8.3 
      1933.0          0.8          8.5 
      1934.0          0.8          8.6 
      1935.0          0.5          8.7 
      1936.0          0.5         10.0 
      1937.0          0.5          9.3 
      1938.0          0.6          7.7 
      1939.0          0.6          7.7 
      1940.0          0.6          8.7 
      1941.0          0.7          8.5 
      1942.0          0.5          7.9 
      1943.0          0.3          8.4 
      1944.0          0.3          9.2 
      1945.0          0.3          9.0 
      1946.0          0.3          8.8 
      1947.0          0.3          9.0 
      1948.0          0.3          9.1 
      1949.0          0.3          9.4 
      1950.0          0.3         10.1 
      1951.0          0.3         10.5 
      1952.0          5.1         40.6 
      1953.0          0.4         28.1 
      1954.0          0.3         29.9 
      1955.0          0.3         29.2 
      1956.0          0.3         26.4 
      1957.0          0.3         23.1 
      1958.0          0.3         20.6 
      1959.0          0.4         18.0 
      1960.0          0.4         16.0 
      1961.0          0.3         15.5 
      1962.0          0.3         13.6 
      1963.0          0.4         11.8 
      1964.0          0.3         10.4 
      1965.0          0.3          8.4 
      1966.0          0.3          8.4 
      1967.0          0.4          8.6 
      1968.0          0.3          9.1 
      1969.0          0.3          9.7 
