~Version Information
VERS.                      2.0: CWLS Log ASCII Standard - VERSION 2.0
WRAP.                       NO: One line per depth step
~Well Information Block
STRT.FT               698.9000: 
STOP.FT              2460.4000: 
STEP.FT                 0.1000: 
NULL.                -999.2500: 
COMP.          Petrogulf Corporation: COMPANY
WELL.             State 16-23V: WELL
FLD.           Purgatorie River: FIELD
LOC.           2414' FSL & 2215' FWL: LOCATION
PROV.                 Colorado: PROVINCE
CNTY.               Las Animas: COUNTRY
SRVC.                         : SERVICE COMPANY
DATE.          Mon Jun 09 14:24:56 2003: LOG DATE
UWI.           05 071 07865 00: UNIQUE WELL ID
~Curve Information Block
DEPT.FT            0 000 00 00: Depth
DCAL.in                       : CDL Caliper
RHOB.g/cc                     : CDL Bulk Density
RHOC.g/cc                     : CDL Density Correction
DPOR.pu                       : CDL Density Porosity
GR.GAPI                       : Gamma Ray
NPOR.pu                       : Neutron Porosity
~Parameter Information Block
~A  Depth       DCAL        RHOB        RHOC        DPOR         GR         NPOR    
# ...
   842.9000      8.2451      2.2218      0.0704     25.9510    131.7242     33.7259
   843.0000      8.2770      2.2100      0.0741     26.6683    131.5042     33.9499
   843.1000      8.2770      2.1970      0.0760     27.4557    130.7320     34.1755
   843.2000      8.2770      2.1824      0.0759     28.3394    129.4787     34.3974
   843.3000      8.2869      2.1659      0.0737     29.3396    127.8281     34.6094
   843.4000      8.2869      2.1473      0.0697     30.4694    125.8667     34.8052
   843.5000      8.3088      2.1264      0.0640     31.7336    123.6752     34.9790
   843.6000      8.3088      2.1034      0.0574     33.1285    121.3292     35.1262
   843.7000      8.3088      2.0784      0.0501     34.6424    118.8992     35.2440
   843.8000      8.3621      2.0518      0.0427     36.2562    116.4550     35.3317
   843.9000      8.3621      2.0239      0.0355     37.9451    114.0662     35.3904
   844.0000      8.4078      1.9953      0.0287     39.6791    111.8007     35.4237
   844.1000      8.4078      1.9665      0.0223     41.4256    109.7272     35.4365
   844.2000      8.4078      1.9380      0.0163     43.1500    107.9054     35.4357
   844.3000      8.4327      1.9105      0.0109     44.8173    106.3875     35.4291
   844.4000      8.4327      1.8845      0.0060     46.3933    105.2058     35.4253
   844.5000      8.4441      1.8605      0.0017     47.8460    104.3795     35.4320
   844.6000      8.4441      1.8391     -0.0015     49.1458    103.9098     35.4558
   844.7000      8.4441      1.8206     -0.0035     50.2671    103.7863     35.5000
   844.8000      8.4453      1.8054     -0.0040     51.1891    103.9905     35.5650
   844.9000      8.4453      1.7937     -0.0028     51.8962    104.4981     35.6470
   845.0000      8.4488      1.7857      0.0003     52.3794    105.2848     35.7386
   845.1000      8.4488      1.7815      0.0050     52.6361    106.3217     35.8298
   845.2000      8.4488      1.7809      0.0111     52.6714    107.5752     35.9093
   845.3000      8.4541      1.7838      0.0182     52.4975    109.0047     35.9660
   845.4000      8.4541      1.7898      0.0257     52.1337    110.5555     35.9908
   845.5000      8.4313      1.7985      0.0331     51.6055    112.1672     35.9778
   845.6000      8.4313      1.8094      0.0399     50.9436    113.7708     35.9250
   845.7000      8.4313      1.8220      0.0458     50.1824    115.2998     35.8350
   845.8000      8.3916      1.8356      0.0504     49.3576    116.6961     35.7142
   845.9000      8.3916      1.8497      0.0535     48.5047    117.9205     35.5721
   846.0000      8.3879      1.8637      0.0551     47.6560    118.9516     35.4204
   846.1000      8.3879      1.8771      0.0551     46.8396    119.7913     35.2716
   846.2000      8.3879      1.8897      0.0539     46.0767    120.4602     35.1376
   846.3000      8.4151      1.9012      0.0517     45.3811    120.9879     35.0287
   846.4000      8.4151      1.9115      0.0491     44.7587    121.4104     34.9526
   846.5000      8.4394      1.9206      0.0467     44.2074    121.7594     34.9131
   846.6000      8.4394      1.9286      0.0452     43.7185    122.0649     34.9105
   846.7000      8.4394      1.9359      0.0450     43.2778    122.3480     34.9409
   846.8000      8.4628      1.9427      0.0464     42.8679    122.6262     34.9967
   846.9000      8.4628      1.9492      0.0497     42.4698    122.9110     35.0675
   847.0000      8.4926      1.9559      0.0546     42.0655    123.2093     35.1418
   847.1000      8.4926      1.9630      0.0608     41.6390    123.5252     35.2076
   847.2000      8.4926      1.9706      0.0675     41.1778    123.8529     35.2551
   847.3000      8.5111      1.9789      0.0742     40.6733    124.1866     35.2774
   847.4000      8.5111      1.9880      0.0803     40.1206    124.5131     35.2719
   847.5000      8.5131      1.9979      0.0852     39.5182    124.8226     35.2398
   847.6000      8.5131      2.0087      0.0885     38.8666    125.1111     35.1861
   847.7000      8.5131      2.0202      0.0901     38.1674    125.3849     35.1178
   847.8000      8.5020      2.0325      0.0901     37.4220    125.6645     35.0419
   847.9000      8.5020      2.0456      0.0890     36.6308    125.9861     34.9644
   848.0000      8.4826      2.0594      0.0871     35.7925    126.3990     34.8880
   848.1000      8.4826      2.0741      0.0853     34.9039    126.9557     34.8123
   848.2000      8.4826      2.0897      0.0841     33.9597    127.7040     34.7336
   848.3000      8.4652      2.1063      0.0842     32.9538    128.6744     34.6460
   848.4000      8.4652      2.1240      0.0856     31.8794    129.8722     34.5427
   848.5000      8.4682      2.1430      0.0884     30.7302    131.2720     34.4174
   848.6000      8.4682      2.1632      0.0922     29.5015    132.8158     34.2657
   848.7000      8.4682      2.1849      0.0966     28.1908    134.4214     34.0853
   848.8000      8.4860      2.2078      0.1012     26.7990    135.9877     33.8764
   848.9000      8.4860      2.2320      0.1055     25.3304    137.4109     33.6412
   849.0000      8.4997      2.2574      0.1095     23.7937    138.5968     33.3827
   849.1000      8.4997      2.2837      0.1132     22.2019    139.4700     33.1042
   849.2000      8.4997      2.3106      0.1171     20.5718    139.9825     32.8082
   849.3000      8.5115      2.3377      0.1215     18.9243    140.1145     32.4960
   849.4000      8.5115      2.3648      0.1268     17.2834    139.8780     32.1679
   849.5000      8.4986      2.3914      0.1332     15.6752    139.3057     31.8234
   849.6000      8.4986      2.4169      0.1406     14.1271    138.4506     31.4620
   849.7000      8.4986      2.4410      0.1483     12.6660    137.3785     31.0838
   849.8000      8.4234      2.4633      0.1555     11.3172    136.1622     30.6900
   849.9000      8.4234      2.4833      0.1613     10.1027    134.8775     30.2830
   850.0000      8.3728      2.5008      0.1646      9.0396    133.5967     29.8672
   850.1000      8.3728      2.5157      0.1646      8.1393    132.3827     29.4477
   850.2000      8.3728      2.5278      0.1609      7.4062    131.2843     29.0304
   850.3000      8.3826      2.5372      0.1535      6.8378    130.3273     28.6216
   850.4000      8.3826      2.5440      0.1426      6.4247    129.5161     28.2273
   850.5000      8.3979      2.5485      0.1292      6.1511    128.8327     27.8528
   850.6000      8.3979      2.5511      0.1141      5.9963    128.2445     27.5022
   850.7000      8.3979      2.5521      0.0985      5.9360    127.7057     27.1780
   850.8000      8.3751      2.5519      0.0834      5.9438    127.1685     26.8801
   850.9000      8.3751      2.5511      0.0699      5.9935    126.5864     26.6059
   851.0000      8.3108      2.5500      0.0584      6.0599    125.9161     26.3500
   851.1000      8.3108      2.5490      0.0494      6.1209    125.1226     26.1046
   851.2000      8.3108      2.5484      0.0428      6.1577    124.1719     25.8606
   851.3000      8.2573      2.5484      0.0384      6.1561    123.0384     25.6089
   851.4000      8.2573      2.5493      0.0360      6.1059    121.6990     25.3425
   851.5000      8.2422      2.5510      0.0349      6.0011    120.1423     25.0573
   851.6000      8.2422      2.5536      0.0349      5.8394    118.3671     24.7535
   851.7000      8.2422      2.5572      0.0356      5.6214    116.3876     24.4353
   851.8000      8.2487      2.5617      0.0365      5.3498    114.2337     24.1101
   851.9000      8.2487      2.5670      0.0376      5.0291    111.9479     23.7873
   852.0000      8.2452      2.5730      0.0385      4.6648    109.5820     23.4765
   852.1000      8.2452      2.5797      0.0393      4.2630    107.1909     23.1862
   852.2000      8.2452      2.5868      0.0398      3.8302    104.8268     22.9225
   852.3000      8.2080      2.5943      0.0402      3.3738    102.5364     22.6889
   852.4000      8.2080      2.6021      0.0404      2.9012    100.3593     22.4864
