~Version Information
VERS.                      2.0: CWLS Log ASCII Standard - VERSION 2.0
WRAP.                       NO: One line per depth step
~Well Information Block
STRT.FT               -12.5000: 
STOP.FT              1647.5000: 
STEP.FT                 0.2500: 
NULL.                -999.2500: 
COMP.          Pioneer Natural Resources: COMPANY
WELL.            Harlee L 34-9: WELL
FLD.           Purgatorie River`: FIELD
LOC.           600' FSL & 2125' FEL----: LOCATION
PROV.                       CO: PROVINCE
CNTY.               Las Animas: COUNTRY
SRVC.                Patterson: SERVICE COMPANY
DATE.          Sat Feb 12 09:31:33 2005: LOG DATE
UWI.           05 071 08009 00: UNIQUE WELL ID
~Curve Information Block
DEPT.FT            0 000 00 00: Depth
CCL.                          : Casing Collar Locator
TT3.usec                      : CBL 3' Travel Time
AMP3.mV                       : CBL 3' Amplitude
AMP5.mV                       : CBL 5' Amplitude
GR.GAPI                       : Gamma Ray
~Parameter Information Block
~A  Depth       CCL         TT3         AMP3        AMP5         GR     
# ...
  1611.5000      0.0000    289.0491     70.0876     57.1023    136.2959
  1611.7500      0.0000    288.9703     69.9125     57.0641    135.2071
  1612.0000      0.0000    288.8785     69.3647     52.2526    136.3105
  1612.2500      0.0000    288.8302     68.0173     30.8301    139.0441
  1612.5000      0.0000    288.9630     65.4069     58.6297    142.2610
  1612.7500      0.0000    289.5307     61.3246     20.2525    144.7066
  1613.0000      0.0000    290.8286     55.9782     17.6940    145.3085
  1613.2500      0.0000    292.9443     49.8415     24.7585    143.8534
  1613.5000      0.0000    295.5045     43.4915     24.4530    141.6229
  1613.7500      0.0000    297.7672     37.6894     24.8348    140.3382
  1614.0000      0.0000    299.1203     33.2982     24.5294    139.8387
  1614.2500      0.0000    299.5086     30.7697     25.8277    137.6073
  1614.5000      0.0000    299.3736     29.7857     25.3313    131.3901
  1614.7500     -1.6071    299.2951     29.5722     26.0568    121.8845
  1615.0000      0.0000    299.7750     29.5045     25.7513    112.3266
  1615.2500      0.0000    301.1252     29.5103     25.6749    105.8475
  1615.5000      0.0000    303.1338     30.1631     26.4005    103.6923
  1615.7500      0.0000    304.7271     32.3645     26.1332    105.5430
  1616.0000      0.0000    304.4232     36.6036     26.8969    110.8218
  1616.2500      0.0000    301.6064     42.4473     26.1714    119.5768
  1616.5000      0.0000    297.2343     48.9198     26.0186    132.4275
  1616.7500      0.0000    293.0196     55.2095     22.7728    149.8598
  1617.0000      0.0000    290.0812     60.7932     20.3289    171.3488
  1617.2500      0.0000    288.5028     65.2266     65.5796    194.5966
  1617.5000      0.0000    287.8143     68.2542     30.0282    215.3572
  1617.7500      0.0000    287.5491     70.0200     59.7371    228.6290
  1618.0000      0.0000    287.4427     70.9405     61.9519    230.9647
  1618.2500      0.0000    287.3886     71.4081     63.3266    222.1824
  1618.5000      0.0000    287.3557     71.6627     63.6703    205.2340
  1618.7500      0.0000    287.3345     71.8330     63.2885    184.7338
  1619.0000      0.0000    287.3221     71.9879     65.3887    165.2078
  1619.2500      0.0000    287.3159     72.1580     64.6250    149.6518
  1619.5000      0.0000    287.3130     72.3383     64.1667    139.0169
  1619.7500      0.0000    287.3113     72.4947     64.0140    132.8195
  1620.0000      0.0000    287.3084     72.5846     63.4794    129.8441
  1620.2500      0.0000    287.3022     72.5861     63.8994    128.2641
  1620.5000      0.0000    287.2902     72.5156     64.0522    126.1052
  1620.7500      0.0000    287.2712     72.4191     63.8994    122.4744
  1621.0000      0.0000    287.2455     72.3446     63.8612    118.0531
  1621.2500      0.0000    287.2164     72.3160     63.2885    114.0999
  1621.5000      0.0000    287.1898     72.3231     63.7467    111.3696
  1621.7500      0.0000    287.1722     72.3368     63.8612    110.0092
  1622.0000      0.0000    287.1674     72.3397     63.1739    109.7580
  1622.2500      0.0000    287.1753     72.3384     63.5558    109.9847
  1622.5000      0.0000    287.1919     72.3435     62.9448    110.1004
  1622.7500      0.0000    287.2107     72.3419     62.5247    110.2743
  1623.0000      0.0000    287.2245     72.2936     62.3338    111.3295
  1623.2500      0.0000    287.2280     72.1619     61.6846    113.6049
  1623.5000      0.0000    287.2196     71.9521     62.2574    116.4018
  1623.7500      0.0000    287.2017     71.7239     63.0211    118.9519
  1624.0000      0.0000    287.1793     71.5585     62.7920    121.3823
  1624.2500      0.0000    287.1563     71.5050     63.0211    124.0712
  1624.5000      0.0000    287.1352     71.5539     62.9448    126.4928
  1624.7500      0.0000    287.1183     71.6587     62.4865    127.5277
  1625.0000      0.0000    287.1087     71.7774     63.0593    126.7084
  1625.2500      0.0000    287.1083     71.8946     64.3577    124.4730
  1625.5000      0.0000    287.1156     72.0123     64.6250    121.3134
  1625.7500      0.0000    287.1252     72.1312     64.7395    117.4085
  1626.0000      0.0000    287.1306     72.2442     64.8541    113.2372
  1626.2500      0.0000    287.1273     72.3460     65.1214    109.9259
  1626.5000      0.0000    287.1136     72.4447     65.6942    108.4844
  1626.7500      0.0000    287.0905     72.5577     65.2360    108.8499
  1627.0000      0.0000    287.0614     72.6891     65.2741    110.0208
  1627.2500      0.0000    287.0305     72.8138     65.8469    111.2397
  1627.5000      0.0000    287.0025     72.8958     64.9305    112.8972
  1627.7500      0.0000    286.9826     72.9231     65.0068    115.9296
  1628.0000      0.0000    286.9747     72.9200     65.0832    120.1801
  1628.2500      0.0000    286.9807     72.9229     64.6250    123.6698
  1628.5000      0.0000    287.0001     72.9499     65.0832    123.8549
  1628.7500      0.0000    287.0306     72.9919     65.3123    119.7163
  1629.0000      0.0000    287.0679     73.0233     64.8923    112.6736
  1629.2500      0.0000    287.1048     73.0117     64.1667    105.4842
  1629.5000      0.0000    287.1318     72.9123     63.6703    100.2066
  1629.7500      0.0000    287.1398     72.6632     62.4865     97.1668
  1630.0000      0.0000    287.1256     72.2225     71.3458     95.5314
  1630.2500      0.0000    287.0960     71.6363     69.0164     94.3413
  1630.5000      0.0000    287.0660     71.0566     68.3290     92.8969
  1630.7500      0.0000    287.0515     70.6518     67.7562     90.3426
  1631.0000      0.0000    287.0599     70.4800     66.4961     85.0225
  1631.2500      0.0000    287.0880     70.4631     67.4889     74.8029
  1631.5000      0.0000    287.1256     70.4777     68.7491     58.9962
  1631.7500      0.0000    287.1627     70.4530     69.2073     40.1171
  1632.0000      0.0000    287.1915     70.3865     69.1310     22.8174
  1632.2500      0.0000    287.2073     70.2998     67.3744     10.6249
  1632.5000      0.0000    287.2062     70.2052     65.5796      3.9916
  1632.7500      0.0000    287.1870     70.1154     64.2431      1.1977
  1633.0000      0.0000    287.1538     70.0742     64.2813      0.2847
  1633.2500      0.0000    287.1173     70.1608     63.8612      0.0530
  1633.5000      0.0000    287.0903     70.4339     63.8231      0.0071
  1633.7500      0.0000    287.0797     70.8605     64.1285      0.0000
  1634.0000      0.0000    287.0829     71.3139     63.8994   -999.2500
  1634.2500      0.0000    287.0919     71.6595     62.9448   -999.2500
  1634.5000      0.0000    287.1000     71.8344     62.8684   -999.2500
  1634.7500      0.0000    287.1057     71.8396     64.5486   -999.2500
  1635.0000      0.0000    287.1202     71.6541     62.1429   -999.2500
  1635.2500      0.0000    287.1656     71.1482     73.1787   -999.2500
  1635.5000      0.0000    287.3229     70.0368     56.1858   -999.2500
  1635.7500      0.0000    287.6503     67.8636     48.4722   -999.2500
  1636.0000      0.0000    287.6501     64.0133     18.9542   -999.2500
  1636.2500      0.0000    284.8441     57.8340   -999.2500   -999.2500
  1636.5000      0.0000    273.2981     48.9924   -999.2500   -999.2500
  1636.7500      0.0000    245.1593     37.9757   -999.2500   -999.2500
  1637.0000      0.0000    197.1143     26.3014   -999.2500   -999.2500
  1637.2500      0.0000    136.6048     15.9910   -999.2500   -999.2500
  1637.5000      0.0000     79.1284      8.5232   -999.2500   -999.2500
  1637.7500      0.0000     37.4767      4.1406   -999.2500   -999.2500
  1638.0000      0.0000     14.2959      2.0750   -999.2500   -999.2500
  1638.2500      0.0000      4.3471      1.2982   -999.2500   -999.2500
  1638.5000      0.0000      1.0454      1.0662   -999.2500   -999.2500
  1638.7500      0.0000      0.1965      1.0115   -999.2500   -999.2500
  1639.0000      0.0000      0.0271      1.0013   -999.2500   -999.2500
  1639.2500      0.0000   -999.2500   -999.2500   -999.2500   -999.2500
