~Version Information
VERS.                      2.0: CWLS Log ASCII Standard - VERSION 2.0
WRAP.                       NO: One line per depth step
~Well Information Block
STRT.FT               675.0000: 
STOP.FT              2371.5000: 
STEP.FT                 0.1000: 
NULL.                -999.2500: 
COMP.          Pioneer Natural Resources: COMPANY
WELL.            Harrier 44-33: WELL
FLD.           Purgatoire River: FIELD
LOC.           456' FSL & 930' FEL: LOCATION
PROV.                 Colorado: PROVINCE
CNTY.               Las Animas: COUNTRY
SRVC.                Patterson: SERVICE COMPANY
DATE.          Mon Jun 20 10:36:59 2005: LOG DATE
UWI.           05 071 08398 00: UNIQUE WELL ID
~Curve Information Block
DEPT.FT            0 000 00 00: Depth
DCAL.in                       : CDL Caliper
RHOB.g/cc                     : CDL Bulk Density
RHOC.g/cc                     : CDL Density Correction
DPOR.pu                       : CDL Density Porosity
GR.GAPI                       : Gamma Ray
NPOR.pu                       : Neutron Porosity
~Parameter Information Block
~A  Depth       DCAL        RHOB        RHOC        DPOR         GR         NPOR    
# ...
  1903.8000      7.9414      2.5513      0.0329      5.9822     93.0583     22.6652
  1903.9000      7.9414      2.5517      0.0859      5.9552     87.1363     23.7580
  1904.0000      7.9337      2.5589      0.1195      5.5185     82.6212     24.8841
  1904.1000      7.9337      2.5538      0.1295      5.8282     81.9908     25.1209
  1904.2000      7.9337      2.5408      0.0471      6.6191     84.3103     24.5394
  1904.3000      7.9553      2.5421     -0.0121      6.5381     89.6963     23.8939
  1904.4000      7.9553      2.5577      0.0692      5.5962     95.7234     23.6592
  1904.5000      7.9489      2.5679      0.0421      4.9759    100.4989     23.8479
  1904.6000      7.9489      2.5682      0.0687      4.9603    105.0086     24.0764
  1904.7000      7.9489      2.5607      0.0675      5.4141    107.7699     24.3642
  1904.8000      7.9429      2.5545      0.0222      5.7872    108.7744     24.6068
  1904.9000      7.9429      2.5552      0.0927      5.7458    110.8048     24.0902
  1905.0000      7.9490      2.5487      0.0286      6.1381    116.4349     23.0551
  1905.1000      7.9490      2.5347      0.0286      6.9885    124.3590     22.3939
  1905.2000      7.9490      2.5307     -0.0035      7.2291    124.8545     22.1409
  1905.3000      7.9541      2.5425      0.0849      6.5174    114.8047     21.9224
  1905.4000      7.9541      2.5660      0.0558      5.0919    105.6825     22.1176
  1905.5000      7.9422      2.5994      0.0977      3.0674    104.2087     22.8996
  1905.6000      7.9422      2.6267      0.1193      1.4151    105.1614     23.4497
  1905.7000      7.9422      2.6274      0.1109      1.3726    105.0835     23.2671
  1905.8000      7.9507      2.6083      0.0428      2.5288    104.8733     23.0494
  1905.9000      7.9507      2.5933      0.0668      3.4376    104.1331     23.4138
  1906.0000      7.9519      2.5813      0.1073      4.1636    102.8685     24.0128
  1906.1000      7.9519      2.5647      0.0264      5.1712    102.6234     24.1591
  1906.2000      7.9519      2.5542      0.0587      5.8076    104.2150     23.6592
  1906.3000      7.9470      2.5475      0.0584      6.2151    106.6214     22.6831
  1906.4000      7.9470      2.5439      0.0012      6.4326    108.0101     22.0516
  1906.5000      7.9429      2.5555      0.0807      5.7266    106.0266     22.3667
  1906.6000      7.9429      2.5737      0.0825      4.6271    101.9910     22.7034
  1906.7000      7.9429      2.5922      0.0346      3.5000     99.6836     22.3570
  1906.8000      7.9308      2.6309      0.0540      1.1597     98.0077     22.0281
  1906.9000      7.9308      2.7010      0.0511     -3.0924     93.0518     21.9790
  1907.0000      7.9274      2.7819      0.1494     -7.9937     85.0946     21.9376
  1907.1000      7.9274      2.8485      0.0711    -12.0308     77.3935     22.2373
  1907.2000      7.9274      2.9020      0.1551    -15.2740     77.9893     22.7532
  1907.3000      7.9259      2.9354      0.1697    -17.2950     76.1168     23.0693
  1907.4000      7.9259      2.9318      0.1177    -17.0797     79.3538     23.4956
  1907.5000      7.9340      2.8975      0.0907    -14.9970     82.7955     24.0626
  1907.6000      7.9340      2.8479      0.0112    -11.9965     82.1153     24.3288
  1907.7000      7.9340      2.7834     -0.0416     -8.0859     78.2805     24.1918
  1907.8000      7.9196      2.6978     -0.0701     -2.8948     74.2037     23.6501
  1907.9000      7.9196      2.6172     -0.1498      1.9861     72.6200     23.0634
  1908.0000      7.9518      2.5838      0.0431      4.0104     75.0160     23.2410
  1908.1000      7.9518      2.5922      0.1004      3.5005     78.7989     23.8986
  1908.2000      7.9518      2.6056      0.1501      2.6899     85.5334     23.8683
  1908.3000      7.9555      2.5995      0.1404      3.0618     83.6389     22.7382
  1908.4000      7.9555      2.5707      0.0656      4.8056     84.8940     21.5337
  1908.5000      7.9312      2.5342      0.0286      7.0178     88.0859     21.1116
  1908.6000      7.9312      2.5151      0.0275      8.1733     89.3406     20.7402
  1908.7000      7.9312      2.5259     -0.0013      7.5215     87.3876     19.9440
  1908.8000      7.9283      2.5497      0.1142      6.0765     80.3976     19.1522
  1908.9000      7.9283      2.5693      0.0729      4.8928     70.2128     18.6833
  1909.0000      7.9465      2.5873      0.1008      3.8017     62.5578     18.7985
  1909.1000      7.9465      2.5950      0.0861      3.3309     58.8660     19.5195
  1909.2000      7.9465      2.5817      0.0781      4.1400     61.6530     20.3284
  1909.3000      7.9631      2.5611      0.0732      5.3851     61.3857     20.5598
  1909.4000      7.9631      2.5522      0.0533      5.9252     60.9471     20.2821
  1909.5000      7.9567      2.5514      0.1157      5.9756     57.4631     19.8557
  1909.6000      7.9567      2.5403      0.0845      6.6467     51.5029     19.3995
  1909.7000      7.9567      2.5197      0.0398      7.8981     48.6367     19.4687
  1909.8000      7.9558      2.5108      0.0101      8.4350     50.3751     20.1602
  1909.9000      7.9558      2.5159      0.0898      8.1266     52.0581     20.5086
  1910.0000      7.9603      2.5173      0.0437      8.0446     51.1821     20.4933
  1910.1000      7.9603      2.5194     -0.0239      7.9165     50.2540     21.3030
  1910.2000      7.9603      2.5305      0.0342      7.2413     52.1855     22.6250
  1910.3000      7.9564      2.5390      0.0418      6.7280     48.0752     22.7549
  1910.4000      7.9564      2.5410      0.0369      6.6052     45.7036     22.0463
  1910.5000      7.9540      2.5472      0.0637      6.2282     47.9014     22.1008
  1910.6000      7.9540      2.5580      0.0762      5.5784     50.0322     22.4680
  1910.7000      7.9540      2.5578      0.1020      5.5908     50.0561     21.8449
  1910.8000      7.9597      2.5400      0.0430      6.6690     50.6979     20.8360
  1910.9000      7.9597      2.5210      0.0856      7.8168     51.2092     20.5503
  1911.0000      7.9549      2.5141      0.0508      8.2382     50.3184     20.5926
  1911.1000      7.9549      2.5111      0.0435      8.4178     49.4997     20.6419
  1911.2000      7.9549      2.5016      0.0609      8.9917     50.0028     21.1080
  1911.3000      7.9606      2.4909      0.0450      9.6440     50.2032     21.8836
  1911.4000      7.9606      2.4928      0.0254      9.5295     48.5855     22.4419
  1911.5000      7.9644      2.5050      0.0835      8.7876     49.3314     22.4063
  1911.6000      7.9644      2.5171      0.0345      8.0546     54.3658     21.9814
  1911.7000      7.9644      2.5319      0.0618      7.1599     57.0561     21.8398
  1911.8000      7.9627      2.5444      0.0987      6.3980     54.7599     21.9769
  1911.9000      7.9627      2.5396      0.0979      6.6902     53.3954     21.8034
  1912.0000      7.9628      2.5246      0.0488      7.5987     54.6841     21.3018
  1912.1000      7.9628      2.5239      0.0612      7.6428     53.8237     20.9721
  1912.2000      7.9628      2.5379      0.0637      6.7931     49.8825     21.3046
  1912.3000      7.9560      2.5367      0.0903      6.8693     47.6905     21.8171
  1912.4000      7.9560      2.5056      0.0559      8.7486     49.7549     21.5036
  1912.5000      7.9557      2.4736      0.0218     10.6934     52.3218     20.5624
  1912.6000      7.9557      2.4675      0.0579     11.0613     52.3474     20.0076
  1912.7000      7.9557      2.4795      0.0344     10.3345     51.4819     20.0301
  1912.8000      7.9572      2.4987      0.0290      9.1673     50.0872     19.7719
  1912.9000      7.9572      2.5228      0.0819      7.7067     48.3656     18.6352
  1913.0000      7.9566      2.5365      0.0713      6.8769     48.9125     17.3913
  1913.1000      7.9566      2.5290      0.0891      7.3337     52.0339     17.0011
  1913.2000      7.9566      2.5151      0.0477      8.1769     53.9703     17.5293
  1913.3000      7.9512      2.5160      0.0935      8.1208     52.7341     18.1270
