~Version Information
VERS.                      2.0: CWLS Log ASCII Standard - VERSION 2.0
WRAP.                       NO: One line per depth step
~Well Information Block
STRT.FT                -7.5000: 
STOP.FT              1877.2500: 
STEP.FT                 0.2500: 
NULL.                -999.2500: 
COMP.          Pioneer Natural Resources: COMPANY
WELL.            Nova 11-14 Tr: WELL
FLD.           Purgatorie River: FIELD
LOC.           706' FNL & 1109' FWL--: LOCATION
PROV.                       CO: PROVINCE
CNTY.               Las Animas: COUNTRY
SRVC.          Patterson Wireline: SERVICE COMPANY
DATE.          Tue Jul 26 15:08:01 2005: LOG DATE
UWI.           05 071 08434 00: UNIQUE WELL ID
~Curve Information Block
DEPT.FT            0 000 00 00: Depth
CCL.                          : Casing Collar Locator
TT3.usec                      : CBL 3' Travel Time
AMP3.mV                       : CBL 3' Amplitude
GR.GAPI                       : Gamma Ray
~Parameter Information Block
~A  Depth       CCL         TT3         AMP3         GR     
# ...
  1600.5000      0.0000    607.6195      8.2671     99.0140
  1600.7500      0.0000    561.9503      8.2160    103.0371
  1601.0000      0.0000    508.3675      8.3817    106.2318
  1601.2500      2.0000    457.2780      8.7306    109.6124
  1601.5000      0.0000    417.8682      9.1912    114.5932
  1601.7500      0.0000    394.3568      9.6912    122.1158
  1602.0000      0.0000    386.6302     10.1981    131.4512
  1602.2500      0.0000    391.1863     10.7409    140.0538
  1602.5000      0.0000    400.6437     11.3672    144.8394
  1602.7500      0.0000    405.9457     12.0430    143.9483
  1603.0000      0.0000    402.3532     12.6121    137.9903
  1603.2500      0.0000    392.6596     12.9001    129.8626
  1603.5000      0.0000    383.1540     12.8594    122.9666
  1603.7500      0.0000    377.5640     12.5901    119.1878
  1604.0000      0.0000    375.5887     12.2386    118.2183
  1604.2500      0.0000    375.3690     11.9027    118.3715
  1604.5000      0.0000    375.5834     11.6144    118.0327
  1604.7500      0.0000    375.7443     11.3719    116.7434
  1605.0000      0.0000    375.7922     11.1714    115.0889
  1605.2500      0.0000    375.8119     11.0161    113.6046
  1605.5000      0.0000    375.8689     10.9115    112.1931
  1605.7500      0.0000    375.9507     10.8566    110.7046
  1606.0000      0.0000    376.0367     10.8405    109.5099
  1606.2500      0.0000    376.2845     10.8410    108.9645
  1606.5000      0.0000    377.2021     10.8305    108.5748
  1606.7500      0.0000    379.6273     10.7904    107.4216
  1607.0000      0.0000    384.3184     10.7214    105.4925
  1607.2500      0.0000    391.3893     10.6359    103.8554
  1607.5000      0.0000    400.4824     10.5420    103.1486
  1607.7500      0.0000    412.3642     10.4377    102.4818
  1608.0000      0.0000    430.4730     10.3191    100.2629
  1608.2500      0.0000    459.3837     10.1903     95.7396
  1608.5000      0.0000    499.8702     10.0637     89.6021
  1608.7500      0.0000    545.5201      9.9522     83.7049
  1609.0000      0.0000    585.9034      9.8616     80.2609
  1609.2500      0.0000    613.7812      9.7890     80.4194
  1609.5000      0.0000    628.8322      9.7273     83.3161
  1609.7500      0.0000    635.2574      9.6725     86.9710
  1610.0000      0.0000    637.5059      9.6261     90.1326
  1610.2500      0.0000    638.2776      9.5927     92.7884
  1610.5000      0.0000    638.8721      9.5729     95.0947
  1610.7500      0.0000    640.1188      9.5594     96.5386
  1611.0000      0.0000    642.7108      9.5402     96.4139
  1611.2500      0.0000    646.7594      9.5068     94.8227
  1611.5000      0.0000    651.2971      9.4590     92.8734
  1611.7500      0.0000    655.0432      9.4002     91.8527
  1612.0000      0.0000    658.2258      9.3272     92.3640
  1612.2500      0.0000    662.9885      9.2298     94.2950
  1612.5000      0.0000    670.9418      9.1039     97.4387
  1612.7500      0.0000    680.3804      8.9630    102.0950
  1613.0000      0.0000    686.4836      8.8330    108.9345
  1613.2500      0.0000    684.2941      8.7312    117.9698
  1613.5000      0.0000    671.8296      8.6536    127.7314
  1613.7500      0.0000    651.4756      8.5815    135.9218
  1614.0000      0.0000    628.9487      8.5001    140.9643
  1614.2500      0.0000    610.1326      8.4078    142.7351
  1614.5000      0.0000    597.9591      8.3101    141.9650
  1614.7500      0.0000    591.8085      8.2075    139.2364
  1615.0000      0.0000    589.2896      8.0941    134.7796
  1615.2500      0.0000    588.2252      7.9653    129.3148
  1615.5000      0.0000    587.6686      7.8243    124.7034
  1615.7500      0.0000    588.2695      7.6805    123.1376
  1616.0000      0.0000    592.1723      7.5449    125.4974
  1616.2500      0.0000    601.9737      7.4302    130.5096
  1616.5000      0.0000    618.8470      7.3531    135.2553
  1616.7500      0.0000    641.0904      7.3284    136.6554
  1617.0000      0.0000    664.4030      7.3575    133.2667
  1617.2500      0.0000    684.0207      7.4277    126.1427
  1617.5000      0.0000    697.2795      7.5284    117.9032
  1617.7500      0.0000    704.6014      7.6668    110.8262
  1618.0000      0.0000    708.4330      7.8638    105.5260
  1618.2500      0.0000    711.5464      8.1354    101.1033
  1618.5000      0.0000    715.9063      8.4786     96.4447
  1618.7500      0.0000    722.0582      8.8796     91.4793
  1619.0000      0.0000    728.9276      9.3352     87.3443
  1619.2500      0.0000    734.0948      9.8603     85.5270
  1619.5000      0.0000    734.1697     10.4659     86.8525
  1619.7500      0.0000    724.6962     11.1303     90.8813
  1620.0000      0.0000    700.7085     11.7985     96.0910
  1620.2500      0.0000    660.3116     12.4096    100.9249
  1620.5000      0.0000    610.3010     12.9190    104.6711
  1620.7500      0.0000    566.7900     13.2916    107.1420
  1621.0000      0.0000    545.4066     13.4927    107.9949
  1621.2500      0.0000    548.4501     13.5024    107.1510
  1621.5000      0.0000    563.0443     13.3363    105.8817
  1621.7500      0.0000    572.4037     13.0406    106.7841
  1622.0000      0.0000    568.1229     12.6694    111.9691
  1622.2500      0.0000    552.7662     12.2670    121.0129
  1622.5000      0.0000    532.9667     11.8621    130.8627
  1622.7500      0.0000    511.5450     11.4653    137.9999
  1623.0000      0.0000    487.3643     11.0728    140.8241
  1623.2500      0.0000    461.8057     10.6766    140.2401
  1623.5000      0.0000    441.8866     10.2748    138.3213
  1623.7500      0.0000    436.1057      9.8741    136.6364
  1624.0000      0.0000    449.6094      9.4862    135.6826
  1624.2500      0.0000    482.5833      9.1279    135.2730
  1624.5000      0.0000    528.3581      8.8222    135.0356
  1624.7500      0.0000    571.4846      8.5920    134.6945
  1625.0000      0.0000    592.5620      8.4496    134.1873
  1625.2500      0.0000    580.9688      8.3898    133.6491
  1625.5000      0.0000    544.2155      8.3913    133.3719
  1625.7500      0.0000    503.3093      8.4246    133.6160
  1626.0000      0.0000    477.9717      8.4626    134.2076
  1626.2500      0.0000    474.7185      8.4916    134.5444
  1626.5000      0.0000    485.4113      8.5148    134.2739
  1626.7500      0.0000    495.0858      8.5452    133.6608
  1627.0000      0.0000    493.0632      8.5919    133.0408
  1627.2500      0.0000    478.9957      8.6519    132.4184
  1627.5000      0.0000    459.6975      8.7150    131.8902
  1627.7500      0.0000    442.0627      8.7708    131.8643
  1628.0000      0.0000    429.3978      8.8120    132.3598
  1628.2500      0.0000    422.0316      8.8324    132.6337
  1628.5000      0.0000    419.1038      8.8252    132.0377
  1628.7500      0.0000    419.7444      8.7848    130.7824
  1629.0000      0.0000    423.3191      8.7145    129.2541
  1629.2500      0.0000    428.9742      8.6333    126.9816
  1629.5000      0.0000    435.2452      8.5730    123.2718
  1629.7500      0.0000    440.5578      8.5600    118.8474
  1630.0000      0.0000    444.1749      8.5977    115.9065
  1630.2500      0.0000    446.7615      8.6666    116.2799
  1630.5000      0.0000    450.5157      8.7413    120.0782
  1630.7500      0.0000    459.4857      8.8072    126.0894
  1631.0000      0.0000    479.4636      8.8641    132.8173
  1631.2500      0.0000    515.3687      8.9150    138.9328
  1631.5000      0.0000    566.0722      8.9547    143.1512
  1631.7500      0.0000    621.7706      8.9711    144.3505
  1632.0000      0.0000    669.0278      8.9577    142.5853
  1632.2500      0.0000    699.7186      8.9201    139.9110
  1632.5000      0.0000    714.6089      8.8704    139.1667
  1632.7500      0.0000    719.4339      8.8212    141.3373
  1633.0000      0.0000    719.8659      8.7812    144.5355
  1633.2500      0.0000    719.6015      8.7534    145.8034
  1633.5000      0.0000    720.1138      8.7390    143.4481
  1633.7500      0.0000    720.6965      8.7438    137.7477
