~Version Information
VERS.                      2.0: CWLS Log ASCII Standard - VERSION 2.0
WRAP.                       NO: One line per depth step
~Well Information Block
STRT.FT               221.2000: 
STOP.FT              2260.4000: 
STEP.FT                 0.1000: 
NULL.                -999.2500: 
COMP.          Petrogulf Corporation: COMPANY
WELL.          Anderson 18-43V: WELL
FLD.           Purgatorie River: FIELD
LOC.           1782' FSL & 887' FEL--: LOCATION
CNTY.               Las Animas: COUNTY
SRVC.                         : SERVICE COMPANY
DATE.          Mon Sep 13 14:11:09 2004: LOG DATE
UWI.                          : UNIQUE WELL ID
STAT.                       CO: STATE
~Curve Information Block
DEPT.FT            0 000 00 00: Depth
TT3.usec                      : CBL 3' Travel Time
AMP3.mV                       : CBL 3' Amplitude
GR.GAPI                       : Gamma Ray
CCL.                          : Casing Collar Locator
~Parameter Information Block
~A  Depth       TT3         AMP3         GR         CCL     
# ...
   502.6000    667.2181      6.5690     50.8972      0.0000
   502.7000    667.2181      6.5690     50.8972      0.0000
   502.8000    662.4156      6.4769     53.1870      0.0000
   502.9000    662.4156      6.4769     53.1870      0.0000
   503.0000    651.7094      6.3523     53.2331      0.0000
   503.1000    651.7094      6.3523     53.2331      0.0000
   503.2000    651.7094      6.3523     53.2331      0.0000
   503.3000    631.9135      6.2307     52.0935      0.0000
   503.4000    631.9135      6.2307     52.0935      0.0000
   503.5000    601.5582      6.1441     51.3821      0.0000
   503.6000    601.5582      6.1441     51.3821      0.0000
   503.7000    601.5582      6.1441     51.3821      0.0000
   503.8000    562.1905      6.1138     52.0289      0.0000
   503.9000    562.1905      6.1138     52.0289      0.0000
   504.0000    517.3682      6.1501     54.0244      0.0000
   504.1000    517.3682      6.1501     54.0244      0.0000
   504.2000    517.3682      6.1501     54.0244      0.0000
   504.3000    470.9914      6.2541     56.9429      0.0000
   504.4000    470.9914      6.2541     56.9429      0.0000
   504.5000    427.1870      6.4142     60.3771      0.0000
   504.6000    427.1870      6.4142     60.3771      0.0000
   504.7000    427.1870      6.4142     60.3771      0.0000
   504.8000    390.7161      6.6032     63.9065      0.0000
   504.9000    390.7161      6.6032     63.9065      0.0000
   505.0000    366.2355      6.7851     66.9843      0.0000
   505.1000    366.2355      6.7851     66.9843      0.0000
   505.2000    366.2355      6.7851     66.9843      0.0000
   505.3000    357.5773      6.9319     69.0780      0.0000
   505.4000    357.5773      6.9319     69.0780      0.0000
   505.5000    367.8623      7.0372     70.0344      0.0000
   505.6000    367.8623      7.0372     70.0344      0.0000
   505.7000    367.8623      7.0372     70.0344      0.0000
   505.8000    398.1547      7.1149     70.5506      0.0000
   505.9000    398.1547      7.1149     70.5506      0.0000
   506.0000    443.1022      7.1863     72.0077      0.0000
   506.1000    443.1022      7.1863     72.0077      0.0000
   506.2000    443.1022      7.1863     72.0077      0.0000
   506.3000    488.1126      7.2690     74.9935      0.0000
   506.4000    488.1126      7.2690     74.9935      0.0000
   506.5000    515.4102      7.3765     78.0728      0.0000
   506.6000    515.4102      7.3765     78.0728      0.0000
   506.7000    515.4102      7.3765     78.0728      0.0000
   506.8000    517.7683      7.5165     79.1359      0.0000
   506.9000    517.7683      7.5165     79.1359      0.0000
   507.0000    506.4395      7.6808     78.0812      0.0000
   507.1000    506.4395      7.6808     78.0812      0.0000
   507.2000    506.4395      7.6808     78.0812      0.0000
   507.3000    502.2557      7.8269     77.0773      0.0000
   507.4000    502.2557      7.8269     77.0773      0.0000
   507.5000    517.3617      7.8712     77.8917      0.0000
   507.6000    517.3617      7.8712     77.8917      0.0000
   507.7000    517.3617      7.8712     77.8917      0.0000
   507.8000    546.1479      7.7183     79.7254      0.0000
   507.9000    546.1479      7.7183     79.7254      0.0000
   508.0000    572.2802      7.3408     80.1703      0.0000
   508.1000    572.2802      7.3408     80.1703      0.0000
   508.2000    572.2802      7.3408     80.1703      0.0000
   508.3000    581.7418      6.8517     77.9598      0.0000
   508.4000    581.7418      6.8517     77.9598      0.0000
   508.5000    571.0923      6.4708     74.3267      0.0000
   508.6000    571.0923      6.4708     74.3267      0.0000
   508.7000    571.0923      6.4708     74.3267      0.0000
   508.8000    549.2555      6.3726     71.7341      0.0000
   508.9000    549.2555      6.3726     71.7341      0.0000
   509.0000    532.8680      6.5495     71.4865      0.0000
   509.1000    532.8680      6.5495     71.4865      0.0000
   509.2000    532.8680      6.5495     71.4865      0.0000
   509.3000    534.4194      6.8298     72.4946      0.0000
   509.4000    534.4194      6.8298     72.4946      0.0000
   509.5000    550.4592      7.0276     72.1798      0.0000
   509.6000    550.4592      7.0276     72.1798      0.0000
   509.7000    550.4592      7.0276     72.1798      0.0000
   509.8000    563.0861      7.0744     68.5808      0.0000
   509.9000    563.0861      7.0744     68.5808      0.0000
   510.0000    555.7426      7.0260     61.8012     -2.0000
   510.1000    555.7426      7.0260     61.8012     -2.0000
   510.2000    555.7426      7.0260     61.8012      2.0000
   510.3000    528.4299      6.9760     53.8752     -2.0000
   510.4000    528.4299      6.9760     53.8752      0.0000
   510.5000    498.1501      6.9869     47.4931      0.0000
   510.6000    498.1501      6.9869     47.4931      0.0000
   510.7000    498.1501      6.9869     47.4931      0.0000
   510.8000    484.4207      7.0998     44.4563      0.0000
   510.9000    484.4207      7.0998     44.4563      0.0000
   511.0000    492.6350      7.3707     44.7492      0.0000
   511.1000    492.6350      7.3707     44.7492      0.0000
   511.2000    492.6350      7.3707     44.7492      0.0000
   511.3000    511.3825      7.8363     46.8825      0.0000
   511.4000    511.3825      7.8363     46.8825      0.0000
   511.5000    526.8600      8.4367     49.1278      0.0000
   511.6000    526.8600      8.4367     49.1278      0.0000
   511.7000    526.8600      8.4367     49.1278      0.0000
   511.8000    537.5366      9.0225     50.4787      0.0000
   511.9000    537.5366      9.0225     50.4787      0.0000
   512.0000    551.6380      9.4708     50.8175      0.0000
   512.1000    551.6380      9.4708     50.8175      0.0000
   512.2000    551.6380      9.4708     50.8175      0.0000
   512.3000    573.0311      9.7742     50.5234      0.0000
   512.4000    573.0311      9.7742     50.5234      0.0000
   512.5000    594.6248     10.0144     49.9299      0.0000
   512.6000    594.6248     10.0144     49.9299      0.0000
   512.7000    594.6248     10.0144     49.9299      0.0000
   512.8000    604.8354     10.2795     49.0826      0.0000
   512.9000    604.8354     10.2795     49.0826      0.0000
   513.0000    597.4879     10.6107     47.9607      0.0000
   513.1000    597.4879     10.6107     47.9607      0.0000
   513.2000    597.4879     10.6107     47.9607      0.0000
   513.3000    576.9739     10.9986     46.8042      0.0000
   513.4000    576.9739     10.9986     46.8042      0.0000
   513.5000    556.1259     11.4034     46.0683      0.0000
   513.6000    556.1259     11.4034     46.0683      0.0000
   513.7000    556.1259     11.4034     46.0683      0.0000
   513.8000    547.5652     11.7785     45.9925      0.0000
   513.9000    547.5652     11.7785     45.9925      0.0000
   514.0000    555.4113     12.0979     46.2780      0.0000
   514.1000    555.4113     12.0979     46.2780      0.0000
   514.2000    555.4113     12.0979     46.2780      0.0000
   514.3000    575.2077     12.3776     46.2679      0.0000
   514.4000    575.2077     12.3776     46.2679      0.0000
   514.5000    599.4945     12.6729     45.4735      0.0000
   514.6000    599.4945     12.6729     45.4735      0.0000
   514.7000    599.4945     12.6729     45.4735      0.0000
   514.8000    621.5096     13.0427     44.1024      0.0000
   514.9000    621.5096     13.0427     44.1024      0.0000
   515.0000    635.7893     13.5114     43.1931      0.0000
   515.1000    635.7893     13.5114     43.1931      0.0000
   515.2000    635.7893     13.5114     43.1931      0.0000
   515.3000    637.5480     14.0605     43.9642      0.0000
   515.4000    637.5480     14.0605     43.9642      0.0000
   515.5000    621.6432     14.6450     46.6404      0.0000
   515.6000    621.6432     14.6450     46.6404      0.0000
   515.7000    621.6432     14.6450     46.6404      0.0000
   515.8000    583.8497     15.2130     50.1093      0.0000
   515.9000    583.8497     15.2130     50.1093      0.0000
