~Version Information
VERS.                      2.0: CWLS Log ASCII Standard - VERSION 2.0
WRAP.                       NO: One line per depth step
~Well Information Block
STRT.FT               860.0000: 
STOP.FT              1907.0000: 
STEP.FT                 0.1000: 
NULL.                -999.2500: 
COMP.          Pioneer Natural Resources: COMPANY
WELL.          Victory 12-14 Tr: WELL
FLD.           Purgatoire River: FIELD
LOC.           2522' FNL & 276' FWL: LOCATION
PROV.                 Colorado: PROVINCE
CNTY.               Las Animas: COUNTRY
SRVC.                Patterson: SERVICE COMPANY
DATE.          Mon Jul 18 06:52:40 2005: LOG DATE
UWI.           05 071 08433 00: UNIQUE WELL ID
~Curve Information Block
DEPT.FT            0 000 00 00: Depth
DCAL.in                       : CDL Caliper
RHOB.g/cc                     : CDL Bulk Density
RHOC.g/cc                     : CDL Density Correction
DPOR.pu                       : CDL Density Porosity
GR.GAPI                       : Gamma Ray
NPOR.pu                       : Neutron Porosity
~Parameter Information Block
~A  Depth       DCAL        RHOB        RHOC        DPOR         GR         NPOR    
# ...
  1205.6000      7.9553      2.7423      0.1531     -5.5915    110.7990     25.1824
  1205.7000      7.9553      2.7305      0.1050     -4.8784    105.4467     25.2098
  1205.8000      7.9715      2.7296      0.0747     -4.8253    104.2023     25.2746
  1205.9000      7.9715      2.7315      0.0988     -4.9398    104.4280     25.3489
  1206.0000      7.9977      2.7286      0.0342     -4.7607    102.2731     25.3642
  1206.1000      7.9977      2.7158      0.0663     -3.9877     99.3794     25.2703
  1206.2000      7.9977      2.6929      0.0203     -2.5987     96.5688     25.0540
  1206.3000      8.0228      2.6740      0.0410     -1.4522     91.8100     24.6012
  1206.4000      8.0228      2.6676      0.0537     -1.0663     86.7735     24.1673
  1206.5000      8.0486      2.6606      0.0829     -0.6417     86.0047     23.9791
  1206.6000      8.0486      2.6411      0.0427      0.5374     89.0766     23.6446
  1206.7000      8.0486      2.6138      0.0274      2.1933     91.1860     23.1904
  1206.8000      8.0856      2.5869     -0.0006      3.8251     91.2835     23.0573
  1206.9000      8.0856      2.5667      0.0011      5.0513     92.0202     23.2607
  1207.0000      8.0830      2.5579      0.0226      5.5826     92.3616     23.7423
  1207.1000      8.0830      2.5648     -0.0366      5.1613     89.2037     24.4371
  1207.2000      8.0830      2.5815      0.0012      4.1491     84.7783     25.2238
  1207.3000      8.0903      2.5904      0.0021      3.6106     86.6628     26.0115
  1207.4000      8.0903      2.5909     -0.0117      3.5793     94.7337     26.5050
  1207.5000      8.1003      2.5969      0.0121      3.2163     98.8576     26.6470
  1207.6000      8.1003      2.6211      0.0142      1.7512     97.3241     26.5867
  1207.7000      8.1003      2.6699      0.0417     -1.2046     96.9655     26.3609
  1207.8000      8.1188      2.7264      0.0973     -4.6315     96.1912     25.9980
  1207.9000      8.1188      2.7622      0.0847     -6.7996     89.2357     25.4371
  1208.0000      8.1137      2.7704      0.0392     -7.2974     79.2574     24.6089
  1208.1000      8.1137      2.7671      0.0319     -7.0974     74.4338     23.7527
  1208.2000      8.1137      2.7701     -0.0222     -7.2817     77.0031     23.0994
  1208.3000      8.0641      2.7802      0.0097     -7.8922     80.1104     22.6316
  1208.4000      8.0641      2.7722      0.0308     -7.4067     77.9681     22.3018
  1208.5000      8.0232      2.7256      0.0569     -4.5828     74.0537     21.8598
  1208.6000      8.0232      2.6569      0.0223     -0.4154     75.5956     21.0230
  1208.7000      8.0232      2.6021      0.0293      2.9050     81.4394     20.1825
  1208.8000      8.0001      2.5831      0.0668      4.0563     82.7590     20.0043
  1208.9000      8.0001      2.5964      0.0665      3.2456     78.3258     20.3126
  1209.0000      7.9879      2.6196      0.1389      1.8409     75.9675     20.4410
  1209.1000      7.9879      2.6365      0.1093      0.8186     79.5762     20.4590
  1209.2000      7.9879      2.6475      0.1390      0.1505     86.4094     20.9699
  1209.3000      7.9660      2.6493      0.1336      0.0436     90.4777     21.8900
  1209.4000      7.9660      2.6364      0.1141      0.8240     91.0681     22.5383
  1209.5000      7.9906      2.6091      0.1232      2.4816     93.7752     22.7701
  1209.6000      7.9906      2.5780      0.0332      4.3636     97.7600     22.7862
  1209.7000      7.9906      2.5557      0.0495      5.7156     97.0952     22.6118
  1209.8000      8.0347      2.5416      0.0431      6.5706     94.6771     22.4372
  1209.9000      8.0347      2.5344      0.0234      7.0088     97.6244     22.4862
  1210.0000      8.0345      2.5369     -0.0273      6.8541    104.2261     22.6365
  1210.1000      8.0345      2.5502      0.0404      6.0456    108.7452     22.7320
  1210.2000      8.0345      2.5660      0.0651      5.0937    110.3561     22.8311
  1210.3000      8.0483      2.5713      0.0454      4.7677    111.4741     23.0174
  1210.4000      8.0483      2.5601      0.0689      5.4475    112.9551     23.2558
  1210.5000      8.0473      2.5403     -0.0389      6.6502    113.6756     23.6154
  1210.6000      8.0473      2.5306      0.0133      7.2393    114.2016     24.0290
  1210.7000      8.0473      2.5354     -0.0006      6.9430    113.8943     24.2734
  1210.8000      8.0589      2.5446      0.0266      6.3857    113.0024     24.5527
  1210.9000      8.0589      2.5473      0.0200      6.2261    115.4303     25.0002
  1211.0000      8.0639      2.5369      0.0209      6.8563    122.3700     25.1281
  1211.1000      8.0639      2.5193      0.0410      7.9185    130.5334     24.9102
  1211.2000      8.0639      2.5106      0.0074      8.4459    135.7889     24.9132
  1211.3000      8.0641      2.5140      0.0748      8.2454    137.6806     25.4091
  1211.4000      8.0641      2.5223     -0.0059      7.7371    138.8708     26.0927
  1211.5000      8.0768      2.5349      0.0322      6.9733    139.3857     26.4902
  1211.6000      8.0768      2.5504     -0.0002      6.0337    137.6771     26.5069
  1211.7000      8.0768      2.5643      0.0228      5.1936    132.6113     26.3375
  1211.8000      8.0666      2.5678      0.0799      4.9845    127.3965     25.9298
  1211.9000      8.0666      2.5587      0.0582      5.5346    126.8432     25.2117
  1212.0000      8.0532      2.5513      0.0294      5.9832    131.5787     24.6908
  1212.1000      8.0532      2.5565      0.0110      5.6637    137.9528     24.8470
  1212.2000      8.0532      2.5641      0.0301      5.2087    142.3734     25.3452
  1212.3000      8.0413      2.5586      0.0075      5.5423    139.5924     25.5884
  1212.4000      8.0413      2.5454      0.0166      6.3365    128.6799     25.5471
  1212.5000      8.0469      2.5442     -0.0277      6.4091    118.9814     25.7034
  1212.6000      8.0469      2.5649      0.0236      5.1606    117.7394     26.1814
  1212.7000      8.0469      2.5911      0.0594      3.5669    120.0678     26.5392
  1212.8000      8.0390      2.5938      0.0891      3.4068    120.8701     26.6193
  1212.9000      8.0390      2.5714      0.0220      4.7606    123.6753     26.6502
  1213.0000      8.0621      2.5546     -0.0170      5.7825    128.6491     26.7754
  1213.1000      8.0621      2.5602      0.0412      5.4448    130.5990     26.8897
  1213.2000      8.0621      2.5809      0.0548      4.1849    129.5336     26.8694
  1213.3000      8.0531      2.5972      0.1250      3.2018    128.4696     26.9617
  1213.4000      8.0531      2.5967      0.0625      3.2330    127.0033     27.3033
  1213.5000      8.0433      2.6030      0.0483      2.8508    124.3155     27.5714
  1213.6000      8.0433      2.6331      0.1016      1.0255    123.2407     27.6672
  1213.7000      8.0433      2.6582      0.1386     -0.4973    124.4534     27.7841
  1213.8000      8.0457      2.6482      0.0793      0.1120    128.5164     27.7938
  1213.9000      8.0457      2.6173      0.0292      1.9834    136.4493     27.4320
  1214.0000      8.0354      2.5982      0.0636      3.1375    141.2080     26.9514
  1214.1000      8.0354      2.6033      0.0909      2.8306    137.2673     26.7428
  1214.2000      8.0354      2.6221      0.1022      1.6889    129.3432     26.6209
  1214.3000      8.0176      2.6386      0.0643      0.6914    122.5379     26.3094
  1214.4000      8.0176      2.6517      0.0462     -0.1059    118.4120     26.0948
  1214.5000      8.0277      2.6639      0.0885     -0.8437    118.5964     26.0270
  1214.6000      8.0277      2.6600      0.1093     -0.6047    121.0924     25.9685
  1214.7000      8.0277      2.6389      0.0432      0.6751    119.6712     26.1255
  1214.8000      8.0327      2.6245      0.0551      1.5428    115.7963     26.2095
  1214.9000      8.0327      2.6233      0.1002      1.6189    114.9431     25.7227
  1215.0000      8.0342      2.6220      0.0862      1.6986    112.3498     24.9498
  1215.1000      8.0342      2.6206      0.0765      1.7793    104.9523     24.3753
