~Version Information
VERS.                      2.0: CWLS Log ASCII Standard - VERSION 2.0
WRAP.                       NO: One line per depth step
~Well Information Block
STRT.FT                10.0000: 
STOP.FT               859.0000: 
STEP.FT                 0.2500: 
NULL.                -999.2500: 
COMP.          Pioneer Natural Resources: COMPANY
WELL.          Prospector 12-19: WELL
FLD.           Purgatoire River: FIELD
LOC.           2262' FNL & 634' FWL: LOCATION
PROV.                 Colorado: PROVINCE
CNTY.               Las Animas: COUNTRY
SRVC.                Patterson: SERVICE COMPANY
DATE.          Tue May 10 11:52:48 2005: LOG DATE
UWI.           05 071 08191 00: UNIQUE WELL ID
~Curve Information Block
DEPT.FT            0 000 00 00: Depth
CCL.                          : Casing Collar Locator
TT3.usec                      : CBL 3' Travel Time
AMP3.mV                       : CBL 3' Amplitude
GR.GAPI                       : Gamma Ray
~Parameter Information Block
~A  Depth       CCL         TT3         AMP3         GR     
# ...
   479.0000      0.0000    865.7137      2.7315     96.8617
   479.2500      0.0000    865.2813      2.7782    100.9436
   479.5000      0.0000    865.5935      2.9110    107.3568
   479.7500      0.0000    867.1285      3.1314    113.6991
   480.0000      0.0000    870.2983      3.4638    118.5175
   480.2500      0.0000    874.5495      3.9375    121.6343
   480.5000      0.0000    878.1460      4.5673    123.3602
   480.7500      0.0000    879.2719      5.3294    123.6967
   481.0000      0.0000    877.5872      6.1432    122.2245
   481.2500      0.0000    874.4595      6.8831    118.6209
   481.5000      0.0000    871.4669      7.4264    113.4360
   481.7500      0.0000    868.8567      7.7042    108.4636
   482.0000      0.0000    865.4006      7.7231    106.0242
   482.2500      0.0000    859.8359      7.5361    107.4884
   482.5000      0.0000    853.2324      7.1877    112.3086
   482.7500      0.0000    850.1527      6.6932    118.4977
   483.0000      0.0000    855.7026      6.0827    124.0399
   483.2500      0.0000    869.9686      5.4532    127.8374
   483.5000      0.0000    886.7965      4.9405    129.7676
   483.7500      0.0000    899.6906      4.6221    130.5786
   484.0000      0.0000    907.5139      4.4660    131.7283
   484.2500      0.0000    913.0858      4.3793    134.4938
   484.5000     -2.0000    917.8165      4.2881    138.7309
   484.7500      0.0000    919.3668      4.1758    142.7006
   485.0000      0.0000    913.9425      4.0790    144.3978
   485.2500      0.0000    900.0841      4.0624    143.1373
   485.5000      0.0000    880.7490      4.1731    139.8468
   485.7500      0.0000    862.1085      4.3938    135.9629
   486.0000      0.0000    849.7391      4.6473    132.5239
   486.2500      0.0000    845.4551      4.8548    130.3098
   486.5000      0.0000    847.4168      4.9819    129.8158
   486.7500      0.0000    852.5483      5.0334    130.5775
   487.0000      0.0000    858.4005      5.0293    131.3197
   487.2500      0.0000    863.4905      4.9959    131.1517
   487.5000      0.0000    867.1154      4.9647    130.0030
   487.7500      0.0000    869.2592      4.9607    127.9196
   488.0000      0.0000    870.3285      4.9881    124.7767
   488.2500      0.0000    870.7714      5.0276    120.9574
   488.5000      0.0000    870.8483      5.0536    117.8505
   488.7500      0.0000    870.5738      5.0526    117.3357
   489.0000      0.0000    869.7037      5.0243    120.5214
   489.2500      0.0000    867.8883      4.9700    126.6532
   489.5000      0.0000    865.1789      4.8882    133.2478
   489.7500      0.0000    862.4902      4.7844    137.5879
   490.0000      0.0000    861.2147      4.6766    138.2891
   490.2500      0.0000    862.0151      4.5859    135.6118
   490.5000      0.0000    864.1693      4.5258    130.7454
   490.7500      0.0000    866.2995      4.4993    125.1272
   491.0000      0.0000    867.4741      4.5025    120.1338
   491.2500      0.0000    867.4271      4.5262    116.8319
   491.5000      0.0000    866.1832      4.5601    115.6935
   491.7500      0.0000    864.0392      4.5945    116.4416
   492.0000      0.0000    861.8971      4.6211    118.3361
   492.2500      0.0000    861.0424      4.6348    120.9398
   492.5000      0.0000    862.1375      4.6390    124.6505
   492.7500      0.0000    864.5810      4.6448    130.2712
   493.0000      0.0000    867.0985      4.6649    137.9541
   493.2500      0.0000    868.8076      4.7084    146.3612
   493.5000      0.0000    869.5775      4.7763    152.8188
   493.7500      0.0000    869.6868      4.8578    154.8456
   494.0000      0.0000    869.4507      4.9312    152.0778
   494.2500      0.0000    869.1063      4.9730    146.5196
   494.5000      0.0000    868.8135      4.9724    140.6924
   494.7500      0.0000    868.6429      4.9373    135.7722
   495.0000      0.0000    868.5524      4.8888    131.4917
   495.2500      0.0000    868.3717      4.8513    127.0625
   495.5000      0.0000    867.7967      4.8421    121.6255
   495.7500      0.0000    866.5199      4.8602    114.4335
   496.0000      0.0000    864.7110      4.8830    105.5792
   496.2500      0.0000    863.4798      4.8745     96.6260
   496.5000      0.0000    864.4475      4.8003     90.0975
   496.7500      0.0000    868.5328      4.6392     88.1379
   497.0000      0.0000    876.0237      4.3982     91.4092
   497.2500      0.0000    889.5180      4.1314     98.6803
   497.5000      0.0000    915.6086      3.9256    107.2887
   497.7500      0.0000    958.6076      3.8360    114.4923
   498.0000      0.0000   1010.0883      3.8412    118.8905
   498.2500      0.0000   1050.2201      3.8810    120.4897
   498.5000      0.0000   1064.5614      3.9222    119.5368
   498.7500      0.0000   1056.1093      3.9621    116.0295
   499.0000      0.0000   1038.4349      3.9936    110.6998
   499.2500      0.0000   1023.7631      4.0023    105.7025
   499.5000      0.0000   1019.9255      3.9889    103.5538
   499.7500      0.0000   1028.6182      3.9816    105.3237
   500.0000      0.0000   1039.7709      4.0340    109.7978
   500.2500      0.0000   1035.0686      4.2042    114.3730
   500.5000      0.0000   1004.9407      4.5033    117.1659
   500.7500      0.0000    959.0294      4.8588    118.3896
   501.0000      0.0000    916.1792      5.1581    119.5373
   501.2500      0.0000    887.9613      5.3378    121.3531
   501.5000      0.0000    874.1065      5.4179    122.7211
   501.7500      0.0000    868.8907      5.4583    121.5401
   502.0000      0.0000    867.3941      5.5009    116.8669
   502.2500      0.0000    867.1306      5.5455    110.2939
   502.5000      0.0000    867.1581      5.5677    105.0212
   502.7500      0.0000    867.1700      5.5533    103.4280
   503.0000      0.0000    867.0649      5.5138    105.5554
   503.2500      0.0000    866.8680      5.4723    109.7113
   503.5000      0.0000    866.6608      5.4438    114.0659
   503.7500      0.0000    866.5250      5.4322    117.6816
   504.0000      0.0000    866.4921      5.4355    120.5733
   504.2500      0.0000    866.5247      5.4475    123.1390
   504.5000      0.0000    866.5499      5.4580    125.4754
   504.7500      0.0000    866.5214      5.4581    127.2082
   505.0000      0.0000    866.4598      5.4440    127.8787
   505.2500      0.0000    866.4374      5.4163    127.2948
   505.5000      0.0000    866.5357      5.3822    125.5618
   505.7500      0.0000    866.8057      5.3608    123.1740
   506.0000      0.0000    867.2152      5.3711    121.1787
   506.2500      0.0000    867.6066      5.4086    120.7173
   506.5000      0.0000    867.7535      5.4454    121.9429
   506.7500      0.0000    867.5292      5.4588    123.6806
   507.0000      0.0000    867.0287      5.4473    124.4591
   507.2500      0.0000    866.5013      5.4204    123.6135
   507.5000      0.0000    866.1569      5.3895    121.2134
   507.7500      0.0000    866.0474      5.3680    117.4245
   508.0000      0.0000    866.1131      5.3696    112.3996
   508.2500      0.0000    866.2926      5.4017    106.5443
   508.5000      0.0000    866.5600      5.4647    100.6493
   508.7500      0.0000    866.8868      5.5490     95.9850
   509.0000      0.0000    867.2161      5.6331     94.1148
   509.2500      0.0000    867.4911      5.6934     95.9705
   509.5000      0.0000    867.6893      5.7192    100.8667
   509.7500      0.0000    867.8011      5.7103    106.8011
   510.0000      0.0000    867.7784      5.6665    111.8971
   510.2500      0.0000    867.5479      5.5927    115.3685
   510.5000      0.0000    867.0963      5.5061    117.2027
   510.7500      0.0000    866.5120      5.4252    117.6927
   511.0000      0.0000    865.9276      5.3588    117.7023
   511.2500      0.0000    865.4406      5.3125    118.6593
   511.5000      0.0000    865.0974      5.2968    121.5118
   511.7500      0.0000    864.9150      5.3156    125.8123
   512.0000      0.0000    864.8909      5.3542    129.9830
   512.2500      0.0000    865.0004      5.3873    132.2509
