~Version Information
VERS.                      2.0: CWLS Log ASCII Standard - VERSION 2.0
WRAP.                       NO: One line per depth step
~Well Information Block
STRT.FT               440.0000: 
STOP.FT              2735.2000: 
STEP.FT                 0.1000: 
NULL.                -999.2500: 
COMP.          Pioneer Natural Resources: COMPANY
WELL.              Cluck 21-25: WELL
FLD.           Purgatoire River: FIELD
LOC.           91' FNL & 1834' FWL--: LOCATION
PROV.                 Colorado: PROVINCE
CNTY.               Las Animas: COUNTRY
SRVC.                Patterson: SERVICE COMPANY
DATE.          Tue Jun 07 07:26:19 2005: LOG DATE
UWI.           05 071 08397 00: UNIQUE WELL ID
~Curve Information Block
DEPT.FT            0 000 00 00: Depth
DCAL.in                       : CDL Caliper
RHOB.g/cc                     : CDL Bulk Density
RHOC.g/cc                     : CDL Density Correction
DPOR.pu                       : CDL Density Porosity
NPOR.pu                       : Neutron Porosity
GR.GAPI                       : Gamma Ray
~Parameter Information Block
SNDERRM.mmho-m          0.0000: Medium Sonde Error Correction
~A  Depth       DCAL        RHOB        RHOC        DPOR        NPOR         GR     
# ...
  1044.8000      8.0864      2.1716      0.0813     28.9939     29.9793    134.6664
  1044.9000      8.0864      2.2006      0.0968     27.2382     29.2982    139.8182
  1045.0000      8.0868      2.2266      0.0545     25.6634     28.4955    138.9759
  1045.1000      8.0868      2.2522      0.0609     24.1116     28.0503    135.9715
  1045.2000      8.0868      2.2867      0.0656     22.0163     27.6805    139.8804
  1045.3000      8.0901      2.3360      0.0920     19.0308     27.0203    148.7300
  1045.4000      8.0901      2.3931      0.1358     15.5722     26.6329    153.4169
  1045.5000      8.0984      2.4478      0.1362     12.2520     26.8775    152.3739
  1045.6000      8.0984      2.4974      0.1178      9.2495     27.2039    152.0999
  1045.7000      8.0984      2.5339      0.1029      7.0338     27.1441    155.8375
  1045.8000      8.1086      2.5440      0.1205      6.4259     26.7041    157.7452
  1045.9000      8.1086      2.5365      0.0616      6.8781     26.2853    152.4577
  1046.0000      8.1091      2.5424      0.0815      6.5199     26.0507    147.6215
  1046.1000      8.1091      2.5740      0.0700      4.6052     26.0025    150.3633
  1046.2000      8.1091      2.6106      0.0924      2.3895     26.4307    153.4021
  1046.3000      8.1000      2.6266      0.0818      1.4157     26.9089    151.6486
  1046.4000      8.1000      2.6223      0.0857      1.6765     26.7380    149.5329
  1046.5000      8.0928      2.6109      0.0807      2.3676     26.2632    148.1854
  1046.6000      8.0928      2.6047      0.0872      2.7434     25.9068    145.3866
  1046.7000      8.0928      2.6110      0.0977      2.3666     25.5782    143.4812
  1046.8000      8.0905      2.6187      0.0917      1.8960     25.2059    146.5048
  1046.9000      8.0905      2.6091      0.0856      2.4769     24.9198    151.2927
  1047.0000      8.0910      2.5893      0.0260      3.6771     24.8506    147.7478
  1047.1000      8.0910      2.5777      0.0361      4.3804     24.7122    133.9000
  1047.2000      8.0910      2.5634      0.0722      5.2474     24.4103    122.4572
  1047.3000      8.0926      2.5358      0.0374      6.9199     24.1314    121.7361
  1047.4000      8.0926      2.5139      0.0255      8.2510     24.1202    126.2768
  1047.5000      8.0931      2.5103      0.0432      8.4673     24.5941    130.3401
  1047.6000      8.0931      2.5169      0.0391      8.0693     25.1116    134.1623
  1047.7000      8.0931      2.5215      0.0856      7.7855     25.2468    139.6133
  1047.8000      8.0927      2.5199      0.0232      7.8866     25.0748    146.3677
  1047.9000      8.0927      2.5193      0.0384      7.9195     24.7243    146.6920
  1048.0000      8.0919      2.5213      0.0382      7.8019     24.5574    134.0838
  1048.1000      8.0919      2.5265      0.0476      7.4862     24.7531    117.3788
  1048.2000      8.0919      2.5544      0.0170      5.7942     24.9450    109.2047
  1048.3000      8.0909      2.6096      0.0942      2.4500     25.0096    112.1276
  1048.4000      8.0909      2.6620      0.1348     -0.7285     25.2296    121.8662
  1048.5000      8.0918      2.6901      0.1333     -2.4310     25.5141    133.8191
  1048.6000      8.0918      2.7009      0.0989     -3.0834     25.4504    142.6606
  1048.7000      8.0918      2.7076      0.1337     -3.4892     24.9993    142.6365
  1048.8000      8.0934      2.7101      0.1021     -3.6454     24.4386    135.6677
  1048.9000      8.0934      2.7002      0.1177     -3.0420     24.1210    128.6235
  1049.0000      8.0919      2.6764      0.0737     -1.6010     24.0956    125.0581
  1049.1000      8.0919      2.6468      0.0366      0.1927     23.7445    128.3675
  1049.2000      8.0919      2.6128      0.0127      2.2560     23.0102    137.9024
  1049.3000      8.0904      2.5727      0.0248      4.6819     22.7249    143.2665
  1049.4000      8.0904      2.5445     -0.0071      6.3969     23.2091    139.4824
  1049.5000      8.0890      2.5443     -0.0093      6.4054     23.8383    133.5650
  1049.6000      8.0890      2.5570      0.0677      5.6364     23.9962    132.4710
  1049.7000      8.0890      2.5678      0.0404      4.9804     23.7400    135.2704
  1049.8000      8.0834      2.5900      0.0148      3.6370     23.3574    138.6595
  1049.9000      8.0834      2.6218      0.0686      1.7076     23.2764    140.8998
  1050.0000      8.0718      2.6355      0.0729      0.8796     23.7711    139.6022
  1050.1000      8.0718      2.6242      0.0488      1.5647     24.2676    134.0986
  1050.2000      8.0718      2.6140      0.0168      2.1790     24.0430    128.8383
  1050.3000      8.0599      2.6211      0.0652      1.7490     23.2031    127.2792
  1050.4000      8.0599      2.6259      0.0635      1.4616     22.5674    129.4561
  1050.5000      8.0510      2.6144      0.0435      2.1557     22.8463    133.5561
  1050.6000      8.0510      2.6071     -0.0031      2.5977     23.7200    133.4359
  1050.7000      8.0510      2.6220      0.0544      1.6941     24.4168    128.3446
  1050.8000      8.0480      2.6469      0.0585      0.1895     24.5369    124.0354
  1050.9000      8.0480      2.6604      0.0912     -0.6317     24.3167    123.7363
  1051.0000      8.0519      2.6517      0.0631     -0.1010     24.1583    128.1465
  1051.1000      8.0519      2.6215      0.0643      1.7297     24.0099    133.0410
  1051.2000      8.0519      2.5846      0.0062      3.9664     23.7621    132.3704
  1051.3000      8.0579      2.5665     -0.0128      5.0605     23.5807    125.1013
  1051.4000      8.0579      2.5775      0.0058      4.3937     23.9965    117.0576
  1051.5000      8.0619      2.6026     -0.0122      2.8697     25.1144    113.4667
  1051.6000      8.0619      2.6281      0.0346      1.3292     25.7673    114.1846
  1051.7000      8.0619      2.6488      0.0438      0.0724     25.1588    118.7064
  1051.8000      8.0635      2.6578      0.0884     -0.4723     24.1959    123.6499
  1051.9000      8.0635      2.6586      0.0258     -0.5193     23.8561    123.9982
  1052.0000      8.0632      2.6643      0.0867     -0.8691     24.0107    123.2948
  1052.1000      8.0632      2.6673      0.0958     -1.0514     24.0958    126.4205
  1052.2000      8.0632      2.6607      0.0323     -0.6461     24.1314    129.6967
  1052.3000      8.0617      2.6564      0.0314     -0.3872     24.5103    128.6951
  1052.4000      8.0617      2.6556      0.0421     -0.3384     25.0559    126.2685
  1052.5000      8.0604      2.6437      0.1004      0.3790     25.3950    124.4841
  1052.6000      8.0604      2.6198      0.0311      1.8288     25.6846    123.3850
  1052.7000      8.0604      2.6031      0.0316      2.8422     25.8249    125.5269
  1052.8000      8.0585      2.6057      0.0442      2.6876     25.4253    130.8232
  1052.9000      8.0585      2.6165      0.0784      2.0292     24.8208    135.5373
  1053.0000      8.0523      2.6176      0.0585      1.9658     24.7239    135.4035
  1053.1000      8.0523      2.6110      0.0356      2.3650     25.1810    130.5110
  1053.2000      8.0523      2.6064      0.0515      2.6449     25.5704    126.8398
  1053.3000      8.0452      2.5954      0.0587      3.3076     25.4104    126.5294
  1053.4000      8.0452      2.5738      0.0316      4.6156     24.9293    126.4293
  1053.5000      8.0415      2.5593      0.0116      5.4964     24.5703    124.7818
  1053.6000      8.0415      2.5661      0.0369      5.0836     24.5349    124.3274
  1053.7000      8.0415      2.5908      0.0422      3.5850     24.7946    130.6585
  1053.8000      8.0400      2.6176      0.0940      1.9639     25.0969    140.6361
  1053.9000      8.0400      2.6306      0.0687      1.1787     25.4308    144.8177
  1054.0000      8.0379      2.6303      0.0602      1.1919     25.8231    140.6076
  1054.1000      8.0379      2.6200      0.0624      1.8198     25.6448    131.6458
  1054.2000      8.0379      2.6008      0.0335      2.9796     24.5776    126.6361
  1054.3000      8.0343      2.5808      0.0536      4.1946     23.4712    128.6536
