~Version Information
 VERS.                                  2.0 : CWLS LAS VERSION
 WRAP.                                   NO : WRAPING MODE
 SWARE .                  MController 2.5.1 : SOFTWARE VERSION
~Well Information
 WELL.                 Big Cat Federal 44-1 : WELL
 COMP.  Pioneer Natural Resources USA, Inc. : COMPANY
 FLD.                      Purgatoire River : FIELD
 LOC.               SE/SE Sec.1, T34S, R66W : LOCATION
 DATE.                04/23/2006-04/23/2006 : DATE(S) LOGGED
 SRVC.                  Entrada GeoSciences : SERVICE COMPANY
 STAT.                             Colorado : STATE
 CNTY.                           Las Animas : COUNTY
 CTRY.                        United States : COUNTRY
 API.                          071-08042-00 : API NUMBER
 STRT.FT                             266.00 : START DEPTH
 STOP.FT                            1570.00 : STOP DEPTH
 STEP.FT                               1.00 : DEPTH INCREMENT
 NULL.                                -9999 : NULL VALUE
~Curve information
 DEPTH.FT                                   :
 ROP.MIN/FT                                 :
 GAS.UNITS                                  :
~ASCII Log data
# ...
      866.00         0.13          8.8 
      867.00         0.10          9.3 
      868.00         0.10          9.5 
      869.00         0.07          8.8 
      870.00         0.10          8.8 
      871.00         0.17          9.2 
      872.00         0.20          8.4 
      873.00         0.20          8.5 
      874.00         0.25          8.7 
      875.00         0.20          8.2 
      876.00         0.20          8.6 
      877.00         0.17          9.1 
      878.00         0.20          9.6 
      879.00         0.20          8.6 
      880.00         0.20          8.8 
      881.00         0.17          8.7 
      882.00         0.23          8.8 
      883.00         0.20          9.3 
      884.00         0.17          8.4 
      885.00         0.17          8.7 
      886.00         0.13          9.0 
      887.00         0.17          8.4 
      888.00         0.17          8.5 
      889.00         0.13          8.4 
      890.00         0.17         10.1 
      891.00         0.17          9.5 
      892.00         0.15          9.3 
      893.00         0.17         10.3 
      894.00         0.17         11.6 
      895.00         0.13         13.6 
      896.00         0.17         12.9 
      897.00         0.17         12.9 
      898.00         0.13         13.4 
      899.00         0.13         14.0 
      900.00         0.13         15.0 
      901.00         0.13         13.8 
      902.00         0.27         12.9 
      903.00         0.27         11.7 
      904.00         0.27         12.0 
      905.00         0.20         12.9 
      906.00         0.17         12.3 
      907.00         0.20         12.9 
      908.00         0.13         14.9 
      909.00         0.17         17.1 
      910.00         0.17         17.3 
      911.00         0.17         17.4 
      912.00         0.17         17.3 
      913.00         0.17         16.4 
      914.00         0.13         14.9 
      915.00         0.13         13.2 
      916.00         0.17         12.0 
      917.00         0.17         11.6 
      918.00         0.17         11.4 
      919.00         0.17         11.4 
      920.00         0.17         10.8 
      921.00         0.17         11.4 
      922.00         0.17         12.2 
      923.00         0.15         11.3 
      924.00         0.13         11.0 
      925.00         0.17         10.8 
      926.00         0.13         11.5 
      927.00         0.13         10.9 
      928.00         0.17         11.3 
      929.00         0.17         11.5 
      930.00         0.17         12.3 
      931.00         0.20         11.1 
      932.00         0.30         10.9 
      933.00         0.27         11.9 
      934.00         0.28         12.0 
      935.00         0.23         12.2 
      936.00         0.20         12.9 
      937.00         0.20         15.3 
      938.00         0.17         16.7 
      939.00         0.23         13.7 
      940.00         0.17         13.7 
      941.00         0.13         11.9 
      942.00         0.13         11.7 
      943.00         0.10         12.7 
      944.00         0.13         12.1 
      945.00         0.13         12.0 
      946.00         0.17         12.4 
      947.00         0.17         11.6 
      948.00         0.13         12.0 
      949.00         0.13         12.3 
      950.00         0.13         11.7 
      951.00         0.17         11.9 
      952.00         0.17         11.7 
      953.00         0.13         12.2 
      954.00         0.17         12.0 
      955.00         0.18         12.3 
      956.00         0.20         12.1 
      957.00         0.17         12.9 
      958.00         0.17         12.8 
      959.00         0.13         11.4 
      960.00         0.17         11.6 
      961.00         0.30         11.6 
      962.00         0.13         11.7 
      963.00         0.27         12.5 
      964.00         0.28         13.2 
      965.00         0.20         13.2 
      966.00         0.20         13.6 
      967.00         0.17         17.8 
      968.00         0.17         17.8 
      969.00         0.17         15.5 
      970.00         0.17         14.4 
      971.00         0.17         13.2 
      972.00         0.17         13.5 
      973.00         0.17         13.2 
      974.00         0.17         13.5 
      975.00         0.13         15.7 
      976.00         0.17         15.5 
      977.00         0.13         15.5 
      978.00         0.13         14.9 
      979.00         0.17         12.9 
      980.00         0.13         13.2 
      981.00         0.17         13.7 
      982.00         0.13         14.1 
      983.00         0.17         14.8 
      984.00         0.10         15.3 
      985.00         0.18         15.9 
      986.00         0.10         14.7 
      987.00         0.13         13.7 
      988.00         0.27         12.6 
      989.00         0.17         12.3 
      990.00         0.17         12.2 
      991.00         0.27         13.1 
      992.00         0.30         13.0 
      993.00         0.47         13.7 
      994.00         0.23         14.7 
      995.00         0.23         13.9 
      996.00         0.25         15.8 
      997.00         0.20         19.4 
      998.00         0.17         17.6 
      999.00         0.17         16.5 
     1000.00         0.13         16.9 
     1001.00         0.13         17.0 
     1002.00         0.17         17.0 
     1003.00         0.13         17.2 
     1004.00         0.17         15.7 
     1005.00         0.17         15.0 
     1006.00         0.17         14.5 
     1007.00         0.17         14.4 
     1008.00         0.17         14.2 
     1009.00         0.17         15.6 
     1010.00         0.17         15.8 
     1011.00         0.13         14.9 
     1012.00         0.17         15.1 
     1013.00         0.23         15.6 
     1014.00         0.17         59.4 
     1015.00         0.13        141.7 
     1016.00         0.22        134.0 
     1017.00         0.17        108.3 
     1018.00         0.20         88.8 
     1019.00         0.10         78.9 
     1020.00         0.23         62.4 
     1021.00         0.23         51.8 
     1022.00         0.23         46.5 
     1023.00         0.30         42.8 
     1024.00         0.22         47.4 
     1025.00         0.13         50.0 
     1026.00         0.27         93.3 
     1027.00         0.17         92.5 
     1028.00         0.13         72.4 
     1029.00         0.17         54.9 
     1030.00         0.17         45.7 
     1031.00         0.13         42.2 
     1032.00         0.17         45.7 
     1033.00         0.20         45.3 
     1034.00         0.13         41.7 
     1035.00         0.13         37.9 
     1036.00         0.13         34.7 
     1037.00         0.13         32.7 
     1038.00         0.23         30.1 
     1039.00         0.13         29.8 
     1040.00         0.27         30.2 
     1041.00         0.10         30.0 
     1042.00         0.17         30.8 
     1043.00         0.17         30.8 
     1044.00         0.18         28.9 
     1045.00         0.20         27.2 
     1046.00         0.20         28.0 
     1047.00         0.27         28.5 
     1048.00         0.27         27.2 
     1049.00         0.23         25.9 
     1050.00         0.13         25.5 
     1051.00         0.13         25.6 
     1052.00         0.27         26.9 
     1053.00         0.40         76.6 
     1054.00         0.20         67.9 
     1055.00         0.17         47.4 
     1056.00         0.20         32.2 
     1057.00         0.17         25.4 
     1058.00         0.13         24.7 
     1059.00         0.13         23.6 
     1060.00         0.13         22.8 
     1061.00         0.17         31.8 
     1062.00         0.10         35.2 
     1063.00         0.13         34.1 
     1064.00         0.13         30.5 
     1065.00         0.17         26.8 
