~Version Information
VERS.                      2.0: CWLS Log ASCII Standard - VERSION 2.0
WRAP.                       NO: One line per depth step
~Well Information Block
STRT.FT               757.3000: 
STOP.FT              2418.0000: 
STEP.FT                 0.1000: 
NULL.                -999.2500: 
COMP.          Petrogulf Corporation: COMPANY
WELL.            Montoya 7-21V: WELL
FLD.           Purgatorie River: FIELD
LOC.           738' FSL & 2070' FWL: LOCATION
CNTY.               Las Animas: COUNTY
SRVC.                         : SERVICE COMPANY
DATE.          Fri Aug 20 14:08:15 2004: LOG DATE
UWI.           05 071 08018 00: UNIQUE WELL ID
STAT.                 Colorado: STATE
~Curve Information Block
DEPT.FT            0 000 00 00: Depth
DCAL.in                       : CDL Caliper
RHOB.g/cc                     : CDL Bulk Density
RHOC.g/cc                     : CDL Density Correction
DPOR.pu                       : CDL Density Porosity
GR.GAPI                       : Gamma Ray
NPOR.pu                       : Neutron Porosity
~Parameter Information Block
~A  Depth       DCAL        RHOB        RHOC        DPOR         GR         NPOR    
# ...
  2408.5000      7.8454      2.4496      0.0331     12.1454   -999.2500   -999.2500
  2408.6000      7.8454      2.4718      0.0187     10.8001   -999.2500   -999.2500
  2408.7000      7.8454      2.4867      0.0775      9.8948   -999.2500   -999.2500
  2408.8000      7.8282      2.4824      0.0474     10.1592   -999.2500   -999.2500
  2408.9000      7.8282      2.4742      0.0219     10.6530   -999.2500   -999.2500
  2409.0000      7.8287      2.4800      0.0321     10.3015   -999.2500   -999.2500
  2409.1000      7.8287      2.4908      0.0725      9.6466   -999.2500   -999.2500
  2409.2000      7.8287      2.4917      0.0558      9.5933   -999.2500   -999.2500
  2409.3000      7.8510      2.4853      0.0416      9.9824   -999.2500   -999.2500
  2409.4000      7.8510      2.4808      0.0249     10.2530   -999.2500   -999.2500
  2409.5000      7.8680      2.4887      0.0329      9.7729   -999.2500   -999.2500
  2409.6000      7.8680      2.5141      0.0576      8.2343   -999.2500   -999.2500
  2409.7000      7.8680      2.5400      0.0772      6.6681   -999.2500   -999.2500
  2409.8000      7.8662      2.5421      0.0721      6.5389   -999.2500   -999.2500
  2409.9000      7.8662      2.5184      0.0580      7.9751   -999.2500   -999.2500
  2410.0000      7.8570      2.4820      0.0508     10.1846   -999.2500   -999.2500
  2410.1000      7.8570      2.4448      0.0330     12.4376   -999.2500   -999.2500
  2410.2000      7.8570      2.4188      0.0070     14.0109   -999.2500   -999.2500
  2410.3000      7.8558      2.4092      0.0078     14.5921   -999.2500   -999.2500
  2410.4000      7.8558      2.4098      0.0176     14.5585   -999.2500   -999.2500
  2410.5000      7.8509      2.4142      0.0074     14.2881   -999.2500   -999.2500
  2410.6000      7.8509      2.4286     -0.0317     13.4182   -999.2500   -999.2500
  2410.7000      7.8509      2.4579      0.0449     11.6453   -999.2500   -999.2500
  2410.8000      7.8163      2.4883      0.1116      9.8008   -999.2500   -999.2500
  2410.9000      7.8163      2.5054      0.1438      8.7633   -999.2500   -999.2500
  2411.0000      7.7707      2.5128      0.1377      8.3130   -999.2500   -999.2500
  2411.1000      7.7707      2.5178      0.1537      8.0096   -999.2500   -999.2500
  2411.2000      7.7707      2.5187      0.1874      7.9549   -999.2500   -999.2500
  2411.3000      7.7709      2.5204      0.1327      7.8539   -999.2500   -999.2500
  2411.4000      7.7709      2.5397      0.0895      6.6851   -999.2500   -999.2500
  2411.5000      7.8049      2.5773      0.1171      4.4073   -999.2500   -999.2500
  2411.6000      7.8049      2.6106      0.1255      2.3868   -999.2500   -999.2500
  2411.7000      7.8049      2.6223      0.1338      1.6806   -999.2500   -999.2500
  2411.8000      7.8470      2.6124      0.1082      2.2792   -999.2500   -999.2500
  2411.9000      7.8470      2.5864      0.1118      3.8531   -999.2500   -999.2500
  2412.0000      7.8629      2.5516      0.0863      5.9655   -999.2500   -999.2500
  2412.1000      7.8629      2.5263     -0.0027      7.4948   -999.2500   -999.2500
  2412.2000      7.8629      2.5198      0.0215      7.8888   -999.2500   -999.2500
  2412.3000      7.8383      2.5172      0.0183      8.0469   -999.2500   -999.2500
  2412.4000      7.8383      2.5142     -0.0006      8.2282   -999.2500   -999.2500
  2412.5000      7.8181      2.5198      0.0262      7.8933   -999.2500   -999.2500
  2412.6000      7.8181      2.5260      0.0545      7.5134   -999.2500   -999.2500
  2412.7000      7.8181      2.5177      0.0682      8.0190   -999.2500   -999.2500
  2412.8000      7.8188      2.4987      0.0282      9.1720   -999.2500   -999.2500
  2412.9000      7.8188      2.4880      0.0406      9.8205   -999.2500   -999.2500
  2413.0000      7.8191      2.4929      0.0611      9.5205   -999.2500   -999.2500
  2413.1000      7.8191      2.4971      0.0893      9.2641   -999.2500   -999.2500
  2413.2000      7.8191      2.4918      0.0103      9.5904   -999.2500   -999.2500
  2413.3000      7.8130      2.4951      0.0264      9.3899   -999.2500   -999.2500
  2413.4000      7.8130      2.5133      0.0676      8.2833   -999.2500   -999.2500
  2413.5000      7.8136      2.5359      0.0377      6.9166   -999.2500   -999.2500
  2413.6000      7.8136      2.5619      0.0560      5.3400   -999.2500   -999.2500
  2413.7000      7.8136      2.5859      0.1177      3.8840   -999.2500   -999.2500
  2413.8000      7.8147      2.5960      0.0959      3.2714   -999.2500   -999.2500
  2413.9000      7.8147      2.5961      0.0955      3.2684   -999.2500   -999.2500
  2414.0000      7.8123      2.5952      0.0869      3.3212   -999.2500   -999.2500
  2414.1000      7.8123      2.5909      0.0689      3.5831   -999.2500   -999.2500
  2414.2000      7.8123      2.5796      0.0252      4.2662   -999.2500   -999.2500
  2414.3000      7.8114      2.5669      0.0275      5.0384   -999.2500   -999.2500
  2414.4000      7.8114      2.5600     -0.0005      5.4567   -999.2500   -999.2500
  2414.5000      7.8103      2.5567      0.0059      5.6518   -999.2500   -999.2500
  2414.6000      7.8103      2.5454     -0.0088      6.3423   -999.2500   -999.2500
  2414.7000      7.8103      2.5202     -0.0154      7.8695   -999.2500   -999.2500
  2414.8000      7.7955      2.4799      0.0310     10.3072   -999.2500   -999.2500
  2414.9000      7.7955      2.4258      0.0031     13.5854   -999.2500   -999.2500
  2415.0000      7.7116      2.3760      0.0039     16.6057   -999.2500   -999.2500
  2415.1000      7.7116      2.3493     -0.0158     18.2253   -999.2500   -999.2500
  2415.2000      7.7116      2.3479     -0.0268     18.3064   -999.2500   -999.2500
  2415.3000      7.5003      2.3665      0.0256     17.1806   -999.2500   -999.2500
  2415.4000      7.5003      2.4025      0.0237     14.9992   -999.2500   -999.2500
  2415.5000      7.1789      2.4789      0.1413     10.3676   -999.2500   -999.2500
  2415.6000      7.1789      2.7277      0.2302     -4.7106   -999.2500   -999.2500
  2415.7000      7.1789      3.3986      0.2215    -45.3670   -999.2500   -999.2500
  2415.8000      6.5487      4.2563      0.6465    -97.3488   -999.2500   -999.2500
  2415.9000      6.5487      4.0989      1.8347    -87.8095   -999.2500   -999.2500
  2416.0000      4.9185      2.4974      0.0000      9.2484   -999.2500   -999.2500
  2416.1000      4.9185      0.8752   -999.2500    107.5656   -999.2500   -999.2500
  2416.2000      4.9185      0.1688   -999.2500    150.3755   -999.2500   -999.2500
  2416.3000      2.5542      0.0175   -999.2500    159.5429   -999.2500   -999.2500
  2416.4000      2.5542      0.0010   -999.2500    160.5479   -999.2500   -999.2500
  2416.5000      1.1705      0.0000   -999.2500    160.6061   -999.2500   -999.2500
  2416.6000      1.1705   -999.2500   -999.2500   -999.2500   -999.2500   -999.2500
  2416.7000      1.1705   -999.2500   -999.2500   -999.2500   -999.2500   -999.2500
  2416.8000      0.8654   -999.2500   -999.2500   -999.2500   -999.2500   -999.2500
  2416.9000      0.8654   -999.2500   -999.2500   -999.2500   -999.2500   -999.2500
  2417.0000      0.8404   -999.2500   -999.2500   -999.2500   -999.2500   -999.2500
  2417.1000      0.8404   -999.2500   -999.2500   -999.2500   -999.2500   -999.2500
  2417.2000      0.8404   -999.2500   -999.2500   -999.2500   -999.2500   -999.2500
  2417.3000   -999.2500   -999.2500   -999.2500   -999.2500   -999.2500   -999.2500
  2417.4000   -999.2500   -999.2500   -999.2500   -999.2500   -999.2500   -999.2500
  2417.5000   -999.2500   -999.2500   -999.2500   -999.2500   -999.2500   -999.2500
  2417.6000   -999.2500   -999.2500   -999.2500   -999.2500   -999.2500   -999.2500
  2417.7000   -999.2500   -999.2500   -999.2500   -999.2500   -999.2500   -999.2500
  2417.8000   -999.2500   -999.2500   -999.2500   -999.2500   -999.2500   -999.2500
  2417.9000   -999.2500   -999.2500   -999.2500   -999.2500   -999.2500   -999.2500
  2418.0000   -999.2500   -999.2500   -999.2500   -999.2500   -999.2500   -999.2500
