~Version Information
VERS.                      2.0: CWLS Log ASCII Standard - VERSION 2.0
WRAP.                       NO: One line per depth step
~Well Information Block
STRT.FT                -7.7500: 
STOP.FT              1532.2500: 
STEP.FT                 0.2500: 
NULL.                -999.2500: 
COMP.          Pioneer Natural Resources: COMPANY
WELL.          Big Cat Federal 44-1: WELL
FLD.           Purgatorie River: FIELD
LOC.           197' FSL & 973' FEL--: LOCATION
CNTY.               Las Animas: COUNTY
SRVC.          Patterson Wireline: SERVICE COMPANY
DATE.          Fri Apr 28 12:21:06 2006: LOG DATE
UWI.           05 071 08042 00: UNIQUE WELL ID
STAT.                       CO: STATE
~Curve Information Block
DEPT.FT            0 000 00 00: Depth
CCL.                          : Casing Collar Locator
TT3.usec                      : CBL 3' Travel Time
AMP3.mV                       : CBL 3' Amplitude
GR.GAPI                       : Gamma Ray
~Parameter Information Block
~A  Depth       CCL         TT3         AMP3         GR     
# ...
   595.2500      0.0000    660.7966     14.0096    130.9870
   595.5000      0.0000    671.9207     13.9597    132.6844
   595.7500      0.0000    692.8988     13.9124    134.6850
   596.0000      0.0000    711.0818     13.8894    136.5729
   596.2500      0.0000    715.6265     13.9145    138.3881
   596.5000      0.0000    700.1359     13.9982    139.8035
   596.7500      0.0000    662.7293     14.1325    140.2249
   597.0000      0.0000    609.7673     14.2965    139.5312
   597.2500      0.0000    558.3398     14.4688    138.1804
   597.5000      0.0000    527.6213     14.6349    136.7553
   597.7500      0.0000    522.8433     14.7884    135.9305
   598.0000      0.0000    530.2590     14.9242    136.6811
   598.2500      0.0000    532.5368     15.0282    139.7839
   598.5000      0.0000    528.5396     15.0692    144.9130
   598.7500      0.0000    533.9594     15.0018    150.5025
   599.0000      0.0000    562.6492     14.7817    154.6927
   599.2500      0.0000    611.2411     14.3936    156.5764
   599.5000      0.0000    662.8984     13.8758    156.5731
   599.7500      0.0000    702.5148     13.3187    155.3854
   600.0000      0.0000    725.9872     12.8308    152.5821
   600.2500      0.0000    737.4854     12.4955    146.5821
   600.5000      0.0000    742.3117     12.3454    136.3041
   600.7500      0.0000    743.3986     12.3649    122.7909
   601.0000      0.0000    742.0900     12.5119    109.1770
   601.2500      0.0000    739.5959     12.7441     98.9020
   601.5000      0.0000    736.6624     13.0386     93.7491
   601.7500      0.0000    732.0506     13.4074     93.3896
   602.0000      0.0000    721.0211     13.9045     96.4299
   602.2500      0.0000    695.3837     14.6088    101.7334
   602.5000      0.0000    647.2280     15.5828    108.9184
   602.7500      0.0000    576.1938     16.8321    117.5577
   603.0000      0.0000    493.9760     18.2875    125.9871
   603.2500      0.0000    419.1837     19.8003    131.6096
   603.5000      0.0000    366.2871     21.1421    132.8699
   603.7500      0.0000    340.0566     22.0431    130.6732
   604.0000      0.0000    339.4847     22.2904    127.6412
   604.2500      0.0000    363.7229     21.8390    126.0813
   604.5000      0.0000    411.7146     20.8465    126.3081
   604.7500      0.0000    476.5244     19.5950    126.3062
   605.0000      0.0000    543.4418     18.3583    123.1595
   605.2500      0.0000    597.0767     17.3108    115.4908
   605.5000      0.0000    628.9460     16.5245    104.7127
   605.7500      0.0000    635.5839     16.0163     93.7958
   606.0000      0.0000    613.5663     15.7715     85.0323
   606.2500      0.0000    563.5347     15.7302     79.0787
   606.5000      0.0000    497.8195     15.7880     75.6712
   606.7500      0.0000    437.1942     15.8442     74.8160
   607.0000      0.0000    397.9450     15.8578     77.3070
   607.2500      0.0000    383.8631     15.8562     84.1837
   607.5000      0.0000    390.1417     15.8923     95.5226
   607.7500      0.0000    412.3059     15.9930    109.6428
   608.0000      0.0000    450.0406     16.1354    123.6818
   608.2500      0.0000    501.7899     16.2544    135.0947
   608.5000      0.0000    557.5574     16.2720    142.2729
   608.7500      0.0000    602.3328     16.1430    143.8813
   609.0000      0.0000    628.3865     15.8884    138.7853
   609.2500      0.0000    639.3415     15.5739    127.3836
   609.5000      0.0000    639.8159     15.2498    112.5241
   609.7500     -2.0000    627.2206     14.9252     98.4572
   610.0000      2.0000    598.3788     14.5913     88.5083
   610.2500      0.0000    560.2946     14.2517     83.4678
   610.5000      0.0000    529.5501     13.9506     82.0519
   610.7500      0.0000    521.0821     13.7871     82.6577
   611.0000      0.0000    536.4299     13.8713     84.4351
   611.2500      0.0000    560.3164     14.2355     87.1743
   611.5000      0.0000    570.7463     14.8062     90.8293
   611.7500      0.0000    557.4338     15.4628     94.8503
   612.0000      0.0000    530.7595     16.0930     97.5840
   612.2500      0.0000    509.8490     16.6122     96.9952
   612.5000      0.0000    502.3195     16.9823     92.6242
   612.7500      0.0000    498.2386     17.2185     86.4618
   613.0000      0.0000    483.1796     17.3551     81.4643
   613.2500      0.0000    453.6625     17.4105     79.3185
   613.5000      0.0000    419.3081     17.3852     79.6720
   613.7500      0.0000    393.8810     17.2790     81.1014
   614.0000      0.0000    386.9733     17.1025     82.3601
   614.2500      0.0000    402.0626     16.8808     82.8146
   614.5000      0.0000    437.9549     16.6478     82.5622
   614.7500      0.0000    488.9668     16.4298     82.7041
   615.0000      0.0000    543.6327     16.2402     84.7910
   615.2500      0.0000    586.1228     16.0894     89.1834
   615.5000      0.0000    603.1117     15.9946     94.4654
   615.7500      0.0000    591.8389     15.9671     99.2698
   616.0000      0.0000    561.9052     15.9915    104.1532
   616.2500      0.0000    529.6721     16.0222    110.8506
   616.5000      0.0000    510.4724     16.0080    120.1013
   616.7500      0.0000    513.5856     15.9256    130.8424
   617.0000      0.0000    540.9744     15.7931    140.9305
   617.2500      0.0000    587.4818     15.6536    147.8743
   617.5000      0.0000    641.3826     15.5446    149.4996
   617.7500      0.0000    687.6406     15.4752    145.3227
   618.0000      0.0000    713.6815     15.4272    137.7833
   618.2500      0.0000    713.5076     15.3739    131.2693
   618.5000      0.0000    688.8134     15.2996    129.1314
   618.7500      0.0000    649.5787     15.2055    131.6877
   619.0000      0.0000    613.2427     15.1044    137.0066
   619.2500      0.0000    597.8027     15.0122    142.9032
   619.5000      0.0000    610.7148     14.9405    148.0551
   619.7500      0.0000    643.8232     14.8927    152.1398
   620.0000      0.0000    680.5548     14.8631    155.5157
   620.2500      0.0000    708.3079     14.8402    158.4928
   620.5000      0.0000    724.4648     14.8095    160.6862
   620.7500      0.0000    733.3542     14.7603    161.2984
   621.0000      0.0000    740.2698     14.6945    160.1169
   621.2500      0.0000    747.8977     14.6274    158.0478
   621.5000      0.0000    755.8645     14.5704    156.5193
   621.7500      0.0000    762.0867     14.5166    156.4764
   622.0000      0.0000    764.4954     14.4481    157.8917
   622.2500      0.0000    762.2213     14.3593    159.8980
   622.5000      0.0000    755.9983     14.2691    161.3296
   622.7500      0.0000    747.9203     14.2113    161.5880
   623.0000      0.0000    740.4650     14.2108    161.3078
   623.2500      0.0000    735.2269     14.2649    161.9252
   623.5000      0.0000    732.3713     14.3473    164.1902
   623.7500      0.0000    731.1389     14.4320    167.1357
   624.0000      0.0000    730.6683     14.5080    168.7582
   624.2500      0.0000    730.4215     14.5707    167.6625
   624.5000      0.0000    730.1880     14.6096    163.9071
   624.7500      0.0000    729.9584     14.6129    158.6864
   625.0000      0.0000    729.8574     14.5807    153.7059
   625.2500      0.0000    730.1530     14.5280    150.6253
   625.5000      0.0000    731.3494     14.4749    150.4139
   625.7500      0.0000    734.2430     14.4347    152.8478
   626.0000      0.0000    739.7737     14.4083    156.5920
   626.2500      0.0000    748.6747     14.3839    159.8464
   626.5000      0.0000    761.0884     14.3389    160.9552
   626.7500      0.0000    776.1602     14.2427    158.7012
   627.0000      0.0000    791.7852     14.0695    152.4428
   627.2500      0.0000    805.1354     13.8200    142.0938
   627.5000      0.0000    813.9656     13.5320    128.0034
   627.7500      0.0000    817.3660     13.2648    111.1233
   628.0000      0.0000    815.3856     13.0723     93.3537
   628.2500      0.0000    808.8285     12.9890     77.2806
   628.5000      0.0000    800.0298     13.0294     65.1966
