~Version Information
 VERS.                                  2.0 : CWLS LAS VERSION
 WRAP.                                   NO : WRAPING MODE
 SWARE .                 MController 2.5.0J : SOFTWARE VERSION
~Well Information
 WELL.                         Leier 17-24V : WELL
 COMP.                Petrogulf Corporation : COMPANY
 FLD.                      Purgatoire River : FIELD
 LOC.                SE/NE Sec 17 T33S R67W : LOCATION
 DATE.                             09/21/05 : DATE(S) LOGGED
 SRVC.       BLANCO Geological Services LLC : SERVICE COMPANY
 STAT.                                   CO : STATE
 CNTY.                           Las Animas : COUNTY
 CTRY.                                  USA : COUNTRY
 API.                       05-071-08409-00 : API NUMBER
 STRT.FT                             1.00 : START DEPTH
 STOP.FT                            2455.00 : STOP DEPTH
 STEP.FT                               1.00 : DEPTH INCREMENT
 NULL.                                -9999 : NULL VALUE
~Curve information
 DEPTH.FT                                   :
 ROP.MIN/FT                                 :
 GAS.UNITS                                  :
~ASCII Log data
# ...
       601.0         0.23        121.0 
       602.0         0.13        122.2 
       603.0         0.30        123.2 
       604.0         0.32        122.9 
       605.0         0.17        122.1 
       606.0         0.27        122.2 
       607.0         0.30        123.8 
       608.0         0.33        123.7 
       609.0         0.30        122.2 
       610.0         0.27        121.2 
       611.0         0.30        120.8 
       612.0         0.33        120.8 
       613.0         0.33        121.4 
       614.0         0.32        120.8 
       615.0         0.23        118.1 
       616.0         0.27        118.4 
       617.0         0.27        118.4 
       618.0         0.20        117.8 
       619.0         0.23        118.0 
       620.0         0.23        118.3 
       621.0         0.23        117.7 
       622.0         0.27        116.6 
       623.0         0.23        116.0 
       624.0         0.27        117.0 
       625.0         0.32        105.7 
       626.0         2.10        315.9 
       627.0         0.30        170.8 
       628.0         0.27        135.8 
       629.0         0.27        124.7 
       630.0         0.27        119.3 
       631.0         0.32        117.0 
       632.0         0.27        115.2 
       633.0         0.23        113.0 
       634.0         0.23        111.8 
       635.0         0.23        111.7 
       636.0         0.20        111.0 
       637.0         0.20        111.7 
       638.0         0.23        112.0 
       639.0         0.30        112.2 
       640.0         0.20        111.1 
       641.0         0.27        110.5 
       642.0         0.22        108.9 
       643.0         0.20        108.9 
       644.0         0.27        108.4 
       645.0         0.23        108.6 
       646.0         0.20        108.6 
       647.0         0.20        108.2 
       648.0         0.20        107.8 
       649.0         0.17        107.8 
       650.0         0.20        106.4 
       651.0         0.17        106.0 
       652.0         0.13         96.9 
       653.0         0.13         84.0 
       654.0         0.17         84.7 
       655.0         0.13         92.3 
       656.0         1.75        332.1 
       657.0         0.20        267.2 
       658.0         0.30        188.6 
       659.0         0.27        140.2 
       660.0         0.20        122.3 
       661.0         0.20        114.7 
       662.0         0.20        111.6 
       663.0         0.23        111.9 
       664.0         0.23        110.1 
       665.0         0.17        107.2 
       666.0         0.25        107.2 
       667.0         0.23        107.3 
       668.0         0.27        107.9 
       669.0         0.30        108.2 
       670.0         0.37        108.5 
       671.0         0.27        108.1 
       672.0         0.27        107.8 
       673.0         0.27        107.4 
       674.0         0.30        107.1 
       675.0         0.30        107.3 
       676.0         0.33        107.2 
       677.0         0.27        107.1 
       678.0         0.32        107.5 
       679.0         0.33        107.4 
       680.0         0.27        106.6 
       681.0         0.23        106.1 
       682.0         0.30        106.2 
       683.0         0.27        104.0 
       684.0         0.20         97.7 
       685.0         0.23         80.2 
       686.0         2.08        390.9 
       687.0         0.30        348.6 
       688.0         0.30        189.9 
       689.0         0.27        136.8 
       690.0         0.30        121.8 
       691.0         0.23        113.7 
       692.0         0.37        111.0 
       693.0         0.37        109.3 
       694.0         0.38        108.6 
       695.0         0.43        108.0 
       696.0         0.40        107.8 
       697.0         0.40        107.9 
       698.0         0.37        106.8 
       699.0         0.47        109.9 
       700.0         0.43        109.7 
       701.0         0.30        106.5 
       702.0         0.33        106.3 
       703.0         0.42        107.8 
       704.0         0.43        108.3 
       705.0         0.43        108.8 
       706.0         0.47        108.9 
       707.0         0.40        107.9 
       708.0         0.47        109.0 
       709.0         0.47        108.8 
       710.0         0.42        108.8 
       711.0         0.43        108.8 
       712.0         0.37        107.5 
       713.0         0.37        109.2 
       714.0         0.40        109.1 
       715.0         0.40        107.2 
       716.0         2.15        333.5 
       717.0         0.40        268.5 
       718.0         0.47        149.5 
       719.0         0.43        119.0 
       720.0         0.43        111.1 
       721.0         0.37        114.3 
       722.0         0.22        114.1 
       723.0         0.13        109.5 
       724.0         0.13        106.6 
       725.0         0.13        103.8 
       726.0         0.13        101.2 
       727.0         0.13        100.9 
       728.0         0.23        102.1 
       729.0         0.23        108.0 
       730.0         0.23        108.5 
       731.0         0.13        103.1 
       732.0         0.17        104.1 
       733.0         0.47        111.6 
       734.0         0.17        107.8 
       735.0         0.13        102.7 
       736.0         0.17        100.3 
       737.0         0.13        101.0 
       738.0         0.27        103.1 
       739.0         0.48        105.6 
       740.0         0.23        104.5 
       741.0         0.17        101.6 
       742.0         0.17        100.5 
       743.0         0.17         99.2 
       744.0         0.17         88.5 
       745.0         0.20         77.1 
       746.0         1.98        341.1 
       747.0         0.23        326.7 
       748.0         0.20        238.5 
       749.0         0.20        175.9 
       750.0         0.10        137.2 
       751.0         0.10        127.5 
       752.0         0.27        122.0 
       753.0         0.30        114.7 
       754.0         0.30        110.5 
       755.0         0.27        108.4 
       756.0         0.37        106.6 
       757.0         0.27        104.8 
       758.0         0.27        103.9 
       759.0         0.22        102.0 
       760.0         0.23        101.5 
       761.0         0.20        100.9 
       762.0         0.23        101.3 
       763.0         0.27        102.2 
       764.0         0.27        104.4 
       765.0         0.27        110.3 
       766.0         0.20        110.5 
       767.0         0.13        105.9 
       768.0         0.10        102.2 
       769.0         0.10        100.9 
       770.0         0.20        101.5 
       771.0         0.27        102.5 
       772.0         0.37        103.5 
       773.0         0.35        104.6 
       774.0         0.43        104.9 
       775.0         0.37         99.6 
       776.0         2.10        328.1 
       777.0         0.35        325.1 
       778.0         0.37        246.6 
       779.0         0.37        160.6 
       780.0         0.30        119.6 
       781.0         0.30        105.5 
       782.0         0.27        104.1 
       783.0         0.23        103.1 
       784.0         0.20        102.7 
       785.0         0.28        105.2 
       786.0         0.23        105.2 
       787.0         0.17        103.9 
       788.0         0.20        102.9 
       789.0         0.17        100.9 
       790.0         0.17        101.8 
       791.0         0.23        114.9 
       792.0         0.20        117.7 
       793.0         0.13        116.8 
       794.0         0.10        116.1 
       795.0         0.13        113.1 
       796.0         0.13        106.9 
       797.0         0.13        102.9 
       798.0         0.20        105.2 
       799.0         0.33        107.9 
       800.0         0.13        105.3 
