~Version Information
VERS.                      2.0: CWLS Log ASCII Standard - VERSION 2.0
WRAP.                       NO: One line per depth step
~Well Information Block
STRT.FT                 5.5000: 
STOP.FT              1635.7500: 
STEP.FT                 0.2500: 
NULL.                -999.2500: 
COMP.          Pioneer Natural Resources: COMPANY
WELL.                Mead 11-9: WELL
FLD.           Purgatoire River: FIELD
LOC.           1127' FNL & 668' FWL: LOCATION
PROV.                 Colorado: PROVINCE
CNTY.               Las Animas: COUNTRY
SRVC.                Patterson: SERVICE COMPANY
DATE.          Wed Mar 02 13:48:38 2005: LOG DATE
UWI.           05 071 08160 00: UNIQUE WELL ID
~Curve Information Block
DEPT.FT            0 000 00 00: Depth
CCL.                          : Casing Collar Locator
TT3.usec                      : CBL 3' Travel Time
AMP3.mV                       : CBL 3' Amplitude
GR.GAPI                       : Gamma Ray
~Parameter Information Block
~A  Depth       CCL         TT3         AMP3         GR     
# ...
  1278.5000      0.0000    998.3414      3.1210     39.2347
  1278.7500      0.0000   1021.8723      3.0395     41.6936
  1279.0000      0.0000   1042.4281      2.9257     45.2952
  1279.2500      0.0000   1065.5280      2.8243     49.2710
  1279.5000      0.0000   1093.5665      2.8031     52.9541
  1279.7500      0.0000   1121.1251      2.8804     56.0384
  1280.0000      3.0000   1139.6602      3.0178     58.5388
  1280.2500     -3.0000   1145.7682      3.1692     60.5574
  1280.5000     -2.4002   1143.5229      3.3285     61.9618
  1280.7500      0.0000   1139.1265      3.5295     62.1585
  1281.0000      0.0000   1133.1423      3.7844     60.3842
  1281.2500      0.0000   1117.6721      4.0198     56.5924
  1281.5000      0.0000   1082.5474      4.1234     52.0547
  1281.7500      0.0000   1026.1412      4.0920     48.9180
  1282.0000      0.0000    959.9973      4.0794     48.9552
  1282.2500      0.0000    901.6880      4.2412     52.2693
  1282.5000      0.0000    863.8419      4.5690     56.8524
  1282.7500      0.0000    851.0063      4.9157     59.7623
  1283.0000      0.0000    864.3970      5.1475     59.2467
  1283.2500      0.0000    904.0611      5.2322     55.7636
  1283.5000      0.0000    963.9492      5.2109     51.0120
  1283.7500      0.0000   1027.7466      5.1311     46.3921
  1284.0000      0.0000   1074.9630      5.0138     42.5009
  1284.2500      0.0000   1094.7474      4.8620     39.5315
  1284.5000      0.0000   1093.7462      4.6850     37.6101
  1284.7500      0.0000   1088.2046      4.5075     36.8133
  1285.0000      0.0000   1087.1694      4.3580     37.2580
  1285.2500      0.0000   1085.3628      4.2549     39.3180
  1285.5000      0.0000   1073.4119      4.2083     43.4613
  1285.7500      0.0000   1051.3856      4.2290     49.5850
  1286.0000      0.0000   1029.5916      4.3228     56.5942
  1286.2500      0.0000   1018.9940      4.4757     63.0633
  1286.5000      0.0000   1023.2335      4.6526     68.6216
  1286.7500      0.0000   1036.3219      4.8175     74.4968
  1287.0000      0.0000   1044.0695      4.9544     82.3301
  1287.2500      0.0000   1030.0137      5.0677     92.4058
  1287.5000      0.0000    985.7787      5.1692    103.1048
  1287.7500      0.0000    918.6469      5.2658    111.8387
  1288.0000      0.0000    849.6483      5.3571    116.4259
  1288.2500      0.0000    803.3614      5.4379    116.1601
  1288.5000      0.0000    795.1578      5.5018    112.1991
  1288.7500      0.0000    821.3386      5.5425    106.7474
  1289.0000      0.0000    859.6104      5.5563    101.4273
  1289.2500      0.0000    883.7632      5.5440     96.4934
  1289.5000      0.0000    881.6534      5.5123     91.5886
  1289.7500      0.0000    859.3716      5.4706     86.7788
  1290.0000      0.0000    830.3499      5.4258     82.7017
  1290.2500      0.0000    803.8870      5.3799     80.1465
  1290.5000      0.0000    782.8056      5.3352     79.5694
  1290.7500      0.0000    766.6283      5.2999     80.6103
  1291.0000      0.0000    753.7823      5.2846     82.0844
  1291.2500      0.0000    742.0756      5.2923     82.8065
  1291.5000      0.0000    729.8622      5.3151     82.3955
  1291.7500      0.0000    717.4865      5.3426     81.0930
  1292.0000      0.0000    706.7823      5.3706     79.1547
  1292.2500      0.0000    699.2548      5.4015     76.8341
  1292.5000      0.0000    695.8470      5.4371     74.7184
  1292.7500      0.0000    697.7449      5.4725     73.5439
  1293.0000      0.0000    705.5301      5.4937     73.4869
  1293.2500      0.0000    717.4973      5.4867     73.7454
  1293.5000      0.0000    730.2821      5.4508     73.0760
  1293.7500      0.0000    741.4681      5.4035     71.0826
  1294.0000      0.0000    750.8173      5.3693     68.9689
  1294.2500      0.0000    758.8186      5.3661     68.5825
  1294.5000      0.0000    764.8483      5.4005     70.6368
  1294.7500      0.0000    767.4229      5.4718     74.3950
  1295.0000      0.0000    766.2458      5.5758     79.0282
  1295.2500      0.0000    763.5038      5.7034     84.3484
  1295.5000      0.0000    762.6341      5.8368     90.0669
  1295.7500      0.0000    765.6970      5.9511     95.3869
  1296.0000      0.0000    772.0464      6.0266     99.8599
  1296.2500      0.0000    779.4924      6.0585    103.9179
  1296.5000      0.0000    786.3561      6.0562    108.0200
  1296.7500      0.0000    792.1697      6.0326    111.7941
  1297.0000      0.0000    796.8806      5.9973    114.4733
  1297.2500      0.0000    800.1898      5.9571    115.8593
  1297.5000      0.0000    801.8068      5.9195    116.4707
  1297.7500      0.0000    801.7091      5.8932    116.9344
  1298.0000      0.0000    799.9987      5.8861    117.5525
  1298.2500      0.0000    797.1383      5.8998    118.3646
  1298.5000      0.0000    794.5294      5.9282    119.2695
  1298.7500      0.0000    794.2902      5.9646    119.9353
  1299.0000      0.0000    798.0402      6.0127    119.7646
  1299.2500      0.0000    805.7101      6.0859    118.1940
  1299.5000      0.0000    815.3804      6.1917    115.1502
  1299.7500      0.0000    824.4084      6.3219    111.2512
  1300.0000      0.0000    830.9968      6.4584    107.6237
  1300.2500      0.0000    834.8653      6.5847    105.4279
  1300.5000      0.0000    836.7130      6.6859    105.3937
  1300.7500      0.0000    837.3765      6.7470    107.5754
  1301.0000      0.0000    837.4274      6.7593    111.2008
  1301.2500      0.0000    837.0800      6.7264    114.6318
  1301.5000      0.0000    836.1453      6.6585    115.9795
  1301.7500      0.0000    834.0209      6.5603    114.5280
  1302.0000      0.0000    830.0173      6.4330    111.6478
  1302.2500      0.0000    824.2766      6.2869    109.8313
  1302.5000      0.0000    818.5804      6.1464    110.4861
  1302.7500      0.0000    815.4355      6.0385    112.7010
  1303.0000      0.0000    815.4369      5.9764    114.3791
  1303.2500      0.0000    815.9383      5.9551    114.5966
  1303.5000      0.0000    813.5654      5.9575    114.4440
  1303.7500      0.0000    808.2089      5.9652    115.3404
  1304.0000      0.0000    804.0634      5.9657    116.9824
  1304.2500      0.0000    806.7731      5.9537    117.4315
  1304.5000      0.0000    820.1602      5.9303    115.0682
  1304.7500      0.0000    845.7500      5.8980    110.2644
  1305.0000      0.0000    884.3309      5.8570    105.2513
  1305.2500      0.0000    936.0627      5.8085    102.1975
  1305.5000      0.0000    997.4057      5.7589    101.1969
  1305.7500      0.0000   1058.2761      5.7176    100.3917
  1306.0000      0.0000   1104.2821      5.6871     98.4001
  1306.2500      0.0000   1122.7505      5.6590     96.2493
  1306.5000      0.0000   1107.2860      5.6194     96.3253
  1306.7500      0.0000   1059.7620      5.5595     99.6311
  1307.0000      0.0000    991.0786      5.4793    104.7274
  1307.2500      0.0000    918.5619      5.3874    109.2930
  1307.5000      0.0000    858.4824      5.2978    112.1431
  1307.7500      0.0000    818.6248      5.2239    113.7382
  1308.0000      0.0000    797.2595      5.1712    115.2883
  1308.2500      0.0000    787.9261      5.1352    117.4632
  1308.5000      0.0000    784.5762      5.1085    119.5817
  1308.7500      0.0000    783.6411      5.0869    120.1882
  1309.0000      0.0000    783.6761      5.0710    118.8082
  1309.2500      0.0000    784.5118      5.0637    116.7851
  1309.5000      0.0000    786.6577      5.0694    115.9232
  1309.7500      0.0000    790.7078      5.0920    116.6844
  1310.0000      0.0000    796.6928      5.1305    118.0945
  1310.2500      0.0000    803.9167      5.1784    119.1067
  1310.5000      0.0000    811.3628      5.2277    119.7902
  1310.7500      0.0000    817.9409      5.2745    121.2742
  1311.0000      0.0000    822.2646      5.3196    124.4976
  1311.2500      0.0000    822.4830      5.3664    128.8364
  1311.5000      0.0000    816.3715      5.4203    131.9601
  1311.7500      0.0000    801.3165      5.4881    131.2975
