~Version Information
VERS.                      2.0: CWLS Log ASCII Standard - VERSION 2.0
WRAP.                       NO: One line per depth step
~Well Information Block
STRT.FT               706.1000: 
STOP.FT              2370.0000: 
STEP.FT                 0.1000: 
NULL.                -999.2500: 
COMP.          Petrogulf Corporation: COMPANY
WELL.             State 16-12V: WELL
FLD.           Purgatorie River: FIELD
LOC.           1992' FNL & 1237' FWL: LOCATION
CNTY.               Las Animas: COUNTY
SRVC.                         : SERVICE COMPANY
DATE.          Thu Aug 04 09:34:25 2005: LOG DATE
UWI.           05-071-08016-00: UNIQUE WELL ID
STAT.                 Colorado: STATE
~Curve Information Block
DEPT.FT            0 000 00 00: Depth
DCAL.in                       : CDL Caliper
DPOR.pu                       : CDL Density Porosity
GR.GAPI                       : Gamma Ray
NPOR.pu                       : Neutron Porosity
RHOB.g/cc                     : CDL Bulk Density
RHOC.g/cc                     : CDL Density Correction
~Parameter Information Block
~A  Depth       DCAL        DPOR         GR         NPOR        RHOB        RHOC    
# ...
  1368.5000      7.9922      9.1760    154.2542     25.3948      2.4986      0.0142
  1368.6000      7.9922      9.7531    153.0175     25.2450      2.4891     -0.0028
  1368.7000      7.9922      9.7120    152.0602     25.0800      2.4898      0.0090
  1368.8000      8.0502      9.3145    155.9520     25.1623      2.4963      0.0593
  1368.9000      8.0502      9.2054    161.1747     25.2018      2.4981      0.0474
  1369.0000      8.0651      8.8883    161.2926     25.2947      2.5033     -0.0262
  1369.1000      8.0651      7.5805    156.7590     25.9968      2.5249      0.0760
  1369.2000      8.0651      5.8360    151.7060     26.9923      2.5537      0.0565
  1369.3000      8.0370      4.2817    150.4908     27.4968      2.5794      0.0789
  1369.4000      8.0370      3.2023    154.1821     27.5984      2.5972      0.1263
  1369.5000      8.0182      3.0880    158.2171     27.7436      2.5990      0.0921
  1369.6000      8.0182      4.0350    160.6150     27.9405      2.5834      0.0952
  1369.7000      8.0182      5.2719    163.3844     28.1229      2.5630      0.0535
  1369.8000      8.0124      5.6163    165.3048     28.3584      2.5573      0.0197
  1369.9000      8.0124      4.7802    163.9945     28.7121      2.5711      0.0778
  1370.0000      8.0222      3.6396    161.3623     28.9542      2.5899      0.0749
  1370.1000      8.0222      2.6447    160.7366     28.8781      2.6064      0.0469
  1370.2000      8.0222      1.7031    161.4368     28.8247      2.6219      0.0814
  1370.3000      8.0248      1.1186    160.6201     29.0071      2.6315      0.0743
  1370.4000      8.0248      1.4092    157.7204     29.1937      2.6267      0.0842
  1370.5000      8.0345      2.7452    155.0337     29.3371      2.6047      0.0589
  1370.6000      8.0345      4.3213    154.6525     29.4357      2.5787      0.0040
  1370.7000      8.0345      4.9154    154.2770     29.2947      2.5689     -0.0089
  1370.8000      8.0394      4.4578    151.3200     28.9464      2.5764      0.0339
  1370.9000      8.0394      3.7156    148.6002     28.6665      2.5887      0.0394
  1371.0000      8.0357      2.9062    151.5343     28.6595      2.6020      0.0706
  1371.1000      8.0357      2.3126    156.3324     28.8869      2.6118      0.1359
  1371.2000      8.0357      2.4408    153.5427     29.0029      2.6097      0.0573
  1371.3000      8.0242      2.9304    146.4611     28.8742      2.6016      0.0834
  1371.4000      8.0242      3.0145    146.3957     28.7578      2.6003      0.0440
  1371.5000      8.0252      2.6603    153.9420     28.8373      2.6061      0.0930
  1371.6000      8.0252      2.6492    161.3816     29.0279      2.6063      0.0699
  1371.7000      8.0252      3.5310    166.2994     29.1237      2.5917      0.0711
  1371.8000      8.0052      5.1593    171.1619     28.8490      2.5649      0.0227
  1371.9000      8.0052      6.9277    175.7751     28.2730      2.5357      0.0254
  1372.0000      7.9950      8.0438    177.4072     27.8154      2.5173     -0.0403
  1372.1000      7.9950      8.2568    174.2445     27.4922      2.5138      0.0197
  1372.2000      7.9950      8.4806    169.7106     26.9828      2.5101      0.0585
  1372.3000      7.9977      9.1973    168.3302     26.3770      2.4982      0.0543
  1372.4000      7.9977      9.6759    168.2886     26.0925      2.4903      0.0484
  1372.5000      8.0199      9.5662    167.2112     26.1268      2.4922      0.0286
  1372.6000      8.0199      9.4914    168.8623     26.2064      2.4934      0.0927
  1372.7000      8.0199     10.2326    174.8241     26.3014      2.4812      0.1415
  1372.8000      8.1151     11.7950    180.4128     26.5320      2.4554      0.1532
  1372.9000      8.1151     13.0776    180.6667     26.8876      2.4342      0.0771
  1373.0000      8.0564     12.7761    176.0810     27.1499      2.4392      0.1195
  1373.1000      8.0564     11.0150    171.5215     27.2184      2.4683      0.1688
  1373.2000      8.0564      9.0795    168.9506     27.2994      2.5002      0.1726
  1373.3000      8.0231      7.6214    167.7600     27.6220      2.5242      0.1529
  1373.4000      8.0231      6.0772    168.5091     28.2046      2.5497      0.1769
  1373.5000      8.0050      4.0471    170.2031     28.8778      2.5832      0.2012
  1373.6000      8.0050      2.2947    171.5233     29.2881      2.6121      0.2737
  1373.7000      8.0050      1.5255    173.4696     29.2259      2.6248      0.2158
  1373.8000      7.9172      1.2221    175.9104     28.9925      2.6298      0.2268
  1373.9000      7.9172      1.1167    174.6192     29.0334      2.6316      0.2312
  1374.0000      7.9388      1.7887    168.5023     29.3655      2.6205      0.2032
  1374.1000      7.9388      3.1162    163.7316     29.6169      2.5986      0.1173
  1374.2000      7.9388      4.1221    162.9156     29.4808      2.5820      0.1027
  1374.3000      8.0283      4.5293    162.7011     28.9440      2.5753      0.1230
  1374.4000      8.0283      5.0825    162.1627     28.3262      2.5661      0.1235
  1374.5000      8.0456      6.0758    162.7847     27.9436      2.5497      0.0948
  1374.6000      8.0456      6.7910    162.4285     27.7081      2.5379      0.0758
  1374.7000      8.0456      6.9664    158.8655     27.3480      2.5351      0.1099
  1374.8000      8.0193      7.5171    155.8658     26.9873      2.5260      0.1267
  1374.9000      8.0193      8.9545    157.8807     26.9651      2.5023      0.0924
  1375.0000      7.9970     10.7158    163.8035     27.1831      2.4732      0.1090
  1375.1000      7.9970     11.8519    169.6355     27.1906      2.4544      0.0631
  1375.2000      7.9970     11.6605    172.8155     26.8686      2.4576      0.0846
  1375.3000      8.0004     10.5109    173.4058     26.5083      2.4766      0.0779
  1375.4000      8.0004      9.3504    174.3814     26.2986      2.4957      0.1319
  1375.5000      8.0121      8.5830    176.4453     26.3885      2.5084      0.1302
  1375.6000      8.0121      7.9989    176.1645     26.6298      2.5180      0.1784
  1375.7000      8.0121      7.5350    171.7662     26.6839      2.5257      0.1586
  1375.8000      8.0490      7.5718    166.3294     26.6507      2.5251      0.2004
  1375.9000      8.0490      8.7368    165.2566     26.6297      2.5058      0.1969
  1376.0000      8.0699     10.6140    168.5017     26.5304      2.4749      0.0839
  1376.1000      8.0699     11.8728    171.1666     26.4773      2.4541      0.0689
  1376.2000      8.0699     12.2980    171.9002     26.6447      2.4471      0.1182
  1376.3000      8.0221     12.3855    172.0317     27.0280      2.4456      0.1267
  1376.4000      8.0221     12.2196    171.6537     27.4716      2.4484      0.1655
  1376.5000      8.0223     12.1423    171.8052     27.8651      2.4497      0.1968
  1376.6000      8.0223     12.3751    172.3355     28.1798      2.4458      0.1432
  1376.7000      8.0223     12.3423    169.7012     28.5141      2.4464      0.1449
  1376.8000      7.9990     11.5518    162.4512     29.0825      2.4594      0.1993
  1376.9000      7.9990      9.8371    153.7386     29.6926      2.4877      0.1988
  1377.0000      7.9848      7.0945    147.3244     29.8830      2.5329      0.2214
  1377.1000      7.9848      3.5860    142.6982     29.5890      2.5908      0.2604
  1377.2000      7.9848      0.0567    136.1322     29.1064      2.6491      0.2772
  1377.3000      7.9567     -2.5896    128.5872     28.7309      2.6927      0.2712
  1377.4000      7.9567     -3.9779    124.3837     28.7107      2.7156      0.2487
  1377.5000      7.9227     -4.3137    123.6053     29.0526      2.7212      0.2394
  1377.6000      7.9227     -3.6627    122.8269     29.2996      2.7104      0.2248
  1377.7000      7.9227     -2.0360    121.5256     29.2008      2.6836      0.1818
  1377.8000      7.8718     -0.2086    122.0154     28.9670      2.6534      0.1400
  1377.9000      7.8718      0.8516    123.4138     28.7853      2.6359      0.0930
  1378.0000      7.8460      1.2110    123.1814     28.7680      2.6300      0.0804
