~Version Information
VERS.                      2.0: CWLS Log ASCII Standard - VERSION 2.0
WRAP.                       NO: One line per depth step
~Well Information Block
STRT.FT               519.6000: 
STOP.FT              2727.5000: 
STEP.FT                 0.1000: 
NULL.                -999.2500: 
COMP.          Petrogulf Corporation: COMPANY
WELL.              Silva 6-22V: WELL
FLD.           Purgatorie River: FIELD
LOC.           1936' FNL & 1798' FWL: LOCATION
CNTY.               Las Animas: COUNTY
SRVC.                         : SERVICE COMPANY
DATE.          Tue Nov 09 12:21:27 2004: LOG DATE
UWI.           05 071 08143 00: UNIQUE WELL ID
STAT.                 Colorado: STATE
~Curve Information Block
DEPT.FT            0 000 00 00: Depth
DCAL.in                       : CDL Caliper
RHOB.g/cc                     : CDL Bulk Density
RHOC.g/cc                     : CDL Density Correction
DPOR.pu                       : CDL Density Porosity
GR.GAPI                       : Gamma Ray
NPOR.pu                       : Neutron Porosity
~Parameter Information Block
~A  Depth       DCAL        RHOB        RHOC        DPOR         GR         NPOR    
# ...
  1268.4000      7.9274      2.6288      0.0542      1.2853    122.7203     23.5992
  1268.5000      7.9280      2.6266      0.0715      1.4162    116.2921     22.9527
  1268.6000      7.9280      2.6206      0.0419      1.7847    117.5847     22.6295
  1268.7000      7.9280      2.6204      0.0384      1.7952    120.3962     22.6087
  1268.8000      7.9341      2.6336      0.0688      0.9969    120.5349     22.3217
  1268.9000      7.9341      2.6569      0.0340     -0.4162    119.4141     21.7948
  1269.0000      7.9422      2.6757      0.0760     -1.5578    117.5086     21.8333
  1269.1000      7.9422      2.6737      0.0517     -1.4334    114.9482     22.3183
  1269.2000      7.9422      2.6562      0.0343     -0.3769    114.6654     22.1228
  1269.3000      7.9416      2.6447      0.0441      0.3230    118.3977     21.4403
  1269.4000      7.9416      2.6454      0.0317      0.2806    121.2742     21.2387
  1269.5000      7.9358      2.6515     -0.0056     -0.0912    117.6112     21.4695
  1269.6000      7.9358      2.6530      0.0103     -0.1832    111.0953     21.7176
  1269.7000      7.9358      2.6355      0.0260      0.8816    110.5398     21.6180
  1269.8000      7.9348      2.5997     -0.0033      3.0513    116.4461     21.0934
  1269.9000      7.9348      2.5667     -0.0145      5.0507    122.2832     20.5230
  1270.0000      7.9391      2.5495      0.0158      6.0895    126.8190     20.2515
  1270.1000      7.9391      2.5468     -0.0379      6.2556    128.2702     20.4335
  1270.2000      7.9391      2.5526      0.0108      5.9027    122.7246     21.0622
  1270.3000      7.9434      2.5539      0.0165      5.8225    113.2977     21.7584
  1270.4000      7.9434      2.5458      0.0003      6.3141    103.9193     21.7803
  1270.5000      7.9391      2.5371     -0.0258      6.8441     97.6668     21.4122
  1270.6000      7.9391      2.5349      0.0058      6.9735     99.3123     21.6630
  1270.7000      7.9391      2.5436      0.0158      6.4468    107.7800     22.3886
  1270.8000      7.9343      2.5628      0.0536      5.2830    115.2862     22.8979
  1270.9000      7.9343      2.5831      0.0713      4.0517    117.1303     23.2659
  1271.0000      7.9398      2.5960      0.0564      3.2752    113.5028     24.0654
  1271.1000      7.9398      2.6011      0.0548      2.9636    110.1733     25.1494
  1271.2000      7.9398      2.6045      0.0261      2.7577    115.2989     26.0017
  1271.3000      7.9409      2.6056      0.0658      2.6914    127.2307     26.6281
  1271.4000      7.9409      2.5972      0.0414      3.2001    136.3576     27.0092
  1271.5000      7.9396      2.5870      0.0098      3.8188    139.6182     26.8127
  1271.6000      7.9396      2.5904      0.0394      3.6130    139.8107     26.1605
  1271.7000      7.9396      2.6030      0.0774      2.8508    137.4105     25.5267
  1271.8000      7.9445      2.6145      0.0305      2.1516    132.8028     25.2476
  1271.9000      7.9445      2.6240      0.0785      1.5770    130.3084     25.4332
  1272.0000      7.9502      2.6264      0.0687      1.4307    131.2074     25.7217
  1272.1000      7.9502      2.6250      0.0332      1.5130    131.9004     25.7421
  1272.2000      7.9502      2.6323      0.0386      1.0698    131.2029     25.5726
  1272.3000      7.9532      2.6517      0.0194     -0.1033    130.4425     25.2082
  1272.4000      7.9532      2.6762      0.0337     -1.5873    129.2127     24.7339
  1272.5000      7.9519      2.6923      0.0575     -2.5627    125.3859     24.4348
  1272.6000      7.9519      2.6894      0.0452     -2.3887    120.4470     24.3629
  1272.7000      7.9519      2.6743      0.0308     -1.4715    120.1343     24.5060
  1272.8000      7.9456      2.6656      0.0295     -0.9451    124.3551     24.8527
  1272.9000      7.9456      2.6674      0.0329     -1.0561    129.1323     25.4419
  1273.0000      7.9384      2.6550      0.0851     -0.3022    134.2316     26.1057
  1273.1000      7.9384      2.6165     -0.0159      2.0281    135.5248     26.4737
  1273.2000      7.9384      2.5803     -0.0354      4.2239    129.7662     26.3386
  1273.3000      7.9364      2.5684     -0.0399      4.9452    123.4587     26.1601
  1273.4000      7.9364      2.5800     -0.0181      4.2414    122.5325     26.3980
  1273.5000      7.9393      2.6096      0.0110      2.4485    124.5598     26.5166
  1273.6000      7.9393      2.6422      0.0659      0.4748    123.8662     26.1179
  1273.7000      7.9393      2.6571      0.0861     -0.4286    120.3021     25.4089
  1273.8000      7.9405      2.6476      0.0665      0.1433    118.6923     24.9029
  1273.9000      7.9405      2.6251      0.0720      1.5099    118.6587     24.6458
  1274.0000      7.9388      2.6074      0.0779      2.5823    116.7211     24.0059
  1274.1000      7.9388      2.6048      0.0183      2.7374    114.0057     23.3881
  1274.2000      7.9388      2.6059      0.0743      2.6735    113.3147     23.5029
  1274.3000      7.9309      2.5885      0.0455      3.7266    116.3420     23.8934
  1274.4000      7.9309      2.5573      0.0056      5.6176    119.9244     24.5230
  1274.5000      7.9265      2.5362     -0.0111      6.8949    120.7790     25.7737
  1274.6000      7.9265      2.5358      0.0010      6.9233    121.5378     27.0643
  1274.7000      7.9265      2.5448      0.0491      6.3731    126.0543     27.5814
  1274.8000      7.9332      2.5410      0.0492      6.6056    133.2432     27.5179
  1274.9000      7.9332      2.5172      0.0430      8.0480    137.7763     27.3657
  1275.0000      7.9433      2.4872      0.0194      9.8653    136.1761     27.4714
  1275.1000      7.9433      2.4639      0.0074     11.2807    130.9527     28.1005
  1275.2000      7.9433      2.4489      0.0331     12.1851    129.4544     28.9005
  1275.3000      7.9455      2.4366      0.0238     12.9361    136.3836     29.4272
  1275.4000      7.9455      2.4191      0.0580     13.9948    144.2246     29.4674
  1275.5000      7.9384      2.4016      0.0366     15.0573    146.3745     29.1388
  1275.6000      7.9384      2.4023      0.0650     15.0106    152.1056     28.9763
  1275.7000      7.9384      2.4255      0.1015     13.6036    162.9469     29.0661
  1275.8000      7.9330      2.4609      0.1492     11.4635    164.3852     28.7054
  1275.9000      7.9330      2.4997      0.1531      9.1084    153.8826     27.9438
  1276.0000      7.9352      2.5316      0.2103      7.1745    143.0586     27.6758
  1276.1000      7.9352      2.5449      0.2082      6.3705    138.0553     28.0915
  1276.2000      7.9352      2.5444      0.2116      6.4028    138.4051     28.8021
  1276.3000      7.9396      2.5493      0.1900      6.1019    140.5096     29.3221
  1276.4000      7.9396      2.5655      0.2440      5.1229    138.3072     28.7252
  1276.5000      7.9422      2.5766      0.2106      4.4461    131.9025     27.1762
  1276.6000      7.9422      2.5739      0.1487      4.6102    126.4734     26.0769
  1276.7000      7.9422      2.5687      0.1343      4.9258    126.0562     26.0869
  1276.8000      7.9466      2.5695      0.1398      4.8816    130.6882     27.0362
  1276.9000      7.9466      2.5715      0.1331      4.7568    134.9822     28.2835
  1277.0000      7.9438      2.5680      0.1292      4.9687    134.8892     29.0814
  1277.1000      7.9438      2.5609      0.1173      5.4030    133.0447     29.4354
  1277.2000      7.9438      2.5593      0.1298      5.4972    134.7358     29.7949
  1277.3000      7.9340      2.5638      0.1309      5.2216    140.3400     29.7539
  1277.4000      7.9340      2.5649      0.1020      5.1548    143.7587     28.7386
  1277.5000      7.9273      2.5617      0.1140      5.3501    142.1384     27.6676
  1277.6000      7.9273      2.5570      0.1157      5.6354    141.1989     27.7802
  1277.7000      7.9273      2.5423      0.0894      6.5295    146.6591     28.5270
  1277.8000      7.9199      2.5144      0.0468      8.2161    152.2704     28.9220
  1277.9000      7.9199      2.4949     -0.0097      9.4001    149.5660     29.3896
