~Version Information
VERS.                      2.0: CWLS Log ASCII Standard - VERSION 2.0
WRAP.                       NO: One line per depth step
~Well Information Block
STRT.FT               -11.7500: 
STOP.FT              2025.5000: 
STEP.FT                 0.2500: 
NULL.                -999.2500: 
COMP.          Evergreen Operating Corp.: COMPANY
WELL.            Sumatra 34-22: WELL
FLD.           Purgatorie River: FIELD
LOC.           542 FSL & 2438 FEL--: LOCATION
PROV.                       CO: PROVINCE
CNTY.               Las Animas: COUNTRY
SRVC.          Patterson Wireline, Inc.: SERVICE COMPANY
DATE.          Wed Apr 02 10:17:21 2003: LOG DATE
UWI.           05 071 07804 00: UNIQUE WELL ID
~Curve Information Block
DEPT.FT            0 000 00 00: Depth
CCL.                          : Casing Collar Locator
TT3.usec                      : CBL 3' Travel Time
AMP3.mV                       : CBL 3' Amplitude
GR.GAPI                       : Gamma Ray
~Parameter Information Block
~A  Depth       CCL         TT3         AMP3         GR     
# ...
  1730.2500      0.0000    736.4717      1.9272     60.4047
  1730.5000      0.0000    748.4332      1.9175     66.2454
  1730.7500      0.0000    752.4885      1.9512     71.7582
  1731.0000      0.0000    753.6997      2.0340     75.2009
  1731.2500      0.0000    754.1155      2.1691     75.9751
  1731.5000      0.0000    754.2319      2.3337     74.7791
  1731.7500      0.0000    754.0077      2.4860     72.7059
  1732.0000      0.0000    752.5479      2.5940     70.3399
  1732.2500      0.0000    746.2728      2.6650     67.4889
  1732.5000      0.0000    728.6959      2.6987     63.5582
  1732.7500      0.0000    698.7789      2.6281     58.3961
  1733.0000      0.0000    670.5626      2.4003     53.0010
  1733.2500      0.0000    661.4756      2.1156     49.1495
  1733.5000      0.0000    671.5693      1.9351     48.0121
  1733.7500      0.0000    687.1423      1.8744     49.2326
  1734.0000      0.0000    697.0119      1.8599     51.4247
  1734.2500      0.0000    697.4633      1.8808     53.2916
  1734.5000      0.0000    689.9030      1.9556     54.1603
  1734.7500      0.0000    679.6852      2.0625     53.8012
  1735.0000      0.0000    673.5463      2.1597     52.2207
  1735.2500      0.0000    673.7666      2.2282     49.7652
  1735.5000      0.0000    677.3163      2.2688     47.0613
  1735.7500      0.0000    683.0338      2.2621     44.5143
  1736.0000      0.0000    693.0618      2.1649     42.0548
  1736.2500      0.0000    704.4497      1.9854     39.7389
  1736.5000      0.0000    710.3315      1.8220     38.3977
  1736.7500      0.0000    710.3449      1.7537     39.2117
  1737.0000      0.0000    710.1000      1.7700     42.5750
  1737.2500      0.0000    714.3682      1.8250     47.6393
  1737.5000      0.0000    725.1263      1.8733     52.9475
  1737.7500      0.0000    740.7191      1.8936     57.2613
  1738.0000      0.0000    755.7578      1.9129     59.8667
  1738.2500      0.0000    765.1495      1.9677     60.6097
  1738.5000      0.0000    769.7677      2.0459     59.9466
  1738.7500      0.0000    775.6004      2.1056     58.9017
  1739.0000      0.0000    784.9054      2.1587     58.8755
  1739.2500      0.0000    793.4142      2.2606     61.3185
  1739.5000      0.0000    797.0019      2.3917     67.1876
  1739.7500      0.0000    795.0090      2.4524     76.4053
  1740.0000      0.0000    788.9127      2.4074     87.8270
  1740.2500      0.0000    781.3400      2.3094     99.7583
  1740.5000      0.0000    773.7847      2.1649    110.4490
  1740.7500      0.0000    765.9758      1.9413    118.2250
  1741.0000      0.0000    758.2513      1.7039    121.8298
  1741.2500      0.0000    750.8124      1.5735    121.3484
  1741.5000      0.0000    743.1841      1.5953    118.5336
  1741.7500      0.0000    736.6076      1.7420    115.5767
  1742.0000      0.0000    732.8712      1.9539    113.6070
  1742.2500      0.0000    731.8109      2.1527    112.6379
  1742.5000      0.0000    732.7685      2.2770    112.5444
  1742.7500      0.0000    736.2176      2.3145    113.4830
  1743.0000      0.0000    742.1255      2.3084    115.5167
  1743.2500      0.0000    747.8337      2.3220    118.4854
  1743.5000      0.0000    749.1088      2.3695    122.1854
  1743.7500      0.0000    739.1262      2.4118    125.9814
  1744.0000      0.0000    705.8900      2.4408    128.2656
  1744.2500      0.0000    645.7160      2.4984    127.1284
  1744.5000      0.0000    585.4303      2.6011    121.9176
  1744.7500      0.0000    560.9023      2.6893    113.9209
  1745.0000      0.0000    562.0972      2.6485    105.5504
  1745.2500      0.0000    543.8601      2.4369     98.9833
  1745.5000      0.0000    495.2304      2.1903     95.2603
  1745.7500      0.0000    450.4352      2.0718     94.1803
  1746.0000      0.0000    440.6704      2.0691     94.7147
  1746.2500      0.0000    470.0588      2.0716     95.6132
  1746.5000      0.0000    520.8434      2.0639     96.0494
  1746.7500      0.0000    566.2080      2.1149     95.9173
  1747.0000      0.0000    591.8081      2.2274     95.5378
  1747.2500      0.0000    603.7999      2.3222     95.2750
  1747.5000      0.0000    614.7725      2.3511     95.5218
  1747.7500      0.0000    630.0133      2.3475     96.7055
  1748.0000      0.0000    645.0681      2.3730     98.8705
  1748.2500      0.0000    654.3784      2.4504    101.1763
  1748.5000      0.0000    658.6270      2.5561    102.1157
  1748.7500      0.0000    662.8870      2.6441    100.6512
  1749.0000      0.0000    673.2507      2.6853     97.1188
  1749.2500      0.0000    692.5675      2.7003     92.7964
  1749.5000      0.0000    713.9805      2.7291     88.7935
  1749.7500      0.0000    723.2790      2.7802     85.6360
  1750.0000      0.0000    712.9503      2.8449     83.6369
  1750.2500      0.0000    690.6958      2.9306     83.1114
  1750.5000      0.0000    670.8618      3.0238     83.9289
  1750.7500      0.0000    660.8812      3.0753     85.0781
  1751.0000      0.0000    660.6202      3.0791     85.2687
  1751.2500      0.0000    670.3582      3.0499     84.1804
  1751.5000      0.0000    690.9861      2.9319     82.7632
  1751.7500      0.0000    716.9229      2.7070     82.1045
  1752.0000      0.0000    737.5818      2.5308     82.2966
  1752.2500      0.0000    747.4998      2.5545     82.5848
  1752.5000      0.0000    747.5601      2.6680     82.2379
  1752.7500      0.0000    737.7049      2.6432     80.9944
  1753.0000      0.0000    716.8467      2.4607     79.0243
  1753.2500      0.0000    689.0517      2.2773     76.9750
  1753.5000      0.0000    659.1313      2.1690     76.0201
  1753.7500      0.0000    620.4615      2.0994     77.3275
  1754.0000      0.0000    562.5560      2.0808     81.0109
  1754.2500      0.0000    495.3826      2.1622     85.5475
  1754.5000      0.0000    448.1656      2.2875     88.5088
  1754.7500      0.0000    439.0856      2.3816     88.2209
  1755.0000      0.0000    456.4048      2.4643     84.9517
  1755.2500      0.0000    468.0977      2.5102     80.5848
  1755.5000      0.0000    455.8709      2.4301     77.1431
  1755.7500      0.0000    437.8493      2.2472     75.4309
  1756.0000      0.0000    444.6049      2.0857     74.8093
  1756.2500      0.0000    482.0507      2.0318     74.1511
  1756.5000      0.0000    519.8765      2.1183     72.9901
  1756.7500      0.0000    519.1652      2.3268     71.6961
  1757.0000      0.0000    478.6629      2.5203     70.7610
  1757.2500      0.0000    432.9431      2.5152     70.3273
  1757.5000      0.0000    406.5073      2.2879     70.3713
  1757.7500      0.0000    397.3282      2.0235     70.9766
  1758.0000      0.0000    395.3612      1.9319     72.2729
  1758.2500      0.0000    395.2149      2.0617     74.2632
  1758.5000      0.0000    395.4691      2.2862     76.7659
  1758.7500      0.0000    395.8274      2.4130     79.4629
  1759.0000      0.0000    396.2356      2.3412     82.0175
  1759.2500      0.0000    397.8433      2.1737     84.1831
  1759.5000      0.0000    406.0969      2.1159     85.7825
  1759.7500      0.0000    434.1894      2.2497     86.6129
  1760.0000      0.0000    496.8996      2.4525     86.3209
  1760.2500      0.0000    588.8204      2.5297     84.3949
  1760.5000      0.0000    673.3779      2.3825     80.6077
  1760.7500      0.0000    710.5135      2.0618     75.6347
  1761.0000      0.0000    687.2221      1.7878     70.9075
  1761.2500      0.0000    612.8376      1.8245     67.5760
  1761.5000      0.0000    512.8979      2.1460     65.8105
  1761.7500      2.4701    426.8980      2.4130     65.2596
  1762.0000      5.0000    380.2469      2.3726     65.8439
  1762.2500      0.0000    370.2077      2.0788     67.7919
  1762.5000      0.0000    388.5910      1.7522     71.0046
  1762.7500      0.0000    437.7979      1.6237     74.6273
  1763.0000      0.0000    514.7823      1.8118     77.3305
  1763.2500      0.0000    586.7711      2.1461     78.0441
  1763.5000      0.0000    607.7106      2.2607     76.5080
