~Version Information
VERS.                      2.0: CWLS Log ASCII Standard - VERSION 2.0
WRAP.                       NO: One line per depth step
~Well Information Block
STRT.FT                 3.7500: 
STOP.FT               979.7500: 
STEP.FT                 0.2500: 
NULL.                -999.2500: 
COMP.          Pioneer Natural Resources: COMPANY
WELL.          Rising Star 22-11: WELL
FLD.           Purgatoire River: FIELD
LOC.           2152' FNL & 2105' FWL: LOCATION
PROV.                 Colorado: PROVINCE
CNTY.               Las Animas: COUNTRY
SRVC.                Patterson: SERVICE COMPANY
DATE.          Sat Apr 16 09:17:01 2005: LOG DATE
UWI.           05 071 08354 00: UNIQUE WELL ID
~Curve Information Block
DEPT.FT            0 000 00 00: Depth
GR.GAPI                       : Gamma Ray
CCL.                          : Casing Collar Locator
TT3.usec                      : CBL 3' Travel Time
AMP3.mV                       : CBL 3' Amplitude
~Parameter Information Block
~A  Depth        GR         CCL         TT3         AMP3    
# ...
   137.7500     99.5341      0.0000    718.9042      6.4796
   138.0000     88.3789      0.0000    717.3546      6.5171
   138.2500     78.8623      0.0000    716.2548      6.5660
   138.5000     73.5539      0.0000    715.3249      6.6168
   138.7500     73.0702      0.0000    715.2119      6.6529
   139.0000     76.2340      0.0000    717.3195      6.6573
   139.2500     80.9669      0.0000    722.5367      6.6244
   139.5000     85.3424      0.0000    729.9543      6.5670
   139.7500     88.2795      0.0000    737.3199      6.5108
   140.0000     89.7475      0.0000    742.8411      6.4808
   140.2500     90.6374      0.0000    746.3601      6.4892
   140.5000     92.0405      0.0000    749.1782      6.5323
   140.7500     93.9679      0.0000    753.2950      6.5977
   141.0000     95.0205      0.0000    760.9675      6.6712
   141.2500     93.9915      0.0000    774.7037      6.7405
   141.5000     91.4665      0.0000    797.9731      6.7969
   141.7500     89.1544      0.0000    835.0120      6.8359
   142.0000     88.1232      0.0000    887.0513      6.8588
   142.2500     88.4165      0.0000    946.1139      6.8711
   142.5000     89.8287      0.0000    993.9734      6.8789
   142.7500     92.1999      0.0000   1011.1279      6.8841
   143.0000     95.2088      0.0000    989.8705      6.8853
   143.2500     98.4428      0.0000    940.5439      6.8807
   143.5000    101.3795      0.0000    884.9871      6.8712
   143.7500    103.0760      0.0000    841.5667      6.8604
   144.0000    102.5384      0.0000    815.1663      6.8513
   144.2500     99.8911      0.0000    800.4260      6.8435
   144.5000     96.8982      0.0000    790.9340      6.8330
   144.7500     95.9471      0.0000    783.9127      6.8186
   145.0000     98.4078      0.0000    780.2605      6.8052
   145.2500    103.7488      0.0000    783.2927      6.7969
   145.5000    109.9119      0.0000    795.8169      6.7895
   145.7500    114.5460      0.0000    815.6271      6.7749
   146.0000    116.4979      0.0000    834.0272      6.7524
   146.2500    116.6306      0.0000    840.6193      6.7317
   146.5000    116.9539      0.0000    831.8870      6.7240
   146.7500    118.5857      0.0000    815.5763      6.7304
   147.0000    120.6930      0.0000    805.1423      6.7409
   147.2500    121.3508      0.0000    808.5419      6.7399
   147.5000    118.9926      0.0000    822.8218      6.7169
   147.7500    113.1309      0.0000    839.2355      6.6730
   148.0000    104.3507      0.0000    851.6202      6.6218
   148.2500     94.1298      0.0000    859.4836      6.5838
   148.5000     84.6645      0.0000    865.2998      6.5791
   148.7500     78.3066      0.0000    870.5256      6.6202
   149.0000     76.3821      0.0000    873.9114      6.7080
   149.2500     78.2775      0.0000    873.1211      6.8275
   149.5000     82.2298      0.0000    868.1340      6.9486
   149.7500     87.3412      0.0000    862.8759      7.0367
   150.0000     94.2196      0.0000    863.7173      7.0720
   150.2500    103.1368      0.0000    876.3095      7.0630
   150.5000    112.2005      0.0000    901.7192      7.0333
   150.7500    118.2841      0.0000    934.5925      6.9776
   151.0000    119.6999      0.0000    969.1450      6.8183
   151.2500    117.4445      0.0000   1009.4114      6.4293
   151.5000    114.0826      0.0000   1067.1832      5.7496
   151.7500    111.8621      0.0000   1144.6735      4.8895
   152.0000    111.4473      0.0000   1225.6210      4.0917
   152.2500    111.8011      0.0000   1288.9115      3.5568
   152.5000    111.4399      0.0000   1326.0579      3.3186
   152.7500    110.0684      0.0000   1342.5413      3.2800
   153.0000    108.7152      2.2730   1347.9170      3.3239
   153.2500    108.1949      0.0000   1348.1754      3.3884
   153.5000    107.9613      0.0000   1343.7416      3.5023
   153.7500    106.8944      0.0000   1329.3094      3.7824
   154.0000    104.8729      0.0000   1294.8702      4.3387
   154.2500    102.9755      0.0000   1231.2429      5.1314
   154.5000    102.2928      0.0000   1139.9985      5.9490
   154.7500    103.1878      0.0000   1038.5549      6.5648
   155.0000    105.5768      0.0000    951.2775      6.8949
   155.2500    109.0721      0.0000    893.4317      6.9954
   155.5000    112.6422      0.0000    864.5268      6.9620
   155.7500    114.8390      0.0000    855.4666      6.8693
   156.0000    114.8313      0.0000    858.9251      6.7687
   156.2500    113.0600      0.0000    873.5287      6.6931
   156.5000    110.7867      0.0000    901.8735      6.6515
   156.7500    109.2957      0.0000    945.4821      6.6321
   157.0000    109.5940      0.0000    999.3018      6.6219
   157.2500    112.1966      0.0000   1049.2462      6.6231
   157.5000    116.2394      0.0000   1076.5338      6.6475
   157.7500    118.8979      0.0000   1067.1846      6.6964
   158.0000    116.9832      0.0000   1020.3204      6.7529
   158.2500    109.9115      0.0000    950.2211      6.7945
   158.5000    100.6508      0.0000    880.0299      6.8106
   158.7500     93.2209      0.0000    829.1857      6.8058
   159.0000     89.2318      0.0000    803.8814      6.7911
   159.2500     86.9745      0.0000    798.8181      6.7752
   159.5000     83.7458      0.0000    805.8533      6.7657
   159.7500     78.5429      0.0000    818.9029      6.7708
   160.0000     72.2855      0.0000    832.5699      6.7923
   160.2500     66.2306      0.0000    840.9439      6.8164
   160.5000     60.9719      0.0000    840.7211      6.8209
   160.7500     56.7270      0.0000    833.9424      6.7977
   161.0000     53.7759      0.0000    825.4068      6.7619
   161.2500     52.3326      0.0000    817.9759      6.7368
   161.5000     52.1565      0.0000    811.9874      6.7324
   161.7500     52.5747      0.0000    807.7311      6.7414
   162.0000     53.0427      0.0000    805.9486      6.7494
   162.2500     53.5771      0.0000    806.4394      6.7489
   162.5000     54.5297      0.0000    808.2470      6.7482
   162.7500     56.0299      0.0000    810.9753      6.7655
   163.0000     57.7329      0.0000    814.4553      6.8077
   163.2500     59.1077      0.0000    817.6429      6.8559
   163.5000     59.8705      0.0000    819.3135      6.8778
   163.7500     60.0356      0.0000    819.5887      6.8572
   164.0000     59.7456      0.0000    819.4213      6.8068
   164.2500     59.3178      0.0000    818.6950      6.7526
   164.5000     59.1768      0.0000    816.1854      6.7132
   164.7500     59.3790      0.0000    811.5231      6.6943
   165.0000     59.3104      0.0000    806.0785      6.6949
   165.2500     58.1721      0.0000    801.6248      6.7102
   165.5000     55.8433      0.0000    798.8638      6.7312
   165.7500     53.1863      0.0000    797.4364      6.7465
   166.0000     51.4872      0.0000    796.7563      6.7493
   166.2500     51.7161      0.0000    796.5545      6.7420
   166.5000     54.2233      0.0000    796.9509      6.7321
   166.7500     58.6309      0.0000    798.4180      6.7258
   167.0000     63.6243      0.0000    801.7366      6.7235
   167.2500     67.1953      0.0000    807.6342      6.7205
   167.5000     67.8373      0.0000    815.9973      6.7128
   167.7500     65.7726      0.0000    825.3646      6.7013
   168.0000     62.7404      0.0000    833.5680      6.6911
   168.2500     60.5029      0.0000    839.0828      6.6864
   168.5000     59.6782      0.0000    841.6460      6.6888
   168.7500     59.7650      0.0000    841.6041      6.6980
   169.0000     59.7819      0.0000    838.9858      6.7109
   169.2500     58.9202      0.0000    833.4743      6.7207
   169.5000     57.0640      0.0000    825.3140      6.7193
   169.7500     54.8884      0.0000    815.9979      6.7030
   170.0000     53.2664      0.0000    807.6924      6.6782
   170.2500     52.3649      0.0000    801.8786      6.6587
   170.5000     51.3024      0.0000    798.6571      6.6562
   170.7500     48.9604      0.0000    797.2300      6.6699
   171.0000     45.2927      0.0000    796.7274      6.6892
