~Version Information
VERS.                      2.0: CWLS Log ASCII Standard - VERSION 2.0
WRAP.                       NO: One line per depth step
~Well Information Block
STRT.FT                17.7500: 
STOP.FT              1139.0000: 
STEP.FT                 0.2500: 
NULL.                -999.2500: 
COMP.          El Paso E&P Company L.P.: COMPANY
WELL.              VPR "ST" 38: WELL
FLD.           Purgatorie River: FIELD
LOC.           687' FNL & 2121' FEL: LOCATION
CNTY.               Las Animas: COUNTY
SRVC.          Superior Well Services: SERVICE COMPANY
DATE.          Sat Oct 13 22-40-21 2007: LOG DATE
UWI.           05-071-08357-00: UNIQUE WELL ID
STAT.                       CO: STATE
~Curve Information Block
DEPT.FT            0 000 00 00: Depth
CCL.                          : Casing Collar Locator
TT3.usec                      : CBL 3' Travel Time
AMP3.mV                       : CBL 3' Amplitude
GR.GAPI                       : Gamma Ray
~Parameter Information Block
~A  Depth       CCL         TT3         AMP3         GR     
# ...
    84.7500      0.0000    801.0651      3.8742     69.7845
    85.0000      0.0000    793.3234      3.8813     72.5880
    85.2500      0.0000    784.5137      3.8565     76.5907
    85.5000      0.0000    775.2311      3.7907     79.4747
    85.7500      0.0000    767.2492      3.6987     83.4445
    86.0000      0.0000    763.7807      3.6126     84.9128
    86.2500      0.0000    766.2092      3.5584     84.5444
    86.5000      0.0000    772.2691      3.5369     83.1259
    86.7500      0.0000    777.8017      3.5264     80.9695
    87.0000      0.0000    779.3871      3.5015     80.2550
    87.2500      0.0000    775.7719      3.4466     80.6452
    87.5000      0.0000    768.0561      3.3583     81.5947
    87.7500      0.0000    758.8431      3.2444     82.7539
    88.0000      0.0000    750.9598      3.1224     82.4068
    88.2500      0.0000    746.8368      3.0151     79.3103
    88.5000      0.0000    747.9139      2.9417     75.9166
    88.7500      0.0000    753.1066      2.9107     70.7867
    89.0000      0.0000    758.3351      2.9179     68.3545
    89.2500      0.0000    760.6241      2.9439     66.4143
    89.5000      0.0000    763.8901      2.9516     65.8609
    89.7500      0.0000    777.4235      2.8971     65.9391
    90.0000      0.0000    805.0118      2.7632     66.7225
    90.2500      0.0000    836.7034      2.5869     68.7165
    90.5000      0.0000    855.5787      2.4484     70.1965
    90.7500      0.0000    853.7680      2.4207     72.4644
    91.0000      0.0000    839.3873      2.5189     74.2724
    91.2500      0.0000    827.9917      2.6873     77.7285
    91.5000      0.0000    830.1590      2.8383     80.2672
    91.7500      0.0000    846.2194      2.9147     83.5323
    92.0000      0.0000    868.4376      2.9212     85.0804
    92.2500      0.0000    887.3525      2.8980     86.8598
    92.5000      0.0000    898.4509      2.8739     88.0730
    92.7500      0.0000    903.8674      2.8507     90.0178
    93.0000      0.0000    907.6237      2.8208     91.0512
    93.2500      0.0000    910.2383      2.7850     91.4518
    93.5000      0.0000    908.5113      2.7537     90.6859
    93.7500      0.0000    900.0665      2.7424     87.7607
    94.0000      0.0000    887.5018      2.7667     84.4523
    94.2500      0.0000    877.6375      2.8317     77.4716
    94.5000      0.0000    875.5632      2.9250     72.2131
    94.7500      0.0000    879.3085      3.0212     65.8912
    95.0000      0.0000    882.0339      3.0947     63.9767
    95.2500      0.0000    879.5952      3.1309     64.8013
    95.5000      0.0000    873.8155      3.1329     66.8674
    95.7500      0.0000    868.8223      3.1205     70.1603
    96.0000      0.0000    867.8728      3.1189     71.8770
    96.2500      0.0000    874.0674      3.1445     74.3601
    96.5000      0.0000    889.4824      3.1996     76.7904
    96.7500      0.0000    911.4407      3.2765     82.1342
    97.0000      0.0000    932.5844      3.3648     86.1396
    97.2500      0.0000    946.4521      3.4531     90.7250
    97.5000      0.0000    951.7843      3.5273     91.9638
    97.7500      0.0000    951.1829      3.5719     90.9863
    98.0000      0.0000    946.9683      3.5759     88.9430
    98.2500      0.0000    938.8370      3.5429     84.8654
    98.5000      0.0000    925.0027      3.4939     82.1139
    98.7500      0.0000    905.6692      3.4555     79.0256
    99.0000      0.0000    885.7955      3.4403     78.0266
    99.2500      0.0000    873.3001      3.4403     77.7778
    99.5000      0.0000    872.6757      3.4408     77.8176
    99.7500      0.0000    880.2486      3.4379     77.3076
   100.0000      0.0000    887.0473      3.4399     76.4430
   100.2500      0.0000    886.6578      3.4527     74.2286
   100.5000      0.0000    879.9153      3.4703     71.9595
   100.7500      0.0000    872.8546      3.4777     67.8036
   101.0000      0.0000    870.4052      3.4627     65.7062
   101.2500      0.0000    871.6367      3.4250     66.1001
   101.5000      0.0000    871.7471      3.3745     69.1660
   101.7500      0.0000    868.2321      3.3239     75.8133
   102.0000      0.0000    863.0712      3.2813     79.4841
   102.2500      0.0000    859.3874      3.2491     81.6492
   102.5000      0.0000    858.1186      3.2278     81.2581
   102.7500      0.0000    856.9662      3.2167     80.3788
   103.0000      0.0000    851.0573      3.2136     80.8829
   103.2500      0.0000    836.5413      3.2170     83.9936
   103.5000      0.0000    815.6193      3.2272     87.0837
   103.7500      0.0000    796.9450      3.2438     90.9624
   104.0000      0.0000    789.1817      3.2648     91.6680
   104.2500      0.0000    793.6246      3.2915     89.5096
   104.5000      0.0000    803.6190      3.3308     87.1981
   104.7500      0.0000    811.6441      3.3896     85.3605
   105.0000      0.0000    816.1996      3.4653     86.0784
   105.2500      0.0000    821.1777      3.5454     89.6903
   105.5000      0.0000    829.8285      3.6137     93.1645
   105.7500      0.0000    840.5809      3.6574     98.8129
   106.0000      0.0000    847.4794      3.6706    102.0020
   106.2500      0.0000    843.2375      3.6566    104.5762
   106.5000      0.0000    823.5831      3.6255    104.7100
   106.7500      0.0000    791.4108      3.5876    103.2668
   107.0000      0.0000    756.8079      3.5460    101.3970
   107.2500      0.0000    731.0128      3.4952     96.9377
   107.5000      0.0000    719.0772      3.4270     93.1149
   107.7500      0.0000    718.0040      3.3361     87.7086
   108.0000      0.0000    720.9903      3.2246     85.0456
   108.2500      0.0000    722.9518      3.1032     82.0833
   108.5000      0.0000    722.9667      2.9889     80.0859
   108.7500      0.0000    722.9456      2.8955     76.3095
   109.0000      0.0000    724.6478      2.8226     73.2441
   109.2500      0.0000    728.1362      2.7557     68.2907
   109.5000      0.0000    732.6770      2.6801     65.2924
   109.7500      0.0000    737.9301      2.5945     62.1253
   110.0000      0.0000    743.7628      2.5110     61.0293
   110.2500      0.0000    750.2507      2.4460     60.7389
   110.5000      0.0000    758.7923      2.4106     61.5553
   110.7500      0.0000    771.8126      2.4051     64.7287
   111.0000      0.0000    789.9553      2.4171     67.9662
   111.2500      0.0000    810.6295      2.4294     72.9825
   111.5000      0.0000    830.1622      2.4331     75.3219
   111.7500      0.0000    845.7224      2.4309     76.4934
   112.0000      0.0000    853.7462      2.4265     76.1957
   112.2500      0.0000    848.0817      2.4134     75.7534
   112.5000      0.0000    822.6320      2.3761     76.0044
   112.7500      0.0000    777.5970      2.3005     76.6115
   113.0000      0.0000    723.2263      2.1872     76.3632
   113.2500      0.0000    676.3069      2.0571     74.2281
   113.5000      0.0000    650.3550      1.9440     71.8511
   113.7500      0.0000    646.7260      1.8784     68.0754
   114.0000      0.0000    654.9214      1.8723     66.2826
   114.2500      0.0000    662.8159      1.9153     65.6420
   114.5000      0.0000    667.0488      1.9851     66.5252
   114.7500      0.0000    674.0375      2.0650     68.9149
   115.0000      0.0000    692.9631      2.1537     70.6088
   115.2500      0.0000    728.4816      2.2620     72.4565
   115.5000      0.0000    777.0535      2.4014     73.0310
   115.7500      0.0000    827.3164      2.5744     73.7555
   116.0000      0.0000    865.8628      2.7717     75.1736
   116.2500      0.0000    886.1965      2.9723     79.3580
   116.5000      0.0000    891.3380      3.1487     82.4931
   116.7500      0.0000    886.4423      3.2739     85.0266
   117.0000      0.0000    873.0491      3.3314     84.6369
   117.2500      0.0000    853.3790      3.3233     82.3921
   117.5000      0.0000    835.0162      3.2703     81.5130
   117.7500      0.0000    825.9549      3.2036     83.6657
   118.0000      0.0000    826.4305      3.1521     87.5498
