~Version Information
VERS.                      2.0: CWLS Log ASCII Standard - VERSION 2.0
WRAP.                       NO: One line per depth step
~Well Information Block
STRT.FT               350.0000: 
STOP.FT              1391.5000: 
STEP.FT                 0.2500: 
NULL.                -999.2500: 
COMP.          Petrogulf Corporation: COMPANY
WELL.             Leier 17-42R: WELL
FLD.           Purgatorie River: FIELD
LOC.           2398' FNL & 1109' FEL: LOCATION
PROV.                 Colorado: PROVINCE
CNTY.               Las Animas: COUNTRY
SRVC.                Patterson: SERVICE COMPANY
DATE.          Mon Oct 17 09:42:26 2005: LOG DATE
UWI.                          : UNIQUE WELL ID
~Curve Information Block
DEPT.FT            0 000 00 00: Depth
SP.mV                         : DIL Spontaneous Potential
RILD.Ohm-m                    : DIL Deep Resistivity
RILM.Ohm-m                    : DIL Medium Resistivity
RLL3.Ohm-m                    : DIL Shallow Resistivity
GR.GAPI                       : Gamma Ray
~Parameter Information Block
~A  Depth        SP         RILD        RILM        RLL3         GR     
# ...
  1078.0000    231.1919      8.8916      9.0477     11.0077    134.4422
  1078.2500    229.8392      8.7857      8.8651     10.6478    138.5657
  1078.5000    228.5009      8.6995      8.7061     10.4508    144.2125
  1078.7500    227.2445      8.6321      8.5746     10.3253    145.9533
  1079.0000    226.0994      8.5820      8.4724     10.2085    144.5324
  1079.2500    225.0570      8.5471      8.4003     10.1095    141.9695
  1079.5000    224.0919      8.5247      8.3580     10.0764    138.5038
  1079.7500    223.1834      8.5125      8.3446     10.1399    137.0148
  1080.0000    222.3238      8.5087      8.3583     10.2905    134.7059
  1080.2500    221.5175      8.5128      8.3965     10.5005    132.4544
  1080.5000    220.7754      8.5255      8.4553     10.7537    129.0410
  1080.7500    220.1067      8.5486      8.5295     11.0525    127.9911
  1081.0000    219.5130      8.5837      8.6134     11.4027    129.0668
  1081.2500    218.9940      8.6314      8.7009     11.7921    130.8420
  1081.5000    218.5583      8.6911      8.7863     12.1754    132.9762
  1081.7500    218.2294      8.7604      8.8658     12.4766    133.0631
  1082.0000    218.0410      8.8365      8.9372     12.6131    130.9563
  1082.2500    218.0256      8.9176      9.0006     12.5379    128.9100
  1082.5000    218.2072      9.0037      9.0583     12.2821    126.9524
  1082.7500    218.5966      9.0972      9.1137     11.9605    127.0747
  1083.0000    219.1850      9.2015      9.1715     11.7103    129.2654
  1083.2500    219.9355      9.3200      9.2372     11.6003    131.6320
  1083.5000    220.7791      9.4555      9.3170     11.6023    135.4964
  1083.7500    221.6217      9.6104      9.4180     11.6543    137.3307
  1084.0000    222.3605      9.7866      9.5479     11.7362    137.3353
  1084.2500    222.9103      9.9858      9.7146     11.8803    135.3347
  1084.5000    223.2321     10.2091      9.9253     12.1382    130.8371
  1084.7500    223.3460     10.4566     10.1855     12.5610    128.1178
  1085.0000    223.3134     10.7277     10.4983     13.1925    125.9310
  1085.2500    223.1952     11.0212     10.8637     14.0467    125.9468
  1085.5000    223.0137     11.3356     11.2786     15.0789    127.5316
  1085.7500    222.7460     11.6696     11.7369     16.1953    128.7354
  1086.0000    222.3492     12.0233     12.2304     17.3176    128.8529
  1086.2500    221.7995     12.3982     12.7491     18.4471    127.0605
  1086.5000    221.1159     12.7978     13.2821     19.6352    121.8315
  1086.7500    220.3536     13.2254     13.8190     20.8532    117.6524
  1087.0000    219.5743     13.6831     14.3503     21.8993    112.6085
  1087.2500    218.8151     14.1700     14.8699     22.4787    111.0741
  1087.5000    218.0786     14.6808     15.3759     22.4067    111.7409
  1087.7500    217.3451     15.2057     15.8718     21.7440    113.3856
  1088.0000    216.5916     15.7302     16.3654     20.7634    115.9245
  1088.2500    215.8005     16.2365     16.8667     19.8312    117.0633
  1088.5000    214.9566     16.7067     17.3834     19.3184    117.6583
  1088.7500    214.0447     17.1261     17.9174     19.5366    117.3312
  1089.0000    213.0627     17.4858     18.4613     20.6177    116.1595
  1089.2500    212.0428     17.7834     18.9992     22.3683    115.4318
  1089.5000    211.0553     18.0232     19.5086     24.2680    115.1940
  1089.7500    210.1796     18.2162     19.9659     25.7249    115.6526
  1090.0000    209.4609     18.3789     20.3514     26.4436    116.7777
  1090.2500    208.8911     18.5301     20.6525     26.5875    117.4511
  1090.5000    208.4212     18.6856     20.8649     26.5701    117.6998
  1090.7500    207.9891     18.8535     20.9913     26.6660    117.0089
  1091.0000    207.5457     19.0333     21.0406     26.8061    114.5817
  1091.2500    207.0719     19.2174     21.0266     26.7220    112.4407
  1091.5000    206.5807     19.3965     20.9675     26.2511    109.6514
  1091.7500    206.0995     19.5666     20.8851     25.4996    108.6335
  1092.0000    205.6477     19.7340     20.8027     24.7560    108.5305
  1092.2500    205.2268     19.9146     20.7432     24.2832    109.1844
  1092.5000    204.8275     20.1291     20.7279     24.1586    110.9118
  1092.7500    204.4421     20.3953     20.7759     24.2625    112.4678
  1093.0000    204.0709     20.7247     20.9060     24.4116    115.0644
  1093.2500    203.7256     21.1226     21.1382     24.5309    116.5563
  1093.5000    203.4291     21.5914     21.4958     24.7202    117.7078
  1093.7500    203.2074     22.1334     22.0047     25.1813    117.5769
  1094.0000    203.0782     22.7510     22.6920     26.1241    116.2419
  1094.2500    203.0497     23.4428     23.5808     27.8179    114.8026
  1094.5000    203.1274     24.1971     24.6830     30.8194    111.9104
  1094.7500    203.3183     24.9880     25.9901     36.1411    109.3631
  1095.0000    203.6252     25.7808     27.4627     44.9667    104.4138
  1095.2500    204.0458     26.5453     29.0238     57.7850    100.4317
  1095.5000    204.5838     27.2707     30.5598     73.4634     93.7341
  1095.7500    205.2579     27.9720     31.9368     89.0632     88.8836
  1096.0000    206.0927     28.6818     33.0328    100.6559     81.0889
  1096.2500    207.0960     29.4319     33.7757    104.7151     75.7512
  1096.5000    208.2412     30.2345     34.1671     99.5881     68.6343
  1096.7500    209.4668     31.0731     34.2793     86.5650     65.6273
  1097.0000    210.6916     31.9054     34.2265     69.7389     65.9878
  1097.2500    211.8402     32.6768     34.1285     54.2201     70.2421
  1097.5000    212.8664     33.3358     34.0813     43.6894     81.4548
  1097.7500    213.7611     33.8442     34.1427     39.0626     89.8203
  1098.0000    214.5434     34.1809     34.3310     38.9842     98.8197
  1098.2500    215.2402     34.3447     34.6327     41.2876    100.8147
  1098.5000    215.8653     34.3573     35.0157     44.1994     98.7614
  1098.7500    216.4098     34.2645     35.4437     46.7780     95.9693
  1099.0000    216.8465     34.1297     35.8890     48.7474     92.2427
  1099.2500    217.1452     34.0210     36.3384     50.1175     90.4060
  1099.5000    217.2897     33.9960     36.7930     50.9349     88.3528
  1099.7500    217.2878     34.0908     37.2607     51.2813     87.5604
  1100.0000    217.1704     34.3129     37.7471     51.3463     87.6627
  1100.2500    216.9768     34.6411     38.2485     51.3593     88.4539
  1100.5000    216.7406     35.0320     38.7494     51.4132     89.9600
  1100.7500    216.4862     35.4323     39.2230     51.4017     91.0558
  1101.0000    216.2320     35.7935     39.6352     51.1545     93.4581
  1101.2500    215.9870     36.0801     39.9496     50.6275     95.7169
  1101.5000    215.7397     36.2707     40.1322     49.9819     99.0570
  1101.7500    215.4577     36.3541     40.1568     49.5032    100.4036
  1102.0000    215.1039     36.3281     40.0103     49.3988    100.6827
  1102.2500    214.6574     36.2012     39.6976     49.5974    100.0804
  1102.5000    214.1268     35.9948     39.2451     49.7130     98.8457
  1102.7500    213.5506     35.7414     38.6988     49.2150     98.3289
  1103.0000    212.9859     35.4816     38.1186     47.7024     99.1500
  1103.2500    212.4903     35.2601     37.5685     45.1583    101.1725
  1103.5000    212.1009     35.1195     37.1074     42.0666    105.7353
  1103.7500    211.8212     35.0859     36.7812     39.2781    108.8217
  1104.0000    211.6222     35.1508     36.6181     37.6528    112.1927
  1104.2500    211.4609     35.2630     36.6267     37.6993    113.1861
  1104.5000    211.3056     35.3456     36.7960     39.4405    111.9972
  1104.7500    211.1506     35.3358     37.0948     42.5530    109.0014
  1105.0000    211.0112     35.2223     37.4736     46.6395    101.7143
  1105.2500    210.9065     35.0497     37.8673     51.3895     96.0895
  1105.5000    210.8455     34.8848     38.2020     56.3881     88.4812
  1105.7500    210.8259     34.7746     38.4073     60.6682     84.6472
