~Version Information
VERS.                      2.0: CWLS Log ASCII Standard - VERSION 2.0
WRAP.                       NO: One line per depth step
~Well Information Block
STRT.FT                -6.7500: 
STOP.FT               983.2500: 
STEP.FT                 0.2500: 
NULL.                -999.2500: 
COMP.          Pioneer Natural Resources: COMPANY
WELL.          Run-Away-Train 43-26: WELL
FLD.           Purgatorie River: FIELD
LOC.           1693' FSL & 1195' FWL------------: LOCATION
PROV.                       CO: PROVINCE
CNTY.               Las Animas: COUNTRY
SRVC.          Patterson Wireline: SERVICE COMPANY
DATE.          Thu Apr 14 12:30:00 2005: LOG DATE
UWI.           05 071 08188 00: UNIQUE WELL ID
~Curve Information Block
DEPT.FT            0 000 00 00: Depth
CCL.                          : Casing Collar Locator
TT3.usec                      : CBL 3' Travel Time
AMP3.mV                       : CBL 3' Amplitude
GR.GAPI                       : Gamma Ray
~Parameter Information Block
~A  Depth       CCL         TT3         AMP3         GR     
# ...
   897.7500      0.0000    683.1527      6.0486     95.6555
   898.0000      0.0000    649.1970      6.1688     99.3683
   898.2500      0.0000    615.8186      6.2248    103.6196
   898.5000      0.0000    592.2316      6.1930    106.6033
   898.7500      0.0000    584.6739      6.1034    106.8703
   899.0000      0.0000    591.7823      6.0014    104.1283
   899.2500      0.0000    606.3441      5.9072     98.8525
   899.5000      0.0000    621.6403      5.8143     91.7087
   899.7500      0.0000    635.6115      5.7149     83.7533
   900.0000      0.0000    648.9362      5.6170     76.5488
   900.2500      0.0000    660.0782      5.5374     71.3512
   900.5000      0.0000    663.6741      5.4855     68.2542
   900.7500      0.0000    654.7615      5.4623     66.3923
   901.0000      0.0000    635.0876      5.4708     64.9299
   901.2500      0.0000    615.0499      5.5164     63.7832
   901.5000      0.0000    607.9856      5.5957     63.3914
   901.7500      0.0000    620.4545      5.6889     63.8762
   902.0000      0.0000    647.2936      5.7568     64.6395
   902.2500      0.0000    676.4494      5.7465     64.6851
   902.5000      0.0000    698.1016      5.6293     63.1343
   902.7500      0.0000    709.0289      5.4513     59.7190
   903.0000      0.0000    709.9879      5.3247     55.1553
   903.2500      0.0000    701.4503      5.3389     50.8814
   903.5000      0.0000    682.7903      5.4801     48.0811
   903.7500      0.0000    654.9924      5.6543     46.8633
   904.0000      0.0000    622.8231      5.7755     46.4169
   904.2500      0.0000    593.0872      5.8181     45.9173
   904.5000      0.0000    570.8999      5.8053     45.2014
   904.7500      0.0000    558.7523      5.7738     44.7806
   905.0000      0.0000    558.5974      5.7507     45.5095
   905.2500      0.0000    571.9526      5.7432     48.0177
   905.5000      0.0000    595.7857      5.7400     51.9945
   905.7500      0.0000    619.4916      5.7281     56.0278
   906.0000      0.0000    629.4449      5.7123     58.4297
   906.2500      0.0000    618.9694      5.7130     58.4368
   906.5000      0.0000    593.7850      5.7435     56.8021
   906.7500      0.0000    567.3237      5.7873     55.2647
   907.0000      0.0000    551.5021      5.7958     55.1776
   907.2500      0.0000    551.7144      5.7059     56.3563
   907.5000      0.0000    567.4117      5.4779     57.2679
   907.7500      0.0000    594.1271      5.1257     56.5123
   908.0000      0.0000    625.2781      4.7211     54.1378
   908.2500      0.0000    654.7583      4.3748     51.4501
   908.5000      0.0000    679.3000      4.1947     49.6883
   908.7500      0.0000    698.4382      4.2210     49.1649
   909.0000      0.0000    712.7975      4.3931     49.5617
   909.2500      0.0000    723.4549      4.6024     50.4495
   909.5000      0.0000    732.8685      4.7823     51.4047
   909.7500      0.0000    744.7923      4.9243     52.2204
   910.0000     -2.0000    761.3629      5.0200     53.2241
   910.2500     -2.0000    780.1584      5.0306     55.0064
   910.5000     -2.0000    795.4294      4.9308     57.7735
   910.7500      0.0000    802.1048      4.7659     61.0858
   911.0000      0.0000    797.9025      4.6492     64.0167
   911.2500      0.0000    783.3175      4.6895     65.5037
   911.5000      0.0000    761.8565      4.8974     65.0229
   911.7500      0.0000    739.0995      5.1640     63.1133
   912.0000      0.0000    719.3687      5.3615     60.9203
   912.2500      0.0000    703.9081      5.4623     59.1252
   912.5000      0.0000    693.2004      5.5239     57.4874
   912.7500      0.0000    689.0054      5.5779     55.3687
   913.0000      0.0000    692.2344      5.5862     52.6092
   913.2500      0.0000    700.3347      5.5063     50.0061
   913.5000      0.0000    708.8060      5.3528     48.9145
   913.7500      0.0000    714.7146      5.1819     50.1736
   914.0000      0.0000    717.8001      5.0459     53.2799
   914.2500      0.0000    719.0549      4.9723     56.5304
   914.5000      0.0000    719.3344      4.9580     58.0616
   914.7500      0.0000    719.0281      4.9666     57.0218
   915.0000      0.0000    718.1889      4.9572     54.0957
   915.2500      0.0000    716.4750      4.9289     51.0315
   915.5000      0.0000    713.0690      4.9177     49.4966
   915.7500      0.0000    707.0677      4.9424     50.0395
   916.0000      0.0000    698.5900      4.9756     51.8540
   916.2500      0.0000    689.5685      4.9847     53.4496
   916.5000      0.0000    682.7286      4.9844     53.7408
   916.7500      0.0000    678.6434      5.0305     52.8512
   917.0000      0.0000    673.9587      5.1587     52.0771
   917.2500      0.0000    663.6762      5.3362     52.8406
   917.5000      0.0000    645.8537      5.4760     55.3193
   917.7500      0.0000    623.4295      5.5049     58.1822
   918.0000      0.0000    601.4517      5.4142     59.9509
   918.2500      0.0000    583.4323      5.2522     60.5443
   918.5000      0.0000    569.7652      5.0785     61.1583
   918.7500      0.0000    557.5614      4.9263     62.6954
   919.0000      0.0000    541.6063      4.7955     64.7450
   919.2500      0.0000    518.0403      4.6730     66.1264
   919.5000      0.0000    489.1993      4.5663     66.0367
   919.7500      0.0000    464.0287      4.5127     64.6124
   920.0000      0.0000    452.3521      4.5495     62.6849
   920.2500      0.0000    458.7521      4.6708     61.1516
   920.5000      0.0000    481.3581      4.8198     60.4203
   920.7500      0.0000    514.6912      4.9339     60.2421
   921.0000      0.0000    552.8396      4.9944     59.9229
   921.2500      0.0000    590.5983      5.0297     58.7493
   921.5000      0.0000    623.8314      5.0750     56.5568
   921.7500      0.0000    650.3093      5.1403     54.0803
   922.0000      0.0000    669.6321      5.2049     52.5252
   922.2500      0.0000    681.7471      5.2338     52.6238
   922.5000      0.0000    686.7192      5.2043     54.1447
   922.7500      0.0000    686.3210      5.1334     56.1905
   923.0000      0.0000    684.2750      5.0805     57.8749
   923.2500      0.0000    683.7726      5.1086     58.8846
   923.5000      0.0000    684.8325      5.2291     59.5091
   923.7500      0.0000    684.5545      5.3825     60.0955
   924.0000      0.0000    680.0543      5.4845     60.4528
   924.2500      0.0000    671.1953      5.5003     59.8198
   924.5000      0.0000    660.7368      5.4718     57.5802
   924.7500      0.0000    652.5975      5.4682     54.2035
   925.0000      0.0000    649.8546      5.5204     51.2855
   925.2500      0.0000    653.0092      5.6095     50.3597
   925.5000      0.0000    659.5844      5.7036     51.6431
   925.7500      0.0000    666.0555      5.7853     53.9349
   926.0000      0.0000    670.3939      5.8479     55.6182
   926.2500      0.0000    672.6434      5.8890     55.9408
   926.5000      0.0000    673.6519      5.9167     55.5515
   926.7500      0.0000    673.8215      5.9427     55.7529
   927.0000      0.0000    672.8772      5.9644     57.2868
   927.2500      0.0000    670.4303      5.9618     59.9141
   927.5000      0.0000    666.6822      5.9161     62.8699
   927.7500      0.0000    662.6498      5.8315     65.4848
   928.0000      0.0000    659.6624      5.7407     67.5818
   928.2500      0.0000    658.4735      5.6832     69.4326
   928.5000      0.0000    658.3123      5.6660     71.2880
   928.7500      0.0000    656.7094      5.6546     73.0660
   929.0000      0.0000    651.3280      5.6146     74.5512
   929.2500      0.0000    642.9282      5.5599     75.6850
   929.5000      0.0000    635.7222      5.5413     76.5277
   929.7500      0.0000    633.4188      5.5836     77.1746
   930.0000      0.0000    634.8890      5.6458     77.9201
   930.2500      0.0000    634.3403      5.6614     79.3834
   930.5000      0.0000    625.8379      5.6116     82.1189
   930.7500      0.0000    608.1778      5.5455     85.9040
   931.0000      0.0000    586.2980      5.5248     89.5204
