~Version Information
 VERS.                                  2.0 : CWLS LAS VERSION
 WRAP.                                   NO : WRAPING MODE
 SWARE .                 MController 2.5.0J : SOFTWARE VERSION
~Well Information
 WELL.                     Kristin 22-23 TR : WELL
 COMP.        Pioneer Natural Resources Inc : COMPANY
 FLD.                      Purgatoire River : FIELD
 LOC.                SE/NW Sec 23 T33S R67W : LOCATION
 DATE.                           1/19-20/05 : DATE(S) LOGGED
 SRVC.       Blanco Geological Services LLC : SERVICE COMPANY
 STAT.                                   CO : STATE
 CNTY.                           Las Animas : COUNTY
 CTRY.                                  USA : COUNTRY
 API.                       05-071-08259-00 : API NUMBER
 STRT.FT                             499.00 : START DEPTH
 STOP.FT                            1575.00 : STOP DEPTH
 STEP.FT                               1.00 : DEPTH INCREMENT
 NULL.                                -9999 : NULL VALUE
~Curve information
 DEPTH.FT                                   :
 ROP.MIN/FT                                 :
 GAS.UNITS                                  :
~ASCII Log data
# ...
      1099.0         0.20        641.1 
      1100.0         0.23        636.3 
      1101.0         0.20        633.7 
      1102.0         0.20       2076.2 
      1103.0         0.27       2076.2 
      1104.0         0.20       1808.4 
      1105.0         0.27       1769.1 
      1106.0         0.27       1477.1 
      1107.0         0.27       1226.7 
      1108.0         0.23        904.4 
      1109.0         0.27        890.3 
      1110.0         0.27        798.1 
      1111.0         0.30        745.2 
      1112.0         0.25        718.2 
      1113.0         0.23        702.4 
      1114.0         0.23        683.0 
      1115.0         0.27        669.8 
      1116.0         0.20        652.4 
      1117.0         0.27        644.4 
      1118.0         0.27        636.3 
      1119.0         0.20        627.6 
      1120.0         0.20        619.9 
      1121.0         0.20        614.4 
      1122.0         0.20        611.5 
      1123.0         0.17        608.9 
      1124.0         0.17        602.5 
      1125.0         0.13        585.7 
      1126.0         0.13        579.9 
      1127.0         0.17        578.9 
      1128.0         0.18        587.3 
      1129.0         0.13        592.5 
      1130.0         0.13        592.5 
      1131.0         0.17        609.9 
      1132.0         0.20       2004.6 
      1133.0         0.20       1491.9 
      1134.0         0.17       1317.3 
      1135.0         0.27       1104.9 
      1136.0         0.27       1078.1 
      1137.0         0.27        849.3 
      1138.0         0.27        827.1 
      1139.0         0.27        795.8 
      1140.0         0.27        805.2 
      1141.0         0.20        757.8 
      1142.0         0.33        743.0 
      1143.0         0.27        667.6 
      1144.0         0.25        629.9 
      1145.0         0.27        608.9 
      1146.0         0.27        617.6 
      1147.0         0.23        632.8 
      1148.0         0.27        648.9 
      1149.0         0.17        648.9 
      1150.0         0.27        646.3 
      1151.0         0.27        644.7 
      1152.0         0.23        650.2 
      1153.0         0.33        647.3 
      1154.0         0.27        627.3 
      1155.0         0.23        612.8 
      1156.0         0.33        605.7 
      1157.0         0.22        603.1 
      1158.0         0.23        606.7 
      1159.0         0.27        606.0 
      1160.0         0.33        604.1 
      1161.0         0.33        597.3 
      1162.0         0.33        588.0 
      1163.0         0.27       1975.6 
      1164.0         0.40       2401.7 
      1165.0         0.27       2404.3 
      1166.0         0.27       2121.3 
      1167.0         0.27       1647.9 
      1168.0         0.30       1340.8 
      1169.0         0.23        983.4 
      1170.0         0.37        912.2 
      1171.0         0.27        791.6 
      1172.0         0.38        777.1 
      1173.0         0.40        763.3 
      1174.0         0.27        723.0 
      1175.0         0.20        717.2 
      1176.0         0.20        655.6 
      1177.0         0.20        641.8 
      1178.0         0.20        632.8 
      1179.0         0.23        606.0 
      1180.0         0.23        607.6 
      1181.0         0.23        608.6 
      1182.0         0.17        605.7 
      1183.0         0.20        599.2 
      1184.0         0.23        599.6 
      1185.0         0.20        606.7 
      1186.0         0.32        621.8 
      1187.0         0.33        634.7 
      1188.0         0.27        636.0 
      1189.0         0.20        617.0 
      1190.0         0.27        610.8 
      1191.0         0.27        609.9 
      1192.0         0.20        605.7 
      1193.0         0.23        605.7 
      1194.0         0.23        725.3 
      1195.0         0.20        842.6 
      1196.0         0.17       1006.6 
      1197.0         0.40       1251.2 
      1198.0         0.27       1244.4 
      1199.0         0.37       1205.4 
      1200.0         0.27       1095.5 
      1201.0         0.23        972.8 
      1202.0         0.20        874.8 
      1203.0         0.37        851.3 
      1204.0         0.22        755.2 
      1205.0         0.20        736.2 
      1206.0         0.23        721.4 
      1207.0         0.30        697.9 
      1208.0         0.27        679.2 
      1209.0         0.27        638.2 
      1210.0         0.20        625.0 
      1211.0         0.23        617.6 
      1212.0         0.20        614.7 
      1213.0         0.27        618.6 
      1214.0         0.27        625.3 
      1215.0         0.23        627.9 
      1216.0         0.23        625.0 
      1217.0         0.25        625.0 
      1218.0         0.23        623.1 
      1219.0         0.23        615.7 
      1220.0         0.27        610.2 
      1221.0         0.30        611.2 
      1222.0         0.23        610.8 
      1223.0         0.27        518.4 
      1224.0         0.23        672.4 
      1225.0         0.23        690.4 
      1226.0         0.40       1005.0 
      1227.0         0.30       1140.7 
      1228.0         0.30       1137.8 
      1229.0         0.40       1107.5 
      1230.0         0.27       1036.6 
      1231.0         0.30        965.0 
      1232.0         0.23        806.5 
      1233.0         0.23        772.9 
      1234.0         0.23        759.4 
      1235.0         0.23        729.4 
      1236.0         0.28        722.0 
      1237.0         0.20        712.0 
      1238.0         0.23        699.5 
      1239.0         0.20        694.6 
      1240.0         0.23        683.7 
      1241.0         0.20        670.8 
      1242.0         0.20        663.7 
      1243.0         0.20        657.9 
      1244.0         0.20        652.1 
      1245.0         0.17        637.3 
      1246.0         0.20        620.2 
      1247.0         0.17        620.2 
      1248.0         0.17        600.9 
      1249.0         0.17        592.5 
      1250.0         0.17        592.5 
      1251.0         0.27        598.3 
      1252.0         0.25        611.2 
      1253.0         0.23       1125.2 
      1254.0         0.27       1125.2 
      1255.0         0.23       1150.0 
      1256.0         0.43       1166.8 
      1257.0         0.27       1114.9 
      1258.0         0.23       1110.4 
      1259.0         0.20       1023.7 
      1260.0         0.17       1023.7 
      1261.0         0.20        939.6 
      1262.0         0.27        913.8 
      1263.0         0.30        814.8 
      1264.0         0.23        743.9 
      1265.0         0.23        740.7 
      1266.0         0.33        734.9 
      1267.0         0.17        704.9 
      1268.0         0.17        704.9 
      1269.0         0.17        690.4 
      1270.0         0.17        671.1 
      1271.0         0.22        653.4 
      1272.0         0.27        639.2 
      1273.0         0.20        637.0 
      1274.0         0.20        645.7 
      1275.0         0.23        652.1 
      1276.0         0.17        652.7 
      1277.0         0.17        652.7 
      1278.0         0.13        649.8 
      1279.0         0.17        646.9 
      1280.0         0.17        644.7 
      1281.0         0.20        641.8 
      1282.0         0.20        619.9 
      1283.0         0.20        833.9 
      1284.0         0.17        833.9 
      1285.0         0.17       1078.1 
      1286.0         0.27       1245.1 
      1287.0         0.30       1375.9 
      1288.0         0.40       1362.0 
      1289.0         0.30       1263.1 
      1290.0         0.27       1187.4 
      1291.0         0.30       1062.7 
      1292.0         0.23        928.0 
      1293.0         0.23        783.9 
      1294.0         0.28        776.2 
      1295.0         0.23        760.7 
      1296.0         0.23        719.8 
      1297.0         0.23        706.2 
      1298.0         0.30        696.6 
