~Version Information
VERS.                      2.0: CWLS Log ASCII Standard - VERSION 2.0
WRAP.                       NO: One line per depth step
~Well Information Block
STRT.FT                60.5000: 
STOP.FT              1875.7500: 
STEP.FT                 0.2500: 
NULL.                -999.2500: 
COMP.          Petrogulf Corporation: COMPANY
WELL.             State 16-14R: WELL
FLD.           Purgatorie River: FIELD
LOC.           598' FSL & 682' FWL--: LOCATION
PROV.                       CO: PROVINCE
CNTY.               Las Animas: COUNTRY
SRVC.                         : SERVICE COMPANY
DATE.          Fri Nov 12 08:50:45 2004: LOG DATE
UWI.            005 071 08034 : UNIQUE WELL ID
~Curve Information Block
DEPT.FT            0 000 00 00: Depth
GR.GAPI                       : Gamma Ray
CCL.                          : Casing Collar Locator
TT3.usec                      : CBL 3' Travel Time
AMP3.mV                       : CBL 3' Amplitude
~Parameter Information Block
~A  Depth        GR         CCL         TT3         AMP3    
# ...
  1467.5000    137.2982      0.0000    753.6713      1.8871
  1467.7500    133.0603      0.0000    767.4224      1.8068
  1468.0000    130.3576      0.0000    778.1499      1.7582
  1468.2500    131.1306      0.0000    787.8427      1.7476
  1468.5000    135.4707      0.0000    796.5036      1.7972
  1468.7500    141.0811      0.0000    802.2222      1.9223
  1469.0000    144.6771     -2.0000    802.6210      2.1145
  1469.2500    143.7851     -2.0000    797.2653      2.3515
  1469.5000    137.8692      1.7456    789.8387      2.6203
  1469.7500    128.5257      0.0000    786.1320      2.9258
  1470.0000    118.4965      0.0000    789.0988      3.2620
  1470.2500    109.9050      0.0000    796.7186      3.5645
  1470.5000    103.0494      0.0000    803.6681      3.7203
  1470.7500     96.7496      0.0000    804.5956      3.6629
  1471.0000     89.8710      0.0000    797.9084      3.4544
  1471.2500     82.6462      0.0000    786.7318      3.2469
  1471.5000     76.6089      0.0000    774.5898      3.1699
  1471.7500     73.1965      0.0000    761.3399      3.2605
  1472.0000     72.7629      0.0000    745.2090      3.4730
  1472.2500     75.1366      0.0000    727.7264      3.7255
  1472.5000     80.2298      0.0000    714.6367      3.9431
  1472.7500     87.0861      0.0000    711.9247      4.0826
  1473.0000     92.9322      0.0000    721.6491      4.1326
  1473.2500     94.5728      0.0000    741.3262      4.1012
  1473.5000     91.0299      0.0000    766.4735      4.0071
  1473.7500     84.2026      0.0000    792.3761      3.8777
  1474.0000     76.8914      0.0000    813.0469      3.7456
  1474.2500     70.7650      0.0000    820.9508      3.6369
  1474.5000     66.2542      0.0000    810.8896      3.5591
  1474.7500     63.5254      0.0000    784.5278      3.5020
  1475.0000     62.8815      0.0000    749.8206      3.4516
  1475.2500     64.3832      0.0000    715.8756      3.4029
  1475.5000     67.4805      0.0000    688.7065      3.3622
  1475.7500     71.0399      0.0000    670.7554      3.3375
  1476.0000     73.8651      0.0000    662.3398      3.3279
  1476.2500     75.5723      0.0000    662.6334      3.3216
  1476.5000     77.0248      0.0000    670.0457      3.2984
  1476.7500     79.7104      0.0000    683.5400      3.2368
  1477.0000     84.7390      0.0000    704.5518      3.1266
  1477.2500     92.4784      0.0000    736.1503      2.9781
  1477.5000    102.7695      0.0000    778.1488      2.8187
  1477.7500    115.1059      0.0000    823.0690      2.6782
  1478.0000    128.7312      0.0000    859.0558      2.5799
  1478.2500    142.7619      0.0000    878.2349      2.5440
  1478.5000    156.1452      0.0000    882.3497      2.5902
  1478.7500    167.5087      0.0000    880.3959      2.7311
  1479.0000    175.5710      0.0000    880.8093      2.9589
  1479.2500    180.0517      0.0000    885.4322      3.2401
  1479.5000    181.8587      0.0000    890.4023      3.5311
  1479.7500    182.0768      0.0000    891.6308      3.8059
  1480.0000    181.1490      0.0000    888.0494      4.0697
  1480.2500    179.2723      0.0000    880.4875      4.3383
  1480.5000    177.0158      0.0000    870.0202      4.6079
  1480.7500    174.9805      0.0000    857.7317      4.8490
  1481.0000    173.1364      0.0000    843.9130      5.0264
  1481.2500    171.1158      0.0000    827.4081      5.1187
  1481.5000    169.1197      0.0000    807.7101      5.1245
  1481.7500    168.0511      0.0000    787.3975      5.0606
  1482.0000    168.6169      0.0000    770.6904      4.9555
  1482.2500    170.3333      0.0000    759.8544      4.8442
  1482.5000    171.6905      0.0000    754.0614      4.7618
  1482.7500    171.6672      0.0000    751.1587      4.7305
  1483.0000    170.7895      0.0000    749.4918      4.7403
  1483.2500    170.1050      0.0000    748.3341      4.7486
  1483.5000    169.4211      0.0000    747.5525      4.7111
  1483.7500    167.1967      0.0000    747.3297      4.6186
  1484.0000    161.9629      0.0000    748.1168      4.5003
  1484.2500    153.5144      0.0000    750.5819      4.3953
  1484.5000    143.1652      0.0000    755.1940      4.3240
  1484.7500    133.3844      0.0000    761.4184      4.2829
  1485.0000    126.8264      0.0000    767.1372      4.2529
  1485.2500    124.8335      0.0000    769.1255      4.2100
  1485.5000    126.4656      0.0000    764.6147      4.1341
  1485.7500    129.3086      0.0000    753.0149      4.0125
  1486.0000    131.5303      0.0000    736.6317      3.8407
  1486.2500    133.0340      0.0000    719.6471      3.6216
  1486.5000    134.6635      0.0000    705.8118      3.3702
  1486.7500    136.6365      0.0000    696.6324      3.1154
  1487.0000    137.9806      0.0000    691.4321      2.8911
  1487.2500    137.4592      0.0000    688.6948      2.7186
  1487.5000    134.9227      0.0000    687.1884      2.5951
  1487.7500    131.7356      0.0000    686.2583      2.5012
  1488.0000    129.9317      0.0000    685.6489      2.4172
  1488.2500    130.8551      0.0000    685.2698      2.3340
  1488.5000    134.1150      0.0000    685.0498      2.2524
  1488.7500    137.6638      0.0000    684.8924      2.1770
  1489.0000    139.2774      0.0000    684.7033      2.1121
  1489.2500    138.2835      0.0000    684.4306      2.0605
  1489.5000    135.7700      0.0000    684.0742      2.0209
  1489.7500    133.2705      0.0000    683.6525      1.9872
  1490.0000    131.4108      0.0000    683.1649      1.9504
  1490.2500    129.6576      0.0000    682.5927      1.9059
  1490.5000    127.1481      0.0000    681.9010      1.8608
  1490.7500    123.6902      0.0000    680.9446      1.8302
  1491.0000    119.8624      0.0000    679.2957      1.8254
  1491.2500    116.3217      0.0000    676.2381      1.8450
  1491.5000    113.3704      0.0000    671.2836      1.8792
  1491.7500    111.0795      0.0000    665.1360      1.9220
  1492.0000    109.4005      0.0000    660.1960      1.9739
  1492.2500    108.2824      0.0000    659.8331      2.0334
  1492.5000    107.9730      0.0000    666.7438      2.0934
  1492.7500    109.0485      0.0000    681.1736      2.1509
  1493.0000    111.7723      0.0000    699.7490      2.2150
  1493.2500    115.5134      0.0000    716.4680      2.2977
  1493.5000    119.1263      0.0000    726.4267      2.3999
  1493.7500    121.9074      0.0000    729.1539      2.5073
  1494.0000    123.8353      0.0000    728.1441      2.5987
  1494.2500    125.0566      0.0000    728.0469      2.6549
  1494.5000    125.7409      0.0000    732.4684      2.6658
  1494.7500    126.4887      0.0000    742.2194      2.6364
  1495.0000    128.2341      0.0000    754.1875      2.5869
  1495.2500    131.5512      0.0000    763.7666      2.5440
  1495.5000    136.5315      0.0000    770.3433      2.5247
  1495.7500    143.2602      0.0000    779.0670      2.5277
  1496.0000    151.4646      0.0000    795.6991      2.5412
  1496.2500    159.4592      0.0000    820.2048      2.5609
  1496.5000    164.5351      0.0000    845.7513      2.5934
  1496.7500    165.1150      0.0000    863.7770      2.6431
  1497.0000    161.9768      0.0000    870.7305      2.7056
  1497.2500    157.2532      0.0000    870.5521      2.7768
  1497.5000    152.9633      0.0000    870.8181      2.8567
  1497.7500    150.3117      0.0000    876.6880      2.9469
  1498.0000    149.3688      0.0000    887.9517      3.0603
  1498.2500    149.0598      0.0000    900.4859      3.2260
  1498.5000    147.9171      0.0000    909.7646      3.4644
  1498.7500    145.3376      0.0000    913.1509      3.7518
  1499.0000    142.2628      0.0000    909.7666      4.0209
  1499.2500    140.5305      2.0000    899.5425      4.1982
  1499.5000    141.4736      0.0000    882.9996      4.2505
  1499.7500    145.0688      0.0000    861.1736      4.2093
  1500.0000    150.1262      1.6632    835.4680      4.1514
  1500.2500    155.0142      0.0000    808.4214      4.1452
  1500.5000    158.4128      0.0000    784.5349      4.2158
  1500.7500    159.8397      0.0000    768.5925      4.3522
