~Version Information
VERS.                      2.0: CWLS Log ASCII Standard - VERSION 2.0
WRAP.                       NO: One line per depth step
~Well Information Block
STRT.FT               480.1000: 
STOP.FT              2029.0000: 
STEP.FT                 0.1000: 
NULL.                -999.2500: 
COMP.          Petrogulf Corporation: COMPANY
WELL.            Montoya 7-12R: WELL
FLD.           Purgatorie River: FIELD
LOC.           1769' FNL & 658' FWL: LOCATION
CNTY.               Las Animas: COUNTY
SRVC.                         : SERVICE COMPANY
DATE.          Mon Nov 22 07:21:54 2004: LOG DATE
UWI.           05 071 08240 00: UNIQUE WELL ID
STAT.                 Colorado: STATE
~Curve Information Block
DEPT.FT            0 000 00 00: Depth
DCAL.in                       : CDL Caliper
RHOB.g/cc                     : CDL Bulk Density
RHOC.g/cc                     : CDL Density Correction
DPOR.pu                       : CDL Density Porosity
GR.GAPI                       : Gamma Ray
NPOR.pu                       : Neutron Porosity
~Parameter Information Block
~A  Depth       DCAL        RHOB        RHOC        DPOR         GR         NPOR    
# ...
  1507.3000      8.0253      2.5372      0.0212      6.8340    120.6511     30.6667
  1507.4000      8.0253      2.5564      0.0645      5.6699    119.2329     30.7431
  1507.5000      8.0061      2.5661      0.0258      5.0820    121.2050     30.8987
  1507.6000      8.0061      2.5646      0.0387      5.1748    124.6719     31.0478
  1507.7000      8.0061      2.5659     -0.0440      5.0981    127.4932     31.5971
  1507.8000      7.9989      2.5757      0.0769      4.5014    130.3398     32.0703
  1507.9000      7.9989      2.5814      0.0485      4.1557    134.4692     31.4087
  1508.0000      7.9795      2.5804      0.0257      4.2198    139.6670     30.2085
  1508.1000      7.9795      2.5834      0.0136      4.0390    139.3252     29.7248
  1508.2000      7.9795      2.5904      0.0202      3.6138    131.0458     29.7589
  1508.3000      7.9558      2.5937      0.0559      3.4130    123.7540     29.7675
  1508.4000      7.9558      2.5914      0.0562      3.5539    121.1041     29.8608
  1508.5000      7.9845      2.5866      0.0494      3.8410    118.0116     30.2195
  1508.6000      7.9845      2.5802      0.0385      4.2278    113.3960     30.6569
  1508.7000      7.9845      2.5694      0.0312      4.8873    110.7013     30.6208
  1508.8000      7.9857      2.5498      0.0755      6.0709    111.4003     30.0169
  1508.9000      7.9857      2.5290     -0.0013      7.3314    116.3399     29.2999
  1509.0000      7.9893      2.5216      0.0273      7.7818    123.5741     28.8447
  1509.1000      7.9893      2.5256      0.0537      7.5392    128.9202     28.7139
  1509.2000      7.9893      2.5318      0.0410      7.1627    131.7866     28.6808
  1509.3000      7.9622      2.5416      0.0143      6.5676    129.8662     28.6986
  1509.4000      7.9622      2.5551      0.0423      5.7508    119.8235     28.6760
  1509.5000      7.9704      2.5604      0.0611      5.4293    107.6235     28.5231
  1509.6000      7.9704      2.5471      0.0701      6.2366    103.1694     28.5596
  1509.7000      7.9704      2.5160      0.0650      8.1208    107.5119     28.8017
  1509.8000      7.9719      2.4828      0.0002     10.1315    113.4995     28.8376
  1509.9000      7.9719      2.4691      0.0289     10.9655    116.0474     28.6372
  1510.0000      7.9830      2.4773      0.0833     10.4668    116.5312     28.2900
  1510.1000      7.9830      2.4953      0.0687      9.3746    118.6827     28.1266
  1510.2000      7.9830      2.5195      0.0973      7.9078    123.3435     28.4953
  1510.3000      7.9789      2.5496      0.1171      6.0865    126.8295     28.9465
  1510.4000      7.9789      2.5849      0.1450      3.9458    124.7110     28.6170
  1510.5000      7.9960      2.6315      0.1994      1.1217    117.1329     27.5863
  1510.6000      7.9960      2.6841      0.2224     -2.0686    109.9603     26.6147
  1510.7000      7.9960      2.7191      0.2462     -4.1898    107.2331     25.9712
  1510.8000      7.9756      2.7242      0.1973     -4.4953    104.9209     25.5538
  1510.9000      7.9756      2.7178      0.1496     -4.1081     99.5736     25.0119
  1511.0000      7.9582      2.7151      0.1564     -3.9456     93.2425     24.3744
  1511.1000      7.9582      2.7044      0.1635     -3.2982     87.8360     24.5381
  1511.2000      7.9582      2.6798      0.1379     -1.8046     82.5294     25.7275
  1511.3000      7.9297      2.6618      0.0206     -0.7122     76.3611     26.6022
  1511.4000      7.9297      2.6705      0.0323     -1.2408     69.2892     26.0849
  1511.5000      7.9054      2.6934      0.0952     -2.6318     62.8776     24.5485
  1511.6000      7.9054      2.6984      0.0867     -2.9341     58.2437     23.0786
  1511.7000      7.9054      2.6728     -0.0000     -1.3836     56.0395     22.6945
  1511.8000      7.8614      2.6368     -0.0064      0.8024     55.0975     23.4044
  1511.9000      7.8614      2.6199      0.0031      1.8262     51.2915     24.0631
  1512.0000      7.9300      2.6375      0.0091      0.7578     46.6279     23.8979
  1512.1000      7.9300      2.6715      0.0743     -1.3059     46.1955     23.2057
  1512.2000      7.9300      2.6793      0.1096     -1.7738     47.6303     22.0990
  1512.3000      7.9937      2.6492      0.0392      0.0473     47.1014     20.7895
  1512.4000      7.9937      2.6149     -0.0280      2.1283     46.5955     20.2358
  1512.5000      7.9228      2.6064      0.0121      2.6440     47.8602     20.4018
  1512.6000      7.9228      2.6188      0.0152      1.8910     50.1021     20.3620
  1512.7000      7.9228      2.6280      0.0731      1.3319     53.8429     20.2796
  1512.8000      7.9390      2.6264     -0.0401      1.4308     57.3972     20.7246
  1512.9000      7.9390      2.6217      0.0449      1.7143     57.9653     21.3108
  1513.0000      7.9216      2.6124      0.0168      2.2765     56.9566     21.6005
  1513.1000      7.9216      2.6007      0.0119      2.9851     55.1349     22.0468
  1513.2000      7.9216      2.5886      0.0393      3.7192     52.8284     23.0858
  1513.3000      7.8942      2.5764     -0.0180      4.4602     52.6287     23.8161
  1513.4000      7.8942      2.5758      0.0195      4.4982     53.0236     23.0397
  1513.5000      7.9208      2.5948     -0.0114      3.3427     51.8005     21.3575
  1513.6000      7.9208      2.6305      0.0354      1.1832     53.3435     19.9041
  1513.7000      7.9208      2.6696      0.0765     -1.1880     58.7760     18.8574
  1513.8000      7.9107      2.7014      0.0575     -3.1127     62.0693     18.4144
  1513.9000      7.9107      2.7177      0.1358     -4.1045     60.5604     19.0772
  1514.0000      7.8966      2.7063      0.0470     -3.4149     58.2085     20.6821
  1514.1000      7.8966      2.6739      0.0330     -1.4501     57.4319     22.2690
  1514.2000      7.8966      2.6449      0.0435      0.3073     57.6368     23.2397
  1514.3000      7.8822      2.6276      0.0584      1.3564     58.5358     23.6191
  1514.4000      7.8822      2.6146      0.0353      2.1463     60.1341     23.8623
  1514.5000      7.8788      2.6001      0.0879      3.0257     63.3947     24.7764
  1514.6000      7.8788      2.5859      0.0144      3.8820     69.1611     26.3315
  1514.7000      7.8788      2.5775      0.0102      4.3911     75.7432     27.6702
  1514.8000      7.8687      2.5733      0.0368      4.6467     82.1386     28.1890
  1514.9000      7.8687      2.5832      0.0072      4.0495     89.3073     28.1440
  1515.0000      7.9084      2.6239      0.0570      1.5794     96.0850     28.4040
  1515.1000      7.9084      2.6697      0.1516     -1.1958    101.0708     29.5764
  1515.2000      7.9084      2.6768      0.1348     -1.6250    105.9128     31.1861
  1515.3000      7.9379      2.6548      0.0224     -0.2883    111.5105     31.9570
  1515.4000      7.9379      2.6388      0.0776      0.6812    116.2599     31.3921
  1515.5000      7.9377      2.6249      0.0799      1.5232    118.1396     30.2908
  1515.6000      7.9377      2.6056      0.0067      2.6923    116.7230     29.3962
  1515.7000      7.9377      2.5959      0.0656      3.2785    114.3846     28.7178
  1515.8000      7.9061      2.5920      0.1054      3.5175    113.8184     28.4330
  1515.9000      7.9061      2.5782      0.0807      4.3508    115.4237     28.5066
  1516.0000      7.9114      2.5582      0.0522      5.5654    118.3689     28.3783
  1516.1000      7.9114      2.5429      0.0329      6.4924    121.7509     28.2810
  1516.2000      7.9114      2.5413      0.0503      6.5862    123.7850     29.0598
  1516.3000      7.9246      2.5553      0.0665      5.7406    124.9352     30.5912
  1516.4000      7.9246      2.5672      0.1075      5.0187    127.0857     32.1881
  1516.5000      7.9112      2.5641      0.0750      5.2068    126.9697     33.1963
  1516.6000      7.9112      2.5514      0.1232      5.9764    123.2899     33.1266
  1516.7000      7.9112      2.5295      0.1285      7.3029    123.2295     32.4452
  1516.8000      7.9484      2.4990      0.0532      9.1542    128.5857     31.9212
