~Version Information
 VERS.                                  2.0 : CWLS LAS VERSION
 WRAP.                                   NO : WRAPING MODE
 SWARE .                 MController 2.5.0J : SOFTWARE VERSION
~Well Information
 WELL.                     Pacheco 33-27 Tr : WELL
 COMP.    PIONEER NATURAL RESOURCES USA INC : COMPANY
 FLD.                      PURGATOIRE RIVER : FIELD
 LOC.                    NW/SE  27 33S  67W : LOCATION
 DATE.                              6/10/05 : DATE(S) LOGGED
 SRVC.       Blanco Geological Sdrvices LLC : SERVICE COMPANY
 STAT.                                   CO : STATE
 CNTY.                           LAS ANIMAS : COUNTY
 CTRY.                                  USA : COUNTRY
 API.                           05-071-08384: API NUMBER
 STRT.FT                             206.00 : START DEPTH
 STOP.FT                            1210.00 : STOP DEPTH
 STEP.FT                               1.00 : DEPTH INCREMENT
 NULL.                                -9999 : NULL VALUE
~Curve information
 DEPTH.FT                                   :
 ROP.MIN/FT                                 :
 GAS.UNITS                                  :
~ASCII Log data
# ...
       806.0         4.02        311.2 
       807.0         0.57        106.3 
       808.0         0.52         90.7 
       809.0         0.63         81.2 
       810.0         0.57         63.3 
       811.0         0.57         53.6 
       812.0         0.37         49.7 
       813.0         0.40         48.2 
       814.0         0.40         47.7 
       815.0         0.42         47.7 
       816.0         0.40         47.6 
       817.0         0.40         47.4 
       818.0         0.40         46.5 
       819.0         0.37         46.2 
       820.0         0.37         47.5 
       821.0         0.37         48.6 
       822.0         0.37         49.2 
       823.0         0.42         49.2 
       824.0         0.43         49.4 
       825.0         0.40         48.7 
       826.0         0.40         48.2 
       827.0         0.40         47.9 
       828.0         0.40         47.3 
       829.0         0.37         47.3 
       830.0         0.30         47.4 
       831.0         0.43         46.9 
       832.0         0.35         46.6 
       833.0         0.40         47.3 
       834.0         0.43         47.4 
       835.0         0.50         40.3 
       836.0         2.28        227.8 
       837.0         0.37         94.1 
       838.0         0.47         88.3 
       839.0         0.50         89.3 
       840.0         0.47         77.8 
       841.0         0.47         65.1 
       842.0         0.47         57.4 
       843.0         0.42         52.2 
       844.0         0.40         48.9 
       845.0         0.33         47.3 
       846.0         0.33         46.0 
       847.0         0.23         45.8 
       848.0         0.23         45.3 
       849.0         0.17         43.0 
       850.0         0.20         41.1 
       851.0         0.43         49.9 
       852.0         0.37         55.4 
       853.0         0.35         56.0 
       854.0         0.43         55.5 
       855.0         0.40         52.6 
       856.0         0.37         51.3 
       857.0         0.43         50.0 
       858.0         0.40         49.1 
       859.0         0.33         49.2 
       860.0         0.43         49.0 
       861.0         0.47         49.1 
       862.0         0.42         49.1 
       863.0         0.30         48.4 
       864.0         0.40         48.6 
       865.0         0.50         48.2 
       866.0         3.45        117.7 
       867.0         0.57         86.2 
       868.0         0.47         87.0 
       869.0         0.50         79.5 
       870.0         0.52         66.3 
       871.0         0.50         58.7 
       872.0         0.57         57.2 
       873.0         0.70         93.7 
       874.0         0.63         90.9 
       875.0         0.65         59.6 
       876.0         0.50         48.5 
       877.0         0.47         47.8 
       878.0         0.57         48.4 
       879.0         0.57         46.1 
       880.0         0.53         44.8 
       881.0         0.57         44.0 
       882.0         0.52         44.4 
       883.0         0.47         44.6 
       884.0         0.50         44.4 
       885.0         0.47         43.9 
       886.0         0.53         44.0 
       887.0         0.60         45.3 
       888.0         0.68         45.3 
       889.0         0.67         45.2 
       890.0         0.57         44.7 
       891.0         0.63         44.4 
       892.0         0.60         44.1 
       893.0         0.40         44.3 
       894.0         0.52         45.8 
       895.0         0.53         43.8 
       896.0         3.32        157.5 
       897.0         0.73         88.2 
       898.0         0.57         88.2 
       899.0         0.53         79.8 
       900.0         0.47         63.5 
       901.0         0.42         53.9 
       902.0         0.33         49.1 
       903.0         0.30         48.0 
       904.0         0.27         49.1 
       905.0         0.33         53.5 
       906.0         0.50         60.6 
       907.0         0.40         63.1 
       908.0         0.33         60.4 
       909.0         0.40         53.8 
       910.0         0.35         47.1 
       911.0         0.30         44.4 
       912.0         0.30         43.8 
       913.0         0.20         44.2 
       914.0         0.27         45.1 
       915.0         0.33         46.1 
       916.0         0.33         47.0 
       917.0         0.37         47.9 
       918.0         0.37         49.1 
       919.0         0.37         49.9 
       920.0         0.30         50.0 
       921.0         0.35         50.2 
       922.0         0.37         50.3 
       923.0         0.40         49.5 
       924.0         0.37         50.0 
       925.0         0.40         46.2 
       926.0         2.78        154.2 
       927.0         0.40         96.2 
       928.0         0.60         95.7 
       929.0         0.60         95.7 
       930.0         0.37         80.8 
       931.0         0.35         71.1 
       932.0         0.37         64.3 
       933.0         0.40         59.1 
       934.0         0.43         53.1 
       935.0         0.43         51.6 
       936.0         0.37         50.9 
       937.0         0.33         50.0 
       938.0         0.37         50.0 
       939.0         0.33         50.0 
       940.0         0.42         50.0 
       941.0         0.33         50.3 
       942.0         0.30         50.1 
       943.0         0.33         49.9 
       944.0         0.33         50.2 
       945.0         0.37         50.4 
       946.0         0.37         49.8 
       947.0         0.37         49.4 
       948.0         0.33         49.3 
       949.0         0.38         48.9 
       950.0         0.33         48.8 
       951.0         0.27         48.6 
       952.0         0.40         48.6 
       953.0         0.33         48.9 
       954.0         0.50         49.3 
       955.0         0.50         47.0 
       956.0         2.15        143.1 
       957.0         0.53        103.1 
       958.0         0.50         93.9 
       959.0         0.53         92.9 
       960.0         0.42         81.7 
       961.0         0.37         69.3 
       962.0         0.37         63.1 
       963.0         0.37         58.1 
       964.0         0.40         54.6 
       965.0         0.43         52.4 
       966.0         0.47         50.4 
       967.0         0.30         49.1 
       968.0         0.30         49.5 
       969.0         0.42         50.1 
       970.0         0.43         49.7 
       971.0         0.53         58.8 
       972.0         0.53         75.1 
       973.0         0.33         74.2 
       974.0         0.40         63.0 
       975.0         0.43         54.7 
       976.0         0.37         52.9 
       977.0         0.38         51.2 
       978.0         0.33         48.6 
       979.0         0.37         46.6 
       980.0         0.37         47.5 
       981.0         0.23         48.1 
       982.0         0.37         47.8 
       983.0         0.33         47.1 
       984.0         0.23         47.3 
       985.0         0.33         47.9 
       986.0         5.17         49.6 
       987.0         0.77        175.7 
       988.0         0.67        149.0 
       989.0         0.63        107.9 
       990.0         0.48        111.9 
       991.0         0.43        105.8 
       992.0         0.40         86.6 
       993.0         0.37         71.0 
       994.0         0.33         61.7 
       995.0         0.33         56.4 
       996.0         0.33         52.8 
       997.0         0.40         49.6 
       998.0         0.35         48.1 
       999.0         0.33         47.6 
      1000.0         0.33         48.1 
      1001.0         0.33         48.1 
      1002.0         0.20         48.1 
      1003.0         0.27         48.2 
      1004.0         0.30         49.6 
      1005.0         0.27         49.9 
