~Version Information
VERS.                      2.0: CWLS Log ASCII Standard - VERSION 2.0
WRAP.                       NO: One line per depth step
~Well Information Block
STRT.FT                -8.2500: 
STOP.FT              1795.0000: 
STEP.FT                 0.2500: 
NULL.                -999.2500: 
COMP.          Petrogulf Corporation: COMPANY
WELL.           Montoya 7-21 R: WELL
FLD.           Purgatoire River: FIELD
LOC.           445' FNL & 1942' FWL----: LOCATION
PROV.                 Colorado: PROVINCE
CNTY.               Las Animas: COUNTRY
SRVC.                         : SERVICE COMPANY
DATE.          Fri Sep 30 15:33:54 2005: LOG DATE
UWI.                          : UNIQUE WELL ID
~Curve Information Block
DEPT.FT            0 000 00 00: Depth
GR.GAPI                       : Gamma Ray
CCL.                          : Casing Collar Locator
TT3.usec                      : CBL 3' Travel Time
AMP3.mV                       : CBL 3' Amplitude
~Parameter Information Block
~A  Depth        GR         CCL         TT3         AMP3    
# ...
  1767.2500     42.9717      0.0000    384.1020     15.5053
  1767.5000     46.4400      0.0000    365.2931     15.1472
  1767.7500     52.4701      0.0000    346.4846     14.6284
  1768.0000     62.0767      0.0000    334.9846     13.9982
  1768.2500     75.5386      0.0000    331.8800     13.3452
  1768.5000     91.4808      0.0000    334.9913     12.7662
  1768.7500    107.0077      0.0000    341.5323     12.3418
  1769.0000    119.2788      0.0000    348.5235     12.1292
  1769.2500    127.3839      0.0000    352.9030     12.1542
  1769.5000    132.5138      0.0000    352.5852     12.3825
  1769.7500    135.9760      0.0000    347.6153     12.7001
  1770.0000    137.3559      0.0000    340.2786     12.9542
  1770.2500    135.1801      0.0000    333.8677     13.0440
  1770.5000    129.1333      0.0000    331.2837     12.9786
  1770.7500    120.7776      0.0000    334.8940     12.8485
  1771.0000    111.9795      0.0000    348.0407     12.7454
  1771.2500    103.4970      0.0000    376.3111     12.7007
  1771.5000     95.7393      0.0000    425.1543     12.6790
  1771.7500     90.2872      0.0000    492.9106     12.6197
  1772.0000     89.6592      0.0000    566.0295     12.4900
  1772.2500     95.2799      0.0000    625.2810     12.3103
  1772.5000    105.8902      0.0000    659.1936     12.1366
  1772.7500    117.9956      0.0000    668.7642     12.0276
  1773.0000    127.8465      0.0000    658.3365     12.0289
  1773.2500    133.3340      0.0000    628.2783     12.1658
  1773.5000    134.5409      0.0000    582.2893     12.4235
  1773.7500    132.8403      0.0000    537.7958     12.7279
  1774.0000    129.5600      0.0000    520.2368     12.9693
  1774.2500    125.3958      0.0000    543.4127     13.0755
  1774.5000    120.6886      0.0000    597.1544     13.0749
  1774.7500    115.9229      0.0000    655.1630     13.0845
  1775.0000    111.9569      0.0000    692.8828     13.2387
  1775.2500    109.8071      0.0000    697.4096     13.6271
  1775.5000    110.0008      0.0000    666.0091     14.2897
  1775.7500    111.9602      0.0000    603.4168     15.2433
  1776.0000    114.1524      0.0000    522.7556     16.4887
  1776.2500    115.1255      0.0000    443.1476     17.9941
  1776.5000    114.6058      0.0000    380.4380     19.6995
  1776.7500    113.5923      0.0000    339.3401     21.5745
  1777.0000    113.2998      0.0000    315.0131     23.6773
  1777.2500    114.0329      0.0000    300.3987     26.1240
  1777.5000    115.1737      0.0000    291.0850     28.9558
  1777.7500    116.1043      0.0000    285.2746     32.0305
  1778.0000    116.7837      0.0000    282.0344     35.0649
  1778.2500    117.3454      0.0000    280.4649     37.7911
  1778.5000    117.3712      0.0000    279.7862     40.0717
  1778.7500    115.8835      0.0000    279.5181     41.8795
  1779.0000    112.2894      0.0000    279.4257     43.1976
  1779.2500    107.2590      0.0000    279.3928     43.9694
  1779.5000    102.2921      0.0000    279.3574     44.1510
  1779.7500     98.3283      0.0000    279.2963     43.7912
  1780.0000     95.0098      0.0000    279.2190     43.0430
  1780.2500     91.3778      0.0000    279.1469     42.1079
  1780.5000     87.1038      0.0000    279.0940     41.1741
  1780.7500     82.9739      0.0000    279.0421     40.3760
  1781.0000     80.3253      0.0000    278.8970     39.7697
  1781.2500     80.0469      0.0000    278.2559     39.3085
  1781.5000     82.1149      0.0000    275.7845     38.7912
  1781.7500     86.0408      0.0000    268.2262     37.7594
  1782.0000     91.4968      0.0000    250.1367     35.4726
  1782.2500     98.3190      0.0000    216.3702     31.2319
  1782.5000    106.2079      0.0000    167.2589     25.0459
  1782.7500    114.7914      0.0000    111.6200     18.0167
  1783.0000    123.6816      0.0000     62.5255     11.8005
  1783.2500    131.9799      0.0000     28.7867      7.5215
  1783.5000    137.9837      0.0000     10.7289      5.2281
  1783.7500    140.1538      0.0000      3.2017      4.2712
  1784.0000    138.5416      0.0000      0.7581      3.9602
  1784.2500    134.9211      0.0000      0.1403      3.8815
  1784.5000    131.5815      0.0000      0.0187      3.8660
  1784.7500    130.2468      0.0000   -999.2500   -999.2500
  1785.0000    131.7518      0.0000   -999.2500   -999.2500
  1785.2500    135.9412      0.0000   -999.2500   -999.2500
  1785.5000    141.7369      0.0000   -999.2500   -999.2500
  1785.7500    147.6089      0.0000   -999.2500   -999.2500
  1786.0000    152.1082      0.0000   -999.2500   -999.2500
  1786.2500    154.2763      0.0000   -999.2500   -999.2500
  1786.5000    154.0121      0.0000   -999.2500   -999.2500
  1786.7500    151.9642      0.0000   -999.2500   -999.2500
  1787.0000    148.7832      0.0000   -999.2500   -999.2500
  1787.2500    144.6956      0.0000   -999.2500   -999.2500
  1787.5000    140.0586      0.0000   -999.2500   -999.2500
  1787.7500    136.0247      0.0000   -999.2500   -999.2500
  1788.0000    134.1389      0.0000   -999.2500   -999.2500
  1788.2500    135.1233      0.0000   -999.2500   -999.2500
  1788.5000    138.1937      0.0000   -999.2500   -999.2500
  1788.7500    141.8025      0.0000   -999.2500   -999.2500
  1789.0000    144.9491      0.0000   -999.2500   -999.2500
  1789.2500    147.2092      0.0000   -999.2500   -999.2500
  1789.5000    147.4681      0.0000   -999.2500   -999.2500
  1789.7500    143.5288      0.0000   -999.2500   -999.2500
  1790.0000    133.7412      0.0000   -999.2500   -999.2500
  1790.2500    118.8800   -999.2500   -999.2500   -999.2500
  1790.5000    101.9922   -999.2500   -999.2500   -999.2500
  1790.7500     86.4385   -999.2500   -999.2500   -999.2500
  1791.0000     74.1544   -999.2500   -999.2500   -999.2500
  1791.2500     65.4132   -999.2500   -999.2500   -999.2500
  1791.5000     59.6384   -999.2500   -999.2500   -999.2500
  1791.7500     56.0138   -999.2500   -999.2500   -999.2500
  1792.0000     53.3083   -999.2500   -999.2500   -999.2500
  1792.2500     49.6407   -999.2500   -999.2500   -999.2500
  1792.5000     43.1679   -999.2500   -999.2500   -999.2500
  1792.7500     33.5010   -999.2500   -999.2500   -999.2500
  1793.0000     22.3657   -999.2500   -999.2500   -999.2500
  1793.2500     12.4992   -999.2500   -999.2500   -999.2500
  1793.5000      5.7335   -999.2500   -999.2500   -999.2500
  1793.7500      2.1284   -999.2500   -999.2500   -999.2500
  1794.0000      0.6329   -999.2500   -999.2500   -999.2500
  1794.2500      0.1494   -999.2500   -999.2500   -999.2500
  1794.5000      0.0275   -999.2500   -999.2500   -999.2500
  1794.7500      0.0036   -999.2500   -999.2500   -999.2500
  1795.0000      0.0000   -999.2500   -999.2500   -999.2500
