~Version Information
VERS.                      2.0: CWLS Log ASCII Standard - VERSION 2.0
WRAP.                       NO: One line per depth step
~Well Information Block
STRT.FT                -2.5000: 
STOP.FT              2329.5000: 
STEP.FT                 0.2500: 
NULL.                -999.2500: 
COMP.          Pioneer Natural Resources: COMPANY
WELL.              Whinny 42-2: WELL
FLD.           Purgatorie River: FIELD
LOC.           1836' FNL & 466' FEL--: LOCATION
PROV.                       CO: PROVINCE
CNTY.               Las Animas: COUNTRY
SRVC.          Patterson Wireline: SERVICE COMPANY
DATE.          Mon Aug 29 13:18:04 2005: LOG DATE
UWI.           05 071 08406 00: UNIQUE WELL ID
~Curve Information Block
DEPT.FT            0 000 00 00: Depth
CCL.                          : Casing Collar Locator
TT3.usec                      : CBL 3' Travel Time
AMP3.mV                       : CBL 3' Amplitude
GR.GAPI                       : Gamma Ray
~Parameter Information Block
~A  Depth       CCL         TT3         AMP3         GR     
# ...
  1237.0000      0.0000    740.9426      5.5718     81.1790
  1237.2500      0.0000    746.4968      5.6188     83.4818
  1237.5000      0.0000    752.7903      5.7014     85.2535
  1237.7500      0.0000    755.8982      5.7975     88.1649
  1238.0000      0.0000    754.4233      5.8847     92.7889
  1238.2500      0.0000    749.7113      5.9566     98.3680
  1238.5000      0.0000    744.1641      6.0206    103.7159
  1238.7500      0.0000    739.7354      6.0886    108.0090
  1239.0000      0.0000    737.4421      6.1707    110.8891
  1239.2500      0.0000    737.1615      6.2714    112.2090
  1239.5000      0.0000    737.5557      6.3883    111.8342
  1239.7500      0.0000    736.6812      6.5161    109.6711
  1240.0000      0.0000    733.2277      6.6488    105.9195
  1240.2500      0.0000    727.6227      6.7762    101.2942
  1240.5000      0.0000    722.0613      6.8787     96.8585
  1240.7500      0.0000    718.8273      6.9347     93.5253
  1241.0000      0.0000    718.1129      6.9358     91.7210
  1241.2500      0.0000    717.8395      6.8931     91.4803
  1241.5000      0.0000    715.8407      6.8278     92.5825
  1241.7500      0.0000    711.7017      6.7564     94.5221
  1242.0000      0.0000    706.3311      6.6831     96.7577
  1242.2500      0.0000    700.4278      6.6020     99.2734
  1242.5000      0.0000    693.9368      6.5066    102.6102
  1242.7500      0.0000    686.9004      6.4018    107.2208
  1243.0000      0.0000    680.2556      6.3107    113.0507
  1243.2500      0.0000    675.3654      6.2658    119.5428
  1243.5000      0.0000    672.9921      6.2880    125.4613
  1243.7500      0.0000    672.8823      6.3705    128.8562
  1244.0000      0.0000    673.9581      6.4850    128.1764
  1244.2500      0.0000    674.7355      6.6045    123.9467
  1244.5000      0.0000    674.1285      6.7176    118.8367
  1244.7500      0.0000    672.2809      6.8233    115.4804
  1245.0000      0.0000    670.3438      6.9174    114.3877
  1245.2500      0.0000    669.2365      6.9846    114.2946
  1245.5000      0.0000    668.9203      7.0073    114.1542
  1245.7500      0.0000    668.8460      6.9842    114.0783
  1246.0000      0.0000    668.6586      6.9393    114.3527
  1246.2500      0.0000    668.3527      6.9045    114.3630
  1246.5000      0.0000    668.0586      6.8918    113.1452
  1246.7500      0.0000    667.9109      6.8867    110.7341
  1247.0000      0.0000    668.0918      6.8662    108.2596
  1247.2500      0.0000    668.9136      6.8197    106.6973
  1247.5000      0.0000    670.7253      6.7566    106.1887
  1247.7500      0.0000    673.5115      6.7003    106.5983
  1248.0000      0.0000    676.4533      6.6746    107.9704
  1248.2500      0.0000    678.1359      6.6928    110.2991
  1248.5000      0.0000    677.4728      6.7577    113.2720
  1248.7500      0.0000    674.5582      6.8645    116.1460
  1249.0000      0.0000    671.1690      6.9848    117.6348
  1249.2500      0.0000    671.0180      7.0416    116.4044
  1249.5000      0.0000    678.1972      6.9322    112.2393
  1249.7500      0.0000    692.8814      6.6164    106.5998
  1250.0000      0.0000    708.6143      6.1804    101.7883
  1250.2500      0.0000    716.2933      5.7819     99.5057
  1250.5000      0.0000    711.8486      5.5298     99.9391
  1250.7500     -2.0000    699.4485      5.4307    101.9513
  1251.0000      2.0000    687.5809      5.4346    104.2777
  1251.2500      0.0000    682.5221      5.5003    106.7409
  1251.5000      0.0000    684.3884      5.6257    110.2462
  1251.7500      0.0000    687.9587      5.8375    115.5533
  1252.0000      0.0000    686.7717      6.1428    122.2218
  1252.2500      0.0000    677.1405      6.4723    128.8473
  1252.5000      0.0000    660.0590      6.6952    134.1181
  1252.7500      0.0000    641.0223      6.7232    137.5527
  1253.0000      0.0000    627.5275      6.5909    139.3065
  1253.2500      0.0000    624.6122      6.4107    139.5655
  1253.5000      0.0000    631.5898      6.2713    138.3784
  1253.7500      0.0000    643.1458      6.1945    136.0036
  1254.0000      0.0000    653.4753      6.1683    133.1198
  1254.2500      0.0000    659.4555      6.1843    130.5166
  1254.5000      0.0000    661.1629      6.2412    128.6416
  1254.7500      0.0000    660.9033      6.3279    127.6767
  1255.0000      0.0000    661.8389      6.4198    128.0042
  1255.2500      0.0000    666.1256      6.4938    130.1143
  1255.5000      0.0000    673.1169      6.5454    133.8824
  1255.7500      0.0000    679.5301      6.5876    138.2198
  1256.0000      0.0000    682.1038      6.6340    141.5592
  1256.2500      0.0000    680.2990      6.6866    142.6454
  1256.5000      0.0000    676.2561      6.7375    141.1272
  1256.7500      0.0000    672.5566      6.7766    137.7264
  1257.0000      0.0000    670.5566      6.7956    133.7852
  1257.2500      0.0000    670.5878      6.7906    130.6176
  1257.5000      0.0000    672.8976      6.7614    129.1504
  1257.7500      0.0000    677.8436      6.7114    129.5402
  1258.0000      0.0000    685.1425      6.6496    130.5568
  1258.2500      0.0000    693.2209      6.5955    129.8270
  1258.5000      0.0000    699.6667      6.5719    125.7138
  1258.7500      0.0000    702.5015      6.5908    119.2658
  1259.0000      0.0000    701.2534      6.6446    113.8913
  1259.2500      0.0000    697.3375      6.7107    112.7200
  1259.5000      0.0000    693.6887      6.7646    116.2585
  1259.7500      0.0000    693.6750      6.7923    122.4644
  1260.0000      0.0000    699.7024      6.7958    128.5769
  1260.2500      0.0000    711.9205      6.7873    132.6055
  1260.5000      0.0000    726.9387      6.7774    133.7704
  1260.7500      0.0000    737.6589      6.7693    132.5371
  1261.0000      0.0000    736.3691      6.7622    130.3794
  1261.2500      0.0000    720.1301      6.7550    128.9559
  1261.5000      0.0000    693.5348      6.7448    129.1874
  1261.7500      0.0000    665.9056      6.7239    130.9998
  1262.0000      0.0000    646.2252      6.6850    133.4455
  1262.2500      0.0000    640.1479      6.6312    134.7614
  1262.5000      0.0000    648.9536      6.5777    132.8271
  1262.7500      0.0000    668.7999      6.5396    126.4474
  1263.0000      0.0000    691.8956      6.5212    116.5354
  1263.2500      0.0000    710.6545      6.5199    105.9417
  1263.5000      0.0000    721.3024      6.5366     98.0818
  1263.7500      0.0000    723.5901      6.5741     95.4213
  1264.0000      0.0000    718.5852      6.6236     98.4415
  1264.2500      0.0000    708.1729      6.6580    105.3056
  1264.5000      0.0000    695.8250      6.6447    112.6171
  1264.7500      0.0000    685.7811      6.5711    117.3927
  1265.0000      0.0000    680.5686      6.4584    119.2916
  1265.2500      0.0000    679.7266      6.3456    121.1442
  1265.5000      0.0000    681.1079      6.2595    126.6715
  1265.7500      0.0000    683.0403      6.2016    137.0039
  1266.0000      0.0000    685.1071      6.1615    149.2747
  1266.2500      0.0000    687.3708      6.1329    158.6722
  1266.5000      0.0000    689.7103      6.1134    161.9569
  1266.7500      0.0000    691.9224      6.0969    159.3866
  1267.0000      0.0000    693.9160      6.0737    153.5608
  1267.2500      0.0000    695.6577      6.0389    146.6911
  1267.5000      0.0000    697.3072      5.9986    139.5488
  1267.7500      0.0000    699.3578      5.9664    132.9736
  1268.0000      0.0000    702.2087      5.9531    128.8292
  1268.2500      0.0000    705.6595      5.9570    128.3242
  1268.5000      0.0000    709.3087      5.9655    130.1588
  1268.7500      0.0000    713.4064      5.9642    131.4141
  1269.0000      0.0000    718.8465      5.9465    130.2009
  1269.2500      0.0000    725.9710      5.9157    127.1409
  1269.5000      0.0000    733.1432      5.8816    124.4813
  1269.7500      0.0000    736.6110      5.8564    123.8858
  1270.0000      0.0000    732.5731      5.8511    124.9705
  1270.2500      0.0000    720.3692      5.8720    125.9470
