~Version Information
VERS.                      2.0: CWLS Log ASCII Standard - VERSION 2.0
WRAP.                       NO: One line per depth step
~Well Information Block
STRT.FT                -8.2500: 
STOP.FT              2239.2500: 
STEP.FT                 0.2500: 
NULL.                -999.2500: 
COMP.          Pioneer Natural Resources: COMPANY
WELL.            Moo Moo 31-36: WELL
FLD.           Purgatorie River: FIELD
LOC.           612' FNL & 2326' FEL--: LOCATION
PROV.                       CO: PROVINCE
CNTY.               Las Animas: COUNTRY
SRVC.          Patterson Wireline: SERVICE COMPANY
DATE.          Thu Jun 23 10:04:07 2005: LOG DATE
UWI.           05 071 08395 00: UNIQUE WELL ID
~Curve Information Block
DEPT.FT            0 000 00 00: Depth
CCL.                          : Casing Collar Locator
TT3.usec                      : CBL 3' Travel Time
AMP3.mV                       : CBL 3' Amplitude
GR.GAPI                       : Gamma Ray
~Parameter Information Block
~A  Depth       CCL         TT3         AMP3         GR     
# ...
   293.2500      0.0000    809.2519      5.6312     74.5197
   293.5000      0.0000    809.4775      5.5678     72.2150
   293.7500      0.0000    809.6701      5.4842     70.2809
   294.0000      0.0000    809.8106      5.3841     69.1371
   294.2500      0.0000    809.9200      5.2960     68.1511
   294.5000      0.0000    810.1247      5.2508     66.2765
   294.7500      0.0000    810.7287      5.2468     63.2161
   295.0000      0.0000    812.2341      5.2539     59.9151
   295.2500      0.0000    815.1489      5.2520     57.9889
   295.5000      0.0000    819.4785      5.2550     58.5155
   295.7500      0.0000    824.3766      5.2884     61.0799
   296.0000      0.0000    828.7114      5.3522     63.9700
   296.2500      0.0000    832.2586      5.4185     65.4511
   296.5000      0.0000    836.0120      5.4593     64.8772
   296.7500      0.0000    841.1035      5.4629     62.8180
   297.0000      0.0000    847.6335      5.4288     60.5944
   297.2500      0.0000    854.4312      5.3598     59.6535
   297.5000      0.0000    859.5283      5.2636     60.8009
   297.7500      0.0000    861.0427      5.1573     63.6417
   298.0000      0.0000    858.3970      5.0691     66.7966
   298.2500      0.0000    853.2990      5.0295     68.8228
   298.5000      0.0000    849.3109      5.0533     69.0656
   298.7500      0.0000    849.5086      5.1273     67.8733
   299.0000      0.0000    854.0648      5.2156     66.2056
   299.2500      0.0000    860.3892      5.2786     64.8578
   299.5000      0.0000    865.6268      5.2920     63.7357
   299.7500      0.0000    868.6584      5.2571     61.9961
   300.0000      0.0000    869.9909      5.1983     59.1122
   300.2500      0.0000    870.5870      5.1449     55.6235
   300.5000      0.0000    871.0721      5.1130     52.6921
   300.7500      0.0000    871.6207      5.1011     51.2282
   301.0000      0.0000    872.1545      5.0976     51.5418
   301.2500      0.0000    872.5580      5.0891     53.3073
   301.5000      0.0000    872.7950      5.0665     55.5405
   301.7500      0.0000    872.9177      5.0303     57.0418
   302.0000      0.0000    873.0144      4.9921     57.3064
   302.2500      0.0000    873.1376      4.9665     56.9468
   302.5000      0.0000    873.2626      4.9622     57.0910
   302.7500      0.0000    873.3100      4.9771     58.5254
   303.0000      0.0000    873.2190      4.9971     61.3581
   303.2500      0.0000    873.0016      5.0007     64.9124
   303.5000      0.0000    872.7255      4.9683     67.6301
   303.7500      0.0000    872.4554      4.8946     67.7821
   304.0000      0.0000    872.2186      4.7970     65.0108
   304.2500      0.0000    872.0229      4.7117     60.9902
   304.5000      0.0000    871.8972      4.6764     58.1022
   304.7500      0.0000    871.9028      4.7094     57.5414
   305.0000      0.0000    872.0857      4.7990     58.8467
   305.2500      0.0000    872.4061      4.9126     60.9170
   305.5000      0.0000    872.7109      5.0155     63.1920
   305.7500      0.0000    872.6431      5.0844     66.0247
   306.0000      0.0000    871.3414      5.1131     70.0915
   306.2500      0.0000    866.9660      5.1188     75.4071
   306.5000      0.0000    856.7153      5.1357     80.9601
   306.7500      0.0000    838.3602      5.1843     85.5131
   307.0000      0.0000    812.9471      5.2484     88.8421
   307.2500      0.0000    785.7936      5.2966     92.0911
   307.5000      0.0000    763.5070      5.3236     96.6640
   307.7500      0.0000    749.7378      5.3529    102.6380
   308.0000      0.0000    744.5883      5.4020    108.4474
   308.2500      0.0000    747.6497      5.4564    112.3019
   308.5000      0.0000    759.7346      5.4832    113.6392
   308.7500      0.0000    780.7441      5.4645    113.0202
   309.0000      0.0000    806.9252      5.4138    111.2761
   309.2500      0.0000    831.7801      5.3650    109.4333
   309.5000      0.0000    850.0575      5.3442    108.8524
   309.7500      0.0000    860.5362      5.3568    110.4131
   310.0000      0.0000    865.3030      5.4002    113.5316
   310.2500      0.0000    867.0963      5.4791    116.4434
   310.5000      0.0000    867.3493      5.6005    117.5853
   310.7500      0.0000    866.0288      5.7526    116.7582
   311.0000      0.0000    862.8579      5.8984    115.0907
   311.2500      0.0000    858.6884      5.9931    113.8325
   311.5000      0.0000    855.6152      6.0078    113.3463
   311.7500      0.0000    855.4374      5.9435    113.4680
   312.0000      0.0000    857.9242      5.8295    114.1875
   312.2500      0.0000    860.7954      5.7100    115.3251
   312.5000      0.0000    861.3924      5.6281    116.2638
   312.7500      0.0000    858.3322      5.6158    116.8537
   313.0000      0.0000    852.0815      5.6884    118.0705
   313.2500      0.0000    844.5311      5.8334    121.1572
   313.5000      0.0000    837.8790      6.0019    126.3966
   313.7500      0.0000    833.4240      6.1285    132.8693
   314.0000      0.0000    831.1993      6.1798    138.9899
   314.2500      0.0000    830.5948      6.1790    143.1821
   314.5000      0.0000    831.1457      6.1736    144.4130
   314.7500      0.0000    832.7281      6.1876    142.4693
   315.0000      0.0000    835.1074      6.2134    138.1260
   315.2500      0.0000    837.4254      6.2370    133.3077
   315.5000      0.0000    838.4380      6.2555    130.5357
   315.7500      0.0000    837.5269      6.2725    131.1538
   316.0000      0.0000    835.3447      6.2858    133.9611
   316.2500      0.0000    833.3008      6.2848    136.2397
   316.5000      0.0000    832.6663      6.2622    136.2194
   316.7500      0.0000    834.2490      6.2255    134.1848
   317.0000      0.0000    838.3097      6.1950    131.3506
   317.2500      0.0000    844.1075      6.1907    128.2216
   317.5000      0.0000    849.6486      6.2208    124.3774
   317.7500      0.0000    852.7062      6.2827    119.8395
   318.0000      0.0000    852.6385      6.3685    116.1612
   318.2500      0.0000    850.9366      6.4627    115.4885
   318.5000      0.0000    849.5574      6.5372    118.5487
   318.7500      0.0000    849.0308      6.5578    124.0486
   319.0000      0.0000    848.9241      6.5021    129.9645
   319.2500      0.0000    850.0167      6.3734    134.8607
   319.5000      0.0000    855.3913      6.1865    138.0356
   319.7500      0.0000    868.5912      5.9465    139.2301
   320.0000      0.0000    889.3894      5.6585    138.5330
   320.2500      0.0000    910.6611      5.3653    136.1620
   320.5000      0.0000    922.1158      5.1426    132.1993
   320.7500      0.0000    920.3593      5.0391    126.7927
   321.0000      0.0000    913.6389      5.0370    120.7419
   321.2500      0.0000    912.8412      5.0837    115.7022
   321.5000     -2.0000    919.1729      5.1427    113.3771
   321.7500      0.0000    924.2408      5.2165    114.2058
   322.0000      0.0000    920.1857      5.3382    116.8272
   322.2500      0.0000    905.3684      5.5379    118.9847
   322.5000      0.0000    882.8463      5.7980    119.0804
   322.7500      0.0000    859.3439      6.0506    117.0139
   323.0000      0.0000    843.9528      6.2418    113.7683
   323.2500      0.0000    841.9993      6.3839    110.4455
   323.5000      0.0000    850.4025      6.5193    107.7703
   323.7500      0.0000    861.4093      6.6541    106.3927
   324.0000      0.0000    869.5079      6.7562    107.2719
   324.2500      0.0000    873.6253      6.8020    111.2166
   324.5000      0.0000    875.0417      6.8009    117.8691
   324.7500      0.0000    875.1935      6.7793    125.5279
   325.0000      0.0000    874.9536      6.7537    132.3339
   325.2500      0.0000    874.6757      6.7233    137.5039
   325.5000      0.0000    874.4412      6.6844    141.1889
   325.7500      0.0000    874.1174      6.6451    143.4840
   326.0000      0.0000    873.2340      6.6187    144.1351
   326.2500      0.0000    870.8339      6.6088    143.1533
   326.5000      0.0000    865.8428      6.6078    141.1457
