~Version Information
VERS.                      2.0: CWLS Log ASCII Standard - VERSION 2.0
WRAP.                       NO: One line per depth step
~Well Information Block
STRT.FT               557.0000: 
STOP.FT              2136.0000: 
STEP.FT                 0.2500: 
NULL.                -999.2500: 
COMP.          Petrogulf Corporation: COMPANY
WELL.           Montoya 12-41R: WELL
FLD.           Purgatorie River: FIELD
LOC.           1086' FNL & 610' FEL: LOCATION
CNTY.               Las Animas: COUNTY
SRVC.                         : SERVICE COMPANY
DATE.          Thu Nov 18 06:03:03 2004: LOG DATE
UWI.           05 071 08241 00: UNIQUE WELL ID
STAT.                 Colorado: STATE
~Curve Information Block
DEPT.FT            0 000 00 00: Depth
SP.mV                         : DIL Spontaneous Potential
RILD.Ohm-m                    : DIL Deep Resistivity
RILM.Ohm-m                    : DIL Medium Resistivity
RLL3.Ohm-m                    : DIL Shallow Resistivity
GR.GAPI                       : Gamma Ray
~Parameter Information Block
~A  Depth        SP         RILD        RILM        RLL3         GR     
# ...
  1593.0000   -136.5163     33.5162     44.8103     56.3209     59.2599
  1593.2500   -136.8490     34.1270     45.9166     55.6809     59.6077
  1593.5000   -137.2958     34.7208     46.9142     55.1564     59.9731
  1593.7500   -137.7822     35.2995     47.7154     54.7968     60.2786
  1594.0000   -138.2071     35.8703     48.2521     54.6177     60.9904
  1594.2500   -138.4542     36.4413     48.4920     54.6006     61.4855
  1594.5000   -138.4260     37.0160     48.4508     54.7033     61.7088
  1594.7500   -138.0689     37.5881     48.1845     54.8814     61.3201
  1595.0000   -137.4018     38.1423     47.7821     55.1165     60.3226
  1595.2500   -136.5156     38.6572     47.3492     55.4466     60.0105
  1595.5000   -135.5542     39.1111     46.9951     55.9944     61.1735
  1595.7500   -134.6729     39.4920     46.8180     56.9801     63.2613
  1596.0000   -134.0011     39.8049     46.8966     58.7052     67.8088
  1596.2500   -133.5955     40.0725     47.2844     61.4957     71.1025
  1596.5000   -133.4218     40.3331     48.0038     65.6075     75.0235
  1596.7500   -133.3582     40.6334     49.0399     71.1097     76.1811
  1597.0000   -133.2338     41.0191     50.3364     77.7854     75.0169
  1597.2500   -132.8750     41.5250     51.7917     85.0923     72.4623
  1597.5000   -132.1638     42.1696     53.2661     92.2152     67.0168
  1597.7500   -131.0793     42.9505     54.5955     98.2165     63.0405
  1598.0000   -129.7051     43.8390     55.6240    102.2498     57.4923
  1598.2500   -128.2085     44.7822     56.2412    103.7770     54.4179
  1598.5000   -126.7905     45.7019     56.4132    102.7163     51.2937
  1598.7500   -125.6363     46.4996     56.1860     99.4695     50.5260
  1599.0000   -124.8754     47.0726     55.6703     94.8136     51.4903
  1599.2500   -124.5703     47.3293     55.0023     89.6891     53.1820
  1599.5000   -124.7229     47.2101     54.3113     84.9517     56.1803
  1599.7500   -125.2973     46.7031     53.6914     81.1647     57.9326
  1600.0000   -126.2338     45.8474     53.1928     78.4923     59.7787
  1600.2500   -127.4562     44.7212     52.8198     76.7191     60.5017
  1600.5000   -128.8686     43.4232     52.5394     75.3789     61.1774
  1600.7500   -130.3530     42.0550     52.2960     73.9401     61.8028
  1601.0000   -131.7757     40.7024     52.0236     71.9852     63.9580
  1601.2500   -133.0049     39.4306     51.6622     69.3249     66.4757
  1601.5000   -133.9414     38.2810     51.1695     66.0198     71.3928
  1601.7500   -134.5389     37.2742     50.5277     62.3213     74.8343
  1602.0000   -134.8103     36.4103     49.7393     58.5740     79.4876
  1602.2500   -134.8149     35.6738     48.8216     55.1289     82.1996
  1602.5000   -134.6329     35.0351     47.7967     52.2949     86.1696
  1602.7500   -134.3256     34.4539     46.6781     50.3253     89.1515
  1603.0000   -133.9191     33.8845     45.4681     49.4114     94.4509
  1603.2500   -133.3974     33.2815     44.1558     49.6537     98.2958
  1603.5000   -132.7257     32.6072     42.7229     51.0014    103.4787
  1603.7500   -131.8823     31.8380     41.1504     53.1885    105.8098
  1604.0000   -130.8857     30.9666     39.4338     55.7101    106.6361
  1604.2500   -129.8099     30.0024     37.5858     57.8786    105.1941
  1604.5000   -128.7774     28.9675     35.6421     58.9685    100.7425
  1604.7500   -127.9266     27.8904     33.6534     58.4114     97.5013
  1605.0000   -127.3717     26.8009     31.6774     55.9710     95.4616
  1605.2500   -127.1664     25.7276     29.7675     51.8236     97.6323
  1605.5000   -127.2855     24.6954     27.9664     46.5069    106.5385
  1605.7500   -127.6254     23.7249     26.3034     40.7546    114.6094
  1606.0000   -128.0317     22.8318     24.7959     35.2855    125.5605
  1606.2500   -128.3344     22.0271     23.4514     30.6296    130.2005
  1606.5000   -128.3914     21.3173     22.2708     27.0448    132.9235
  1606.7500   -128.1198     20.7048     21.2502     24.5356    133.2439
  1607.0000   -127.5135     20.1882     20.3826     22.9351    133.9955
  1607.2500   -126.6402     19.7639     19.6585     22.0035    135.1877
  1607.5000   -125.6242     19.4268     19.0665     21.5024    137.2029
  1607.7500   -124.6143     19.1721     18.5948     21.2332    138.0211
  1608.0000   -123.7453     18.9954     18.2317     21.0470    137.9491
  1608.2500   -123.1191     18.8934     17.9672     20.8437    137.0641
  1608.5000   -122.7835     18.8634     17.7940     20.5708    135.0215
  1608.7500   -122.7397     18.9030     17.7072     20.2262    133.8930
  1609.0000   -122.9575     19.0089     17.7053     19.8595    133.9969
  1609.2500   -123.3964     19.1770     17.7884     19.5631    135.6131
  1609.5000   -124.0294     19.4019     17.9573     19.4523    139.4108
  1609.7500   -124.8465     19.6781     18.2127     19.6332    141.6341
  1610.0000   -125.8478     19.9995     18.5545     20.1672    142.3523
  1610.2500   -127.0309     20.3626     18.9812     21.0443    140.3928
  1610.5000   -128.3700     20.7653     19.4897     22.1766    134.0951
  1610.7500   -129.8045     21.2078     20.0755     23.4167    128.5709
  1611.0000   -131.2479     21.6911     20.7327     24.5964    120.4261
  1611.2500   -132.6010     22.2147     21.4526     25.5724    116.2876
  1611.5000   -133.7757     22.7737     22.2232     26.2630    113.4824
  1611.7500   -134.7082     23.3545     23.0283     26.6612    114.1650
  1612.0000   -135.3643     23.9332     23.8455     26.8219    118.2155
  1612.2500   -135.7255     24.4736     24.6464     26.8303    121.7928
  1612.5000   -135.7690     24.9299     25.3949     26.7652    126.2677
  1612.7500   -135.4609     25.2510     26.0484     26.6690    127.8695
  1613.0000   -134.7614     25.3905     26.5588     26.5345    128.0844
  1613.2500   -133.6486     25.3159     26.8747     26.3095    127.0475
  1613.5000   -132.1498     25.0156     26.9485     25.9174    124.0153
  1613.7500   -130.3648     24.5026     26.7453     25.2850    121.1199
  1614.0000   -128.4707     23.8119     26.2524     24.3729    116.3444
  1614.2500   -126.6905     22.9907     25.4867     23.1974    114.0667
  1614.5000   -125.2472     22.0902     24.4953     21.8355    114.5648
  1614.7500   -124.3142     21.1569     23.3464     20.4100    118.3922
  1615.0000   -123.9810     20.2297     22.1170     19.0568    128.5738
  1615.2500   -124.2382     19.3371     20.8783     17.8876    136.7527
  1615.5000   -124.9960     18.4991     19.6882     16.9610    148.3897
  1615.7500   -126.1040     17.7294     18.5866     16.2743    154.9287
  1616.0000   -127.3878     17.0365     17.5981     15.7760    162.6637
  1616.2500   -128.6708     16.4261     16.7350     15.3944    166.3248
  1616.5000   -129.7873     15.9012     16.0015     15.0678    169.0450
  1616.7500   -130.6020     15.4628     15.3971     14.7673    168.9750
  1617.0000   -131.0135     15.1099     14.9190     14.5057    167.3733
  1617.2500   -130.9748     14.8400     14.5635     14.3336    166.6291
  1617.5000   -130.5107     14.6487     14.3262     14.3235    167.2200
  1617.7500   -129.7176     14.5302     14.2017     14.5480    168.0183
  1618.0000   -128.7570     14.4782     14.1837     15.0551    167.0208
  1618.2500   -127.8261     14.4858     14.2643     15.8496    163.7667
  1618.5000   -127.1150     14.5466     14.4339     16.8838    155.3426
  1618.7500   -126.7628     14.6555     14.6801     18.0642    148.4092
  1619.0000   -126.8314     14.8088     14.9892     19.2711    137.7035
  1619.2500   -127.2987     15.0046     15.3459     20.3833    130.8639
  1619.5000   -128.0806     15.2429     15.7349     21.2990    121.2553
  1619.7500   -129.0621     15.5247     16.1426     21.9494    115.3669
  1620.0000   -130.1334     15.8511     16.5589     22.3017    108.0579
  1620.2500   -131.2127     16.2219     16.9782     22.3611    105.0358
  1620.5000   -132.2551     16.6337     17.4012     22.1722    104.5845
  1620.7500   -133.2383     17.0794     17.8342     21.8215    107.0669
