~Version Information
VERS.                      2.0: CWLS Log ASCII Standard - VERSION 2.0
WRAP.                       NO: One line per depth step
~Well Information Block
STRT.FT               620.0000: 
STOP.FT              2660.0000: 
STEP.FT                 0.1000: 
NULL.                -999.2500: 
COMP.          Evergreen Operating Corporation: COMPANY
WELL.             Carbon 34-21: WELL
FLD.           Purgatoire River: FIELD
LOC.           56' FSL & 2304' FEL: LOCATION
PROV.                 Colorado: PROVINCE
CNTY.               Las Animas: COUNTRY
SRVC.                Patterson: SERVICE COMPANY
DATE.          Mon Sep 13 14:13:15 2004: LOG DATE
UWI.           05 071 08117 00: UNIQUE WELL ID
~Curve Information Block
DEPT.FT            0 000 00 00: Depth
DCAL.in                       : CDL Caliper
DPOR.pu                       : CDL Density Porosity
NPOR.pu                       : Neutron Porosity
RHOB.g/cc                     : CDL Bulk Density
RHOC.g/cc                     : CDL Density Correction
GR.GAPI                       : Gamma Ray
~Parameter Information Block
~A  Depth       DCAL        DPOR        NPOR        RHOB        RHOC         GR     
# ...
   888.8000      8.1717     10.4745     32.3019      2.4772     -0.0066    145.9733
   888.9000      8.1717      9.6005     30.9982      2.4916     -0.0075    149.2602
   889.0000      8.1699      8.2119     31.3558      2.5145      0.0568    151.0867
   889.1000      8.1699      7.1377     32.2492      2.5322      0.0128    152.1350
   889.2000      8.1699      6.6121     32.0791      2.5409      0.0331    153.2718
   889.3000      8.1706      6.0443     30.4859      2.5503      0.0397    153.1139
   889.4000      8.1706      4.9876     28.0071      2.5677      0.0482    148.3470
   889.5000      8.1695      4.1468     25.7458      2.5816      0.0722    141.7138
   889.6000      8.1695      4.2964     24.1888      2.5791      0.0677    139.6066
   889.7000      8.1695      4.6618     23.8705      2.5731      0.0325    142.4561
   889.8000      8.1663      4.4174     25.6195      2.5771      0.0401    146.2753
   889.9000      8.1663      4.3114     28.6740      2.5789      0.0630    148.2007
   890.0000      8.1652      5.4549     30.9071      2.5600      0.0528    148.8078
   890.1000      8.1652      7.5779     31.1024      2.5250      0.0270    152.6168
   890.2000      8.1652      9.1431     29.6632      2.4991      0.0415    156.3053
   890.3000      8.1665      8.9913     27.4892      2.5016      0.0025    152.1508
   890.4000      8.1665      7.4937     25.3688      2.5264      0.0103    143.2793
   890.5000      8.1676      6.1037     23.8427      2.5493      0.0448    135.5290
   890.6000      8.1676      5.6729     23.3738      2.5564      0.0227    130.2591
   890.7000      8.1676      5.8589     24.4451      2.5533      0.0498    127.8151
   890.8000      8.1677      6.1019     26.6503      2.5493      0.0390    128.7268
   890.9000      8.1677      5.9767     28.0527      2.5514      0.0192    131.4097
   891.0000      8.1684      5.7637     27.0859      2.5549      0.0539    131.9532
   891.1000      8.1684      6.1512     24.2974      2.5485      0.0200    128.1197
   891.2000      8.1684      6.9465     21.8266      2.5354      0.0390    120.3010
   891.3000      8.1725      7.5362     21.5768      2.5257     -0.0024    112.8981
   891.4000      8.1725      7.6181     23.8304      2.5243      0.0022    110.9256
   891.5000      8.1753      7.3320     27.2282      2.5290      0.0079    113.9469
   891.6000      8.1753      6.4642     29.2249      2.5433     -0.0412    116.3496
   891.7000      8.1753      5.1084     28.1711      2.5657      0.0533    115.0179
   891.8000      8.1690      4.5465     25.2571      2.5750      0.0786    111.2419
   891.9000      8.1690      4.9784     22.7761      2.5679      0.0302    105.0789
   892.0000      8.1632      5.4610     21.2105      2.5599      0.0719     99.9069
   892.1000      8.1632      5.7745     19.8614      2.5547      0.0770    103.1432
   892.2000      8.1632      5.8596     19.0945      2.5533      0.1212    113.1191
   892.3000      8.1650      5.3422     20.2223      2.5619      0.1083    119.2748
   892.4000      8.1650      4.2816     22.6352      2.5794      0.1153    115.2434
   892.5000      8.1676      4.0252     23.0578      2.5836      0.1588    102.2248
   892.6000      8.1676      5.6472     20.6863      2.5568      0.0597     89.1992
   892.7000      8.1676      7.6005     18.6298      2.5246      0.0094     86.5796
   892.8000      8.1678      7.7530     18.7558      2.5221      0.0657     93.6038
   892.9000      8.1678      6.3671     20.4921      2.5449      0.0775    102.1226
   893.0000      8.1668      4.8262     22.5686      2.5704      0.0687    106.6342
   893.1000      8.1668      3.6675     23.4852      2.5895      0.0606    103.3891
   893.2000      8.1668      3.1184     22.3399      2.5985      0.0918     94.4444
   893.3000      8.1663      3.2326     20.4667      2.5967      0.0572     89.4901
   893.4000      8.1663      2.9045     19.9369      2.6021      0.0555     90.9938
   893.5000      8.1670      1.6495     21.2043      2.6228      0.0913     92.3087
   893.6000      8.1670      0.9307     22.7797      2.6346      0.1034     92.1054
   893.7000      8.1670      1.7360     22.8905      2.6214      0.0798     92.5252
   893.8000      8.1686      3.1548     21.8253      2.5979      0.0560     92.0211
   893.9000      8.1686      3.6549     21.5005      2.5897      0.0402     88.6380
   894.0000      8.1705      2.6487     23.4282      2.6063      0.0428     85.9684
   894.1000      8.1705      1.1392     26.6677      2.6312      0.0783     87.2660
   894.2000      8.1705      0.6619     27.6521      2.6391      0.0596     91.4780
   894.3000      8.1795      1.1884     24.8075      2.6304      0.0245     97.3945
   894.4000      8.1795      1.7606     21.0915      2.6209      0.0464    102.3743
   894.5000      8.2058      2.1653     19.6532      2.6143      0.0522    105.9119
   894.6000      8.2058      2.5756     21.1522      2.6075      0.0439    112.6681
   894.7000      8.2058      2.8992     23.7399      2.6022      0.0514    121.7171
   894.8000      8.2519      2.7722     24.8438      2.6043      0.0183    125.3513
   894.9000      8.2519      2.0223     24.7341      2.6166      0.0227    119.9258
   895.0000      8.3003      1.0632     25.1303      2.6325      0.0598    108.8154
   895.1000      8.3003      0.7058     25.9217      2.6384      0.0689     98.5464
   895.2000      8.3003      1.5229     26.2101      2.6249      0.0572     94.0658
   895.3000      8.3197      2.8601     26.4626      2.6028     -0.0155     96.1121
   895.4000      8.3197      3.4607     27.3691      2.5929      0.0210    102.1226
   895.5000      8.3187      3.3928     28.1795      2.5940      0.0378    108.9039
   895.6000      8.3187      3.6990     27.7350      2.5890      0.0142    115.8555
   895.7000      8.3187      4.5709     26.4474      2.5746      0.0014    124.2006
   895.8000      8.3232      5.3382     25.6648      2.5619      0.0209    134.0407
   895.9000      8.3232      5.5646     25.8669      2.5582      0.0217    142.7056
   896.0000      8.3290      5.6118     27.0571      2.5574      0.0158    144.7246
   896.1000      8.3290      5.9896     29.0074      2.5512      0.0177    138.2912
   896.2000      8.3290      6.2812     30.1770      2.5464     -0.0129    131.3587
   896.3000      8.3310      5.8237     29.5656      2.5539      0.0322    131.1160
   896.4000      8.3310      5.0378     29.1013      2.5669      0.0264    132.8950
   896.5000      8.3313      4.6947     30.3241      2.5725      0.0287    132.2901
   896.6000      8.3313      5.0897     31.2017      2.5660      0.0325    130.8277
   896.7000      8.3313      5.9895     29.9835      2.5512      0.0135    128.6205
   896.8000      8.3315      6.4599     28.4305      2.5434      0.0027    126.9871
   896.9000      8.3315      5.7437     28.0550      2.5552      0.0112    127.8465
   897.0000      8.3297      4.5157     28.0871      2.5755      0.0524    128.6243
   897.1000      8.3297      4.0302     28.2116      2.5835      0.0651    127.4575
   897.2000      8.3297      4.1997     28.8173      2.5807      0.0282    128.6089
   897.3000      8.3288      4.4761     29.5157      2.5761      0.0654    132.0902
   897.4000      8.3288      5.1498     30.2439      2.5650      0.0017    131.2210
   897.5000      8.3348      5.9901     31.6211      2.5512      0.0219    129.5325
   897.6000      8.3348      5.9749     33.2344      2.5514      0.0136    134.3031
   897.7000      8.3348      4.7889     34.0278      2.5710      0.0323    141.7027
   897.8000      8.3513      3.7543     33.2985      2.5881      0.0733    144.3305
   897.9000      8.3513      4.0886     30.9322      2.5825      0.0348    141.2202
   898.0000      8.3759      5.5672     28.1066      2.5581      0.0543    139.5397
   898.1000      8.3759      7.6537     26.6494      2.5237      0.0559    144.5137
   898.2000      8.3759      9.5051     27.8407      2.4932     -0.0476    153.3721
   898.3000      8.3962     10.5662     31.6191      2.4757      0.0179    159.4894
