~Version Information
VERS.                      2.0: CWLS Log ASCII Standard - VERSION 2.0
WRAP.                       NO: One line per depth step
~Well Information Block
STRT.FT               -14.0000: 
STOP.FT              2531.7500: 
STEP.FT                 0.2500: 
NULL.                -999.2500: 
COMP.          Petrogulf Corporation: COMPANY
WELL.            Lavedure 7-44: WELL
FLD.           Purgatorie River: FIELD
LOC.           969' FSL & 501' FEL--: LOCATION
PROV.                       CO: PROVINCE
CNTY.               Las Animas: COUNTRY
SRVC.          Patterson Wireline: SERVICE COMPANY
DATE.          Wed Dec 10 09:23:08 2003: LOG DATE
UWI.                          : UNIQUE WELL ID
~Curve Information Block
DEPT.FT            0 000 00 00: Depth
CCL.                          : Casing Collar Locator
TT3.usec                      : CBL 3' Travel Time
AMP3.mV                       : CBL 3' Amplitude
GR.GAPI                       : Gamma Ray
~Parameter Information Block
~A  Depth       CCL         TT3         AMP3         GR     
# ...
  2331.0000      0.0000    857.4606      1.0854     90.0047
  2331.2500      0.0000    861.5185      1.1753     88.9732
  2331.5000      0.0000    851.4963      1.3249     87.8540
  2331.7500      0.0000    830.0060      1.4972     86.6660
  2332.0000      0.0000    803.2420      1.6411     85.4291
  2332.2500      0.0000    777.4074      1.7337     84.3379
  2332.5000      0.0000    756.3074      1.7895     83.6832
  2332.7500      0.0000    742.0123      1.8278     83.4763
  2333.0000      0.0000    735.6536      1.8517     83.2502
  2333.2500      0.0000    735.7179      1.8623     82.3029
  2333.5000      0.0000    736.7449      1.8647     80.1214
  2333.7500      0.0000    732.6542      1.8501     76.7307
  2334.0000      0.0000    722.0422      1.8014     72.9087
  2334.2500      0.0000    708.7722      1.7309     70.0179
  2334.5000      0.0000    697.7513      1.6882     69.2286
  2334.7500      0.0000    691.2801      1.7078     70.6191
  2335.0000      0.0000    688.7354      1.7590     72.9762
  2335.2500      0.0000    688.3320      1.7625     74.3500
  2335.5000      0.0000    688.9097      1.6584     72.9395
  2335.7500      0.0000    690.1520      1.4545     68.1527
  2336.0000      0.0000    691.3107      1.2162     61.2298
  2336.2500      0.0000    690.8556      1.0193     54.4327
  2336.5000      0.0000    688.1384      0.9092     49.2745
  2336.7500      0.0000    684.5135      0.8859     45.6442
  2337.0000      0.0000    682.0217      0.9146     42.5593
  2337.2500      0.0000    681.5643      0.9560     39.5196
  2337.5000      0.0000    682.7289      0.9947     37.1359
  2337.7500      0.0000    684.5308      1.0397     36.5622
  2338.0000      0.0000    685.8729      1.1021     38.4289
  2338.2500      0.0000    685.9579      1.1810     42.3969
  2338.5000      0.0000    684.7787      1.2631     47.5610
  2338.7500      0.0000    683.0628      1.3263     52.9853
  2339.0000      0.0000    681.6396      1.3459     57.8005
  2339.2500      0.0000    680.9711      1.3096     61.0351
  2339.5000      0.0000    681.3385      1.2317     61.8075
  2339.7500      0.0000    683.6301      1.1526     60.1415
  2340.0000      0.0000    689.8978      1.1125     57.5619
  2340.2500      0.0000    702.3011      1.1233     56.2905
  2340.5000      0.0000    720.2906      1.1703     57.4165
  2340.7500      0.0000    738.9346      1.2370     59.9403
  2341.0000      0.0000    751.4346      1.3155     61.9033
  2341.2500      0.0000    754.1452      1.3981     62.4453
  2341.5000      2.0000    748.8481      1.4760     62.5238
  2341.7500      1.5610    740.1012      1.5511     63.6613
  2342.0000      0.0000    731.1232      1.6328     66.3293
  2342.2500      0.0000    722.5516      1.7173     69.6974
  2342.5000      0.0000    714.1649      1.7802     72.7055
  2342.7500      0.0000    706.4227      1.7970     75.1804
  2343.0000      0.0000    700.1652      1.7618     77.8851
  2343.2500      0.0000    695.7128      1.6797     81.5129
  2343.5000      0.0000    692.7825      1.5596     85.7885
  2343.7500      0.0000    690.9907      1.4243     89.7014
  2344.0000      0.0000    690.1223      1.3129     92.3843
  2344.2500      0.0000    690.0411      1.2528     93.4621
  2344.5000      0.0000    690.5607      1.2359     92.8094
  2344.7500      0.0000    691.4473      1.2349     90.4277
  2345.0000      0.0000    692.4587      1.2370     86.5863
  2345.2500      0.0000    693.3420      1.2446     81.9229
  2345.5000      0.0000    693.8644      1.2509     77.3259
  2345.7500      0.0000    693.9620      1.2409     73.5516
  2346.0000      0.0000    693.8745      1.2150     70.8379
  2346.2500      0.0000    694.0939      1.1896     68.9179
  2346.5000      0.0000    695.1873      1.1750     67.4144
  2346.7500      0.0000    697.7296      1.1727     66.1393
  2347.0000      0.0000    702.4089      1.1932     64.8778
  2347.2500      0.0000    709.8963      1.2458     63.1312
  2347.5000      0.0000    720.2411      1.3098     60.6346
  2347.7500      0.0000    732.1172      1.3436     58.2335
  2348.0000      0.0000    742.4751      1.3336     57.5898
  2348.2500      0.0000    747.1054      1.3063     59.5910
  2348.5000      0.0000    742.6050      1.2855     63.3659
  2348.7500      0.0000    728.9819      1.2647     67.0848
  2349.0000      0.0000    710.3043      1.2332     69.4115
  2349.2500      0.0000    692.3572      1.2022     70.2345
  2349.5000      0.0000    679.8788      1.1892     70.4848
  2349.7500      0.0000    675.6138      1.1989     71.3112
  2350.0000      0.0000    680.5168      1.2270     73.0813
  2350.2500      0.0000    693.9017      1.2660     74.9906
  2350.5000      0.0000    713.2337      1.3002     75.5212
  2350.7500      0.0000    733.9357      1.3129     73.3386
  2351.0000      0.0000    750.3806      1.3001     68.2161
  2351.2500      0.0000    758.5820      1.2672     61.4122
  2351.5000      0.0000    758.1979      1.2186     54.9313
  2351.7500      0.0000    751.3448      1.1635     50.1947
  2352.0000      0.0000    739.9661      1.1227     47.4387
  2352.2500      0.0000    725.1219      1.1161     46.2992
  2352.5000      0.0000    708.3779      1.1434     46.6894
  2352.7500      0.0000    692.6866      1.1857     49.1028
  2353.0000      0.0000    681.1010      1.2258     54.2979
  2353.2500      0.0000    674.7159      1.2656     62.6486
  2353.5000      0.0000    672.3062      1.3199     73.3936
  2353.7500      0.0000    671.8026      1.4008     84.3196
  2354.0000      0.0000    671.7399      1.5103     92.4697
  2354.2500      0.0000    671.5723      1.6324     95.7616
  2354.5000      0.0000    671.3575      1.7217     94.2432
  2354.7500      0.0000    671.5483      1.7235     89.8244
  2355.0000      0.0000    672.9729      1.6240     84.8399
  2355.2500      0.0000    676.7488      1.4688     80.7854
  2355.5000      0.0000    683.7952      1.3210     77.9786
  2355.7500      0.0000    694.0671      1.2185     76.0586
  2356.0000      0.0000    706.3104      1.1788     74.7700
  2356.2500      0.0000    718.8105      1.2115     74.3155
  2356.5000      0.0000    730.1157      1.3033     75.1820
  2356.7500      0.0000    738.6236      1.4126     77.9351
  2357.0000      0.0000    742.0336      1.4973     82.8996
  2357.2500      0.0000    738.4052      1.5427     89.3844
  2357.5000      0.0000    728.1149      1.5546     95.2933
  2357.7500      0.0000    714.3022      1.5387     98.3346
  2358.0000      0.0000    701.1581      1.4979     98.0011
  2358.2500      0.0000    691.7198      1.4434     95.9329
  2358.5000      0.0000    686.8344      1.3912     94.0834
  2358.7500      0.0000    685.6127      1.3485     93.0239
  2359.0000      0.0000    686.6086      1.3123     92.1935
  2359.2500      0.0000    688.7225      1.2793     91.0249
  2359.5000      0.0000    691.4187      1.2579     89.3214
  2359.7500      0.0000    694.5978      1.2682     87.1562
  2360.0000      0.0000    698.4503      1.3241     84.8502
  2360.2500      0.0000    703.1799      1.4194     82.6584
  2360.5000      0.0000    708.5219      1.5409     80.3655
  2360.7500      0.0000    713.4952      1.6827     77.6754
  2361.0000      0.0000    716.6666      1.8289     75.0630
  2361.2500      0.0000    716.6053      1.9353     73.8080
  2361.5000      0.0000    712.4144      1.9614     74.8886
  2361.7500      0.0000    704.4949      1.9187     77.8179
  2362.0000      0.0000    694.8928      1.8626     80.6624
  2362.2500      0.0000    686.4026      1.8345     81.3701
  2362.5000      0.0000    681.1317      1.8318     79.3120
  2362.7500      0.0000    680.0226      1.8349     75.7142
  2363.0000      0.0000    683.3338      1.8352     72.6735
  2363.2500      0.0000    690.5717      1.8259     71.6328
  2363.5000      0.0000    699.4759      1.7898     72.4352
  2363.7500      0.0000    706.0897      1.7195     73.6052
  2364.0000      2.0000    707.6259      1.6330     73.7485
  2364.2500      2.0000    705.6068      1.5529     72.9257
