~Version Information
VERS.                      2.0: CWLS Log ASCII Standard - VERSION 2.0
WRAP.                       NO: One line per depth step
~Well Information Block
STRT.FT               450.0000: 
STOP.FT              2756.0000: 
STEP.FT                 0.2500: 
NULL.                -999.2500: 
COMP.          Pioneer Natural Resources: COMPANY
WELL.             Squeal 11-26: WELL
FLD.           Purgatoire River: FIELD
LOC.           1186' FNL & 152' FWL: LOCATION
PROV.                 Colorado: PROVINCE
CNTY.               Las Animas: COUNTRY
SRVC.                Patterson: SERVICE COMPANY
DATE.          Wed Jun 15 02:22:08 2005: LOG DATE
UWI.           05 071 08404 00: UNIQUE WELL ID
~Curve Information Block
DEPT.FT            0 000 00 00: Depth
SN.Ohm-m                      : IEL Short Normal
SP.mV                         : IEL Spontaneous Potential
DIR.Ohm-m                     : IEL Induction Resistivity
GR.GAPI                       : Gamma Ray
~Parameter Information Block
~A  Depth        SN          SP         DIR          GR     
   450.0000   2000.0000   2000.0000      5.6700     82.7848
   450.2500   2000.0000   2000.0000      5.6806     83.4077
   450.5000   2000.0000   2000.0000      5.6996     85.8285
   450.7500   2000.0000   2000.0000      5.7244     87.7142
   451.0000   2000.0000   2000.0000      5.7497     89.3094
   451.2500   2000.0000   2000.0000      5.7684     88.9467
   451.5000   2000.0000   2000.0000      5.7742     86.2321
   451.7500   2000.0000   2000.0000      5.7653     83.3210
   452.0000   2000.0000   2000.0000      5.7465     78.0483
   452.2500   2000.0000   2000.0000      5.7257     74.4052
   452.5000   2000.0000   2000.0000      5.7088     69.6766
   452.7500   2000.0000   2000.0000      5.6962     67.4341
   453.0000   2000.0000   2000.0000      5.6840     65.2137
   453.2500   2000.0000   2000.0000      5.6683     63.7485
   453.5000   2000.0000   2000.0000      5.6482     60.4030
   453.7500   2000.0000   2000.0000      5.6247     57.5365
   454.0000   2000.0000   2000.0000      5.5981     53.6707
   454.2500   2000.0000   2000.0000      5.5666     51.9343
   454.5000   2000.0000   2000.0000      5.5288     50.0924
   454.7500   2000.0000   2000.0000      5.4883     48.7194
   455.0000   2000.0000   2000.0000      5.4553     46.0695
   455.2500   2000.0000   2000.0000      5.4414     44.2212
   455.5000   2000.0000   2000.0000      5.4516     42.0300
   455.7500   2000.0000   2000.0000      5.4800     41.2153
   456.0000   2000.0000   2000.0000      5.5128     41.1974
   456.2500   2000.0000   2000.0000      5.5361     41.9879
   456.5000   2000.0000   2000.0000      5.5424     43.9727
   456.7500   2000.0000   2000.0000      5.5310     45.4192
   457.0000   2000.0000   2000.0000      5.5060     47.1929
   457.2500   2000.0000   2000.0000      5.4785     47.9515
   457.5000   2000.0000   2000.0000      5.4702     48.3097
   457.7500   2000.0000   2000.0000      5.5126     44.7365
   458.0000   2000.0000   2000.0000      5.6355     43.3355
   458.2500   2000.0000   2000.0000      5.8477     42.0611
   458.5000   2000.0000   2000.0000      6.1185     40.3932
   458.7500   2000.0000   2000.0000      6.3747     36.9302
   459.0000   2000.0000   2000.0000      6.5338     36.7082
   459.2500   2000.0000   2000.0000      6.5630     36.8409
   459.5000   2000.0000   2000.0000      6.5032     37.7390
   459.7500   2000.0000   2000.0000      6.4350     36.3603
   460.0000   2000.0000   2000.0000      6.4405     41.0983
   460.2500   2000.0000   2000.0000      6.6053     46.0884
   460.5000   2000.0000   2000.0000      7.0634     55.8419
   460.7500   2000.0000   2000.0000      8.0860     58.0804
   461.0000   2000.0000   2000.0000     10.2997     69.0449
   461.2500   2000.0000   2000.0000     15.4335     76.2650
   461.5000   2000.0000   2000.0000     29.7720     85.8662
   461.7500   2000.0000   2000.0000     89.4414     82.5902
   462.0000   2000.0000   2000.0000    628.1383     87.0403
   462.2500   2000.0000   2000.0000    386.5102     88.6783
   462.5000   2000.0000   2000.0000    146.6764     90.4071
   462.7500   2000.0000   2000.0000    188.0058     92.0810
   463.0000   2000.0000   2000.0000 100000.0000     96.5995
   463.2500   2000.0000   2000.0000 100000.0000    100.9287
   463.5000   2000.0000   2000.0000 100000.0000    108.1546
   463.7500   2000.0000   2000.0000 100000.0000    112.4685
   464.0000   2000.0000   2000.0000 100000.0000    116.9495
   464.2500   2000.0000   2000.0000 100000.0000    118.4276
   464.5000   2000.0000   2000.0000 100000.0000    118.8965
   464.7500   2000.0000   2000.0000 100000.0000    118.6052
   465.0000   2000.0000   2000.0000     15.6364    118.2365
   465.2500   2000.0000   2000.0000      6.1383    118.4473
   465.5000   2000.0000   2000.0000      4.2564    119.7623
   465.7500   2000.0000   2000.0000      3.8081    121.2847
   466.0000   2000.0000   2000.0000      4.0017    124.2937
   466.2500   2000.0000   2000.0000      4.6928    126.5716
   466.5000   2000.0000   2000.0000      5.9783    129.8577
   466.7500   2000.0000   2000.0000      8.3081    131.5331
   467.0000   2000.0000   2000.0000     13.2181    132.6135
   467.2500   2000.0000   2000.0000     27.3256    132.2327
   467.5000   2000.0000   2000.0000    118.8518    130.1844
   467.7500   2000.0000   2000.0000 100000.0000    128.0914
   468.0000   2000.0000   2000.0000 100000.0000    124.4533
   468.2500   2000.0000   2000.0000     79.0166    121.9853
   468.5000   2000.0000   2000.0000     31.0790    118.3674
   468.7500   2000.0000   2000.0000     20.0986    116.0086
   469.0000   2000.0000   2000.0000     16.2178    112.9221
   469.2500   2000.0000   2000.0000     14.7335    111.5965
   469.5000   2000.0000   2000.0000     14.2282    111.1071
   469.7500   2000.0000   2000.0000     14.1260    111.5232
   470.0000   2000.0000   2000.0000     14.1804    112.4047
   470.2500   2000.0000   2000.0000     14.3065    112.9413
   470.5000   2000.0000   2000.0000     14.5070    114.1335
   470.7500   2000.0000   2000.0000     14.8497    115.6205
   471.0000   2000.0000   2000.0000     15.4411    119.2270
   471.2500   2000.0000   2000.0000     16.3662    122.4874
   471.5000   2000.0000   2000.0000     17.5803    128.2989
   471.7500   2000.0000   2000.0000     18.8147    132.3444
   472.0000   2000.0000   2000.0000     19.6413    137.5356
   472.2500   2000.0000   2000.0000     19.7769    139.8791
   472.5000   2000.0000   2000.0000     19.3190    141.6754
   472.7500   2000.0000   2000.0000     18.5846    142.1741
   473.0000   2000.0000   2000.0000     17.8170    142.7815
   473.2500   2000.0000   2000.0000     17.0960    143.3966
   473.5000   2000.0000   2000.0000     16.4142    144.7063
   473.7500   2000.0000   2000.0000     15.7741    145.6993
   474.0000   2000.0000   2000.0000     15.2225    146.8426
   474.2500   2000.0000   2000.0000     14.8219    146.9893
   474.5000   2000.0000   2000.0000     14.6042    146.0329
   474.7500   2000.0000   2000.0000     14.5500    144.8691
   475.0000   2000.0000   2000.0000     14.6012    143.1105
   475.2500   2000.0000   2000.0000     14.6914    142.2933
   475.5000   2000.0000   2000.0000     14.7721    141.8276
   475.7500   2000.0000   2000.0000     14.8199    141.8282
   476.0000   2000.0000   2000.0000     14.8324    141.5513
   476.2500   2000.0000   2000.0000     14.8231    140.9643
   476.5000   2000.0000   2000.0000     14.8183    140.1200
   476.7500   2000.0000   2000.0000     14.8504    140.1340
   477.0000   2000.0000   2000.0000     14.9440    140.9299
   477.2500   2000.0000   2000.0000     15.1027    141.3042
   477.5000   2000.0000   2000.0000     15.3075    140.8034
   477.7500   2000.0000   2000.0000     15.5287    140.0141
   478.0000   2000.0000   2000.0000     15.7458    139.2433
   478.2500   2000.0000   2000.0000     15.9609    139.3073
   478.5000   2000.0000   2000.0000     16.1945    139.6351
   478.7500   2000.0000   2000.0000     16.4667    139.2724
   479.0000   2000.0000   2000.0000     16.7756    136.9229
   479.2500   2000.0000   2000.0000     17.0925    134.1399
   479.5000   2000.0000   2000.0000     17.3758    129.0218
   479.7500   2000.0000   2000.0000     17.5935    125.6672
   480.0000   2000.0000   2000.0000     17.7382    121.3091
   480.2500   2000.0000   2000.0000     17.8255    118.7210
   480.5000   2000.0000   2000.0000     17.8812    114.9511
   480.7500   2000.0000   2000.0000     17.9272    112.6260
   481.0000   2000.0000   2000.0000     17.9770    110.1620
   481.2500   2000.0000   2000.0000     18.0397    109.6769
   481.5000   2000.0000   2000.0000     18.1305    111.1284
   481.7500   2000.0000   2000.0000     18.2721    113.4290
   482.0000   2000.0000   2000.0000     18.4849    117.9788
   482.2500   2000.0000   2000.0000     18.7729    121.0072
   482.5000   2000.0000   2000.0000     19.1209    124.4113
   482.7500   2000.0000   2000.0000     19.5030    125.4326
   483.0000   2000.0000   2000.0000     19.8933    124.4379
   483.2500   2000.0000   2000.0000     20.2685    121.8743
