~Version Information
VERS.                      2.0: CWLS Log ASCII Standard - VERSION 2.0
WRAP.                       NO: One line per depth step
~Well Information Block
STRT.FT               682.0000: 
STOP.FT              2190.5000: 
STEP.FT                 0.1000: 
NULL.                -999.2500: 
COMP.          Pioneer Natural Resources: COMPANY
WELL.               King 22-13: WELL
FLD.           Purgatoire River: FIELD
LOC.           2419' FNL & 1806' FWL----: LOCATION
PROV.                 Colorado: PROVINCE
CNTY.               Las Animas: COUNTRY
SRVC.                Patterson: SERVICE COMPANY
DATE.          Fri Apr 01 07:38:12 2005: LOG DATE
UWI.           05 071 08318 00: UNIQUE WELL ID
~Curve Information Block
DEPT.FT            0 000 00 00: Depth
DCAL.in                       : CDL Caliper
RHOB.g/cc                     : CDL Bulk Density
RHOC.g/cc                     : CDL Density Correction
DPOR.pu                       : CDL Density Porosity
NPOR.pu                       : Neutron Porosity
GR.GAPI                       : Gamma Ray
~Parameter Information Block
~A  Depth       DCAL        RHOB        RHOC        DPOR        NPOR         GR     
# ...
  1373.2000      8.0536      2.6078      0.0494      2.5578     17.2525     93.2978
  1373.3000      8.0640      2.5803      0.0356      4.2215     16.9248     98.1257
  1373.4000      8.0640      2.5673      0.0013      5.0146     16.8665    104.1581
  1373.5000      8.0772      2.5941      0.0139      3.3876     17.0580    106.9589
  1373.6000      8.0772      2.6367      0.0775      0.8088     17.3589    107.8885
  1373.7000      8.0772      2.6490      0.0764      0.0585     18.1051    106.9675
  1373.8000      8.0922      2.6272      0.0301      1.3800     19.4337    106.7053
  1373.9000      8.0922      2.5974      0.0830      3.1850     20.3672    112.4778
  1374.0000      8.1059      2.5760      0.0087      4.4866     20.2299    120.9220
  1374.1000      8.1059      2.5710      0.0425      4.7854     19.7359    122.5994
  1374.2000      8.1059      2.5766      0.0157      4.4484     19.5824    118.3491
  1374.3000      8.1143      2.5820      0.0161      4.1213     19.5719    115.7167
  1374.4000      8.1143      2.5848      0.0634      3.9506     19.6067    114.0934
  1374.5000      8.1146      2.5834      0.0426      4.0339     19.7601    112.1775
  1374.6000      8.1146      2.5821      0.0317      4.1139     19.8257    112.2701
  1374.7000      8.1146      2.5835      0.0507      4.0326     19.8193    111.1459
  1374.8000      8.1158      2.5812      0.0331      4.1675     19.9805    108.2127
  1374.9000      8.1158      2.5733      0.0241      4.6487     20.6381    109.3924
  1375.0000      8.1193      2.5603      0.0389      5.4385     21.7711    112.8767
  1375.1000      8.1193      2.5423      0.0358      6.5278     22.8230    111.8084
  1375.2000      8.1193      2.5177      0.0229      8.0196     23.2341    110.0884
  1375.3000      8.1152      2.4885     -0.0049      9.7897     23.0680    115.1988
  1375.4000      8.1152      2.4713     -0.0171     10.8298     23.0705    124.8020
  1375.5000      8.0937      2.4807      0.0469     10.2586     23.8872    131.0210
  1375.6000      8.0937      2.5050      0.0433      8.7883     25.3672    131.3694
  1375.7000      8.0937      2.5286      0.0591      7.3551     26.7937    129.4159
  1375.8000      8.0570      2.5531      0.0739      5.8752     27.4989    127.2483
  1375.9000      8.0570      2.5784      0.1164      4.3411     27.0104    124.7408
  1376.0000      8.0310      2.5927      0.1558      3.4754     25.7378    122.2896
  1376.1000      8.0310      2.5871      0.1351      3.8113     24.8214    120.2738
  1376.2000      8.0310      2.5713      0.1464      4.7696     24.5243    119.6640
  1376.3000      8.0251      2.5651      0.0722      5.1483     24.5001    119.7194
  1376.4000      8.0251      2.5780      0.1093      4.3631     24.5442    118.0905
  1376.5000      8.0291      2.6012      0.1140      2.9548     24.1843    115.4705
  1376.6000      8.0291      2.6194      0.0947      1.8568     23.3204    114.7282
  1376.7000      8.0291      2.6208      0.1171      1.7691     22.6993    115.5114
  1376.8000      8.0325      2.6053      0.0732      2.7077     22.6702    115.7966
  1376.9000      8.0325      2.5872      0.0492      3.8072     22.7431    118.1361
  1377.0000      8.0338      2.5754      0.0903      4.5192     22.4981    124.3119
  1377.1000      8.0338      2.5636      0.0856      5.2347     22.1324    130.8506
  1377.2000      8.0338      2.5531      0.0387      5.8753     21.9628    133.5669
  1377.3000      8.0396      2.5547      0.0289      5.7758     21.8011    128.9838
  1377.4000      8.0396      2.5596      0.0529      5.4771     21.2235    120.0348
  1377.5000      8.0459      2.5557      0.0560      5.7125     20.4963    112.9201
  1377.6000      8.0459      2.5589      0.0050      5.5193     20.3920    109.3996
  1377.7000      8.0459      2.5794      0.1086      4.2761     20.9250    109.6070
  1377.8000      8.0493      2.5944      0.0885      3.3671     21.5840    112.1567
  1377.9000      8.0493      2.5910      0.0528      3.5733     22.0246    112.4054
  1378.0000      8.0496      2.5866      0.0626      3.8411     21.6586    107.3666
  1378.1000      8.0496      2.5949      0.0547      3.3411     20.1178    100.8836
  1378.2000      8.0496      2.6041      0.1062      2.7820     18.3174     98.9128
  1378.3000      8.0466      2.5967      0.0746      3.2276     17.6397    100.1853
  1378.4000      8.0466      2.5813      0.0416      4.1661     17.9218     97.6377
  1378.5000      8.0432      2.5761      0.0250      4.4802     17.8494     88.8942
  1378.6000      8.0432      2.5811      0.0131      4.1782     17.5367     79.0260
  1378.7000      8.0432      2.5866      0.0173      3.8397     17.5808     76.2692
  1378.8000      8.0424      2.5935      0.0479      3.4244     17.6304     80.5878
  1378.9000      8.0424      2.6043      0.0845      2.7678     17.8624     84.1891
  1379.0000      8.0465      2.6124      0.0662      2.2768     18.3347     84.0027
  1379.1000      8.0465      2.6078      0.0854      2.5565     18.4024     83.0688
  1379.2000      8.0465      2.5883      0.0567      3.7373     18.0778     87.0104
  1379.3000      8.0501      2.5709      0.0150      4.7958     17.8813     96.7129
  1379.4000      8.0501      2.5688      0.0563      4.9236     18.0068    105.9322
  1379.5000      8.0506      2.5699      0.0757      4.8557     18.6340    108.8400
  1379.6000      8.0506      2.5604      0.0169      5.4296     19.7544    104.6095
  1379.7000      8.0506      2.5445      0.0280      6.3944     20.8236     96.4644
  1379.8000      8.0508      2.5363      0.0180      6.8893     21.1585     91.1476
  1379.9000      8.0508      2.5471      0.0496      6.2342     20.7153     94.5997
  1380.0000      8.0513      2.5726      0.0306      4.6880     20.2147    102.6859
  1380.1000      8.0513      2.5894      0.0436      3.6734     20.1141    107.3415
  1380.2000      8.0513      2.5819      0.0337      4.1262     20.3930    109.5394
  1380.3000      8.0495      2.5694      0.0341      4.8858     21.0656    111.5494
  1380.4000      8.0495      2.5722      0.0515      4.7124     22.0835    111.2318
  1380.5000      8.0480      2.5810      0.0544      4.1828     23.1406    108.2818
  1380.6000      8.0480      2.5780      0.0595      4.3610     24.0314    106.5342
  1380.7000      8.0480      2.5671      0.0536      5.0219     24.6547    110.3434
  1380.8000      8.0477      2.5688      0.0577      4.9222     24.8670    117.4010
  1380.9000      8.0477      2.5831      0.0660      4.0529     24.4103    121.3491
  1381.0000      8.0490      2.5872      0.0861      3.8060     23.5570    120.1352
  1381.1000      8.0490      2.5694      0.0535      4.8867     23.1264    117.6079
  1381.2000      8.0490      2.5365      0.0487      6.8801     23.2866    117.9533
  1381.3000      8.0525      2.5034      0.0150      8.8853     23.6176    122.1854
  1381.4000      8.0525      2.4925     -0.0408      9.5469     23.7617    127.2068
  1381.5000      8.0585      2.5132      0.0083      8.2884     23.3960    128.0691
  1381.6000      8.0585      2.5455      0.0497      6.3349     22.4652    121.7142
  1381.7000      8.0585      2.5693      0.0309      4.8933     21.4198    110.5214
  1381.8000      8.0618      2.5768      0.0878      4.4391     20.6385    100.6506
  1381.9000      8.0618      2.5676      0.0676      4.9966     20.1174     92.8351
  1382.0000      8.0574      2.5631      0.0086      5.2661     19.5402     88.3373
  1382.1000      8.0574      2.5783      0.0236      4.3459     18.8238     91.5444
  1382.2000      8.0574      2.5930      0.0809      3.4547     18.4929     97.2007
  1382.3000      8.0510      2.5946      0.0231      3.3582     18.3963     95.7486
  1382.4000      8.0510      2.6013      0.0661      2.9540     17.9741     89.5770
  1382.5000      8.0507      2.6207      0.0657      1.7772     17.1616     84.8259
  1382.6000      8.0507      2.6337      0.0983      0.9896     16.2202     82.4566
  1382.7000      8.0507      2.6239      0.0672      1.5834     15.5981     84.0759
