~Version Information
VERS.                      2.0: CWLS Log ASCII Standard - VERSION 2.0
WRAP.                       NO: One line per depth step
~Well Information Block
STRT.FT               780.0000: 
STOP.FT              1557.5000: 
STEP.FT                 0.1000: 
NULL.                -999.2500: 
COMP.          Pioneer Natural Resources: COMPANY
WELL.          Bunner's 13-26 Tr: WELL
FLD.           Purgatoire River: FIELD
LOC.           1843' FSL & 456' FWL----: LOCATION
PROV.                 Colorado: PROVINCE
CNTY.               Las Animas: COUNTRY
SRVC.                Patterson: SERVICE COMPANY
DATE.          Tue Mar 29 07:41:16 2005: LOG DATE
UWI.           05 071 08331 00: UNIQUE WELL ID
~Curve Information Block
DEPT.FT            0 000 00 00: Depth
DCAL.in                       : CDL Caliper
RHOB.g/cc                     : CDL Bulk Density
RHOC.g/cc                     : CDL Density Correction
DPOR.pu                       : CDL Density Porosity
NPOR.pu                       : Neutron Porosity
GR.GAPI                       : Gamma Ray
~Parameter Information Block
~A  Depth       DCAL        RHOB        RHOC        DPOR        NPOR         GR     
# ...
  1327.2000      8.1479      2.3700      0.0242     16.9699     17.7302    128.0091
  1327.3000      8.1686      2.3808      0.0348     16.3150     17.9927    126.9133
  1327.4000      8.1686      2.3847      0.0746     16.0760     18.1571    124.1796
  1327.5000      8.1773      2.3778      0.0509     16.4971     18.5024    119.9616
  1327.6000      8.1773      2.3643      0.0360     17.3182     19.2331    115.8140
  1327.7000      8.1773      2.3548      0.0246     17.8889     19.5611    115.7074
  1327.8000      8.1812      2.3596      0.0220     17.6014     19.2993    117.9709
  1327.9000      8.1812      2.3774      0.0508     16.5188     19.2559    119.7286
  1328.0000      8.1824      2.3930      0.0877     15.5770     19.3578    123.7714
  1328.1000      8.1824      2.3926      0.0424     15.6007     19.0293    130.0595
  1328.2000      8.1824      2.3806      0.0371     16.3276     18.6121    132.6077
  1328.3000      8.1816      2.3720      0.0005     16.8506     18.8027    127.2865
  1328.4000      8.1816      2.3763      0.0111     16.5859     19.3513    120.0335
  1328.5000      8.1791      2.3872      0.0527     15.9292     19.5514    117.8293
  1328.6000      8.1791      2.3863      0.0632     15.9836     19.3565    118.8103
  1328.7000      8.1791      2.3670      0.0200     17.1489     19.0444    122.7879
  1328.8000      8.1767      2.3427      0.0583     18.6224     18.6998    131.5058
  1328.9000      8.1767      2.3311      0.0116     19.3259     18.4249    138.4846
  1329.0000      8.1762      2.3448      0.0460     18.4977     18.4447    137.0780
  1329.1000      8.1762      2.3818      0.0684     16.2534     18.7751    129.9174
  1329.2000      8.1762      2.4275      0.1177     13.4819     19.1770    121.0593
  1329.3000      8.1768      2.4628      0.1984     11.3425     19.5312    114.9556
  1329.4000      8.1768      2.4750      0.1897     10.6042     19.9256    116.6324
  1329.5000      8.1764      2.4687      0.1542     10.9907     20.4252    124.2091
  1329.6000      8.1764      2.4611      0.0784     11.4512     20.9047    131.4462
  1329.7000      8.1764      2.4625      0.1447     11.3609     21.2497    133.8999
  1329.8000      8.1716      2.4586      0.1952     11.5972     21.4353    133.0845
  1329.9000      8.1716      2.4312      0.1441     13.2625     21.6830    134.2424
  1330.0000      8.1599      2.3867      0.0525     15.9578     22.1376    136.3754
  1330.1000      8.1599      2.3491      0.0180     18.2336     22.2104    133.8894
  1330.2000      8.1599      2.3393      0.0266     18.8290     21.5452    127.7924
  1330.3000      8.1509      2.3569      0.0342     17.7655     20.6307    125.3602
  1330.4000      8.1509      2.3792      0.0602     16.4142     19.7637    131.2668
  1330.5000      8.1435      2.3857      0.0994     16.0168     18.9974    141.3353
  1330.6000      8.1435      2.3762      0.1044     16.5939     18.5857    145.3063
  1330.7000      8.1435      2.3652      0.0650     17.2602     18.5018    142.8860
  1330.8000      8.1269      2.3653      0.0657     17.2539     18.3133    140.3898
  1330.9000      8.1269      2.3754      0.0822     16.6423     17.8611    135.3725
  1331.0000      8.1144      2.3819      0.1249     16.2471     17.3907    125.1265
  1331.1000      8.1144      2.3683      0.1181     17.0717     17.1479    115.7554
  1331.2000      8.1144      2.3348      0.0782     19.1023     17.1846    112.9307
  1331.3000      8.1287      2.3090      0.0082     20.6639     17.3144    113.4856
  1331.4000      8.1287      2.3214      0.0070     19.9126     17.2461    112.6133
  1331.5000      8.1671      2.3616      0.1542     17.4768     16.8442    113.4481
  1331.6000      8.1671      2.3919      0.1142     15.6441     16.5491    117.7616
  1331.7000      8.1671      2.4012      0.1143     15.0806     16.7382    122.1551
  1331.8000      8.1927      2.4038      0.0701     14.9217     17.2188    126.5137
  1331.9000      8.1927      2.4088      0.1135     14.6162     17.7693    129.0311
  1332.0000      8.1832      2.4111      0.0933     14.4768     18.1394    125.8788
  1332.1000      8.1832      2.4069      0.1506     14.7320     18.0643    120.0546
  1332.2000      8.1832      2.4002      0.1796     15.1406     17.7139    117.1585
  1332.3000      8.1723      2.3998      0.1444     15.1652     17.2793    118.8329
  1332.4000      8.1723      2.4075      0.1417     14.6970     16.6198    122.8994
  1332.5000      8.1980      2.4070      0.1402     14.7279     15.6905    125.3272
  1332.6000      8.1980      2.3867      0.0955     15.9577     14.6918    126.5994
  1332.7000      8.1980      2.3549      0.0697     17.8857     13.8547    127.6151
  1332.8000      8.2269      2.3194      0.0719     20.0351     13.2901    123.9437
  1332.9000      8.2269      2.2858      0.0484     22.0753     13.0075    115.5711
  1333.0000      8.2434      2.2725      0.0262     22.8808     12.9956    107.6255
  1333.1000      8.2434      2.2930      0.0801     21.6354     13.2694    102.6241
  1333.2000      8.2434      2.3300      0.1307     19.3927     13.6685    100.2299
  1333.3000      8.2686      2.3544      0.1433     17.9156     13.8348    100.6910
  1333.4000      8.2686      2.3527      0.1295     18.0208     13.8628    105.5260
  1333.5000      8.2882      2.3259      0.1735     19.6437     14.1104    110.4402
  1333.6000      8.2882      2.2859      0.1097     22.0661     14.5240    109.4956
  1333.7000      8.2882      2.2575      0.0791     23.7864     14.9343    107.0803
  1333.8000      8.2652      2.2542      0.0979     23.9875     15.1465    106.9947
  1333.9000      8.2652      2.2587      0.1461     23.7142     15.0622    108.0203
  1334.0000      8.2153      2.2504      0.1063     24.2155     14.9869    111.6262
  1334.1000      8.2153      2.2328      0.0469     25.2827     15.0778    116.3144
  1334.2000      8.2153      2.2154      0.0766     26.3369     15.2153    118.0094
  1334.3000      8.1705      2.1987      0.0615     27.3490     15.0530    116.9763
  1334.4000      8.1705      2.1883      0.0865     27.9843     14.3508    115.8988
  1334.5000      8.1230      2.1884      0.1100     27.9744     13.6314    115.4521
  1334.6000      8.1230      2.1894      0.1556     27.9140     13.5817    116.8390
  1334.7000      8.1230      2.1837      0.0937     28.2623     14.2026    123.1524
  1334.8000      8.0662      2.1726      0.1138     28.9306     14.8602    131.7893
  1334.9000      8.0662      2.1493      0.0920     30.3475     15.0051    137.6742
  1335.0000      8.0314      2.1058      0.0313     32.9817     14.6814    140.9582
  1335.1000      8.0314      2.0468      0.0237     36.5568     14.4225    143.6995
  1335.2000      8.0314      1.9790      0.0128     40.6685     14.4813    145.8140
  1335.3000      8.0234      1.9005      0.0230     45.4263     14.3607    145.0255
  1335.4000      8.0234      1.8087     -0.0466     50.9908     13.3869    144.4119
  1335.5000      8.0257      1.7131     -0.1184     56.7826     11.7663    148.4669
  1335.6000      8.0257      1.6264     -0.1228     62.0379     10.2026    153.2619
  1335.7000      8.0257      1.5612     -0.1614     65.9880      8.8985    153.4729
  1335.8000      8.0439      1.5329     -0.1090     67.7049      7.7281    152.5961
  1335.9000      8.0439      1.5263      0.0303     68.1024      6.6079    154.1416
  1336.0000      8.0944      1.4981      0.0463     69.8113      5.5379    150.6465
  1336.1000      8.0944      1.4353      0.0125     73.6176      4.6322    135.4212
  1336.2000      8.0944      1.3658     -0.0333     77.8306      4.0043    116.0370
  1336.3000      8.1862      1.3067      0.0811     81.4128      3.6638    103.2829
  1336.4000      8.1862      1.2535      0.0612     84.6370      3.5810     96.4766
  1336.5000      8.3002      1.2129      0.0652     87.0992      3.7357     89.6121
  1336.6000      8.3002      1.1935      0.0442     88.2730      4.0381     83.0293
  1336.7000      8.3002      1.1947      0.0263     88.1978      4.3210     78.4132
