~Version Information
VERS.                      2.0: CWLS Log ASCII Standard - VERSION 2.0
WRAP.                       NO: One line per depth step
~Well Information Block
STRT.FT               294.0000: 
STOP.FT              1961.5000: 
STEP.FT                 0.2500: 
NULL.                -999.2500: 
COMP.          Pioneer Natural Resources: COMPANY
WELL.          Commander 43-26 Tr: WELL
FLD.           Purgatoire River: FIELD
LOC.           2439' FSL & 446' FEL: LOCATION
PROV.                 Colorado: PROVINCE
CNTY.               Las Animas: COUNTRY
SRVC.                Patterson: SERVICE COMPANY
DATE.          Thu Apr 14 18:26:07 2005: LOG DATE
UWI.           05 071 08341 00: UNIQUE WELL ID
~Curve Information Block
DEPT.FT            0 000 00 00: Depth
SN.Ohm-m                      : IEL Short Normal
SP.mV                         : IEL Spontaneous Potential
DIR.Ohm-m                     : IEL Induction Resistivity
GR.GAPI                       : Gamma Ray
~Parameter Information Block
~A  Depth        SN          SP         DIR          GR     
# ...
   830.0000   2000.0000   2000.0000     10.9244    140.9128
   830.2500   2000.0000   2000.0000     10.7672    142.5471
   830.5000   2000.0000   2000.0000     10.6285    145.8633
   830.7500   2000.0000   2000.0000     10.5031    148.7574
   831.0000   2000.0000   2000.0000     10.3864    153.4031
   831.2500   2000.0000   2000.0000     10.2753    156.0904
   831.5000   2000.0000   2000.0000     10.1684    159.0208
   831.7500   2000.0000   2000.0000     10.0666    160.3696
   832.0000   2000.0000   2000.0000      9.9712    161.6720
   832.2500   2000.0000   2000.0000      9.8817    161.8852
   832.5000   2000.0000   2000.0000      9.7971    160.9718
   832.7500   2000.0000   2000.0000      9.7170    159.8024
   833.0000   2000.0000   2000.0000      9.6432    158.1796
   833.2500   2000.0000   2000.0000      9.5792    157.6390
   833.5000   2000.0000   2000.0000      9.5300    157.6952
   833.7500   2000.0000   2000.0000      9.5007    157.8610
   834.0000   2000.0000   2000.0000      9.4967    157.0491
   834.2500   2000.0000   2000.0000      9.5217    155.2797
   834.5000   2000.0000   2000.0000      9.5758    151.2199
   834.7500   2000.0000   2000.0000      9.6546    148.6167
   835.0000   2000.0000   2000.0000      9.7493    146.7351
   835.2500   2000.0000   2000.0000      9.8466    147.2106
   835.5000   2000.0000   2000.0000      9.9314    149.7417
   835.7500   2000.0000   2000.0000      9.9917    151.7964
   836.0000   2000.0000   2000.0000     10.0247    154.0930
   836.2500   2000.0000   2000.0000     10.0372    154.5671
   836.5000   2000.0000   2000.0000     10.0395    153.3980
   836.7500   2000.0000   2000.0000     10.0388    151.6050
   837.0000   2000.0000   2000.0000     10.0375    148.2869
   837.2500   2000.0000   2000.0000     10.0375    146.2360
   837.5000   2000.0000   2000.0000     10.0443    144.2444
   837.7500   2000.0000   2000.0000     10.0662    144.0208
   838.0000   2000.0000   2000.0000     10.1082    145.6257
   838.2500   2000.0000   2000.0000     10.1674    147.7253
   838.5000   2000.0000   2000.0000     10.2322    151.1273
   838.7500   2000.0000   2000.0000     10.2884    152.6304
   839.0000   2000.0000   2000.0000     10.3243    152.5919
   839.2500   2000.0000   2000.0000     10.3329    150.7798
   839.5000   2000.0000   2000.0000     10.3117    145.5278
   839.7500   2000.0000   2000.0000     10.2642    140.7819
   840.0000   2000.0000   2000.0000     10.2035    133.3757
   840.2500   2000.0000   2000.0000     10.1541    129.5106
   840.5000   2000.0000   2000.0000     10.1500    127.1293
   840.7500   2000.0000   2000.0000     10.2275    128.1030
   841.0000   2000.0000   2000.0000     10.4176    132.1853
   841.2500   2000.0000   2000.0000     10.7401    135.2368
   841.5000   2000.0000   2000.0000     11.2001    137.9080
   841.7500   2000.0000   2000.0000     11.7883    137.5828
   842.0000   2000.0000   2000.0000     12.4851    133.5396
   842.2500   2000.0000   2000.0000     13.2628    128.6369
   842.5000   2000.0000   2000.0000     14.0790    118.9908
   842.7500   2000.0000   2000.0000     14.8670    112.0757
   843.0000   2000.0000   2000.0000     15.5422    102.8380
   843.2500   2000.0000   2000.0000     16.0392     98.0831
   843.5000   2000.0000   2000.0000     16.3540     93.1849
   843.7500   2000.0000   2000.0000     16.5394     91.0883
   844.0000   2000.0000   2000.0000     16.6569     88.9596
   844.2500   2000.0000   2000.0000     16.7364     87.8922
   844.5000   2000.0000   2000.0000     16.7750     86.6183
   844.7500   2000.0000   2000.0000     16.7604     86.0921
   845.0000   2000.0000   2000.0000     16.6893     86.3017
   845.2500   2000.0000   2000.0000     16.5684     87.5560
   845.5000   2000.0000   2000.0000     16.4084     92.0269
   845.7500   2000.0000   2000.0000     16.2218     97.2671
   846.0000   2000.0000   2000.0000     16.0220    108.9104
   846.2500   2000.0000   2000.0000     15.8167    118.6848
   846.5000   2000.0000   2000.0000     15.6022    133.8439
   846.7500   2000.0000   2000.0000     15.3648    142.2879
   847.0000   2000.0000   2000.0000     15.0936    149.8334
   847.2500   2000.0000   2000.0000     14.7948    151.0649
   847.5000   2000.0000   2000.0000     14.4951    148.3123
   847.7500   2000.0000   2000.0000     14.2309    144.4078
   848.0000   2000.0000   2000.0000     14.0341    136.9270
   848.2500   2000.0000   2000.0000     13.9258    131.6674
   848.5000   2000.0000   2000.0000     13.9190    125.0210
   848.7500   2000.0000   2000.0000     14.0228    122.2386
   849.0000   2000.0000   2000.0000     14.2408    120.5869
   849.2500   2000.0000   2000.0000     14.5627    120.2436
   849.5000   2000.0000   2000.0000     14.9536    118.7684
   849.7500   2000.0000   2000.0000     15.3499    116.3676
   850.0000   2000.0000   2000.0000     15.6724    110.6214
   850.2500   2000.0000   2000.0000     15.8559    106.0470
   850.5000   2000.0000   2000.0000     15.8794    100.0159
   850.7500   2000.0000   2000.0000     15.7731     97.7442
   851.0000   2000.0000   2000.0000     15.5970     98.4206
   851.2500   2000.0000   2000.0000     15.4069    101.9630
   851.5000   2000.0000   2000.0000     15.2294    111.5374
   851.7500   2000.0000   2000.0000     15.0583    119.7764
   852.0000   2000.0000   2000.0000     14.8742    132.1640
   852.2500   2000.0000   2000.0000     14.6721    138.9300
   852.5000   2000.0000   2000.0000     14.4745    145.8308
   852.7500   2000.0000   2000.0000     14.3172    148.6842
   853.0000   2000.0000   2000.0000     14.2238    151.5693
   853.2500   2000.0000   2000.0000     14.1920    152.8755
   853.5000   2000.0000   2000.0000     14.1987    153.5574
   853.7500   2000.0000   2000.0000     14.2160    152.8211
   854.0000   2000.0000   2000.0000     14.2264    149.7451
   854.2500   2000.0000   2000.0000     14.2295    146.5303
   854.5000   2000.0000   2000.0000     14.2397    140.4412
   854.7500   2000.0000   2000.0000     14.2772    135.9790
   855.0000   2000.0000   2000.0000     14.3558    129.9793
   855.2500   2000.0000   2000.0000     14.4741    127.3845
   855.5000   2000.0000   2000.0000     14.6123    126.5097
   855.7500   2000.0000   2000.0000     14.7379    127.5512
   856.0000   2000.0000   2000.0000     14.8153    129.7741
   856.2500   2000.0000   2000.0000     14.8187    130.9143
   856.5000   2000.0000   2000.0000     14.7380    132.3674
   856.7500   2000.0000   2000.0000     14.5789    133.8678
   857.0000   2000.0000   2000.0000     14.3569    137.3763
   857.2500   2000.0000   2000.0000     14.0939    140.0201
   857.5000   2000.0000   2000.0000     13.8146    143.1028
   857.7500   2000.0000   2000.0000     13.5411    144.2278
   858.0000   2000.0000   2000.0000     13.2865    145.0225
   858.2500   2000.0000   2000.0000     13.0556    145.5510
   858.5000   2000.0000   2000.0000     12.8503    146.8280
   858.7500   2000.0000   2000.0000     12.6745    147.5177
   859.0000   2000.0000   2000.0000     12.5321    146.5974
   859.2500   2000.0000   2000.0000     12.4237    144.1125
   859.5000   2000.0000   2000.0000     12.3473    138.4686
   859.7500   2000.0000   2000.0000     12.3046    134.6271
   860.0000   2000.0000   2000.0000     12.3067    130.4375
   860.2500   2000.0000   2000.0000     12.3721    128.9686
   860.5000   2000.0000   2000.0000     12.5182    127.9324
   860.7500   2000.0000   2000.0000     12.7519    127.2456
   861.0000   2000.0000   2000.0000     13.0642    125.7692
   861.2500   2000.0000   2000.0000     13.4329    125.0101
   861.5000   2000.0000   2000.0000     13.8294    125.3575
   861.7500   2000.0000   2000.0000     14.2278    126.6149
   862.0000   2000.0000   2000.0000     14.6102    128.9483
   862.2500   2000.0000   2000.0000     14.9668    130.2145
   862.5000   2000.0000   2000.0000     15.2963    131.6654
   862.7500   2000.0000   2000.0000     15.6065    132.5285
   863.0000   2000.0000   2000.0000     15.9136    133.1729
   863.2500   2000.0000   2000.0000     16.2391    132.4665
