~Version Information
VERS.                      2.0: CWLS Log ASCII Standard - VERSION 2.0
WRAP.                       NO: One line per depth step
~Well Information Block
STRT.FT               430.0000: 
STOP.FT              2826.2500: 
STEP.FT                 0.2500: 
NULL.                -999.2500: 
COMP.          Pioneer Natural Resources: COMPANY
WELL.           Ei-ei-oh 31-24: WELL
FLD.           Purgatoire River: FIELD
LOC.           235' FNL & 2001' FEL--: LOCATION
PROV.                 Colorado: PROVINCE
CNTY.               Las Animas: COUNTRY
SRVC.                Patterson: SERVICE COMPANY
DATE.          Thu Jun 16 06:46:37 2005: LOG DATE
UWI.           05 071 08403 00: UNIQUE WELL ID
~Curve Information Block
DEPT.FT            0 000 00 00: Depth
DIR.Ohm-m                     : IEL Induction Resistivity
SN.Ohm-m                      : IEL Short Normal
SP.mV                         : IEL Spontaneous Potential
GR.GAPI                       : Gamma Ray
~Parameter Information Block
~A  Depth       DIR          SN          SP          GR     
# ...
  1803.5000     11.4424     11.5836    -44.4765    137.8342
  1803.7500     11.3933     11.4898    -44.9451    140.1408
  1804.0000     11.4006     11.4300    -45.3790    143.4920
  1804.2500     11.4644     11.4172    -45.7798    145.8224
  1804.5000     11.5793     11.4589    -46.1506    148.9629
  1804.7500     11.7355     11.5496    -46.4990    150.3708
  1805.0000     11.9211     11.6730    -46.8389    151.3763
  1805.2500     12.1253     11.8154    -47.1917    151.8366
  1805.5000     12.3420     11.9764    -47.5857    153.6325
  1805.7500     12.5720     12.1693    -48.0534    156.1449
  1806.0000     12.8225     12.4114    -48.6282    161.5166
  1806.2500     13.1029     12.7174    -49.3406    165.1995
  1806.5000     13.4193     13.0959    -50.2147    169.1948
  1806.7500     13.7741     13.5500    -51.2658    170.3941
  1807.0000     14.1683     14.0766    -52.4984    169.8933
  1807.2500     14.6062     14.6679    -53.9065    167.9238
  1807.5000     15.0960     15.3144    -55.4724    162.3360
  1807.7500     15.6480     16.0126    -57.1690    157.1561
  1808.0000     16.2703     16.7717    -58.9613    148.5929
  1808.2500     16.9682     17.6136    -60.8096    143.2156
  1808.5000     17.7471     18.5662    -62.6737    136.3050
  1808.7500     18.6164     19.6569    -64.5157    132.3728
  1809.0000     19.5903     20.9043    -66.3035    127.2132
  1809.2500     20.6819     22.3081    -68.0122    124.2139
  1809.5000     21.8931     23.8433    -69.6256    120.1903
  1809.7500     23.2052     25.4722    -71.1359    117.6517
  1810.0000     24.5759     27.1624    -72.5425    114.1486
  1810.2500     25.9431     28.8882    -73.8500    112.4429
  1810.5000     27.2387     30.6109    -75.0644    111.7240
  1810.7500     28.4125     32.2611    -76.1888    112.5842
  1811.0000     29.4548     33.7462    -77.2198    114.7961
  1811.2500     30.3972     34.9801    -78.1448    115.7521
  1811.5000     31.2810     35.9177    -78.9432    114.8359
  1811.7500     32.1154     36.5716    -79.5897    112.4435
  1812.0000     32.8601     37.0020    -80.0609    107.1417
  1812.2500     33.4501     37.2850    -80.3413    103.6171
  1812.5000     33.8413     37.4818    -80.4290    100.5112
  1812.7500     34.0353     37.6241    -80.3389    100.6381
  1813.0000     34.0681     37.7169    -80.1014    103.9215
  1813.2500     33.9830     37.7471    -79.7592    107.5052
  1813.5000     33.8155     37.6941    -79.3609    113.8755
  1813.7500     33.5936     37.5429    -78.9547    118.4545
  1814.0000     33.3422     37.2953    -78.5825    125.6789
  1814.2500     33.0839     36.9708    -78.2751    130.6008
  1814.5000     32.8397     36.6005    -78.0499    137.1590
  1814.7500     32.6276     36.2241    -77.9105    139.9701
  1815.0000     32.4606     35.8924    -77.8479    140.5662
  1815.2500     32.3469     35.6640    -77.8432    138.7977
  1815.5000     32.2945     35.5889    -77.8708    134.7811
  1815.7500     32.3191     35.6903    -77.9018    132.1720
  1816.0000     32.4459     35.9588    -77.9074    128.6283
  1816.2500     32.6980     36.3597    -77.8611    126.2693
  1816.5000     33.0819     36.8429    -77.7406    123.0378
  1816.7500     33.5757     37.3526    -77.5285    121.6550
  1817.0000     34.1285     37.8350    -77.2124    121.0331
  1817.2500     34.6702     38.2465    -76.7857    121.0857
  1817.5000     35.1281     38.5615    -76.2477    120.9392
  1817.7500     35.4487     38.7796    -75.6045    120.6967
  1818.0000     35.6208     38.9264    -74.8693    120.6746
  1818.2500     35.6865     39.0448    -74.0629    121.0153
  1818.5000     35.7255     39.1797    -73.2119    121.8087
  1818.7500     35.8153     39.3703    -72.3474    122.3706
  1819.0000     35.9919     39.6525    -71.5009    122.9902
  1819.2500     36.2333     40.0581    -70.7008    122.8989
  1819.5000     36.4790     40.6002    -69.9680    121.2841
  1819.7500     36.6685     41.2545    -69.3120    119.1283
  1820.0000     36.7753     41.9550    -68.7281    114.6864
  1820.2500     36.8120     42.6147    -68.1962    111.0875
  1820.5000     36.8131     43.1587    -67.6811    104.8125
  1820.7500     36.8113     43.5463    -67.1349    100.4329
  1821.0000     36.8186     43.7600    -66.5020     95.1094
  1821.2500     36.8136     43.7639    -65.7257     93.2640
  1821.5000     36.7375     43.4692    -64.7558     93.4608
  1821.7500     36.5031     42.7498    -63.5565     95.1406
  1822.0000     36.0223     41.5130    -62.1131     98.7888
  1822.2500     35.2395     39.7755    -60.4354    101.3623
  1822.5000     34.1509     37.6854    -58.5577    104.8685
  1822.7500     32.8069     35.4711    -56.5358    106.9939
  1823.0000     31.3004     33.3524    -54.4399    110.5375
  1823.2500     29.7467     31.4660    -52.3470    113.7073
  1823.5000     28.2563     29.8458    -50.3321    120.0580
  1823.7500     26.9096     28.4571    -48.4612    124.8608
  1824.0000     25.7471     27.2510    -46.7862    131.2757
  1824.2500     24.7763     26.1971    -45.3416    134.2728
  1824.5000     23.9893     25.2878    -44.1438    136.6343
  1824.7500     23.3794     24.5322    -43.1925    137.1364
  1825.0000     22.9492     23.9533    -42.4737    136.9885
  1825.2500     22.7098     23.5826    -41.9642    136.5592
  1825.5000     22.6733     23.4460    -41.6360    135.5865
  1825.7500     22.8436     23.5491    -41.4598    134.6525
  1826.0000     23.2096     23.8712    -41.4070    132.5651
  1826.2500     23.7434     24.3714    -41.4482    130.6789
  1826.5000     24.4033     24.9959    -41.5516    127.3957
  1826.7500     25.1384     25.6829    -41.6803    125.0978
  1827.0000     25.8867     26.3689    -41.7906    121.5811
  1827.2500     26.5646     26.9942    -41.8348    119.2013
  1827.5000     27.0602     27.5037    -41.7656    115.7712
  1827.7500     27.2402     27.8455    -41.5431    113.6973
  1828.0000     26.9744     27.9839    -41.1422    110.8339
  1828.2500     26.1662     27.9243    -40.5577    108.9980
  1828.5000     24.7895     27.7220    -39.8059    106.8467
  1828.7500     22.9379     27.4578    -38.9235    106.5982
  1829.0000     20.8535     27.1954    -37.9626    109.2029
  1829.2500     18.8872     26.9502    -36.9851    112.8453
  1829.5000     17.4125     26.6913    -36.0554    119.7072
  1829.7500     16.8014     26.3673    -35.2345    124.1731
  1830.0000     17.5798     25.9414    -34.5742    129.3521
  1830.2500     21.0251     25.4186    -34.1134    131.2577
  1830.5000     32.1420     24.8595    -33.8748    131.3769
  1830.7500    104.1502     24.3718    -33.8644    129.8323
  1831.0000 100000.0000     24.0761    -34.0725    126.0991
  1831.2500 100000.0000     24.0620    -34.4765    123.3477
  1831.5000 100000.0000     24.3565    -35.0452    119.6269
  1831.7500 100000.0000     24.9193    -35.7434    117.6186
  1832.0000 100000.0000     25.6646    -36.5376    115.4449
  1832.2500   2007.2805     26.4967    -37.4011    114.6655
  1832.5000     48.2886     27.3388    -38.3189    114.6951
  1832.7500     27.5816     28.1449    -39.2925    115.4293
  1833.0000     21.9003     28.8921    -40.3427    116.9303
  1833.2500     19.5100     29.5632    -41.5123    117.7008
  1833.5000     17.4704     30.1311    -42.8660    117.9416
  1833.7500     14.9378     30.5582    -44.4878    117.3383
  1834.0000     12.4854     30.8107    -46.4768    115.0873
  1834.2500     11.0306     30.8775    -48.9395    112.6908
  1834.5000     11.5320     30.7793    -51.9813    108.3779
  1834.7500     18.3655     30.5593    -55.6944    105.7610
  1835.0000 100000.0000     30.2537    -60.1456    103.4586
  1835.2500 100000.0000     29.8526    -65.3652    103.1569
  1835.5000 100000.0000     29.2757    -71.3435    103.3661
  1835.7500 100000.0000     28.3913    -78.0349    102.9006
  1836.0000 100000.0000     27.0766    -85.3780    100.6546
  1836.2500 100000.0000     25.2741    -93.3294     98.9547
  1836.5000 100000.0000     22.9997   -101.9044     98.6743
  1836.7500 100000.0000     20.3183   -111.2115    101.0289
