~Version Information
 VERS.                                  2.0 : CWLS LAS VERSION
 WRAP.                                   NO : WRAPING MODE
 SWARE .                 MController 2.5.0J : SOFTWARE VERSION
~Well Information
 WELL.                      Robinson 15-12V : WELL
 COMP.                Petrogulf Corporation : COMPANY
 FLD.                      Purgatoire River : FIELD
 LOC.                SW/NW Sec 15 T33S R67W : LOCATION
 DATE.                             09/10/05 : DATE(S) LOGGED
 SRVC.       BLANCO Geological Services LLC : SERVICE COMPANY
 STAT.                                   CO : STATE
 CNTY.                           Las Animas : COUNTY
 CTRY.                                  USA : COUNTRY
 API.                       05-071-08308-00 : API NUMBER
 STRT.FT                              52.00 : START DEPTH
 STOP.FT                            2041.00 : STOP DEPTH
 STEP.FT                               1.00 : DEPTH INCREMENT
 NULL.                                -9999 : NULL VALUE
~Curve information
 DEPTH.FT                                   :
 ROP.MIN/FT                                 :
 GAS.UNITS                                  :
~ASCII Log data
# ...
      1452.0         0.27        983.7 
      1453.0         0.33        976.7 
      1454.0         0.22        959.0 
      1455.0         0.20        949.1 
      1456.0         0.20        945.3 
      1457.0         0.17        938.3 
      1458.0         0.20        933.3 
      1459.0         0.17        927.2 
      1460.0         0.17        924.4 
      1461.0         0.17        919.6 
      1462.0         0.20        916.8 
      1463.0         0.23        911.7 
      1464.0         0.17        908.2 
      1465.0         0.20        906.9 
      1466.0         0.20        906.9 
      1467.0         0.17        906.3 
      1468.0         0.20        905.3 
      1469.0         0.17        905.6 
      1470.0         3.35       2018.4 
      1471.0         0.32       1761.9 
      1472.0         0.27       1425.2 
      1473.0         0.40       1259.5 
      1474.0         0.27       1168.1 
      1475.0         0.30       1121.8 
      1476.0         0.33       1068.5 
      1477.0         0.30       1030.7 
      1478.0         0.27       1013.2 
      1479.0         0.23       1005.3 
      1480.0         0.27        997.7 
      1481.0         0.27        982.5 
      1482.0         0.22        974.8 
      1483.0         0.23        969.4 
      1484.0         0.23        964.4 
      1485.0         0.23        958.0 
      1486.0         0.20        952.0 
      1487.0         0.20        944.4 
      1488.0         0.23        936.4 
      1489.0         0.30        929.1 
      1490.0         0.23        922.8 
      1491.0         0.23        920.2 
      1492.0         0.43        919.0 
      1493.0         0.30        918.3 
      1494.0         0.20        916.8 
      1495.0         0.22        915.8 
      1496.0         0.20        913.3 
      1497.0         0.17        910.7 
      1498.0         0.17        909.1 
      1499.0         0.30        906.9 
      1500.0         3.02       1669.6 
      1501.0         0.27       1483.9 
      1502.0         0.33       1305.9 
      1503.0         0.30       1187.5 
      1504.0         0.30       1151.6 
      1505.0         0.33       1119.2 
      1506.0         0.23       1074.5 
      1507.0         0.23       1047.8 
      1508.0         0.23       1030.1 
      1509.0         0.27       1025.6 
      1510.0         0.25       1018.0 
      1511.0         0.20       1006.3 
      1512.0         0.17        993.9 
      1513.0         0.17        982.8 
      1514.0         0.07        971.0 
      1515.0         0.17        966.3 
      1516.0         0.17        958.0 
      1517.0         0.27        954.2 
      1518.0         0.30        956.7 
      1519.0         0.57        955.2 
      1520.0         0.23        918.7 
      1521.0         0.13        911.0 
      1522.0         0.17        914.8 
      1523.0         0.20        922.5 
      1524.0         0.23        935.2 
      1525.0         0.25        942.8 
      1526.0         0.17        947.2 
      1527.0         0.17        949.1 
      1528.0         0.20        948.2 
      1529.0         0.23        948.5 
      1530.0         2.95       1780.7 
      1531.0         0.30       1614.7 
      1532.0         0.27       1364.6 
      1533.0         0.20       1257.0 
      1534.0         0.17       1218.6 
      1535.0         0.20       1195.7 
      1536.0         0.27       1170.0 
      1537.0         0.23       1131.9 
      1538.0         0.33       1103.4 
      1539.0         0.30       1064.3 
      1540.0         0.33       1051.6 
      1541.0         0.35       1049.1 
      1542.0         0.33       1036.7 
      1543.0         0.30       1018.0 
      1544.0         0.23       1006.9 
      1545.0         0.23       1000.2 
      1546.0         0.20        992.0 
      1547.0         0.27        987.2 
      1548.0         0.20        979.9 
      1549.0         0.17        974.2 
      1550.0         0.20        970.1 
      1551.0         0.27        965.9 
      1552.0         0.20        961.8 
      1553.0         0.20        962.8 
      1554.0         0.20        959.9 
      1555.0         0.22        959.9 
      1556.0         0.23        958.6 
      1557.0         0.20        958.0 
      1558.0         0.27        959.0 
      1559.0         0.30        959.3 
      1560.0         0.23        956.4 
      1561.0         0.27        935.5 
      1562.0         3.72       2845.5 
      1563.0         0.33       2005.4 
      1564.0         0.30       1575.0 
      1565.0         0.52       1386.2 
      1566.0         0.37       1219.2 
      1567.0         0.37       1145.9 
      1568.0         0.33       1101.8 
      1569.0         0.37       1078.9 
      1570.0         0.23       1058.3 
      1571.0         0.23       1045.6 
      1572.0         0.23       1034.5 
      1573.0         0.20       1022.4 
      1574.0         0.23       1006.9 
      1575.0         0.23        993.9 
      1576.0         0.20        990.1 
      1577.0         0.25        988.5 
      1578.0         0.23        986.6 
      1579.0         0.23        985.9 
      1580.0         0.27        981.2 
      1581.0         0.17        978.3 
      1582.0         0.20        974.8 
      1583.0         0.20        969.1 
      1584.0         0.20        963.1 
      1585.0         0.17        962.5 
      1586.0         0.20        963.7 
      1587.0         0.13        963.7 
      1588.0         0.13        962.8 
      1589.0         0.13        960.2 
      1590.0         0.13        955.8 
      1591.0         0.17        954.2 
      1592.0         3.05       1542.3 
      1593.0         0.27       1549.3 
      1594.0         0.22       1484.6 
      1595.0         0.17       1377.9 
      1596.0         0.17       1309.4 
      1597.0         0.20       1277.6 
      1598.0         0.13       1261.4 
      1599.0         0.23       1256.0 
      1600.0         0.23       1238.3 
      1601.0         0.30       1230.3 
      1602.0         0.30       1203.7 
      1603.0         0.27       1158.0 
      1604.0         0.23       1121.1 
      1605.0         0.23       1098.3 
      1606.0         0.20       1089.7 
      1607.0         0.20       1086.6 
      1608.0         0.17       1082.4 
      1609.0         0.10       1076.7 
      1610.0         0.15       1067.8 
      1611.0         0.20       1057.7 
      1612.0         0.27       1055.1 
      1613.0         0.20       1067.8 
      1614.0         0.23       1078.0 
      1615.0         0.20       1078.9 
      1616.0         0.20       1076.1 
      1617.0         0.20       1071.0 
      1618.0         0.23       1062.4 
      1619.0         0.20       1056.4 
      1620.0         0.27       1051.6 
      1621.0         0.20       1049.1 
      1622.0         2.62       1456.3 
      1623.0         0.20       1463.6 
      1624.0         0.23       1443.3 
      1625.0         0.32       1386.2 
      1626.0         0.27       1351.9 
      1627.0         0.27       1336.3 
      1628.0         0.37       1301.7 
      1629.0         0.27       1244.0 
      1630.0         0.37       1201.1 
      1631.0         0.33       1147.2 
      1632.0         0.33       1118.9 
      1633.0         0.27       1103.1 
      1634.0         0.30       1093.2 
      1635.0         0.32       1082.7 
      1636.0         0.27       1069.4 
      1637.0         0.27       1059.3 
      1638.0         0.30       1054.5 
      1639.0         0.27       1051.0 
      1640.0         0.27       1045.9 
      1641.0         0.23       1039.9 
      1642.0         0.33       1033.2 
      1643.0         0.20       1026.3 
      1644.0         0.23       1023.4 
      1645.0         0.23       1021.5 
      1646.0         0.28       1018.0 
      1647.0         0.27       1018.0 
      1648.0         0.23       1018.3 
      1649.0         0.30       1019.0 
      1650.0         0.23       1017.7 
      1651.0         0.23       1013.2 
