~Version Information
VERS.                      2.0: CWLS Log ASCII Standard - VERSION 2.0
WRAP.                       NO: One line per depth step
~Well Information Block
STRT.FT               259.0000: 
STOP.FT              2382.0000: 
STEP.FT                 0.2500: 
NULL.                -999.2500: 
COMP.          Pioneer Natural Resources: COMPANY
WELL.          Foothills 12-36: WELL
FLD.           Purgatoire River: FIELD
LOC.           2450' FNL & 201' FWL: LOCATION
PROV.                 Colorado: PROVINCE
CNTY.               Las Animas: COUNTRY
SRVC.                Patterson: SERVICE COMPANY
DATE.          Thu Apr 21 03:00:58 2005: LOG DATE
UWI.           05 071 08339 00: UNIQUE WELL ID
~Curve Information Block
DEPT.FT            0 000 00 00: Depth
SN.Ohm-m                      : IEL Short Normal
SP.mV                         : IEL Spontaneous Potential
DIR.Ohm-m                     : IEL Induction Resistivity
GR.GAPI                       : Gamma Ray
~Parameter Information Block
~A  Depth        SN          SP         DIR          GR     
# ...
   962.5000     13.5481   -187.1644     15.1864    106.1738
   962.7500     13.5376   -187.3182     15.1923    106.1283
   963.0000     13.6849   -187.5237     15.2552    104.3889
   963.2500     13.8700   -187.7888     15.3704    102.2981
   963.5000     14.0462   -188.1112     15.5233     98.5965
   963.7500     14.2970   -188.4756     15.6861     96.2712
   964.0000     14.7027   -188.8493     15.8099     93.6002
   964.2500     15.2522   -189.1803     15.8293     92.4755
   964.5000     15.8027   -189.4098     15.6972     91.5688
   964.7500     16.1250   -189.4970     15.4274     91.2931
   965.0000     16.0768   -189.4414     15.0998     91.4079
   965.2500     15.6683   -189.2831     14.8135     92.2040
   965.5000     15.0033   -189.0835     14.6315     95.2498
   965.7500     14.2672   -188.8999     14.5563     98.5222
   966.0000     13.6858   -188.7641     14.5416    104.0307
   966.2500     13.3574   -188.6693     14.5249    106.9872
   966.5000     13.1947   -188.5725     14.4598    109.2635
   966.7500     13.1045   -188.4146     14.3304    109.6723
   967.0000     13.0748   -188.1509     14.1437    110.1070
   967.2500     13.0700   -187.7771     13.9164    110.7477
   967.5000     13.0286   -187.3370     13.6667    111.5334
   967.7500     12.9411   -186.9054     13.4138    111.1288
   968.0000     12.8124   -186.5558     13.1757    108.6278
   968.2500     12.6370   -186.3314     12.9656    106.3131
   968.5000     12.4716   -186.2359     12.7858    103.8665
   968.7500     12.4153   -186.2363     12.6281    103.8362
   969.0000     12.4430   -186.2765     12.4782    106.0738
   969.2500     12.3854   -186.3009     12.3219    108.1247
   969.5000     12.1311   -186.2779     12.1480    110.5246
   969.7500     11.7537   -186.2074     11.9437    111.5786
   970.0000     11.4783   -186.1130     11.6907    112.9218
   970.2500     11.5297   -186.0269     11.3705    113.6326
   970.5000     11.8974   -185.9769     10.9817    113.5004
   970.7500     12.3278   -185.9750     10.5529    112.1343
   971.0000     12.5989   -186.0103     10.1376    108.1443
   971.2500     12.6863   -186.0494      9.7930    104.5347
   971.5000     12.6634   -186.0584      9.5650     98.6555
   971.7500     12.5925   -186.0368      9.4977     95.2834
   972.0000     12.5081   -186.0252      9.6668     92.7533
   972.2500     12.3683   -186.0666     10.2407     93.2765
   972.5000     12.1016   -186.1629     11.6060     96.5163
   972.7500     11.7631   -186.2734     14.7930     99.0991
   973.0000     11.5542   -186.3496     23.7920    102.0311
   973.2500     11.6134   -186.3707     84.5465    103.2259
   973.5000     11.8277   -186.3535 100000.0000    104.2496
   973.7500     11.9620   -186.3391 100000.0000    104.4717
   974.0000     11.9039   -186.3705 100000.0000    104.0672
   974.2500     11.7118   -186.4754 100000.0000    103.5015
   974.5000     11.5045   -186.6551 100000.0000    102.7796
   974.7500     11.3640   -186.8795 100000.0000    102.5140
   975.0000     11.3025   -187.0972 100000.0000    102.0777
   975.2500     11.2984   -187.2619 100000.0000    101.4183
   975.5000     11.3635   -187.3555   2867.3088     99.7677
   975.7500     11.5274   -187.3894    105.4958     98.6489
   976.0000     11.7918   -187.3936     78.2057     98.1434
   976.2500     12.1302   -187.4111     97.9354     99.0847
   976.5000     12.4579   -187.4984   1449.9119    102.2815
   976.7500     12.6145   -187.7191 100000.0000    105.0391
   977.0000     12.4672   -188.1302 100000.0000    109.0617
   977.2500     12.0697   -188.7744 100000.0000    111.3258
   977.5000     11.6555   -189.6867 100000.0000    113.9922
   977.7500     11.3603   -190.9134 100000.0000    115.3529
   978.0000     11.0775   -192.5418 100000.0000    116.9751
   978.2500     10.7000   -194.7270 100000.0000    117.8575
   978.5000     10.2854   -197.7040 100000.0000    118.5844
   978.7500      9.9613   -201.7891 100000.0000    118.1967
   979.0000      9.8201   -207.3922 100000.0000    115.5902
   979.2500      9.8817   -215.0820      2.9086    112.5753
   979.5000     10.1001   -225.7056      1.0041    107.0371
   979.7500     10.3522   -240.4684      0.4897    103.1645
   980.0000     10.4365   -260.6552      0.2744     97.2736
   980.2500     10.1480   -286.6335      0.1745     93.1672
   980.5000      9.3705   -316.5116      0.1341     86.6773
   980.7500      8.1507   -345.9198      0.1310     82.2526
   981.0000      6.7140   -369.9607      0.1631     75.7533
   981.2500      5.3702   -385.9810      0.2455     71.6460
   981.5000      4.4184   -394.5874      0.4119     66.0119
   981.7500      4.0686   -398.2911      0.7321     62.7000
   982.0000      4.2738   -399.5631      1.3706     58.3306
   982.2500      4.7094   -399.9109      2.6423     55.5082
   982.5000      5.0489   -399.9864      4.7205     50.6282
   982.7500      5.1765   -399.9992      6.6084     46.6946
   983.0000      5.1153   -400.0003      7.0989     40.1246
   983.2500      4.9230   -400.0003      6.9337     35.8047
   983.5000      4.7099   -400.0003      7.0949     30.1729
   983.7500      4.5788   -400.0003      8.0804     27.1963
   984.0000      4.5161   -400.0003     10.5138     24.0260
   984.2500      4.4403   -400.0003     15.9644     22.7973
   984.5000      4.3364   -400.0003     28.9429     22.1029
   984.7500      4.2706   -400.0003     61.8950     22.1324
   985.0000      4.2732   -400.0003    121.4166     22.3960
   985.2500      4.3084   -400.0003    140.6237     22.5228
   985.5000      4.3745   -400.0003    166.7713     22.4936
   985.7500      4.4813   -400.0003 100000.0000     22.3212
   986.0000      4.5595   -400.0003 100000.0000     22.0162
   986.2500      4.5760   -400.0003 100000.0000     21.9660
   986.5000      4.6219   -400.0003 100000.0000     22.2917
   986.7500      4.7196   -400.0003 100000.0000     22.7254
   987.0000      4.7388   -400.0003 100000.0000     23.6418
   987.2500      4.6120   -400.0003 100000.0000     24.6208
   987.5000      4.4087   -399.9975 100000.0000     27.3843
   987.7500      4.2099   -399.9727 100000.0000     30.5816
   988.0000      4.0904   -399.8343 100000.0000     37.9534
   988.2500      4.1528   -399.2299 100000.0000     44.6264
   988.5000      4.4073   -397.1366 100000.0000     56.8841
   988.7500      4.6458   -391.3660 100000.0000     66.0364
   989.0000      4.6515   -378.6693     29.1818     79.7202
   989.2500      4.5079   -356.2880      6.9942     87.7178
   989.5000      4.5169   -324.5093      2.8552     96.6740
   989.7500      4.9058   -287.8555      1.4128    100.5578
   990.0000      5.6763   -253.0234      0.8192    104.2397
   990.2500      6.6369   -225.0835      0.5516    105.9832
   990.5000      7.5480   -205.3680      0.4345    108.1327
   990.7500      8.2489   -192.2751      0.4065    109.0792
   991.0000      8.7364   -183.2768      0.4519    108.9981
   991.2500      9.1600   -176.2555      0.5884    107.6869
   991.5000      9.6704   -169.8641      0.8943    104.3889
   991.7500     10.3212   -163.5374      1.6770    102.0708
   992.0000     11.0944   -157.6439      5.1676     99.3417
   992.2500     11.8931   -153.5867 100000.0000     97.8620
   992.5000     12.6279   -153.1933 100000.0000     95.1251
   992.7500     13.4057   -157.2785 100000.0000     92.5148
   993.0000     14.5519   -164.5779 100000.0000     87.2678
   993.2500     16.4377   -172.3856 100000.0000     82.8731
   993.5000     19.3380   -178.4064 100000.0000     75.0014
   993.7500     23.5374   -181.9401 100000.0000     69.3791
   994.0000     29.5443   -183.5541 100000.0000     62.0978
   994.2500     38.0070   -184.1179 100000.0000     58.8070
   994.5000     49.1412   -184.2268 100000.0000     55.7783
   994.7500     62.1725   -184.1473 100000.0000     53.8859
   995.0000     75.8084   -183.9575 100000.0000     49.5287
   995.2500     89.3302   -183.6712 100000.0000     45.5920
   995.5000    102.2632   -183.3065 100000.0000     39.8981
   995.7500    112.9753   -182.9030 100000.0000     37.6896
