~Version Information
VERS.                      2.0: CWLS Log ASCII Standard - VERSION 2.0
WRAP.                       NO: One line per depth step
~Well Information Block
STRT.FT               -13.0000: 
STOP.FT              1411.2500: 
STEP.FT                 0.2500: 
NULL.                -999.2500: 
COMP.                         : COMPANY
WELL.                         : WELL
FLD.                          : FIELD
LOC.                          : LOCATION
CNTY.                         : COUNTY
SRVC.                         : SERVICE COMPANY
DATE.          Sat Jan 17 07:25:27 2004: LOG DATE
UWI.                          : UNIQUE WELL ID
STAT.                         : STATE
~Curve Information Block
DEPT.FT            0 000 00 00: Depth
CCL.                          : Casing Collar Locator
TT3.usec                      : CBL 3' Travel Time
AMP3.mV                       : CBL 3' Amplitude
GR.GAPI                       : Gamma Ray
~Parameter Information Block
~A  Depth       CCL         TT3         AMP3         GR     
# ...
  1293.5000      4.0000    804.9448      5.3301     88.9094
  1293.7500      0.0000    819.9758      5.1184     85.3444
  1294.0000      0.0000    839.9303      4.8829     81.0845
  1294.2500      0.0000    854.9397      4.7318     76.7323
  1294.5000      0.0000    855.4430      4.7357     72.4070
  1294.7500      0.0000    840.1775      4.8625     67.9170
  1295.0000      0.0000    817.6650      4.9805     63.0613
  1295.2500      0.0000    799.0020      4.9428     57.8280
  1295.5000      0.0000    788.5454      4.6933     52.6280
  1295.7500      0.0000    781.6816      4.3066     48.2555
  1296.0000      0.0000    771.3589      3.9354     45.3520
  1296.2500      0.0000    755.8369      3.7101     43.8657
  1296.5000      0.0000    739.8085      3.6575     43.1056
  1296.7500      0.0000    729.5831      3.6929     42.2832
  1297.0000      0.0000    728.6940      3.6885     41.0430
  1297.2500      0.0000    737.1128      3.5616     39.6978
  1297.5000      0.0000    752.3561      3.3210     39.2291
  1297.7500      0.0000    770.6168      3.0490     41.1732
  1298.0000      0.0000    788.2564      2.8318     47.3680
  1298.2500      0.0000    803.6735      2.6898     59.3286
  1298.5000      0.0000    817.7449      2.5777     77.1578
  1298.7500      0.0000    831.6392      2.4579     98.6028
  1299.0000      0.0000    844.1877      2.3680    119.4041
  1299.2500      0.0000    852.0461      2.3994    135.2420
  1299.5000      0.0000    852.4645      2.6065    143.9658
  1299.7500      0.0000    845.6451      2.9495    146.3611
  1300.0000      0.0000    834.8370      3.3319    145.0110
  1300.2500      0.0000    824.6325      3.6844    142.4014
  1300.5000      0.0000    818.6507      4.0108    139.6846
  1300.7500      0.0000    817.6075      4.3697    136.7059
  1301.0000      0.0000    819.0334      4.8217    132.9235
  1301.2500      0.0000    819.4466      5.3812    128.4296
  1301.5000      0.0000    817.3126      5.9986    124.3866
  1301.7500      0.0000    813.7448      6.5869    122.3377
  1302.0000      0.0000    810.6104      7.0751    122.7990
  1302.2500      0.0000    808.7143      7.4359    124.6374
  1302.5000      0.0000    807.7543      7.6646    126.1174
  1302.7500      0.0000    807.2136      7.7537    126.4523
  1303.0000      0.0000    806.9235      7.7117    126.2090
  1303.2500      0.0000    807.1707      7.5983    126.2612
  1303.5000      0.0000    808.6226      7.5153    126.5362
  1303.7500      0.0000    811.9003      7.5365    126.0353
  1304.0000      0.0000    816.8080      7.6389    124.2185
  1304.2500      0.0000    822.1132      7.7171    122.1363
  1304.5000      0.0000    826.5012      7.6846    121.6978
  1304.7500      0.0000    829.5475      7.5548    123.8617
  1305.0000      0.0000    831.2928      7.4132    128.0134
  1305.2500      0.0000    831.3090      7.3270    132.9613
  1305.5000      0.0000    828.8821      7.2973    137.7998
  1305.7500      0.0000    823.7741      7.2974    141.7095
  1306.0000      0.0000    816.2889      7.3272    143.6849
  1306.2500      0.0000    807.0418      7.4032    143.0142
  1306.5000      0.0000    797.1495      7.5047    139.9831
  1306.7500      0.0000    788.1047      7.5679    135.8389
  1307.0000      0.0000    780.8388      7.5506    132.0620
  1307.2500      0.0000    775.0089      7.4794    129.6930
  1307.5000      0.0000    769.4656      7.4167    129.0844
  1307.7500      0.0000    763.6129      7.3843    129.8287
  1308.0000      0.0000    758.6572      7.3379    130.9024
  1308.2500      0.0000    757.5147      7.2208    131.3374
  1308.5000      0.0000    762.9990      7.0303    130.9920
  1308.7500      0.0000    775.3669      6.8147    130.6241
  1309.0000      0.0000    791.3438      6.6211    131.3093
  1309.2500      0.0000    806.0973      6.4663    133.7416
  1309.5000      0.0000    816.6809      6.3415    137.6171
  1309.7500      0.0000    823.5601      6.2274    141.3780
  1310.0000      0.0000    828.9545      6.1186    142.9691
  1310.2500      0.0000    834.1301      6.0441    141.4299
  1310.5000      0.0000    838.3171      6.0490    137.7237
  1310.7500      0.0000    839.6361      6.1611    133.7558
  1311.0000      0.0000    836.5988      6.3940    130.7429
  1311.2500      0.0000    829.1725      6.7527    128.7223
  1311.5000      0.0000    819.2109      7.1837    127.2307
  1311.7500      0.0000    809.9235      7.5346    125.8794
  1312.0000      0.0000    804.2203      7.6400    124.3896
  1312.2500      0.0000    802.9318      7.4630    122.5944
  1312.5000      0.0000    804.6213      7.1233    120.6031
  1312.7500      0.0000    807.1426      6.7914    118.8280
  1313.0000      0.0000    809.1479      6.5698    117.6749
  1313.2500      0.0000    810.0427      6.4503    117.0199
  1313.5000      0.0000    808.8921      6.3657    116.0723
  1313.7500      0.0000    803.8926      6.2815    114.0626
  1314.0000      0.0000    793.3943      6.2235    111.0680
  1314.2500      0.0000    777.8818      6.2151    107.8474
  1314.5000      0.0000    760.9891      6.2244    104.8924
  1314.7500      0.0000    748.1169      6.2050    102.0599
  1315.0000      0.0000    743.2728      6.1595     99.2843
  1315.2500      0.0000    746.6477      6.1183     97.2376
  1315.5000      0.0000    755.1255      6.0750     96.8237
  1315.7500      0.0000    764.9382      5.9969     98.0367
  1316.0000      0.0000    773.4973      5.8947     99.6211
  1316.2500      0.0000    779.2906      5.8242     99.9627
  1316.5000      0.0000    781.4760      5.8132     98.3015
  1316.7500      0.0000    780.1080      5.8338     95.1848
  1317.0000      0.0000    776.2480      5.8495     91.9751
  1317.2500      0.0000    771.5900      5.8428     90.0530
  1317.5000      0.0000    768.0274      5.8057     90.3464
  1317.7500      0.0000    767.1933      5.7559     93.1246
  1318.0000      0.0000    769.7948      5.7584     97.8845
  1318.2500      0.0000    775.1079      5.8742    103.6028
  1318.5000      0.0000    781.3051      6.0824    109.2863
  1318.7500      0.0000    786.7513      6.2928    114.2949
  1319.0000      0.0000    791.0873      6.4366    118.4063
  1319.2500      0.0000    794.8609      6.5071    121.9658
  1319.5000      0.0000    798.3860      6.5185    125.7803
  1319.7500      0.0000    801.3977      6.4627    130.2885
  1320.0000      0.0000    803.5968      6.3123    134.8228
  1320.2500      0.0000    804.9857      6.0521    138.0445
  1320.5000      0.0000    805.5984      5.7141    139.0526
  1320.7500      0.0000    805.0945      5.3851    137.8734
  1321.0000      0.0000    802.8585      5.1599    135.1628
  1321.2500      0.0000    798.8734      5.0763    131.7177
  1321.5000      0.0000    794.6630      5.1046    128.0742
  1321.7500      0.0000    792.8798      5.1833    124.2311
  1322.0000      0.0000    795.3062      5.2441    119.7706
  1322.2500      0.0000    801.2593      5.2351    114.5708
  1322.5000      0.0000    808.2510      5.1632    109.6212
  1322.7500      0.0000    814.0778      5.1040    106.8522
  1323.0000      0.0000    817.9579      5.1433    107.8690
  1323.2500      0.0000    819.7435      5.3187    113.0084
  1323.5000      0.0000    818.8022      5.6155    121.5572
  1323.7500      0.0000    814.6129      5.9796    132.1383
  1324.0000      0.0000    808.3798      6.3240    142.5499
  1324.2500      0.0000    802.9119      6.5634    149.9941
  1324.5000      0.0000    800.3448      6.6657    152.4845
  1324.7500      0.0000    800.5139      6.6589    150.2750
  1325.0000      0.0000    801.7042      6.5954    145.5523
  1325.2500      0.0000    802.1846      6.5198    140.6470
  1325.5000      0.0000    800.6824      6.4596    136.8041
  1325.7500      0.0000    796.2246      6.4223    134.4153
  1326.0000      0.0000    788.3547      6.3925    133.5016
  1326.2500      0.0000    777.4711      6.3350    133.4386
  1326.5000      0.0000    764.6152      6.2141    132.7245
  1326.7500      0.0000    751.0330      6.0269    129.8218
