~Version Information
VERS.                      2.0: CWLS Log ASCII Standard - VERSION 2.0
WRAP.                       NO: One line per depth step
~Well Information Block
STRT.FT               630.0000: 
STOP.FT              1155.5000: 
STEP.FT                 0.1000: 
NULL.                -999.2500: 
COMP.          Pioneer Natural Resources: COMPANY
WELL.          Drewmeister 34-34: WELL
FLD.           Purgatoire River: FIELD
LOC.           958' FSL & 1857' FEL: LOCATION
STAT.                 Colorado: State
CNTY.               Las Animas: COUNTY
CTRY. USA : Country
SECT. 34 : Section
TOWN. 32S : Township
RANG. 65W : Range
SRVC.                Patterson: SERVICE COMPANY
DATE.          Tue Oct 04 08:23:16 2005: LOG DATE
API.           05 071 08131 00: UNIQUE WELL ID
~Curve Information Block
DEPT.FT            0 000 00 00: Depth
DCAL.in                       : CDL Caliper
RHOB.g/cc                     : CDL Bulk Density
RHOC.g/cc                     : CDL Density Correction
DPOR.pu                       : CDL Density Porosity
GR.GAPI                       : Gamma Ray
NPOR.pu                       : Neutron Porosity
~Parameter Information Block
~A  Depth       DCAL        RHOB        RHOC        DPOR         GR         NPOR    
# ...
   870.0000      8.1295      2.4794      0.0003     10.3377    119.9675     28.1192
   870.1000      8.1295      2.4191     -0.0504     13.9959    119.1601     26.5761
   870.2000      8.1295      2.3772     -0.0998     16.5308    112.8632     25.3178
   870.3000      8.1266      2.3631     -0.0442     17.3864    104.4613     24.6331
   870.4000      8.1266      2.3678     -0.0005     17.1018     96.4249     23.8736
   870.5000      8.1268      2.3921     -0.0357     15.6273     91.8251     23.3665
   870.6000      8.1268      2.4410      0.0387     12.6652     93.1341     23.6245
   870.7000      8.1268      2.5014      0.0740      9.0050     94.1471     24.2096
   870.8000      8.1213      2.5590      0.1281      5.5179     91.8654     24.5382
   870.9000      8.1213      2.6038      0.2025      2.7998     90.7517     24.2332
   871.0000      8.1121      2.6233      0.1996      1.6162     89.5117     23.2984
   871.1000      8.1121      2.6125      0.1967      2.2716     85.5310     22.3387
   871.2000      8.1121      2.5790      0.1339      4.3011     82.4030     21.9487
   871.3000      8.1211      2.5396      0.0876      6.6891     85.8573     21.9799
   871.4000      8.1211      2.5029      0.0637      8.9170     94.5177     21.8368
   871.5000      8.1453      2.4671      0.0053     11.0849    103.0076     21.4589
   871.6000      8.1453      2.4421     -0.0134     12.6027    110.7967     21.3423
   871.7000      8.1453      2.4435      0.0113     12.5148    116.4089     21.6267
   871.8000      8.1598      2.4698      0.0485     10.9197    116.6970     22.0733
   871.9000      8.1598      2.4911      0.0903      9.6328    115.3634     22.3155
   872.0000      8.1632      2.4762      0.0992     10.5358    115.5091     21.9795
   872.1000      8.1632      2.4401     -0.0008     12.7237    115.8153     21.4407
   872.2000      8.1632      2.4238      0.0047     13.7071    119.7759     21.1795
   872.3000      8.1636      2.4327      0.0412     13.1706    128.9035     21.1069
   872.4000      8.1636      2.4429      0.0601     12.5520    136.8620     21.1925
   872.5000      8.1634      2.4479      0.0416     12.2481    140.0476     21.5734
   872.6000      8.1634      2.4592      0.0668     11.5632    141.1537     22.2972
   872.7000      8.1634      2.4784      0.0727     10.4009    140.0251     23.1791
   872.8000      8.1634      2.4977      0.0808      9.2277    132.4574     23.9769
   872.9000      8.1634      2.5165      0.0754      8.0903    119.4243     24.6231
   873.0000      8.1639      2.5308      0.1313      7.2253    110.3421     24.8036
   873.1000      8.1639      2.5296      0.0896      7.2992    111.7328     24.6008
   873.2000      8.1639      2.5153      0.0752      8.1608    118.0045     24.6096
   873.3000      8.1659      2.5017      0.0204      8.9859    124.7252     24.4915
   873.4000      8.1659      2.4988      0.0372      9.1639    129.1607     23.6187
   873.5000      8.1671      2.5085      0.0493      8.5743    124.4147     22.6784
   873.6000      8.1671      2.5313      0.0397      7.1933    110.7944     22.8631
   873.7000      8.1671      2.5630      0.0754      5.2754     96.3828     24.4201
   873.8000      8.1647      2.5870      0.0862      3.8158     89.2767     26.4273
   873.9000      8.1647      2.5930      0.0635      3.4542     91.7171     27.5971
   874.0000      8.1628      2.5848      0.0495      3.9521     99.9366     27.7641
   874.1000      8.1628      2.5701      0.0464      4.8429    107.5235     27.5459
   874.2000      8.1628      2.5603     -0.0145      5.4387    106.8836     26.8521
   874.3000      8.1626      2.5598      0.0064      5.4664     97.9312     25.6995
   874.4000      8.1626      2.5635     -0.0116      5.2453     87.9680     24.6839
   874.5000      8.1633      2.5692      0.0148      4.8977     82.5543     24.1852
   874.6000      8.1633      2.5682      0.0570      4.9576     83.0628     24.0396
   874.7000      8.1633      2.5550     -0.0055      5.7589     85.4719     23.8169
   874.8000      8.1641      2.5444      0.0017      6.3991     84.8474     23.5027
   874.9000      8.1641      2.5448     -0.0131      6.3746     82.0443     23.4726
   875.0000      8.1640      2.5470     -0.0125      6.2395     81.7163     23.7000
   875.1000      8.1640      2.5455     -0.0256      6.3362     84.7537     23.4312
   875.2000      8.1640      2.5391      0.0030      6.7191     86.1489     22.3302
   875.3000      8.1627      2.5306     -0.0333      7.2364     84.0318     21.1786
   875.4000      8.1627      2.5255      0.0102      7.5448     84.1416     20.6165
   875.5000      8.1619      2.5160      0.0261      8.1231     89.3156     20.6447
   875.6000      8.1619      2.4939      0.0200      9.4631     92.4310     21.0300
   875.7000      8.1619      2.4748     -0.0316     10.6192     88.6272     21.3549
   875.8000      8.1613      2.4764     -0.0043     10.5237     82.0239     21.4776
   875.9000      8.1613      2.4917      0.0166      9.5965     74.3903     21.3541
   876.0000      8.1595      2.5148     -0.0386      8.1946     66.3672     20.8293
   876.1000      8.1595      2.5498      0.0323      6.0700     64.3092     20.2030
   876.2000      8.1595      2.5824      0.0646      4.0959     67.7289     20.0201
   876.3000      8.1565      2.5949      0.0395      3.3381     69.1514     20.2924
   876.4000      8.1565      2.5922      0.0260      3.5016     67.7867     20.6420
   876.5000      8.1553      2.5879      0.0395      3.7613     66.0789     20.8916
   876.6000      8.1553      2.5839      0.1079      4.0049     64.8293     20.9110
   876.7000      8.1553      2.5803      0.0517      4.2260     63.7731     20.3835
   876.8000      8.1575      2.5841      0.0724      3.9922     61.9302     19.4911
   876.9000      8.1575      2.5917      0.0939      3.5350     60.2979     18.8421
   877.0000      8.1635      2.5920      0.0733      3.5175     61.4851     18.6614
   877.1000      8.1635      2.5859      0.0493      3.8846     65.8808     18.8679
   877.2000      8.1635      2.5819      0.0476      4.1255     70.3894     19.2780
   877.3000      8.1737      2.5846      0.0539      3.9649     72.2987     19.6362
   877.4000      8.1737      2.5981      0.0656      3.1483     71.9449     19.5830
   877.5000      8.1813      2.6208      0.0785      1.7667     71.8382     19.0592
   877.6000      8.1813      2.6348      0.0924      0.9212     74.1335     18.6017
   877.7000      8.1813      2.6231      0.0673      1.6299     76.8868     18.6726
   877.8000      8.1842      2.5936      0.0248      3.4160     75.3079     19.1047
   877.9000      8.1842      2.5644     -0.0110      5.1909     70.2505     19.5736
   878.0000      8.1853      2.5409      0.0010      6.6147     67.3719     19.9860
   878.1000      8.1853      2.5262     -0.0105      7.5041     67.8135     20.2555
   878.2000      8.1853      2.5249      0.0390      7.5820     66.4228     20.5209
   878.3000      8.1840      2.5340      0.0186      7.0306     61.6425     20.7927
   878.4000      8.1840      2.5486      0.0414      6.1471     60.6931     20.6706
   878.5000      8.1792      2.5649      0.0293      5.1581     66.5907     19.9973
   878.6000      8.1792      2.5778      0.0351      4.3763     72.6668     18.9055
   878.7000      8.1792      2.5811      0.0403      4.1732     73.6141     17.5817
   878.8000      8.1755      2.5731      0.0297      4.6600     72.1181     16.5511
   878.9000      8.1755      2.5578      0.0243      5.5856     71.8257     16.1450
   879.0000      8.1773      2.5273      0.0226      7.4387     73.8533     15.9883
   879.1000      8.1773      2.4697     -0.0205     10.9251     77.1988     15.5717
   879.2000      8.1773      2.4028     -0.0512     14.9798     77.7913     14.8750
   879.3000      8.1845      2.3473     -0.0421     18.3457     77.2675     14.3679
   879.4000      8.1845      2.2927     -0.0445     21.6543     82.1925     14.4216
   879.5000      8.1918      2.2307     -0.0845     25.4125     92.0976     14.7883
