~Version Information
VERS.                      2.0: CWLS Log ASCII Standard - VERSION 2.0
WRAP.                       NO: One line per depth step
~Well Information Block
STRT.FT               875.6000: 
STOP.FT              2510.0000: 
STEP.FT                 0.1000: 
NULL.                -999.2500: 
COMP.          Petrogulf Corporation: COMPANY
WELL.          Collister 17-31 V: WELL
FLD.           Purgatoire River: FIELD
LOC.           910' FNL & 1594' FEL: LOCATION
PROV.                 Colorado: PROVINCE
CNTY.               Las Animas: COUNTRY
SRVC.                Patterson: SERVICE COMPANY
DATE.          Fri Dec 12 13:49:30 2003: LOG DATE
UWI.                          : UNIQUE WELL ID
~Curve Information Block
DEPT.FT            0 000 00 00: Depth
DCAL.in                       : CDL Caliper
DPOR.pu                       : CDL Density Porosity
NPOR.pu                       : Neutron Porosity
RHOB.g/cc                     : CDL Bulk Density
RHOC.g/cc                     : CDL Density Correction
GR.GAPI                       : Gamma Ray
~Parameter Information Block
~A  Depth       DCAL        DPOR        NPOR        RHOB        RHOC         GR     
# ...
   894.8000      8.2584   -999.2500     53.0240   -999.2500     -0.3400     85.1491
   894.9000      8.2584   -999.2500     53.1699   -999.2500     -0.2856     82.7919
   895.0000      8.2556   -999.2500     53.3162   -999.2500     -0.3719     77.5089
   895.1000      8.2556   -999.2500     53.7475   -999.2500     -0.4785     75.9096
   895.2000      8.2556     28.1183     54.3266      2.1860     -0.4116     76.6696
   895.3000      8.2522     30.3611     54.5795      2.1490     -0.3904     73.3238
   895.4000      8.2522     35.3499     54.4310      2.0667     -0.5295     68.8353
   895.5000      8.2496     40.3967     54.1731      1.9835     -0.5939     69.0956
   895.6000      8.2496     43.7237     54.0176      1.9286     -0.4527     71.1831
   895.7000      8.2496     46.5487     53.9939      1.8819     -0.5617     72.1322
   895.8000      8.2574     48.3315     53.8903      1.8525     -0.7095     73.2379
   895.9000      8.2574     46.9687     53.6550      1.8750     -0.6410     73.4751
   896.0000      8.2557     42.3165     53.3582      1.9518     -0.5629     71.7485
   896.1000      8.2557     36.5237     53.0276      2.0474     -0.5338     68.4171
   896.2000      8.2557     32.7299     52.8227      2.1100     -0.3444     64.7359
   896.3000      8.2590     32.3223     52.9010      2.1167     -0.5698     62.2888
   896.4000      8.2590     34.5357     53.0846      2.0802     -0.4548     61.7145
   896.5000      8.2500     39.2525     53.1738      2.0023     -0.6301     63.1957
   896.6000      8.2500     46.2782     53.4591      1.8864     -0.5683     65.3465
   896.7000      8.2500     54.8055     53.9755      1.7457     -0.5998     64.2327
   896.8000      8.2597     63.4645     54.2817      1.6028     -0.7136     60.0974
   896.9000      8.2597     70.3871     54.1529      1.4886     -0.7762     57.0383
   897.0000      8.2549     74.6898     53.9577      1.4176     -0.7713     56.9281
   897.1000      8.2549     75.7839     54.0806      1.3996     -0.9279     58.3816
   897.2000      8.2549     72.8943     54.1332      1.4472     -0.8982     58.9334
   897.3000      8.2573     67.3760     53.7103      1.5383     -0.7284     59.2970
   897.4000      8.2573     62.0926     52.9758      1.6255     -0.6889     61.1325
   897.5000      8.2567     58.5382     52.1699      1.6841     -0.6756     61.8425
   897.6000      8.2567     56.0925     51.5832      1.7245     -0.8099     58.3637
   897.7000      8.2567     52.9457     51.5400      1.7764     -0.8169     54.1738
   897.8000      8.2541     48.6129     51.9279      1.8479     -0.6361     58.4219
   897.9000      8.2541     44.9768     52.3740      1.9079     -0.5444     71.2734
   898.0000      8.2487     43.2543     52.8181      1.9363     -0.5611     81.1130
   898.1000      8.2487     42.9813     53.2242      1.9408     -0.5350     84.1932
   898.2000      8.2487     42.6779     53.1459      1.9458     -0.6893     86.7099
   898.3000      8.2477     39.8145     52.7952      1.9931     -0.6196     89.0851
   898.4000      8.2477     34.1292     52.7278      2.0869     -0.5556     87.7746
   898.5000      8.2396     28.6402     52.6800      2.1774     -0.3900     83.0891
   898.6000      8.2396     25.8347     52.3583      2.2237     -0.3680     79.4020
   898.7000      8.2396     25.1260     52.1127      2.2354     -0.3229     81.8454
   898.8000      8.2415     24.8185     52.3270      2.2405     -0.3050     88.1522
   898.9000      8.2415     24.5121     52.7630      2.2456     -0.3135     91.1719
   899.0000      8.2402     24.5754     52.9748      2.2445     -0.3890     90.4360
   899.1000      8.2402     25.5227     53.1354      2.2289     -0.3601     90.0807
   899.2000      8.2402     27.6505     53.2968      2.1938     -0.3798     92.3981
   899.3000      8.2454     29.4163     53.0312      2.1646     -0.4633     95.8793
   899.4000      8.2454     28.8448     52.6435      2.1741     -0.4617     96.5340
   899.5000      8.2414     26.8518     52.7807      2.2069     -0.3264     92.7336
   899.6000      8.2414     24.5392     53.2110      2.2451     -0.4657     87.2769
   899.7000      8.2414     21.5333     53.3767      2.2947     -0.3742     84.4593
   899.8000      8.2381     19.1973     53.1917      2.3332     -0.2430     84.7443
   899.9000      8.2381     19.1217     52.8592      2.3345     -0.3510     84.1057
   900.0000      8.2434     20.9002     52.7368      2.3051     -0.4259     80.2768
   900.1000      8.2434     24.0180     52.9280      2.2537     -0.3825     77.6767
   900.2000      8.2434     27.9444     53.1691      2.1889     -0.4793     79.8720
   900.3000      8.2420     30.9769     53.4725      2.1389     -0.5037     83.8659
   900.4000      8.2420     31.4862     53.9213      2.1305     -0.5552     87.7020
   900.5000      8.2450     30.2016     54.2863      2.1517     -0.4442     90.8777
   900.6000      8.2450     29.8058     54.4085      2.1582     -0.5420     88.6748
   900.7000      8.2450     31.7745     54.3838      2.1257     -0.4986     80.9465
   900.8000      8.2516     36.1575     54.1839      2.0534     -0.5426     72.4870
   900.9000      8.2516     42.1914     53.8244      1.9538     -0.5829     64.1570
   901.0000      8.2538     47.8734     53.5953      1.8601     -0.6744     57.1133
   901.1000      8.2538     52.3482     53.5953      1.7863     -0.5571     54.4428
   901.2000      8.2538     57.6888     53.7620      1.6981     -0.5981     55.3624
   901.3000      8.2583     64.6288     54.0586      1.5836     -0.7253     55.1900
   901.4000      8.2583     69.9065     54.0346      1.4965     -0.8213     51.0367
   901.5000      8.2652     70.7101     53.5022      1.4833     -0.8261     44.6519
   901.6000      8.2652     68.5655     53.1752      1.5187     -0.6646     39.4589
   901.7000      8.2652     66.0759     53.4522      1.5597     -0.7806     37.4676
   901.8000      8.2683     64.2379     53.8269      1.5901     -0.6414     39.0465
   901.9000      8.2683     64.2093     54.0822      1.5905     -0.6772     43.2411
   902.0000      8.2652     65.2526     54.4275      1.5733     -0.8243     46.9674
   902.1000      8.2652     64.8773     54.6740      1.5795     -0.7314     47.5357
   902.2000      8.2652     63.0993     54.5507      1.6089     -0.7259     45.4183
   902.3000      8.2619     61.9178     54.2086      1.6284     -0.5988     43.2454
   902.4000      8.2619     62.2078     53.9533      1.6236     -0.7098     42.4085
   902.5000      8.2848     62.4600     54.0318      1.6194     -0.7654     43.3253
   902.6000      8.2848     61.1457     54.2595      1.6411     -0.7825     46.9740
   902.7000      8.2848     59.2517     54.1762      1.6723     -0.6549     50.2558
   902.8000      8.2865     58.5525     53.8406      1.6839     -0.7113     48.6417
   902.9000      8.2865     58.6876     53.5778      1.6817     -0.7232     46.2068
   903.0000      8.2718     58.4615     53.4356      1.6854     -0.6958     48.6521
   903.1000      8.2718     57.6276     53.4019      1.6991     -0.6937     53.8284
   903.2000      8.2718     56.8878     53.5722      1.7114     -0.6521     56.3117
   903.3000      8.2884     58.3448     53.9359      1.6873     -0.5689     55.2835
   903.4000      8.2884     63.1068     54.2644      1.6087     -0.7869     51.9003
   903.5000      8.2891     68.3391     54.3394      1.5224     -0.7875     46.6574
   903.6000      8.2891     69.6177     54.1475      1.5013     -0.9609     43.6233
   903.7000      8.2891     65.9213     53.9491      1.5623     -0.7707     46.1179
   903.8000      8.2886     61.1865     54.0033      1.6404     -0.6615     51.4601
   903.9000      8.2886     57.8458     54.1242      1.6955     -0.7515     56.4876
   904.0000      8.2924     54.2638     53.9561      1.7546     -0.6965     60.2975
   904.1000      8.2924     49.9551     53.4622      1.8257     -0.6499     61.7257
   904.2000      8.2924     46.1930     53.0220      1.8878     -0.5651     60.9578
   904.3000      8.2888     43.8733     52.9222      1.9261     -0.6132     59.4391
