~Version Information
VERS.                      2.0: CWLS Log ASCII Standard - VERSION 2.0
WRAP.                       NO: One line per depth step
~Well Information Block
STRT.FT               270.0000: 
STOP.FT              1771.7000: 
STEP.FT                 0.1000: 
NULL.                -999.2500: 
COMP.          Pioneer Natural Resources: COMPANY
WELL.           Labrador 34-30: WELL
FLD.           Purgatoire River: FIELD
LOC.           926' FSL & 2080' FEL: LOCATION
PROV.                 Colorado: PROVINCE
CNTY.               Las Animas: COUNTRY
SRVC.                Patterson: SERVICE COMPANY
DATE.          Mon Dec 06 08:24:34 2004: LOG DATE
UWI.           05 071 08202 00: UNIQUE WELL ID
~Curve Information Block
DEPT.FT            0 000 00 00: Depth
DCAL.in                       : CDL Caliper
RHOB.g/cc                     : CDL Bulk Density
RHOC.g/cc                     : CDL Density Correction
DPOR.pu                       : CDL Density Porosity
NPOR.pu                       : Neutron Porosity
GR.GAPI                       : Gamma Ray
~Parameter Information Block
~A  Depth       DCAL        RHOB        RHOC        DPOR        NPOR         GR     
# ...
  1441.2000      7.9806      2.5223      0.0718      7.7386     23.9921    121.2852
  1441.3000      7.9774      2.5188      0.0606      7.9528     23.8104    120.7888
  1441.4000      7.9774      2.5086      0.0360      8.5678     23.5941    124.5120
  1441.5000      7.9807      2.4862      0.0895      9.9262     23.6160    134.3503
  1441.6000      7.9807      2.4338      0.0364     13.1014     23.5317    145.9153
  1441.7000      7.9807      2.3501      0.0080     18.1737     22.7397    149.2227
  1441.8000      7.9767      2.2636     -0.0395     23.4198     21.6030    139.3558
  1441.9000      7.9767      2.1985     -0.0031     27.3647     20.8196    130.2661
  1442.0000      7.9698      2.1374      0.0450     31.0639     20.0978    133.5488
  1442.1000      7.9698      2.0511      0.0271     36.2955     18.8894    140.1838
  1442.2000      7.9698      1.9478     -0.0533     42.5579     17.3784    144.4410
  1442.3000      7.9816      1.8517     -0.0610     48.3837     15.9393    149.7333
  1442.4000      7.9816      1.7596     -0.0635     53.9633     14.6197    148.5666
  1442.5000      8.0236      1.6640     -0.0830     59.7547     13.2692    134.2002
  1442.6000      8.0236      1.5858     -0.1262     64.4987     11.8458    118.0676
  1442.7000      8.0236      1.5372     -0.0586     67.4433     10.5229    110.8981
  1442.8000      8.0820      1.4916      0.0260     70.2035      9.4252    107.6541
  1442.9000      8.0820      1.4319      0.0249     73.8259      8.4195    103.0353
  1443.0000      8.1561      1.3795      0.0047     76.9991      7.3214     98.3364
  1443.1000      8.1561      1.3495      0.0663     78.8153      6.3114     95.1573
  1443.2000      8.1561      1.3287      0.0753     80.0810      5.6650     92.2259
  1443.3000      8.2389      1.3074      0.0758     81.3677      5.3232     87.7331
  1443.4000      8.2389      1.2894      0.0752     82.4616      4.9956     84.1600
  1443.5000      8.3200      1.2796      0.0355     83.0557      4.6801     81.6078
  1443.6000      8.3200      1.2797      0.0417     83.0455      4.5577     78.4135
  1443.7000      8.3200      1.2797      0.0566     83.0515      4.5311     74.3341
  1443.8000      8.4092      1.2661      0.0516     83.8733      4.4611     69.8471
  1443.9000      8.4092      1.2423      0.0204     85.3147      4.3977     66.3471
  1444.0000      8.4591      1.2257      0.0252     86.3230      4.3730     64.9426
  1444.1000      8.4591      1.2293      0.0387     86.1043      4.2074     65.5065
  1444.2000      8.4591      1.2488      0.0868     84.9212      3.7397     66.4094
  1444.3000      8.4037      1.2701      0.0864     83.6292      3.1486     68.0296
  1444.4000      8.4037      1.2844      0.0816     82.7647      2.6647     73.3788
  1444.5000      8.3239      1.2868      0.0737     82.6180      2.3855     80.3205
  1444.6000      8.3239      1.2733      0.0654     83.4353      2.4160     80.9925
  1444.7000      8.3239      1.2464      0.0333     85.0687      2.6610     76.3478
  1444.8000      8.3358      1.2189      0.0300     86.7350      2.8599     74.9625
  1444.9000      8.3358      1.2068      0.0458     87.4667      3.0742     76.0033
  1445.0000      8.4263      1.2065      0.1101     87.4842      3.5319     72.8537
  1445.1000      8.4263      1.1956      0.0815     88.1482      4.1159     66.8571
  1445.2000      8.4263      1.1734      0.0180     89.4919      4.5169     64.8010
  1445.3000      8.4967      1.1690      0.0333     89.7547      4.6569     66.6353
  1445.4000      8.4967      1.2006      0.0883     87.8453      4.7363     67.1059
  1445.5000      8.4452      1.2607      0.1135     84.2001      4.9291     66.2760
  1445.6000      8.4452      1.3402      0.1205     79.3818      5.1519     67.2953
  1445.7000      8.4452      1.4472      0.1173     72.8963      5.2984     70.7904
  1445.8000      8.3172      1.5985      0.2253     63.7275      5.4687     76.0006
  1445.9000      8.3172      1.7817      0.3866     52.6250      5.8097     81.8206
  1446.0000      8.2437      1.9506      0.4478     42.3906      6.4082     85.2859
  1446.1000      8.2437      2.0821      0.4254     34.4194      7.2866     85.2328
  1446.2000      8.2437      2.2066      0.4037     26.8725      8.2499     87.2254
  1446.3000      8.2066      2.3446      0.4392     18.5071      9.1652     95.4410
  1446.4000      8.2066      2.4549      0.4694     11.8235     10.2265    104.0892
  1446.5000      8.1342      2.4906      0.3419      9.6584     11.4187    106.1511
  1446.6000      8.1342      2.4722      0.1681     10.7779     12.5418    105.4491
  1446.7000      8.1342      2.4587      0.0717     11.5919     13.8300    108.0246
  1446.8000      8.0594      2.4678      0.1365     11.0448     15.3674    112.7101
  1446.9000      8.0594      2.4719      0.1098     10.7940     16.6437    117.8481
  1447.0000      8.0213      2.4640      0.0351     11.2744     17.2139    126.0972
  1447.1000      8.0213      2.4645      0.0239     11.2422     17.2831    136.2743
  1447.2000      8.0213      2.4812      0.0579     10.2283     17.4501    142.3738
  1447.3000      8.0098      2.5001      0.0969      9.0832     17.9572    143.8878
  1447.4000      8.0098      2.5064      0.0763      8.7028     18.4061    143.6631
  1447.5000      8.0093      2.4969      0.0813      9.2762     18.5254    143.3533
  1447.6000      8.0093      2.4782      0.0623     10.4106     18.5811    146.3628
  1447.7000      8.0093      2.4652      0.0609     11.1997     18.5944    150.6944
  1447.8000      8.0112      2.4685      0.0842     11.0003     18.3877    148.6662
  1447.9000      8.0112      2.4771      0.1228     10.4779     18.2254    142.7241
  1448.0000      8.0126      2.4679      0.1276     11.0379     18.1855    145.4145
  1448.1000      8.0126      2.4375      0.0401     12.8780     18.0620    159.6304
  1448.2000      8.0126      2.4100      0.0145     14.5432     17.9053    173.0603
  1448.3000      8.0139      2.4060     -0.0003     14.7902     17.9082    178.9641
  1448.4000      8.0139      2.4190      0.0591     13.9975     18.2444    178.6373
  1448.5000      8.0121      2.4297      0.0734     13.3533     18.6518    173.7845
  1448.6000      8.0121      2.4296      0.0799     13.3582     18.5251    169.9820
  1448.7000      8.0121      2.4280      0.0088     13.4576     17.9328    171.4317
  1448.8000      8.0057      2.4397      0.0463     12.7471     17.3495    175.9110
  1448.9000      8.0057      2.4611      0.0858     11.4514     17.0080    177.3421
  1449.0000      7.9938      2.4735      0.0782     10.6960     17.0113    174.6654
  1449.1000      7.9938      2.4746      0.0739     10.6299     17.3047    171.4858
  1449.2000      7.9938      2.4791      0.0662     10.3590     17.4992    168.5771
  1449.3000      7.9823      2.4869      0.0946      9.8865     17.4359    164.7240
  1449.4000      7.9823      2.4841      0.0732     10.0548     17.4876    159.1673
  1449.5000      7.9803      2.4703      0.0735     10.8923     17.6918    155.3639
  1449.6000      7.9803      2.4578      0.0476     11.6498     17.6510    157.8070
  1449.7000      7.9803      2.4654      0.0191     11.1885     17.3878    159.1758
  1449.8000      7.9819      2.5069      0.0743      8.6734     17.1985    149.2522
  1449.9000      7.9819      2.5638      0.1700      5.2236     17.2325    134.5450
  1450.0000      7.9822      2.5929      0.1507      3.4615     17.6384    125.7220
  1450.1000      7.9822      2.5784      0.0963      4.3375     18.2572    121.3627
  1450.2000      7.9822      2.5494      0.0752      6.0940     18.7884    118.3296
  1450.3000      7.9819      2.5379      0.0497      6.7945     19.3566    119.9077
  1450.4000      7.9819      2.5497      0.0259      6.0766     19.9237    125.4754
  1450.5000      7.9808      2.5689      0.0736      4.9148     20.3808    128.7217
  1450.6000      7.9808      2.5804      0.0727      4.2189     20.8686    127.9621
  1450.7000      7.9808      2.5850      0.0354      3.9400     21.2872    126.0739
