~Version Information
 VERS.                                  2.0 : CWLS LAS VERSION
 WRAP.                                   NO : WRAPING MODE
 SWARE .                 MController 2.5.0J : SOFTWARE VERSION
~Well Information
 WELL.                        Montoya 1-44R : WELL
 COMP.                       Petrogulf Corp : COMPANY
 FLD.                      Purgatoire River : FIELD
 LOC.                 SE/SE Sec 1 T33S R68W : LOCATION
 DATE.                             11/15/04 : DATE(S) LOGGED
 SRVC.       Blanco Geological Services LLC : SERVICE COMPANY
 STAT.                                   CO : STATE
 CNTY.                           Las Animas : COUNTY
 CTRY.                                  USA : COUNTRY
 API.                       05-071-08239-00 : API NUMBER
 STRT.FT                             615.00 : START DEPTH
 STOP.FT                            2140.00 : STOP DEPTH
 STEP.FT                               1.00 : DEPTH INCREMENT
 NULL.                                -9999 : NULL VALUE
~Curve information
 DEPTH.FT                                   :
 ROP.MIN/FT                                 :
 GAS.UNITS                                  :
~ASCII Log data
       615.0     -9999.00          5.0 
       616.0        91.23        101.1 
       617.0         6.15          4.6 
       618.0         0.27          4.2 
       619.0         0.27          4.3 
       620.0         0.27          4.3 
       621.0         0.13          4.4 
       622.0         0.27          3.8 
       623.0         0.27          3.8 
       624.0         0.13          3.8 
       625.0         0.28          4.0 
       626.0         0.27          4.2 
       627.0         0.27          3.6 
       628.0         0.27          4.1 
       629.0         0.10          4.4 
       630.0         0.23          4.1 
       631.0         0.27          4.6 
       632.0         0.23          5.1 
       633.0         0.17          4.6 
       634.0         0.17          4.5 
       635.0         0.17          4.2 
       636.0         0.27          4.9 
       637.0         0.20          4.7 
       638.0         0.17          4.1 
       639.0         0.20          4.3 
       640.0         0.17          4.3 
       641.0         0.18          4.6 
       642.0         0.17          4.1 
       643.0         0.23          3.0 
       644.0         0.10          3.0 
       645.0         0.27          4.1 
       646.0         0.20          4.4 
       647.0         0.23          4.6 
       648.0         0.27          5.0 
       649.0         0.30          4.3 
       650.0         0.30          4.8 
       651.0         0.22          4.0 
       652.0         0.17          3.8 
       653.0         0.20          3.9 
       654.0         0.17          4.3 
       655.0         0.17          4.3 
       656.0         0.17          4.1 
       657.0         0.20          3.9 
       658.0         0.17          4.2 
       659.0         0.20          3.4 
       660.0         0.20          3.6 
       661.0         0.32          3.6 
       662.0         0.23          3.2 
       663.0         0.23          3.6 
       664.0         0.20          4.7 
       665.0         0.20          3.9 
       666.0         0.20          3.2 
       667.0         0.20          3.4 
       668.0         0.17          3.5 
       669.0         0.13          3.6 
       670.0         0.10          3.6 
       671.0         0.10          3.6 
       672.0         0.13          3.6 
       673.0         0.20          3.6 
       674.0         0.13          3.6 
       675.0         0.17          3.0 
       676.0         0.17          3.0 
       677.0         0.23          3.2 
       678.0         0.20          3.1 
       679.0         0.22          3.9 
       680.0         0.20          2.5 
       681.0         0.23          3.5 
       682.0         0.17          3.8 
       683.0         0.20          4.5 
       684.0         0.20          4.2 
       685.0         0.17          4.3 
       686.0         0.20          4.0 
       687.0         0.17          4.1 
       688.0         0.13          5.0 
       689.0         0.07          5.0 
       690.0         0.27          5.5 
       691.0         0.27          4.5 
       692.0         0.20          4.3 
       693.0         0.20          4.0 
       694.0         0.23          9.8 
       695.0         0.20         48.7 
       696.0         0.20         80.2 
       697.0         0.20         69.9 
       698.0         0.17         61.1 
       699.0         0.20         37.8 
       700.0         0.17         32.6 
       701.0         0.17         13.1 
       702.0         0.07         13.1 
       703.0         0.13         13.1 
       704.0         0.35         12.1 
       705.0         0.27          3.4 
       706.0         0.23          2.1 
       707.0         0.20          1.4 
       708.0         0.20          0.6 
       709.0         0.23          1.5 
       710.0         0.20          1.4 
       711.0         0.23          1.7 
       712.0         0.13          1.7 
       713.0         0.20          2.0 
       714.0         0.20          2.7 
       715.0         0.17          4.4 
       716.0         0.17          6.9 
       717.0         0.17          9.4 
       718.0         0.17         12.0 
       719.0         0.27         13.6 
       720.0         0.23         12.9 
       721.0         0.13         11.8 
       722.0         0.17          9.0 
       723.0         0.17          9.0 
       724.0         0.17          7.5 
       725.0         0.13          6.4 
       726.0         0.13          6.4 
       727.0         0.17          5.8 
       728.0         0.17          4.6 
       729.0         0.20          3.8 
       730.0         0.20          3.2 
       731.0         0.17          3.2 
       732.0         0.22          3.0 
       733.0         0.17          2.5 
       734.0         0.23          2.4 
       735.0         0.20          2.5 
       736.0         0.20          2.7 
       737.0         0.17          2.3 
       738.0         0.27          2.6 
       739.0         0.27          4.0 
       740.0         0.17          3.3 
       741.0         0.20          3.3 
       742.0         0.17          3.7 
       743.0         0.20          5.4 
       744.0         0.20          9.1 
       745.0         0.17         11.1 
       746.0         0.20         18.7 
       747.0         0.20         21.3 
       748.0         0.28         25.9 
       749.0         0.27         22.2 
       750.0         0.27         21.7 
       751.0         0.27         15.9 
       752.0         0.20         14.7 
       753.0         0.20         11.7 
       754.0         0.20          9.3 
       755.0         0.23          8.7 
       756.0         0.25          6.5 
       757.0         0.17          5.0 
       758.0         0.20          4.1 
       759.0         0.17          3.6 
       760.0         0.20          3.3 
       761.0         0.10          3.3 
       762.0         0.10          3.2 
       763.0         0.13          2.9 
       764.0         0.10          2.9 
       765.0         0.13          3.2 
       766.0         0.13          3.3 
       767.0         0.20          3.3 
       768.0         0.20          3.1 
       769.0         0.20          3.8 
       770.0         0.17          3.4 
       771.0         0.17          3.5 
       772.0         0.20          3.4 
       773.0         0.20          3.4 
       774.0         0.17          3.4 
       775.0         0.17          4.1 
       776.0         0.18          5.1 
       777.0         0.27         10.3 
       778.0         0.27         24.2 
       779.0         0.17         28.8 
       780.0         0.20         31.6 
       781.0         0.27         32.5 
       782.0         0.27         28.1 
       783.0         0.20         26.5 
       784.0         0.20         21.2 
       785.0         0.18         15.6 
       786.0         0.17         11.0 
       787.0         0.17         10.8 
       788.0         0.17          7.6 
       789.0         0.17          7.1 
       790.0         0.17          4.8 
       791.0         0.17          3.8 
       792.0         0.20          3.3 
       793.0         0.17          3.5 
       794.0         0.20          3.5 
       795.0         0.20          3.0 
       796.0         0.20          3.2 
       797.0         0.23          3.0 
       798.0         0.23          4.1 
       799.0         0.20          2.9 
       800.0         0.17          3.2 
       801.0         0.20          3.5 
       802.0         0.20          3.6 
       803.0         0.18          5.1 
       804.0         0.17          9.3 
       805.0         0.17          9.3 
       806.0         0.17         14.6 
       807.0         0.20         18.6 
       808.0         0.23         22.8 
       809.0         0.22         23.6 
       810.0         0.17         22.4 
       811.0         0.23         21.5 
       812.0         0.23         20.3 
       813.0         0.23         14.8 
       814.0         0.23         13.9 
