~Version Information
 VERS.                                  2.0 : CWLS LAS VERSION
 WRAP.                                   NO : WRAPING MODE
 SWARE .                 MController 2.5.0E : SOFTWARE VERSION
~Well Information
 WELL.                  McCullough 34-32 TR : WELL
 COMP.             Evergreen Operating Corp : COMPANY
 FLD.                      Purgatorie River : FIELD
 LOC.                SW/SE Sec 32 T32S R66W : LOCATION
 DATE.                           09/18/2004 : DATE(S) LOGGED
 SRVC.       Blanco Geological Services LLC : SERVICE COMPANY
 STAT.                                   CO : STATE
 CNTY.                            La Animas : COUNTY
 CTRY.                                  USA : COUNTRY
 API.                       05 071 08157-00 : API NUMBER
 STRT.FT                             521.00 : START DEPTH
 STOP.FT                            2000.00 : STOP DEPTH
 STEP.FT                               1.00 : DEPTH INCREMENT
 NULL.                                -9999 : NULL VALUE
~Curve information
 DEPTH.FT                                   :
 ROP.MIN/FT                                 :
 GAS.UNITS                                  :
~ASCII Log data
# ...
     1521.00        0.200          7.5 
     1522.00        0.233          9.4 
     1523.00        0.133         14.6 
     1524.00        0.200         25.7 
     1525.00        0.250         40.3 
     1526.00        3.200         69.9 
     1527.00        0.217          4.5 
     1528.00        0.500          4.5 
     1529.00        0.533          4.2 
     1530.00        0.400          3.4 
     1531.00        0.400          2.9 
     1532.00        0.433          3.2 
     1533.00        0.367          3.3 
     1534.00        0.400          3.2 
     1535.00        0.417          4.7 
     1536.00        0.367          6.1 
     1537.00        0.367          6.3 
     1538.00        0.367          6.1 
     1539.00        0.333          5.4 
     1540.00        0.300          4.6 
     1541.00        0.333          5.9 
     1542.00        0.333          5.7 
     1543.00        0.300          5.6 
     1544.00        0.333          5.2 
     1545.00        0.317          5.4 
     1546.00        0.367          6.2 
     1547.00        0.300          6.2 
     1548.00        0.333          5.3 
     1549.00        0.333          5.5 
     1550.00        0.300          5.0 
     1551.00        0.333          4.0 
     1552.00        0.333          5.6 
     1553.00        0.333          8.2 
     1554.00        0.300         13.8 
     1555.00        0.317         35.2 
     1556.00        5.217        116.0 
     1557.00        0.400          5.5 
     1558.00        0.400          5.7 
     1559.00        0.400          6.0 
     1560.00        0.350          5.3 
     1561.00        0.367          5.5 
     1562.00        0.367          5.2 
     1563.00        0.333          5.0 
     1564.00        0.333          5.2 
     1565.00        0.333          5.0 
     1566.00        0.367          4.9 
     1567.00        0.333          5.2 
     1568.00        0.333          5.8 
     1569.00        0.367          5.4 
     1570.00        0.350          5.8 
     1571.00        0.333          5.5 
     1572.00        0.333          4.6 
     1573.00        0.333          4.8 
     1574.00        0.333          4.1 
     1575.00        0.333          4.5 
     1576.00        0.367          3.9 
     1577.00        0.300          3.8 
     1578.00        0.300          3.1 
     1579.00        0.300          1.8 
     1580.00        0.250          2.0 
     1581.00        0.267          1.9 
     1582.00        0.333          2.9 
     1583.00        0.367          6.5 
     1584.00        0.300         13.3 
     1585.00        0.300         20.6 
     1586.00        3.050         31.4 
     1587.00        0.567          4.1 
     1588.00        0.433          4.0 
     1589.00        0.400          3.7 
     1590.00        0.367          3.5 
     1591.00        0.383          3.9 
     1592.00        0.367          3.8 
     1593.00        0.267          3.9 
     1594.00        0.300          3.8 
     1595.00        0.300          4.5 
     1596.00        0.267          4.6 
     1597.00        0.333          3.6 
     1598.00        0.267          4.1 
     1599.00        0.233          3.7 
     1600.00        0.267          4.8 
     1601.00        0.400          4.9 
     1602.00        0.350          6.0 
     1603.00        0.367          6.3 
     1604.00        0.300          7.6 
     1605.00        0.267          6.4 
     1606.00        0.267          5.7 
     1607.00        0.233          3.7 
     1608.00        0.167          3.4 
     1609.00        0.167          3.4 
     1610.00        0.167          3.9 
     1611.00        0.200          3.9 
     1612.00        0.300          7.3 
     1613.00        0.233          8.6 
     1614.00        0.233         19.6 
     1615.00        0.250         28.7 
     1616.00        2.933         30.4 
     1617.00        0.300          4.3 
     1618.00        0.517          6.8 
     1619.00        0.300          8.2 
     1620.00        0.400          8.0 
     1621.00        0.300          6.4 
     1622.00        0.333          6.3 
     1623.00        0.267          6.8 
     1624.00        0.333          9.5 
     1625.00        0.233         10.0 
     1626.00        0.233         10.7 
     1627.00        0.233         10.3 
     1628.00        0.317          9.8 
     1629.00        0.267          8.9 
     1630.00        0.267          8.5 
     1631.00        0.267          7.9 
     1632.00        0.267          6.0 
     1633.00        0.233          5.7 
     1634.00        0.267          6.6 
     1635.00        0.400          7.0 
     1636.00        0.300          7.4 
     1637.00        0.367          6.5 
     1638.00        0.433          5.8 
     1639.00        0.383          5.1 
     1640.00        0.300          3.8 
     1641.00        0.267          3.1 
     1642.00        0.267          3.9 
     1643.00        0.267          5.1 
     1644.00        0.300          7.8 
     1645.00        0.300         13.2 
     1646.00        4.050         35.7 
     1647.00        0.467          6.4 
     1648.00        0.650          5.8 
     1649.00        0.433          6.0 
     1650.00        0.467          6.3 
     1651.00        0.433          5.4 
     1652.00        0.300          5.2 
     1653.00        0.300          4.4 
     1654.00        0.267          4.1 
     1655.00        0.300          3.6 
     1656.00        0.300          3.8 
     1657.00        0.317         16.6 
     1658.00        0.300         13.0 
     1659.00        0.267         10.0 
     1660.00        0.467          8.8 
     1661.00        0.367          8.5 
     1662.00        0.233          8.5 
     1663.00        0.233          8.5 
     1664.00        0.167          7.9 
     1665.00        0.200          6.5 
     1666.00        0.267          4.6 
     1667.00        0.267          3.8 
     1668.00        0.233          3.6 
     1669.00        0.233          3.4 
     1670.00        0.250          4.8 
     1671.00        0.200          4.8 
     1672.00        0.267          6.7 
     1673.00        0.233         12.4 
     1674.00        0.300         19.7 
     1675.00        0.233         28.1 
     1676.00        3.217         36.3 
     1677.00        0.533          3.3 
     1678.00        0.467          3.2 
     1679.00        0.233          3.2 
     1680.00        0.300          3.2 
     1681.00        0.300          3.4 
     1682.00        0.717          3.8 
     1683.00        0.300          3.6 
     1684.00        0.233          4.1 
     1685.00        0.367          3.7 
     1686.00        0.300          3.6 
     1687.00        0.367          3.6 
     1688.00        0.333          4.1 
     1689.00        0.233          3.4 
     1690.00        0.267          4.4 
     1691.00        0.233          3.7 
     1692.00        0.283          3.9 
     1693.00        0.267          4.4 
     1694.00        0.233          4.6 
     1695.00        0.167          4.6 
     1696.00        0.267          3.5 
     1697.00        0.300          3.3 
     1698.00        0.200          1.8 
     1699.00        0.233          1.7 
     1700.00        0.267          2.5 
     1701.00        0.233          2.5 
     1702.00        0.200          3.9 
     1703.00        0.233          5.5 
     1704.00        0.233         13.1 
     1705.00        0.300         22.8 
     1706.00        3.250         44.8 
     1707.00        0.317          4.0 
     1708.00        0.433          3.0 
     1709.00        0.467          3.1 
     1710.00        0.333          2.8 
     1711.00        0.333          3.3 
     1712.00        0.367          3.3 
     1713.00        0.333          3.1 
     1714.00        0.400          3.2 
     1715.00        0.367          3.7 
     1716.00        0.350          4.0 
     1717.00        0.467          3.9 
     1718.00        0.433          3.7 
     1719.00        0.400          4.1 
     1720.00        0.400          4.4 
