~Version Information
VERS.                      2.0: CWLS Log ASCII Standard - VERSION 2.0
WRAP.                       NO: One line per depth step
~Well Information Block
STRT.FT               298.0000: 
STOP.FT              1325.5000: 
STEP.FT                 0.2500: 
NULL.                -999.2500: 
COMP.          Pioneer Natural Resources: COMPANY
WELL.          Santa Fe 43-27 Tr: WELL
FLD.           Purgatoire River: FIELD
LOC.           2018' FSL & 534' FEL: LOCATION
PROV.                 Colorado: PROVINCE
CNTY.               Las Animas: COUNTRY
SRVC.                Patterson: SERVICE COMPANY
DATE.          Tue Mar 08 10:44:11 2005: LOG DATE
UWI.           05 071 08303 00: UNIQUE WELL ID
~Curve Information Block
DEPT.FT            0 000 00 00: Depth
SN.Ohm-m                      : IEL Short Normal
SP.mV                         : IEL Spontaneous Potential
DIR.Ohm-m                     : IEL Induction Resistivity
GR.GAPI                       : Gamma Ray
~Parameter Information Block
~A  Depth        SN          SP         DIR          GR     
# ...
  1303.0000     26.2890     41.4169     23.9693    107.2772
  1303.2500     26.6695     41.4785     23.7070    104.8269
  1303.5000     27.2698     41.5495     23.4950    101.7477
  1303.7500     28.0772     41.6430     23.3992    100.3757
  1304.0000     28.9942     41.7556     23.4682     99.3572
  1304.2500     29.8757     41.8759     23.7273     99.2700
  1304.5000     30.6150     41.9935     24.1792     99.7608
  1304.7500     31.1908     42.0993     24.8006    100.1056
  1305.0000     31.6544     42.1810     25.5416     99.3648
  1305.2500     32.0865     42.2255     26.3359     97.0924
  1305.5000     32.5562     42.2275     27.1269     89.2491
  1305.7500     33.1132     42.1918     27.8920     80.0910
  1306.0000     33.7949     42.1242     28.6466     60.3338
  1306.2500     34.6006     42.0254     29.4208     44.8925
  1306.5000     35.4786     41.8979     30.2272     23.6151
  1306.7500     36.3791     41.7552     31.0362     13.2453
  1307.0000     37.3050     41.6260     31.7767      4.3483
  1307.2500     38.3088     41.5500     32.3770      1.7403
  1307.5000     39.4465     41.5620     32.8264      0.3353
  1307.7500     40.6951     41.6698     33.2034      0.0919
  1308.0000     41.9105     41.8449     33.6339      0.0084
  1308.2500     42.9178     42.0375     34.2152      0.0000
  1308.5000     43.6369     42.2069     34.9633   -999.2500
  1308.7500     44.1091     42.3450     35.8046   -999.2500
  1309.0000     44.4460     42.4770     36.5941   -999.2500
  1309.2500     44.7772     42.6397     37.1526   -999.2500
  1309.5000     45.2116     42.8552     37.3320   -999.2500
  1309.7500     45.7970     43.1176     37.0891   -999.2500
  1310.0000     46.4874     43.3982     36.5156   -999.2500
  1310.2500     47.1762     43.6611     35.7927   -999.2500
  1310.5000     47.7808     43.8789     35.1133   -999.2500
  1310.7500     48.2831     44.0407     34.6311   -999.2500
  1311.0000     48.7037     44.1517     34.4423   -999.2500
  1311.2500     49.0713     44.2273     34.5786   -999.2500
  1311.5000     49.4288     44.2844     35.0028   -999.2500
  1311.7500     49.8415     44.3314     35.6210   -999.2500
  1312.0000     50.3724     44.3634     36.3218   -999.2500
  1312.2500     51.0568     44.3646     37.0287   -999.2500
  1312.5000     51.9118     44.3164     37.3140   -999.2500
  1312.7500     52.9315     44.2076     38.0006   -999.2500
  1313.0000     54.0824     44.0406     38.6972   -999.2500
  1313.2500     55.3656     43.8300     39.3566   -999.2500
  1313.5000     56.8378     43.5936     39.8667   -999.2500
  1313.7500     58.4851     43.3413     40.0643   -999.2500
  1314.0000     60.0904     43.0713     39.7821   -999.2500
  1314.2500     61.2659     42.7782     38.9224   -999.2500
  1314.5000     61.6034     42.4681     37.5331   -999.2500
  1314.7500     60.8028     42.1679     35.8276   -999.2500
  1315.0000     58.7211     41.9203     34.1403   -999.2500
  1315.2500     55.3688     41.7640     32.8697   -999.2500
  1315.5000     50.9182     41.7149     32.4561   -999.2500
  1315.7500     45.7509     41.7621     33.4088   -999.2500
  1316.0000     40.4232     41.8783     36.8598   -999.2500
  1316.2500     35.4418     42.0318     42.9922   -999.2500
  1316.5000     31.0573     42.1951     53.6766   -999.2500
  1316.7500     27.3128     42.3510     70.7231   -999.2500
  1317.0000     24.1801     42.4984     95.0224   -999.2500
  1317.2500     21.6085     42.6495    123.6298   -999.2500
  1317.5000     19.5492     42.8192    148.6551   -999.2500
  1317.7500     17.9521     43.0155    163.4232   -999.2500
  1318.0000     16.7251     43.2365    168.5246   -999.2500
  1318.2500     15.7362     43.4709    168.6916   -999.2500
  1318.5000     14.8943     43.7000    168.0019   -999.2500
  1318.7500     14.2152     43.9009    168.7971   -999.2500
  1319.0000     13.7339     44.0581   2745.4812   -999.2500
  1319.2500     13.3896     44.1744   6065.9844   -999.2500
  1319.5000     13.0907     44.2740 100000.0000   -999.2500
  1319.7500     12.8067     44.3898 100000.0000   -999.2500
  1320.0000     12.5510     44.5461 100000.0000   -999.2500
  1320.2500     12.3511     44.7481 100000.0000   -999.2500
  1320.5000     12.2395     44.9842 100000.0000   -999.2500
  1320.7500     12.2349     45.2388 100000.0000   -999.2500
  1321.0000     12.3333     45.5116 100000.0000   -999.2500
  1321.2500     12.5118     45.8341 100000.0000   -999.2500
  1321.5000     12.7165     46.2700 100000.0000   -999.2500
  1321.7500     12.8189     46.8788 100000.0000   -999.2500
  1322.0000     12.4547     47.6481 100000.0000   -999.2500
  1322.2500     10.8641     48.4599 100000.0000   -999.2500
  1322.5000      7.4860     49.1491 100000.0000   -999.2500
  1322.7500      3.1271     49.6121 100000.0000   -999.2500
  1323.0000     -0.4153     49.8565 100000.0000   -999.2500
  1323.2500     -2.2475     49.9574 100000.0000   -999.2500
  1323.5000     -2.8530     49.9900 100000.0000   -999.2500
  1323.7500     -2.9811     49.9981 100000.0000   -999.2500
  1324.0000     -2.9985     49.9998 100000.0000   -999.2500
  1324.2500   -999.2500   -999.2500 100000.0000   -999.2500
  1324.5000   -999.2500   -999.2500 100000.0000   -999.2500
  1324.7500   -999.2500   -999.2500 100000.0000   -999.2500
  1325.0000   -999.2500   -999.2500 100000.0000   -999.2500
  1325.2500   -999.2500   -999.2500 100000.0000   -999.2500
  1325.5000   -999.2500   -999.2500 100000.0000   -999.2500
