~Version Information
VERS.                      2.0: CWLS Log ASCII Standard - VERSION 2.0
WRAP.                       NO: One line per depth step
~Well Information Block
STRT.FT                -7.5000: 
STOP.FT               978.5000: 
STEP.FT                 0.2500: 
NULL.                -999.2500: 
COMP.          Pioneer Natural Resources: COMPANY
WELL.          Piggyback 33-25: WELL
FLD.           Purgatoire River: FIELD
LOC.           1600' FSL & 1800' FEL: LOCATION
PROV.                 Colorado: PROVINCE
CNTY.               Las Animas: COUNTRY
SRVC.                Patterson: SERVICE COMPANY
DATE.          Mon May 09 09:22:28 2005: LOG DATE
UWI.           05 071 08233 00: UNIQUE WELL ID
~Curve Information Block
DEPT.FT            0 000 00 00: Depth
CCL.                          : Casing Collar Locator
TT3.usec                      : CBL 3' Travel Time
AMP3.mV                       : CBL 3' Amplitude
GR.GAPI                       : Gamma Ray
~Parameter Information Block
~A  Depth       CCL         TT3         AMP3         GR     
# ...
   294.0000      0.0000    764.4216     10.5160    125.5014
   294.2500      0.0000    759.1032     10.2313    137.9978
   294.5000      0.0000    749.1078      9.7730    145.0830
   294.7500      0.0000    739.4467      9.1218    145.8833
   295.0000      0.0000    736.5444      8.3796    142.4871
   295.2500      0.0000    744.5848      7.7145    137.3882
   295.5000      0.0000    763.3051      7.2434    131.8629
   295.7500      0.0000    789.5198      6.9790    126.5071
   296.0000     -2.0000    818.6583      6.8635    122.1264
   296.2500      2.0000    843.5328      6.8295    119.5173
   296.5000      0.0000    855.2049      6.8460    118.7280
   296.7500     -2.0000    849.3504      6.9399    118.9163
   297.0000      0.0000    830.6707      7.1934    118.9663
   297.2500      0.0000    808.1811      7.6908    118.2903
   297.5000      0.0000    787.4832      8.4081    117.2228
   297.7500      0.0000    769.5674      9.1515    116.5997
   298.0000      0.0000    754.5117      9.6702    116.8703
   298.2500      0.0000    743.0662      9.8607    117.9468
   298.5000      0.0000    735.7759      9.8144    119.9355
   298.7500      0.0000    732.9559      9.6739    123.2037
   299.0000      0.0000    734.6749      9.5073    127.3370
   299.2500      0.0000    739.3955      9.3197    130.8512
   299.5000      0.0000    743.9537      9.1193    132.6303
   299.7500      0.0000    745.5841      8.9433    133.2711
   300.0000      0.0000    742.8716      8.8354    134.5437
   300.2500      0.0000    735.2010      8.8109    137.7133
   300.5000      0.0000    723.2943      8.8430    142.5764
   300.7500      0.0000    710.2058      8.8823    147.8738
   301.0000      0.0000    700.0422      8.8912    152.4422
   301.2500      0.0000    695.1547      8.8638    155.9350
   301.5000      0.0000    695.0031      8.8215    158.3103
   301.7500      0.0000    697.6945      8.7914    158.7811
   302.0000      0.0000    702.1191      8.7870    156.0106
   302.2500      0.0000    708.2376      8.8043    149.7677
   302.5000      0.0000    715.5753      8.8328    141.9010
   302.7500      0.0000    722.2725      8.8688    135.2669
   303.0000      0.0000    726.3500      8.9153    131.9106
   303.2500      0.0000    728.0675      8.9665    132.1962
   303.5000      0.0000    730.6599      9.0028    135.0924
   303.7500      0.0000    737.7918      9.0086    139.0093
   304.0000      0.0000    749.7844      8.9931    142.7277
   304.2500      0.0000    762.8770      8.9833    145.9272
   304.5000      0.0000    772.3706      8.9975    148.9912
   304.7500      0.0000    775.7598      9.0279    152.4139
   305.0000      0.0000    772.9033      9.0527    156.2372
   305.2500      0.0000    764.9428      9.0635    159.6227
   305.5000      0.0000    754.6126      9.0702    161.0009
   305.7500      0.0000    746.6479      9.0780    159.2749
   306.0000      0.0000    745.1902      9.0698    155.1209
   306.2500      0.0000    749.7968      9.0207    150.6697
   306.5000      0.0000    755.6212      8.9226    147.6233
   306.7500      0.0000    758.5555      8.7895    145.6303
   307.0000      0.0000    759.1598      8.6427    142.5317
   307.2500      0.0000    760.8712      8.5018    136.3825
   307.5000      0.0000    765.4597      8.3850    127.3399
   307.7500      0.0000    771.1920      8.3123    117.4695
   308.0000      0.0000    774.8473      8.3006    108.8581
   308.2500      0.0000    774.6144      8.3543    102.1896
   308.5000      0.0000    771.2333      8.4619     97.0583
   308.7500      0.0000    767.1565      8.6010     93.1571
   309.0000      0.0000    764.8245      8.7470     90.7673
   309.2500      0.0000    765.1921      8.8806     90.1644
   309.5000      0.0000    767.4470      8.9924     90.9090
   309.7500      0.0000    770.0527      9.0831     91.8940
   310.0000      0.0000    771.9916      9.1564     91.8551
   310.2500      0.0000    773.0981      9.2108     89.7328
   310.5000      0.0000    773.6328      9.2360     85.0786
   310.7500      0.0000    773.8411      9.2199     78.6432
   311.0000      0.0000    773.8333      9.1635     72.3382
   311.2500      0.0000    773.6573      9.0879     68.1013
   311.5000      0.0000    773.3453      9.0210     66.5934
   311.7500      0.0000    772.8482      8.9780     66.9988
   312.0000      0.0000    771.8911      8.9557     68.1567
   312.2500      0.0000    769.9955      8.9440     69.8059
   312.5000      0.0000    766.8646      8.9380     72.4373
   312.7500      0.0000    762.9102      8.9407     75.8628
   313.0000      0.0000    759.2948      8.9559     78.4625
   313.2500      0.0000    757.1469      8.9813     78.4160
   313.5000      0.0000    756.6233      9.0081     75.7400
   313.7500      0.0000    756.8402      9.0249     72.7085
   314.0000      0.0000    756.9009      9.0236     71.9463
   314.2500      0.0000    757.0267      9.0068     74.1939
   314.5000      0.0000    758.5590      8.9840     78.0558
   314.7500      0.0000    762.7598      8.9559     81.6972
   315.0000      0.0000    769.4573      8.9103     84.4717
   315.2500      0.0000    776.5883      8.8407     86.8720
   315.5000      0.0000    781.0107      8.7602     89.1359
   315.7500      0.0000    780.1769      8.6873     90.3290
   316.0000      0.0000    773.5839      8.6238     89.1339
   316.2500      0.0000    763.0912      8.5545     85.4674
   316.5000      0.0000    752.0040      8.4653     80.9708
   316.7500      0.0000    743.6098      8.3534     77.7601
   317.0000      0.0000    740.0262      8.2222     76.7973
   317.2500      0.0000    741.7468      8.0704     77.3483
   317.5000      0.0000    747.6889      7.8959     77.7893
   317.7500      0.0000    755.5859      7.7108     77.0835
   318.0000      0.0000    762.9695      7.5464     75.7471
   318.2500      0.0000    768.4114      7.4356     75.3425
   318.5000      0.0000    772.0364      7.3951     76.9329
   318.7500      0.0000    774.8763      7.4253     80.2233
   319.0000      0.0000    777.6863      7.5181     84.1493
   319.2500      0.0000    780.1980      7.6532     87.7146
   319.5000      0.0000    781.4482      7.7902     90.0950
   319.7500      0.0000    780.9001      7.8820     90.6014
   320.0000      0.0000    779.0928      7.9110     89.0658
   320.2500      0.0000    777.0864      7.9096     86.0121
   320.5000      0.0000    775.5419      7.9302     82.2305
   320.7500      0.0000    774.5072      7.9979     78.3379
   321.0000      0.0000    773.7882      8.0970     74.6618
   321.2500      0.0000    773.2521      8.1986     71.2367
   321.5000      0.0000    772.8783      8.2869     68.0906
   321.7500      0.0000    772.7250      8.3603     65.7732
   322.0000      0.0000    772.9113      8.4205     65.2358
   322.2500      0.0000    773.6413      8.4679     66.7981
   322.5000      0.0000    775.3103      8.5060     69.5031
   322.7500      0.0000    778.4819      8.5446     71.9604
   323.0000      0.0000    783.2933      8.5912     73.5465
   323.2500      0.0000    788.2396      8.6399     74.2477
   323.5000      0.0000    789.7803      8.6737     73.7450
   323.7500      0.0000    784.4354      8.6836     71.5496
   324.0000      0.0000    772.0977      8.6797     68.0118
   324.2500      0.0000    756.8385      8.6793     64.5173
   324.5000      0.0000    744.1839      8.6899     62.5556
   324.7500      0.0000    737.6387      8.7045     62.7990
   325.0000      0.0000    736.5438      8.7095     64.9520
   325.2500      0.0000    736.0839      8.6943     68.1070
   325.5000      0.0000    730.7159      8.6559     71.0334
   325.7500      0.0000    719.1057      8.5928     72.4214
   326.0000      0.0000    705.0992      8.4978     71.4845
   326.2500      0.0000    693.6163      8.3678     68.5647
   326.5000      0.0000    686.7195      8.2243     64.9269
   326.7500      0.0000    683.5362      8.1146     61.8516
   327.0000      0.0000    682.3229      8.0839     59.9572
   327.2500      0.0000    681.8539      8.1449     59.2268
