~Version Information
VERS.                      2.0: CWLS Log ASCII Standard - VERSION 2.0
WRAP.                       NO: One line per depth step
~Well Information Block
STRT.FT               245.0000: 
STOP.FT              1919.7000: 
STEP.FT                 0.1000: 
NULL.                -999.2500: 
COMP.          Pioneer Natural Resources: COMPANY
WELL.          Oink Oink 14-36 Tr: WELL
FLD.           Purgatoire River: FIELD
LOC.           236' FSL & 164' FWL--: LOCATION
PROV.                 Colorado: PROVINCE
CNTY.               Las Animas: COUNTRY
SRVC.                Patterson: SERVICE COMPANY
DATE.          Fri Jun 10 08:23:18 2005: LOG DATE
UWI.           05 071 08393 00: UNIQUE WELL ID
~Curve Information Block
DEPT.FT            0 000 00 00: Depth
DCAL.in                       : CDL Caliper
RHOB.g/cc                     : CDL Bulk Density
RHOC.g/cc                     : CDL Density Correction
DPOR.pu                       : CDL Density Porosity
NPOR.pu                       : Neutron Porosity
GR.GAPI                       : Gamma Ray
~Parameter Information Block
~A  Depth       DCAL        RHOB        RHOC        DPOR        NPOR         GR     
# ...
  1233.8000      8.1104      1.5913     -0.1060     64.1629     31.5675     80.8467
  1233.9000      8.1104      1.5411     -0.0816     67.2039     30.1247     68.0829
  1234.0000      8.1059      1.5282     -0.0320     67.9855     29.1712     60.2681
  1234.1000      8.1059      1.5662      0.0263     65.6871     28.8934     59.2103
  1234.2000      8.1059      1.6486      0.1167     60.6895     28.5347     59.4118
  1234.3000      8.1043      1.7423      0.1744     55.0092     27.7898     58.1043
  1234.4000      8.1043      1.8147      0.1695     50.6258     27.3450     55.1434
  1234.5000      8.1062      1.8575      0.1868     48.0294     27.5557     51.5092
  1234.6000      8.1062      1.8765      0.1782     46.8781     28.0608     51.2047
  1234.7000      8.1062      1.8741      0.1849     47.0213     28.6269     55.1308
  1234.8000      8.1094      1.8438      0.1662     48.8618     29.4177     59.3652
  1234.9000      8.1094      1.7852      0.0729     52.4100     30.2796     59.5665
  1235.0000      8.1107      1.7122      0.0066     56.8390     30.8932     54.6114
  1235.1000      8.1107      1.6298     -0.0140     61.8308     31.3938     48.7370
  1235.2000      8.1107      1.5398     -0.1054     67.2823     31.8903     45.5153
  1235.3000      8.1127      1.4670     -0.1209     71.6985     32.1268     43.4869
  1235.4000      8.1127      1.4411     -0.0377     73.2650     32.0430     41.7315
  1235.5000      8.1350      1.4721      0.0062     71.3875     31.8881     41.8267
  1235.6000      8.1350      1.5526      0.0721     66.5074     31.6907     46.3692
  1235.7000      8.1350      1.6647      0.1248     59.7164     31.5930     55.3728
  1235.8000      8.2119      1.7936      0.1519     51.9014     31.7810     64.5995
  1235.9000      8.2119      1.9297      0.2116     43.6560     31.7255     70.6611
  1236.0000      8.3440      2.0630      0.2583     35.5750     30.9571     73.0765
  1236.1000      8.3440      2.1949      0.2849     27.5789     29.8746     73.9673
  1236.2000      8.3440      2.3283      0.2955     19.4976     29.1578     76.3907
  1236.3000      8.4008      2.4461      0.3299     12.3588     29.0158     82.0017
  1236.4000      8.4008      2.5241      0.2969      7.6293     28.9465     89.3138
  1236.5000      8.2852      2.5589      0.1685      5.5197     28.1760     97.0515
  1236.6000      8.2852      2.5663      0.1096      5.0698     27.0088    104.0461
  1236.7000      8.2852      2.5642      0.0674      5.1994     26.5748    108.4974
  1236.8000      8.1623      2.5615      0.0972      5.3662     26.9037    115.1186
  1236.9000      8.1623      2.5555      0.0810      5.7265     27.2162    126.2519
  1237.0000      8.1212      2.5415      0.0598      6.5739     27.2362    135.2700
  1237.1000      8.1212      2.5200      0.0489      7.8781     27.4214    139.0134
  1237.2000      8.1212      2.4999      0.0376      9.0965     28.0910    138.9217
  1237.3000      8.1169      2.4913      0.0256      9.6181     28.7829    137.0136
  1237.4000      8.1169      2.4940      0.0343      9.4571     29.2286    136.0874
  1237.5000      8.1205      2.5014      0.0339      9.0057     29.4054    134.0575
  1237.6000      8.1205      2.5099      0.0610      8.4939     29.2165    131.4761
  1237.7000      8.1205      2.5128      0.0658      8.3125     28.8730    132.6041
  1237.8000      8.1244      2.5047      0.0726      8.8054     28.8558    135.0145
  1237.9000      8.1244      2.4946      0.0590      9.4190     29.2491    136.1522
  1238.0000      8.1243      2.4977      0.0537      9.2308     29.5887    138.1308
  1238.1000      8.1243      2.5064      0.0989      8.7024     29.4602    139.2719
  1238.2000      8.1243      2.4996      0.0907      9.1143     28.9354    137.6844
  1238.3000      8.1211      2.4869      0.0377      9.8864     28.5144    137.2980
  1238.4000      8.1211      2.4949      0.0428      9.3996     28.2880    135.9878
  1238.5000      8.1176      2.5243      0.0917      7.6205     28.0344    130.3967
  1238.6000      8.1176      2.5579      0.1051      5.5821     28.0157    126.3085
  1238.7000      8.1176      2.5808      0.1213      4.1935     28.4051    126.4357
  1238.8000      8.1180      2.5833      0.1250      4.0417     28.9814    126.5200
  1238.9000      8.1180      2.5734      0.0896      4.6400     29.3545    124.4919
  1239.0000      8.1217      2.5714      0.0923      4.7614     29.4253    120.8168
  1239.1000      8.1217      2.5747      0.1476      4.5607     29.5595    116.5563
  1239.2000      8.1217      2.5656      0.1087      5.1174     29.7600    115.0797
  1239.3000      8.1229      2.5500      0.1118      6.0608     29.6215    119.4783
  1239.4000      8.1229      2.5494      0.0416      6.0991     29.1975    125.1135
  1239.5000      8.1227      2.5678      0.0950      4.9844     28.7266    123.3952
  1239.6000      8.1227      2.5889      0.0702      3.7015     28.2524    115.8555
  1239.7000      8.1227      2.6095      0.0853      2.4525     28.0656    112.2190
  1239.8000      8.1279      2.6339      0.1055      0.9730     28.1961    111.8853
  1239.9000      8.1279      2.6423      0.1420      0.4672     28.3464    107.8749
  1240.0000      8.1380      2.6163      0.0847      2.0442     28.6035    101.2411
  1240.1000      8.1380      2.5725      0.0741      4.6980     29.1406     97.6677
  1240.2000      8.1380      2.5427      0.0372      6.5039     29.5731     98.7408
  1240.3000      8.1445      2.5481      0.0251      6.1757     29.3987    100.6347
  1240.4000      8.1445      2.5797      0.0563      4.2633     28.7986    100.7023
  1240.5000      8.1455      2.6086      0.0260      2.5107     28.1575    100.6348
  1240.6000      8.1455      2.6203      0.0631      1.8009     27.6509    102.4624
  1240.7000      8.1455      2.6177      0.0552      1.9561     27.4271    106.0635
  1240.8000      8.1461      2.6189      0.0580      1.8835     27.1845    109.7318
  1240.9000      8.1461      2.6396      0.0702      0.6295     26.8120    108.9559
  1241.0000      8.1497      2.6666      0.1368     -1.0057     26.6954    102.6803
  1241.1000      8.1497      2.6731      0.1282     -1.4003     26.8894     98.5423
  1241.2000      8.1497      2.6597      0.0820     -0.5876     27.0113    102.2120
  1241.3000      8.1550      2.6528      0.0670     -0.1670     26.8150    106.9020
  1241.4000      8.1550      2.6591      0.1357     -0.5531     26.4296    105.6878
  1241.5000      8.1599      2.6590      0.1243     -0.5462     26.4867    105.1154
  1241.6000      8.1599      2.6414      0.0712      0.5196     27.2316    111.5117
  1241.7000      8.1599      2.6147      0.0566      2.1380     27.7626    117.7278
  1241.8000      8.1608      2.5966      0.0446      3.2390     27.3745    117.0293
  1241.9000      8.1608      2.5917      0.0886      3.5327     26.8117    116.1345
  1242.0000      8.1548      2.5792      0.1148      4.2905     26.8535    118.8129
  1242.1000      8.1548      2.5541      0.0285      5.8110     27.0721    118.6682
  1242.2000      8.1548      2.5460      0.0186      6.3002     27.0303    116.0166
  1242.3000      8.1410      2.5622      0.0770      5.3224     26.9165    117.0059
  1242.4000      8.1410      2.5715      0.1239      4.7576     26.8568    120.6130
  1242.5000      8.1257      2.5632      0.0900      5.2620     27.1164    121.3500
  1242.6000      8.1257      2.5600      0.0552      5.4562     27.4831    119.7374
  1242.7000      8.1257      2.5746      0.0662      4.5726     27.3024    118.8389
  1242.8000      8.1178      2.5989      0.0740      3.0987     26.5754    118.2994
  1242.9000      8.1178      2.6232      0.1030      1.6252     25.9365    118.5489
  1243.0000      8.1165      2.6437      0.1214      0.3798     25.7453    122.9729
  1243.1000      8.1165      2.6616      0.1248     -0.7012     25.6126    131.8799
  1243.2000      8.1165      2.6747      0.1162     -1.4964     25.1999    137.9509
  1243.3000      8.1174      2.6778      0.1334     -1.6844     24.8515    137.1373
