~Version Information
VERS.                      2.0: CWLS Log ASCII Standard - VERSION 2.0
WRAP.                       NO: One line per depth step
~Well Information Block
STRT.FT               706.1000: 
STOP.FT              2370.0000: 
STEP.FT                 0.1000: 
NULL.                -999.2500: 
COMP.          Petrogulf Corporation: COMPANY
WELL.             State 16-12V: WELL
FLD.           Purgatorie River: FIELD
LOC.           1992' FNL & 1237' FWL: LOCATION
CNTY.               Las Animas: COUNTY
SRVC.                         : SERVICE COMPANY
DATE.          Thu Aug 04 09:34:25 2005: LOG DATE
UWI.           05-071-08016-00: UNIQUE WELL ID
STAT.                 Colorado: STATE
~Curve Information Block
DEPT.FT            0 000 00 00: Depth
DCAL.in                       : CDL Caliper
DPOR.pu                       : CDL Density Porosity
GR.GAPI                       : Gamma Ray
NPOR.pu                       : Neutron Porosity
RHOB.g/cc                     : CDL Bulk Density
RHOC.g/cc                     : CDL Density Correction
~Parameter Information Block
~A  Depth       DCAL        DPOR         GR         NPOR        RHOB        RHOC    
# ...
  1800.5000      7.9484      3.2209    107.4875     26.0329      2.5969      0.0830
  1800.6000      7.9484      4.0761    109.8475     26.0661      2.5827      0.0952
  1800.7000      7.9484      4.1781    109.9300     26.0617      2.5811      0.0600
  1800.8000      7.9686      4.0924    108.7938     26.0807      2.5825      0.0715
  1800.9000      7.9686      4.4327    110.3788     26.2671      2.5769      0.0666
  1801.0000      7.9606      4.9717    114.3941     26.5347      2.5680      0.0589
  1801.1000      7.9606      4.9295    116.5799     26.7360      2.5687      0.0706
  1801.2000      7.9606      4.4110    116.2131     26.7800      2.5772      0.0882
  1801.3000      7.9837      4.4283    117.5904     26.8212      2.5769      0.0935
  1801.4000      7.9837      5.0840    120.5979     26.8906      2.5661      0.0606
  1801.5000      7.9870      5.1587    121.0648     26.9658      2.5649      0.0418
  1801.6000      7.9870      4.4015    119.0771     27.2730      2.5774      0.0914
  1801.7000      7.9870      3.7405    116.9164     27.6664      2.5883      0.0682
  1801.8000      7.9788      3.1267    116.4289     27.7134      2.5984      0.0430
  1801.9000      7.9788      2.5597    117.8943     27.4796      2.6078      0.1113
  1802.0000      7.9928      3.0188    117.8178     27.3962      2.6002      0.1162
  1802.1000      7.9928      4.0533    115.3476     27.5899      2.5831      0.0415
  1802.2000      7.9928      4.2512    113.2993     27.8324      2.5799      0.0721
  1802.3000      7.9931      3.9930    112.1230     27.9127      2.5841      0.1292
  1802.4000      7.9931      4.5675    112.3566     27.7925      2.5746      0.0852
  1802.5000      7.9992      5.9901    114.4511     27.5447      2.5512      0.0481
  1802.6000      7.9992      7.2177    115.6418     27.2685      2.5309      0.0584
  1802.7000      7.9992      7.4029    115.0402     26.9961      2.5279      0.0894
  1802.8000      7.9972      6.4046    115.5072     26.7624      2.5443      0.0902
  1802.9000      7.9972      4.5874    117.1409     26.6371      2.5743      0.0719
  1803.0000      7.9864      2.5892    116.3797     26.6769      2.6073      0.1182
  1803.1000      7.9864      1.0629    112.2664     26.9331      2.6325      0.1266
  1803.2000      7.9864      0.3988    107.0304     27.2878      2.6434      0.1489
  1803.3000      7.9936      0.7134    101.9292     27.3890      2.6382      0.1385
  1803.4000      7.9936      1.6924     98.0780     27.1592      2.6221      0.1081
  1803.5000      7.9873      2.9063     96.8545     26.8167      2.6020      0.1156
  1803.6000      7.9873      4.3271     97.5967     26.3934      2.5786      0.1040
  1803.7000      7.9873      5.7943     97.6749     25.9322      2.5544      0.0770
  1803.8000      7.9490      6.7699     96.5146     25.5670      2.5383      0.0604
  1803.9000      7.9490      6.6480     95.3890     25.3076      2.5403      0.0103
  1804.0000      7.9309      5.5422     94.1753     25.2221      2.5586      0.0782
  1804.1000      7.9309      4.7784     94.3309     25.3207      2.5712      0.1036
  1804.2000      7.9309      5.3480     98.0628     25.4868      2.5618      0.0845
  1804.3000      7.8944      6.6872    102.1043     25.5988      2.5397      0.0598
  1804.4000      7.8944      7.5461    100.1278     25.5447      2.5255      0.0724
  1804.5000      7.8463      7.4886     94.4459     25.3332      2.5264      0.0887
  1804.6000      7.8463      6.6336     92.9162     24.9555      2.5405      0.0825
  1804.7000      7.8463      4.6334     96.0537     24.5408      2.5735      0.0803
  1804.8000      7.8601      1.7035     98.0202     24.4213      2.6219      0.1603
  1804.9000      7.8601     -0.7078     95.8936     24.5194      2.6617      0.1734
  1805.0000      7.8534     -1.7471     93.5600     24.3307      2.6788      0.1569
  1805.1000      7.8534     -1.1816     94.8920     23.7818      2.6695      0.2118
  1805.2000      7.8534      1.1884     95.6827     23.3390      2.6304      0.1862
  1805.3000      7.8866      4.0033     91.8983     23.3106      2.5839      0.0921
  1805.4000      7.8866      5.2824     88.4109     23.5530      2.5628      0.0778
  1805.5000      7.8294      5.0263     88.8950     23.8146      2.5671      0.1144
  1805.6000      7.8294      4.4751     91.4977     23.9834      2.5762      0.0820
  1805.7000      7.8294      4.1159     92.9030     24.1013      2.5821      0.0837
  1805.8000      7.8592      3.3558     91.8336     24.2778      2.5946      0.0491
  1805.9000      7.8592      1.7942     91.0605     24.4380      2.6204      0.1473
  1806.0000      7.8782      0.4542     91.9194     24.4306      2.6425      0.1545
  1806.1000      7.8782      0.4291     91.7108     24.2841      2.6429      0.1771
  1806.2000      7.8782      1.0661     89.3476     24.1350      2.6324      0.1113
  1806.3000      7.8577      1.3278     86.3348     23.9754      2.6281      0.1495
  1806.4000      7.8577      1.5749     84.3828     23.7479      2.6240      0.1296
  1806.5000      7.8492      1.9384     83.1858     23.6763      2.6180      0.0771
  1806.6000      7.8492      1.9598     81.6140     23.8915      2.6177      0.1252
  1806.7000      7.8492      2.2043     80.3562     24.1344      2.6136      0.1499
  1806.8000      7.8432      3.0982     81.1772     24.2100      2.5989      0.0682
  1806.9000      7.8432      4.0245     84.2890     23.9550      2.5836      0.0631
  1807.0000      7.8920      4.7410     88.9818     23.3585      2.5718      0.0583
  1807.1000      7.8920      5.4910     94.9032     22.7588      2.5594      0.0400
  1807.2000      7.8920      6.1311     99.1252     22.5352      2.5488      0.0034
  1807.3000      7.9236      6.4846     97.8771     22.7451      2.5430      0.0449
  1807.4000      7.9236      6.6289     93.6296     22.9540      2.5406      0.0138
  1807.5000      7.9399      6.4566     92.0024     22.7449      2.5435      0.0258
  1807.6000      7.9399      6.0491     92.9039     22.4028      2.5502      0.0126
  1807.7000      7.9399      5.8437     92.5572     22.4269      2.5536      0.0446
  1807.8000      7.9533      5.9691     90.7030     22.7126      2.5515      0.0345
  1807.9000      7.9533      6.1778     88.6145     22.8090      2.5481      0.0478
  1808.0000      7.9705      6.2840     86.8258     22.5262      2.5463      0.0518
  1808.1000      7.9705      6.1984     87.4433     22.1724      2.5477      0.0716
  1808.2000      7.9705      5.8890     90.3476     22.0782      2.5528      0.0485
  1808.3000      7.9483      5.3290     91.9213     22.1173      2.5621      0.0924
  1808.4000      7.9483      4.6891     92.8334     22.0755      2.5726      0.0829
  1808.5000      7.9555      4.6842     95.9243     22.0455      2.5727      0.1260
  1808.6000      7.9555      6.0653     97.7109     21.9518      2.5499      0.1501
  1808.7000      7.9555      7.9446     94.8707     21.6111      2.5189      0.0800
  1808.8000      7.8872      8.7637     88.5431     21.2313      2.5054      0.1428
  1808.9000      7.8872      8.2637     82.3295     20.9527      2.5136      0.1164
  1809.0000      7.8347      6.3776     80.3507     20.7580      2.5448      0.1319
  1809.1000      7.8347      3.3351     82.7697     20.8202      2.5950      0.1677
  1809.2000      7.8347      0.9452     86.3012     21.0660      2.6344      0.2383
  1809.3000      7.8778      0.5588     88.9234     21.0488      2.6408      0.1998
  1809.4000      7.8778      1.1029     90.8875     20.7599      2.6318      0.1572
  1809.5000      7.9223      1.3294     92.1114     20.5975      2.6281      0.1569
  1809.6000      7.9223      1.7894     90.9640     20.7293      2.6205      0.1673
  1809.7000      7.9223      3.2488     88.2497     20.9400      2.5964      0.1063
  1809.8000      7.9225      5.4093     86.8929     20.9568      2.5607      0.0883
  1809.9000      7.9225      7.7152     87.3399     20.7894      2.5227      0.0291
  1810.0000      7.9325      9.5495     87.7781     20.5768      2.4924      0.0159
