~Version Information
VERS.                      2.0: CWLS Log ASCII Standard - VERSION 2.0
WRAP.                       NO: One line per depth step
~Well Information Block
STRT.FT                15.0000: 
STOP.FT              2620.5000: 
STEP.FT                 0.2500: 
NULL.                -999.2500: 
COMP.          Pioneer Natural Resources: COMPANY
WELL.               Zink 44-10: WELL
FLD.           Purgatoire River: FIELD
LOC.           548' FSL & 473' FEL: LOCATION
PROV.                 Colorado: PROVINCE
CNTY.               Las Animas: COUNTRY
SRVC.                Patterson: SERVICE COMPANY
DATE.          Tue Jun 21 13:36:23 2005: LOG DATE
UWI.           05 071 08380 00: UNIQUE WELL ID
~Curve Information Block
DEPT.FT            0 000 00 00: Depth
GR.GAPI                       : Gamma Ray
CCL.                          : Casing Collar Locator
TT3.usec                      : CBL 3' Travel Time
AMP3.mV                       : CBL 3' Amplitude
~Parameter Information Block
~A  Depth        GR         CCL         TT3         AMP3    
# ...
  1891.0000    110.7502      0.0000    717.7025      4.2750
  1891.2500    122.4833      0.0000    717.8928      4.3034
  1891.5000    132.1203      0.0000    714.6594      4.4444
  1891.7500    137.2174      0.0000    710.1450      4.6602
  1892.0000    136.2294      0.0000    706.0472      4.8878
  1892.2500    129.5088      0.0000    702.0077      5.0715
  1892.5000    119.1814      0.0000    695.6548      5.1949
  1892.7500    108.0599      0.0000    683.7758      5.2782
  1893.0000     98.5833      0.0000    663.5380      5.3418
  1893.2500     92.1890      0.0000    633.1214      5.3790
  1893.5000     89.1645      0.0000    592.2717      5.3637
  1893.7500     89.1297      0.0000    543.7961      5.2741
  1894.0000     91.7729      0.0000    494.6873      5.1105
  1894.2500     96.9152      0.0000    453.7200      4.8960
  1894.5000    103.8818      0.0000    426.3111      4.6623
  1894.7500    111.1923      0.0000    411.8978      4.4353
  1895.0000    117.0983      0.0000    406.1419      4.2299
  1895.2500    120.4539      0.0000    404.6547      4.0535
  1895.5000    121.1929      0.0000    404.9749      3.9079
  1895.7500    120.1531      0.0000    406.7572      3.7910
  1896.0000    118.5359      0.0000    411.4171      3.7015
  1896.2500    117.3738      0.0000    420.9836      3.6411
  1896.5000    117.1147      0.0000    435.3360      3.6118
  1896.7500    117.3991      0.0000    449.6216      3.6109
  1897.0000    117.2210      0.0000    456.1360      3.6284
  1897.2500    115.6767      0.0000    450.8935      3.6463
  1897.5000    113.0528      0.0000    437.6478      3.6434
  1897.7500    111.1239      0.0000    424.3706      3.6064
  1898.0000    111.7109      0.0000    417.3120      3.5396
  1898.2500    114.5462      0.0000    419.7967      3.4614
  1898.5000    116.8893      0.0000    434.6778      3.3918
  1898.7500    115.7269      0.0000    464.4498      3.3409
  1899.0000    110.5709      0.0000    507.2126      3.3082
  1899.2500    104.1876      0.0000    553.5610      3.2886
  1899.5000    100.5906      0.0000    589.6039      3.2770
  1899.7500    102.0857      0.0000    604.0779      3.2657
  1900.0000    107.8887      0.0000    593.7145      3.2456
  1900.2500    115.2190      0.0000    564.8748      3.2125
  1900.5000    121.4045      0.0000    531.6817      3.1727
  1900.7500    125.0664      0.0000    508.9417      3.1391
  1901.0000    126.0908      0.0000    502.5360      3.1214
  1901.2500    125.2890      0.0000    506.1938      3.1198
  1901.5000    124.1290      0.0000    508.2444      3.1267
  1901.7500    124.0760      0.0000    500.8602      3.1332
  1902.0000    125.5517      0.0000    483.6475      3.1337
  1902.2500    127.5708      0.0000    461.7912      3.1271
  1902.5000    128.7102      0.0000    442.7323      3.1164
  1902.7500    128.3857      0.0000    433.5865      3.1094
  1903.0000    126.9628      0.0000    439.7661      3.1191
  1903.2500    125.0021      0.0000    463.7753      3.1553
  1903.5000    122.9524      0.0000    502.7388      3.2123
  1903.7500    121.4246      0.0000    546.8386      3.2681
  1904.0000    121.3099      0.0000    583.1486      3.2987
  1904.2500    123.4743      0.0000    603.1526      3.2953
  1904.5000    128.3163      0.0000    605.9478      3.2709
  1904.7500    135.5711      0.0000    594.4881      3.2568
  1905.0000    144.4060      0.0000    572.3099      3.2881
  1905.2500    153.4930      0.0000    545.3807      3.3749
  1905.5000    161.0940      0.0000    523.3784      3.4795
  1905.7500    165.5776      0.0000    515.3799      3.5406
  1906.0000    166.1153      0.0000    524.7547      3.5338
  1906.2500    162.8459      0.0000    548.7618      3.4940
  1906.5000    156.7064      0.0000    581.0425      3.4660
  1906.7500    149.5212      0.0000    613.9123      3.4536
  1907.0000    143.8613      0.0000    640.7183      3.4320
  1907.2500    141.9897     -2.5000    658.3591      3.3950
  1907.5000    144.5012     -2.5000    667.8566      3.3780
  1907.7500    149.8962      0.0000    672.4211      3.4381
  1908.0000    155.2739      0.0000    675.4448      3.6042
  1908.2500    157.5033      0.0000    679.4821      3.8318
  1908.5000    154.7498      0.0000    685.2814      4.0214
  1908.7500    147.9124      0.0000    691.2736      4.1039
  1909.0000    140.4106      0.0000    694.8446      4.0927
  1909.2500    135.8230      0.0000    694.4431      4.0422
  1909.5000    135.4363      0.0000    690.5589      3.9861
  1909.7500    137.9755      0.0000    684.6296      3.9370
  1910.0000    141.1951      0.0000    676.7036      3.9177
  1910.2500    143.2612      0.0000    664.4694      3.9644
  1910.5000    142.8923      0.0000    645.9837      4.0936
  1910.7500    139.3113      0.0000    623.8853      4.2754
  1911.0000    132.9998      0.0000    605.3381      4.4413
  1911.2500    125.9966      0.0000    596.4857      4.5240
  1911.5000    120.4051      0.0000    597.6014      4.4932
  1911.7500    116.6763      0.0000    604.2799      4.3629
  1912.0000    113.9698      0.0000    612.1538      4.1729
  1912.2500    111.8543      0.0000    619.2087      3.9675
  1912.5000    110.8198      0.0000    624.2710      3.7820
  1912.7500    111.1815      0.0000    624.9753      3.6386
  1913.0000    112.3442      0.0000    618.2235      3.5454
  1913.2500    113.5298      0.0000    602.8750      3.4972
  1913.5000    114.8622      0.0000    582.1614      3.4783
  1913.7500    117.3815      0.0000    563.6918      3.4692
  1914.0000    121.9896      0.0000    556.5070      3.4533
  1914.2500    128.5388      0.0000    566.2808      3.4206
  1914.5000    136.0084      0.0000    591.3348      3.3676
  1914.7500    143.6335      0.0000    622.7378      3.2976
  1915.0000    151.6713      0.0000    649.4594      3.2211
  1915.2500    160.3672      0.0000    664.7253      3.1523
  1915.5000    168.0624      0.0000    668.2861      3.0971
  1915.7500    171.5226      0.0000    664.0558      3.0432
  1916.0000    169.0820      0.0000    656.7883      2.9633
  1916.2500    162.8338      0.0000    650.3536      2.8327
  1916.5000    156.8316      0.0000    647.5145      2.6475
  1916.7500    153.3064      0.0000    650.0358      2.4302
  1917.0000    150.9718      0.0000    658.1520      2.2181
  1917.2500    146.7917      0.0000    669.8430      2.0415
  1917.5000    138.9949      0.0000    681.5464      1.9133
  1917.7500    128.3202      0.0000    690.3532      1.8345
  1918.0000    116.8910      0.0000    695.4753      1.8039
  1918.2500    106.6969      0.0000    697.7789      1.8148
  1918.5000     99.1961      0.0000    698.5244      1.8480
  1918.7500     95.5083      0.0000    698.6076      1.8788
  1919.0000     96.1559      0.0000    698.4080      1.8951
  1919.2500    100.4059      0.0000    697.7969      1.9072
  1919.5000    106.1023      0.0000    695.9808      1.9416
  1919.7500    110.6448      0.0000    691.1121      2.0242
  1920.0000    112.6038      0.0000    680.0491      2.1689
  1920.2500    112.4878      0.0000    659.3161      2.3714
  1920.5000    111.8411      0.0000    627.8130      2.6088
  1920.7500    111.6070      0.0000    589.8635      2.8449
  1921.0000    111.3670      0.0000    555.1057      3.0457
  1921.2500    110.1109      0.0000    533.4957      3.1924
  1921.5000    107.6238      0.0000    529.1741      3.2853
  1921.7500    104.9565      0.0000    539.1146      3.3388
  1922.0000    103.3511      0.0000    556.9166      3.3720
  1922.2500    103.1555      0.0000    576.5820      3.3981
  1922.5000    104.3907      0.0000    593.5576      3.4202
  1922.7500    107.8170      0.0000    604.8945      3.4375
  1923.0000    114.2061      0.0000    609.5421      3.4530
  1923.2500    122.5910      0.0000    607.8691      3.4708
  1923.5000    130.3023      0.0000    600.9558      3.4887
  1923.7500    135.0415      0.0000    590.5267      3.4984
  1924.0000    136.5593      0.0000    578.7282      3.4938
  1924.2500    136.5439      0.0000    567.1072      3.4738
