~Version Information
 VERS.                      2.0: CWLS Log ASCII Standard - VERSION 2.0
 WRAP.                       NO: One line per depth step
 ~Well Information Block
 STRT.FT               887.5000: 
 STOP.FT              2605.5000: 
 STEP.FT                 0.2500: 
 NULL.                -999.2500: 
 COMP.          Petrogulf Corporation: COMPANY
 WELL.               YWAM 7-23V: WELL
 FLD.           Purgatorie River: FIELD
 LOC.           230' FSL & 225' FWL: LOCATION
 CNTY.               Las Animas: COUNTY
 SRVC.                         : SERVICE COMPANY
 DATE.          Sat Oct 30 08:34:45 2004: LOG DATE
 UWI.           05 071 08227 00: UNIQUE WELL ID
 STAT.                 Colorado: STATE
 PROV.                         :Province
 ~Curve Information Block
 DEPT.FT            0 000 00 00: Depth
 SP.mV                         : DIL Spontaneous Potential
 RILD.Ohm-m                    : DIL Deep Resistivity
 RILM.Ohm-m                    : DIL Medium Resistivity
 RLL3.Ohm-m                    : DIL Shallow Resistivity
 GR.GAPI                       : Gamma Ray
 ~Parameter Information Block
 ~A  Depth        SP         RILD        RILM        RLL3         GR     
# ...
   915.5000   2000.0000      9.9140 100000.0000   2000.0000     84.5861
   915.7500   2000.0000      9.9503 100000.0000   2000.0000     83.3810
   916.0000   2000.0000      9.9868 100000.0000   2000.0000     81.4821
   916.2500   2000.0000     10.0184 100000.0000   2000.0000     80.3258
   916.5000   2000.0000     10.0403 100000.0000   2000.0000     77.9967
   916.7500   2000.0000     10.0485 100000.0000   2000.0000     75.3684
   917.0000   2000.0000     10.0410 100000.0000   2000.0000     69.4818
   917.2500   2000.0000     10.0175 100000.0000   2000.0000     64.8859
   917.5000   2000.0000      9.9802 100000.0000   2000.0000     58.8179
   917.7500   2000.0000      9.9324 100000.0000   2000.0000     56.2147
   918.0000   2000.0000      9.8789 100000.0000   2000.0000     55.1422
   918.2500   2000.0000      9.8244 100000.0000   2000.0000     56.3031
   918.5000   2000.0000      9.7733 100000.0000   2000.0000     60.3483
   918.7500   2000.0000      9.7293 100000.0000   2000.0000     63.9828
   919.0000   2000.0000      9.6946 100000.0000   2000.0000     69.4804
   919.2500   2000.0000      9.6700 100000.0000   2000.0000     72.4764
   919.5000   2000.0000      9.6550 100000.0000   2000.0000     75.3302
   919.7500   2000.0000      9.6474 100000.0000   2000.0000     76.0575
   920.0000   2000.0000      9.6442 100000.0000   2000.0000     75.5599
   920.2500   2000.0000      9.6419 100000.0000   2000.0000     74.4651
   920.5000   2000.0000      9.6371 100000.0000   2000.0000     72.5278
   920.7500   2000.0000      9.6278 100000.0000   2000.0000     71.5978
   921.0000   2000.0000      9.6135 100000.0000   2000.0000     71.5253
   921.2500   2000.0000      9.5956 100000.0000   2000.0000     72.6389
   921.5000   2000.0000      9.5771 100000.0000   2000.0000     76.1256
   921.7500   2000.0000      9.5621 100000.0000   2000.0000     79.4283
   922.0000   2000.0000      9.5549 100000.0000   2000.0000     85.0777
   922.2500   2000.0000      9.5592 100000.0000   2000.0000     88.7389
   922.5000   2000.0000      9.5771 100000.0000   2000.0000     93.0834
   922.7500   2000.0000      9.6087 100000.0000   2000.0000     94.7691
   923.0000   2000.0000      9.6521 100000.0000   2000.0000     95.2029
   923.2500   2000.0000      9.7038 100000.0000   2000.0000     94.2301
   923.5000   2000.0000      9.7589 100000.0000   2000.0000     91.3412
   923.7500   2000.0000      9.8128 100000.0000   2000.0000     88.6790
   924.0000   2000.0000      9.8620 100000.0000   2000.0000     83.8037
   924.2500   2000.0000      9.9050 100000.0000   2000.0000     80.1254
   924.5000   2000.0000      9.9435 100000.0000   2000.0000     74.4081
   924.7500   2000.0000      9.9816 100000.0000   2000.0000     70.7415
   925.0000   2000.0000     10.0254 100000.0000   2000.0000     65.8366
   925.2500   2000.0000     10.0819 100000.0000   2000.0000     63.1354
   925.5000   2000.0000     10.1573 100000.0000   2000.0000     60.1695
   925.7500   2000.0000     10.2554 100000.0000   2000.0000     58.9675
   926.0000   2000.0000     10.3774 100000.0000   2000.0000     58.2773
   926.2500   2000.0000     10.5203 100000.0000   2000.0000     58.4891
   926.5000   2000.0000     10.6780 100000.0000   2000.0000     59.4793
   926.7500   2000.0000     10.8415 100000.0000   2000.0000     60.1169
   927.0000   2000.0000     11.0014 100000.0000   2000.0000     59.9915
   927.2500   2000.0000     11.1492 100000.0000   2000.0000     58.8858
   927.5000   2000.0000     11.2794 100000.0000   2000.0000     56.2870
   927.7500   2000.0000     11.3897 100000.0000   2000.0000     54.7100
   928.0000   2000.0000     11.4792 100000.0000   2000.0000     53.6582
   928.2500   2000.0000     11.5463 100000.0000   2000.0000     53.8978
   928.5000   2000.0000     11.5851 100000.0000   2000.0000     54.9283
   928.7500   2000.0000     11.5829 100000.0000   2000.0000     55.5893
   929.0000   2000.0000     11.5230 100000.0000   2000.0000     56.3359
   929.2500   2000.0000     11.3889 100000.0000   2000.0000     56.8149
   929.5000   2000.0000     11.1720 100000.0000   2000.0000     57.5672
   929.7500   2000.0000     10.8771 100000.0000   2000.0000     57.9483
   930.0000   2000.0000     10.5246 100000.0000   2000.0000     58.3907
   930.2500   2000.0000     10.1459 100000.0000   2000.0000     59.0364
   930.5000   2000.0000      9.7749 100000.0000   2000.0000     61.4120
   930.7500   2000.0000      9.4390 100000.0000   2000.0000     63.9955
   931.0000   2000.0000      9.1537 100000.0000   2000.0000     68.5698
   931.2500   2000.0000      8.9189 100000.0000   2000.0000     71.5030
   931.5000   2000.0000      8.7195 100000.0000   2000.0000     75.1477
   931.7500   2000.0000      8.5284 100000.0000   2000.0000     76.9172
   932.0000   2000.0000      8.3141 100000.0000   2000.0000     78.2775
   932.2500   2000.0000      8.0505 100000.0000   2000.0000     78.1333
   932.5000   2000.0000      7.7274 100000.0000   2000.0000     76.2928
   932.7500   2000.0000      7.3559 100000.0000   2000.0000     74.2281
   933.0000   2000.0000      6.9646 100000.0000   2000.0000     70.6781
   933.2500   2000.0000      6.5878 100000.0000   2000.0000     68.5422
   933.5000   2000.0000      6.2544 100000.0000   2000.0000     66.3238
   933.7500   2000.0000      5.9803 100000.0000   2000.0000     65.5722
   934.0000   2000.0000      5.7674 100000.0000   2000.0000     65.3273
   934.2500   2000.0000      5.6059 100000.0000   2000.0000     65.7533
   934.5000   2000.0000      5.4781 100000.0000   2000.0000     67.8278
   934.7500   2000.0000      5.3649 100000.0000   2000.0000     70.5754
   935.0000   2000.0000      5.2539 100000.0000   2000.0000     76.8089
   935.2500   2000.0000      5.1454 100000.0000   2000.0000     81.9056
   935.5000   2000.0000      5.0552 100000.0000   2000.0000     89.9261
   935.7500   2000.0000      5.0122 100000.0000   2000.0000     95.2570
   936.0000   2000.0000      5.0546 100000.0000   2000.0000    103.4728
   936.2500   2000.0000      5.2290 100000.0000   2000.0000    109.1735
   936.5000   2000.0000      5.5956 100000.0000   2000.0000    117.2586
   936.7500   2000.0000      6.2440     81.9897   2000.0000    121.5077
   937.0000   2000.0000      7.3236     27.4672   2000.0000    125.3128
   937.2500   2000.0000      9.1100     18.7337   2000.0000    126.2979
   937.5000   2000.0000     12.1589     15.7555   2000.0000    126.2297
   937.7500   2000.0000     17.7230     14.7767   2000.0000    125.3998
   938.0000   2000.0000     29.1059     14.8417   2000.0000    122.9759
   938.2500   2000.0000     57.4198     15.6047   2000.0000    120.7138
   938.5000   2000.0000    161.7771     16.8961   2000.0000    117.3263
   938.7500   2000.0000   1942.8202     18.5788   2000.0000    115.9284
   939.0000   2000.0000 100000.0000     20.4779   2000.0000    116.2814
   939.2500   2000.0000    355.7874     22.3480   2000.0000    118.2007
   939.5000   2000.0000    115.1546     23.8926   2000.0000    122.4030
   939.7500   2000.0000     61.9236     24.8430   2000.0000    125.0041
   940.0000   2000.0000     41.5155     25.0624   2000.0000    127.1769
   940.2500   2000.0000     31.6413     24.5981   2000.0000    127.2303
   940.5000   2000.0000     26.2430     23.6382   2000.0000    125.6776
   940.7500   2000.0000     23.0824     22.4173   2000.0000    123.9862
   941.0000   2000.0000     21.1612     21.1352   2000.0000    120.8856
   941.2500   2000.0000     19.9621     19.9245   2000.0000    118.4613
   941.5000   2000.0000     19.1897     18.8565   2000.0000    114.3389
   941.7500   2000.0000     18.6657     17.9572   2000.0000    111.4957
   942.0000   2000.0000     18.2791     17.2298   2000.0000    107.8612
   942.2500   2000.0000     17.9655     16.6683   2000.0000    106.4818
   942.5000   2000.0000     17.6944     16.2623   2000.0000    107.0111
   942.7500   2000.0000     17.4572     15.9993   2000.0000    109.3154
   943.0000   2000.0000     17.2575     15.8666   2000.0000    115.0106
   943.2500   2000.0000     17.1028     15.8510   2000.0000    119.5436
