~Version Information
VERS.                      2.0: CWLS Log ASCII Standard - VERSION 2.0
WRAP.                       NO: One line per depth step
~Well Information Block
STRT.FT               750.0000: 
STOP.FT              2431.5000: 
STEP.FT                 0.1000: 
NULL.                -999.2500: 
COMP.          Petrogulf Corporation: COMPANY
WELL.           McDaniel 9-34V: WELL
FLD.           Purgatorie River: FIELD
LOC.           620' FSL & 1800' FEL: LOCATION
PROV.                 Colorado: PROVINCE
CNTY.               Las Animas: COUNTRY
SRVC.                Patterson: SERVICE COMPANY
DATE.          Wed Sep 28 07:18:04 2005: LOG DATE
UWI.                          : UNIQUE WELL ID
~Curve Information Block
DEPT.FT            0 000 00 00: Depth
DCAL.in                       : CDL Caliper
RHOB.g/cc                     : CDL Bulk Density
RHOC.g/cc                     : CDL Density Correction
DPOR.pu                       : CDL Density Porosity
GR.GAPI                       : Gamma Ray
NPOR.pu                       : Neutron Porosity
~Parameter Information Block
~A  Depth       DCAL        RHOB        RHOC        DPOR         GR         NPOR    
# ...
  2410.8000      7.6844      2.6387      0.0998      0.6850    108.2576     15.9705
  2410.9000      7.6844      2.6579      0.1044     -0.4779    114.4907     16.2126
  2411.0000      7.6890      2.6734      0.1087     -1.4184    117.1456     16.6852
  2411.1000      7.6890      2.6735      0.1260     -1.4223    120.2750     16.7087
  2411.2000      7.6890      2.6594      0.0382     -0.5722    127.4231     15.9479
  2411.3000      7.7392      2.6476      0.0330      0.1431    136.0204     14.6299
  2411.4000      7.7392      2.6407      0.0619      0.5654    141.9246     13.0609
  2411.5000      7.7527      2.6323     -0.0017      1.0700    145.2586     11.5803
  2411.6000      7.7527      2.6225      0.0410      1.6660    146.3135     10.5467
  2411.7000      7.7527      2.6146      0.0086      2.1473    146.4395     10.0908
  2411.8000      7.7345      2.6132      0.0355      2.2312    149.6536     10.0133
  2411.9000      7.7345      2.6129      0.0308      2.2498    155.9252      9.9891
  2412.0000      7.7156      2.6059      0.0055      2.6715    160.1846      9.9693
  2412.1000      7.7156      2.5977     -0.0061      3.1712    159.7426      9.9726
  2412.2000      7.7156      2.5985      0.0353      3.1242    156.4721     10.1960
  2412.3000      7.6873      2.6087      0.0722      2.5011    151.0501     12.3275
  2412.4000      7.6873      2.6216      0.0487      1.7209    142.9810     20.2248
  2412.5000      7.6574      2.6320      0.0934      1.0928    132.7177     33.7541
  2412.6000      7.6574      2.6322      0.0888      1.0780    121.0181     43.8473
  2412.7000      7.6574      2.6112      0.1157      2.3526    111.7180     47.4971
  2412.8000      7.6665      2.5731      0.0758      4.6636    108.2301     48.2082
  2412.9000      7.6665      2.5457      0.0484      6.3200    107.6386     48.2831
  2413.0000      7.7013      2.5474      0.0522      6.2195    105.7760     48.2873
  2413.1000      7.7013      2.5685      0.0776      4.9382    101.8132   -999.2500
  2413.2000      7.7013      2.5896      0.1069      3.6631     96.8627   -999.2500
  2413.3000      7.7009      2.5951      0.0796      3.3264     92.5052   -999.2500
  2413.4000      7.7009      2.5883      0.0822      3.7369     89.2293   -999.2500
  2413.5000      7.6888      2.5872      0.1178      3.8045     86.3389   -999.2500
  2413.6000      7.6888      2.5982      0.0862      3.1377     84.4696   -999.2500
  2413.7000      7.6888      2.6069      0.1209      2.6119     85.3104   -999.2500
  2413.8000      7.7122      2.5995      0.0683      3.0622     87.5214   -999.2500
  2413.9000      7.7122      2.5863      0.0555      3.8613     88.1362   -999.2500
  2414.0000      7.7522      2.5821      0.0672      4.1145     86.4267   -999.2500
  2414.1000      7.7522      2.5813      0.0629      4.1619     84.8734   -999.2500
  2414.2000      7.7522      2.5722      0.0828      4.7155     86.0288   -999.2500
  2414.3000      7.7795      2.5570      0.0301      5.6362     89.2662   -999.2500
  2414.4000      7.7795      2.5485      0.0233      6.1498     90.7835   -999.2500
  2414.5000      7.7825      2.5477      0.0548      6.1994     88.1771   -999.2500
  2414.6000      7.7825      2.5396      0.0486      6.6930     83.7244   -999.2500
  2414.7000      7.7825      2.5199      0.0101      7.8827     81.9453   -999.2500
  2414.8000      7.7801      2.5002      0.0032      9.0772     84.5242   -999.2500
  2414.9000      7.7801      2.4916     -0.0218      9.6026     89.3746   -999.2500
  2415.0000      7.7659      2.4997      0.0149      9.1083     94.9173   -999.2500
  2415.1000      7.7659      2.5158      0.0305      8.1323     99.6825   -999.2500
  2415.2000      7.7659      2.5268      0.0348      7.4649    100.4096   -999.2500
  2415.3000      7.7417      2.5336      0.0306      7.0574     97.2255   -999.2500
  2415.4000      7.7417      2.5419      0.0803      6.5517     95.0740   -999.2500
  2415.5000      7.7637      2.5621      0.0421      5.3249     96.9132   -999.2500
  2415.6000      7.7637      2.5979      0.1237      3.1599    100.0824   -999.2500
  2415.7000      7.7637      2.6237      0.1438      1.5965    101.4536   -999.2500
  2415.8000      7.7312      2.6250      0.1175      1.5162     99.7444   -999.2500
  2415.9000      7.7312      2.6219      0.1168      1.7031     93.9753   -999.2500
  2416.0000      7.7006      2.6252      0.1207      1.5037     84.9693   -999.2500
  2416.1000      7.7006      2.6238      0.1364      1.5869     77.4814   -999.2500
  2416.2000      7.7006      2.6136      0.0649      2.2081     76.7288   -999.2500
  2416.3000      7.7460      2.6069      0.0446      2.6103     79.4550   -999.2500
  2416.4000      7.7460      2.6076      0.0762      2.5693     79.4089   -999.2500
  2416.5000      7.7394      2.6055      0.0656      2.6998     77.4759   -999.2500
  2416.6000      7.7394      2.6028      0.0644      2.8584     76.3988   -999.2500
  2416.7000      7.7394      2.6081      0.0742      2.5404     76.9037   -999.2500
  2416.8000      7.6903      2.6149      0.1027      2.1297     79.2031   -999.2500
  2416.9000      7.6903      2.6129      0.0654      2.2474     81.5434   -999.2500
  2417.0000      7.7235      2.6055      0.0465      2.6974     83.6275   -999.2500
  2417.1000      7.7235      2.6004      0.0563      3.0055     86.1389   -999.2500
  2417.2000      7.7235      2.5986      0.0663      3.1137     88.0291   -999.2500
  2417.3000      7.7291      2.5952      0.0785      3.3236     89.5163   -999.2500
  2417.4000      7.7291      2.5850      0.0520      3.9403     91.1758   -999.2500
  2417.5000      7.7825      2.5709      0.0512      4.7967     93.1911   -999.2500
  2417.6000      7.7825      2.5660      0.0208      5.0933     96.1148   -999.2500
  2417.7000      7.7825      2.5787      0.0565      4.3233     99.0079   -999.2500
  2417.8000      7.7915      2.5933      0.0706      3.4340     99.3222   -999.2500
  2417.9000      7.7915      2.5865      0.0884      3.8515     96.1135   -999.2500
  2418.0000      7.7744      2.5581      0.0373      5.5706     87.8358   -999.2500
  2418.1000      7.7744      2.5297      0.0164      7.2928     67.3898   -999.2500
  2418.2000      7.7744      2.5157      0.0545      8.1366     36.2955   -999.2500
  2418.3000      7.7701      2.5193      0.0363      7.9238     11.9648   -999.2500
  2418.4000      7.7701      2.5367      0.0762      6.8681      2.2390   -999.2500
  2418.5000      7.7653      2.5550      0.0610      5.7598      0.2290   -999.2500
  2418.6000      7.7653      2.5659      0.0745      5.0972      0.0123   -999.2500
  2418.7000      7.7653      2.5704      0.1126      4.8270      0.0000   -999.2500
  2418.8000      7.7785      2.5741      0.0750      4.6023   -999.2500   -999.2500
  2418.9000      7.7785      2.5842      0.0664      3.9849   -999.2500   -999.2500
  2419.0000      7.7883      2.5978      0.1192      3.1655   -999.2500   -999.2500
  2419.1000      7.7883      2.6082      0.1014      2.5323   -999.2500   -999.2500
  2419.2000      7.7883      2.6145      0.1005      2.1533   -999.2500   -999.2500
  2419.3000      7.7083      2.6141      0.0981      2.1772   -999.2500   -999.2500
  2419.4000      7.7083      2.6075      0.0850      2.5785   -999.2500   -999.2500
  2419.5000      7.7056      2.6020      0.0658      2.9090   -999.2500   -999.2500
  2419.6000      7.7056      2.5958      0.1062      3.2869   -999.2500   -999.2500
  2419.7000      7.7056      2.5831      0.0908      4.0525   -999.2500   -999.2500
  2419.8000      7.7105      2.5789      0.0468      4.3096   -999.2500   -999.2500
  2419.9000      7.7105      2.5933      0.1248      3.4383   -999.2500   -999.2500
  2420.0000      7.7226      2.6075      0.1176      2.5752   -999.2500   -999.2500
  2420.1000      7.7226      2.6021      0.1346      2.9018   -999.2500   -999.2500
  2420.2000      7.7226      2.5797      0.0975      4.2607   -999.2500   -999.2500
  2420.3000      7.7068      2.5541      0.0836      5.8105   -999.2500   -999.2500
