~Version Information
 VERS.                                  2.0 : CWLS LAS VERSION
 WRAP.                                   NO : WRAPING MODE
 SWARE .                 MController 2.5.0N : SOFTWARE VERSION
~Well Information
 WELL.                   Sand Pebbles 13-33 : WELL
 COMP.    Pioneer Natural Resources USA Inc : COMPANY
 FLD.                      Purgatoire River : FIELD
 LOC.                 NW/SW Sec 33 T32S R67W : LOCATION
 DATE.                           3/08-10/05 : DATE(S) LOGGED
 SRVC.         Blanco Geological Services LLC : SERVICE COMPANY
 STAT.                                   CO : STATE
 CNTY.                           Las Animas : COUNTY
 CTRY.                                  USA : COUNTRY
 API.                       05-071-08224-00 : API NUMBER
 STRT.FT                             655.00 : START DEPTH
 STOP.FT                            2730.00 : STOP DEPTH
 STEP.FT                               1.00 : DEPTH INCREMENT
 NULL.                                -9999 : NULL VALUE
~Curve information
 DEPTH.FT                                   :
 ROP.MIN/FT                                 :
 GAS.UNITS                                  :
~ASCII Log data
# ...
      1055.0         0.47          3.4 
      1056.0         0.47          2.5 
      1057.0         0.50          2.7 
      1058.0         0.50          2.6 
      1059.0         0.53          2.4 
      1060.0         0.45          2.5 
      1061.0         0.47          2.1 
      1062.0         0.43          2.3 
      1063.0         0.47          2.2 
      1064.0         0.33          2.4 
      1065.0         0.40          2.6 
      1066.0         0.37          2.1 
      1067.0         0.37          2.3 
      1068.0         0.37          2.2 
      1069.0         0.32          2.5 
      1070.0         0.10          2.5 
      1071.0         0.13          2.5 
      1072.0         0.20          2.3 
      1073.0         0.17          2.4 
      1074.0         0.17          2.6 
      1075.0         0.13          2.7 
      1076.0         0.27          2.3 
      1077.0         0.27          2.5 
      1078.0         0.23          2.6 
      1079.0         0.23          2.9 
      1080.0         0.23          2.7 
      1081.0         7.27         11.6 
      1082.0         0.88         22.5 
      1083.0         0.83         17.6 
      1084.0         0.67          5.6 
      1085.0         0.70          2.8 
      1086.0         0.60          3.1 
      1087.0         0.55          2.8 
      1088.0         0.43          3.0 
      1089.0         0.40          2.9 
      1090.0         0.40          2.7 
      1091.0         0.37          2.8 
      1092.0         0.33          2.9 
      1093.0         0.33          2.7 
      1094.0         0.30          2.6 
      1095.0         0.20          3.0 
      1096.0         0.18          2.7 
      1097.0         0.33          2.8 
      1098.0         0.73          2.8 
      1099.0         0.67          2.6 
      1100.0         0.47          2.5 
      1101.0         0.43          2.7 
      1102.0         0.50          2.8 
      1103.0         0.38          2.5 
      1104.0         0.40          2.2 
      1105.0         0.40          2.3 
      1106.0         0.33          2.4 
      1107.0         0.33          2.6 
      1108.0         0.40          2.4 
      1109.0         0.37          2.7 
      1110.0         0.40          2.6 
      1111.0         9.62         27.0 
      1112.0         0.73         38.4 
      1113.0         0.78         25.9 
      1114.0         0.60          7.8 
      1115.0         0.87          3.1 
      1116.0         0.80          2.8 
      1117.0         0.72          2.8 
      1118.0         0.50          2.6 
      1119.0         0.50          2.8 
      1120.0         0.40          3.0 
      1121.0         0.40          2.9 
      1122.0         0.43          2.7 
      1123.0         0.40          2.9 
      1124.0         0.48          2.5 
      1125.0         0.33          2.8 
      1126.0         0.40          2.8 
      1127.0         0.43          2.7 
      1128.0         0.43          2.5 
      1129.0         0.60          2.7 
      1130.0         0.63          2.4 
      1131.0         0.72          2.5 
      1132.0         0.47          2.9 
      1133.0         0.37          2.9 
      1134.0         0.27          2.7 
      1135.0         0.17          2.6 
      1136.0         0.17          2.6 
      1137.0         0.17          2.7 
      1138.0         0.20          2.8 
      1139.0         0.33          2.8 
      1140.0         0.37          2.6 
      1141.0         6.90          4.2 
      1142.0         0.33          4.9 
      1143.0         0.35          5.7 
      1144.0         0.43          7.8 
      1145.0         0.23          8.8 
      1146.0         0.60          5.5 
      1147.0         0.73          3.0 
      1148.0         0.53          3.1 
      1149.0         0.47          4.6 
      1150.0         0.32          6.4 
      1151.0         0.30          7.7 
      1152.0         0.30          7.6 
      1153.0         0.33          6.6 
      1154.0         0.23          5.4 
      1155.0         0.23          4.3 
      1156.0         0.20          3.9 
      1157.0         0.23          3.2 
      1158.0         0.23          3.2 
      1159.0         0.20          2.7 
      1160.0         0.20          3.0 
      1161.0         0.17          2.8 
      1162.0         0.17          3.2 
      1163.0         0.20          2.9 
      1164.0         0.18          2.9 
      1165.0         0.23          2.8 
      1166.0         0.37          2.5 
      1167.0         0.40          2.6 
      1168.0         0.30          3.1 
      1169.0         0.37          2.7 
      1170.0         0.33          4.0 
      1171.0         7.23          7.3 
      1172.0         0.57         11.1 
      1173.0         0.65          7.9 
      1174.0         0.67          3.5 
      1175.0         0.43          3.1 
      1176.0         0.47          3.1 
      1177.0         0.50          3.0 
      1178.0         0.43          2.7 
      1179.0         0.55          3.1 
      1180.0         0.50          2.8 
      1181.0         0.50          3.0 
      1182.0         0.47          2.9 
      1183.0         0.50          3.0 
      1184.0         0.53          3.5 
      1185.0         0.23          3.2 
      1186.0         0.13          3.1 
      1187.0         0.38          3.3 
      1188.0         0.37          3.3 
      1189.0         0.30          3.2 
      1190.0         0.27          3.1 
      1191.0         0.43          3.0 
      1192.0         0.27          2.8 
      1193.0         0.30          3.0 
      1194.0         0.27          3.2 
      1195.0         0.23          3.9 
      1196.0         0.33          6.9 
      1197.0         0.37          9.2 
      1198.0         0.38          8.2 
      1199.0         0.33          5.8 
      1200.0         0.40          4.0 
      1201.0        10.48         15.8 
      1202.0         0.33         18.3 
      1203.0         0.33         19.9 
      1204.0         0.33         15.4 
      1205.0         0.37          9.4 
      1206.0         0.33          5.3 
      1207.0         0.45          3.1 
      1208.0         0.43          2.7 
      1209.0         0.37          2.8 
      1210.0         0.30          2.8 
      1211.0         0.30          2.9 
      1212.0         0.33          2.8 
      1213.0         0.40          2.5 
      1214.0         0.37          2.7 
      1215.0         0.23          2.5 
      1216.0         0.17          2.3 
      1217.0         0.17          2.7 
      1218.0         0.22          2.4 
      1219.0         0.20          2.4 
      1220.0         0.17          2.6 
      1221.0         0.13          2.6 
      1222.0         0.20          2.6 
      1223.0         0.20          2.8 
      1224.0         0.23          2.4 
      1225.0         0.20          2.5 
      1226.0         0.23          2.7 
      1227.0         0.20          2.5 
      1228.0         0.23          2.6 
      1229.0         0.23          2.9 
      1230.0         0.23          3.4 
      1231.0         8.92          5.6 
      1232.0         0.40          7.3 
      1233.0         0.30          8.3 
      1234.0         0.33          8.4 
      1235.0         0.30          7.0 
      1236.0         0.27          5.4 
      1237.0         0.28          4.6 
      1238.0         0.40          3.8 
      1239.0         0.40          4.4 
      1240.0         0.40          6.1 
      1241.0         0.43          8.6 
      1242.0         0.40          9.4 
      1243.0         0.40          7.8 
      1244.0         0.40          6.1 
      1245.0         0.43          4.7 
      1246.0         0.68          3.2 
      1247.0         0.57          2.8 
      1248.0         0.40          2.8 
      1249.0         0.30          2.8 
      1250.0         0.23          2.5 
      1251.0         0.20          2.5 
      1252.0         0.23          2.9 
      1253.0         0.33          2.8 
      1254.0         0.37          2.9 
