~Version Information
VERS.                      2.0: CWLS Log ASCII Standard - VERSION 2.0
WRAP.                       NO: One line per depth step
~Well Information Block
STRT.FT               583.0000: 
STOP.FT              1700.0000: 
STEP.FT                 0.1000: 
NULL.                -999.2500: 
COMP.          Pioneer Natural Resources: COMPANY
WELL.          Scott Canyon 11-18 Tr: WELL
FLD.           Purgatoire River: FIELD
LOC.           411' FNL & 580' FWL: LOCATION
PROV.                 Colorado: PROVINCE
CNTY.               Las Animas: COUNTRY
SRVC.                Patterson: SERVICE COMPANY
DATE.          Thu Feb 17 15:41:32 2005: LOG DATE
UWI.           05 071 08286 00: UNIQUE WELL ID
~Curve Information Block
DEPT.FT            0 000 00 00: Depth
DCAL.in                       : CDL Caliper
RHOB.g/cc                     : CDL Bulk Density
RHOC.g/cc                     : CDL Density Correction
DPOR.pu                       : CDL Density Porosity
GR.GAPI                       : Gamma Ray
NPOR.pu                       : Neutron Porosity
~Parameter Information Block
~A  Depth       DCAL        RHOB        RHOC        DPOR         GR         NPOR    
# ...
   803.8000      8.0018      2.5844      0.0811      3.9745    131.8723     25.0517
   803.9000      8.0018      2.6275      0.0914      1.3635    127.0370     24.6404
   804.0000      7.9987      2.6524      0.1396     -0.1463    128.0647     24.5689
   804.1000      7.9987      2.6456      0.1053      0.2661    131.4258     24.8984
   804.2000      7.9987      2.6225      0.1115      1.6645    130.8332     25.8054
   804.3000      8.0234      2.5944      0.0502      3.3690    126.8675     27.2111
   804.4000      8.0234      2.5658      0.0522      5.1030    126.9458     27.8425
   804.5000      8.0609      2.5441      0.0338      6.4161    134.1591     26.7915
   804.6000      8.0609      2.5390      0.0171      6.7282    142.1572     25.2700
   804.7000      8.0609      2.5461      0.0924      6.2948    146.2605     24.9543
   804.8000      8.0883      2.5523      0.0316      5.9220    146.4546     25.7432
   804.9000      8.0883      2.5571      0.0604      5.6278    140.3139     26.5117
   805.0000      8.1094      2.5560      0.0933      5.6967    128.9765     26.9124
   805.1000      8.1094      2.5455      0.0244      6.3359    120.0504     27.2094
   805.2000      8.1094      2.5404      0.0524      6.6429    118.7914     27.3177
   805.3000      8.1060      2.5529      0.0769      5.8861    122.6596     27.3263
   805.4000      8.1060      2.5887      0.0678      3.7159    125.4761     27.5097
   805.5000      8.1093      2.6426      0.1406      0.4463    125.0213     27.8279
   805.6000      8.1093      2.6913      0.1372     -2.5031    122.3425     28.4688
   805.7000      8.1093      2.7200      0.1705     -4.2445    118.5038     29.2234
   805.8000      8.1151      2.7281      0.1423     -4.7334    112.7810     29.3991
   805.9000      8.1151      2.7128      0.1675     -3.8048    105.5444     28.7926
   806.0000      8.1052      2.6740      0.1370     -1.4535    102.4111     27.6818
   806.1000      8.1052      2.6324      0.0114      1.0669    106.1721     26.9663
   806.2000      8.1052      2.6108      0.0532      2.3757    112.4490     26.8962
   806.3000      8.1153      2.6013      0.0255      2.9541    116.8503     26.7310
   806.4000      8.1153      2.5887      0.0047      3.7156    115.6000     26.6297
   806.5000      8.1011      2.5728      0.0572      4.6799    111.7359     27.0806
   806.6000      8.1011      2.5590      0.0423      5.5131    114.5613     27.4420
   806.7000      8.1011      2.5501      0.0807      6.0569    121.0373     26.9887
   806.8000      8.1135      2.5538      0.0392      5.8312    119.8587     26.3501
   806.9000      8.1135      2.5776      0.0632      4.3907    111.7289     26.5172
   807.0000      8.1637      2.6037      0.0971      2.8052    106.0242     27.4049
   807.1000      8.1637      2.6123      0.0713      2.2876    106.4630     28.3783
   807.2000      8.1637      2.6041      0.0941      2.7832    111.4588     28.7977
   807.3000      8.2124      2.5856      0.0815      3.9001    116.6851     28.1998
   807.4000      8.2124      2.5596      0.0707      5.4787    118.6729     27.0111
   807.5000      8.2372      2.5295      0.0243      7.3013    118.2404     25.9733
   807.6000      8.2372      2.5111      0.0007      8.4200    115.8797     25.3294
   807.7000      8.2372      2.5256     -0.0200      7.5409    110.0911     25.2147
   807.8000      8.2695      2.5635      0.1149      5.2406    105.8192     25.6612
   807.9000      8.2695      2.5901      0.0699      3.6302    109.5758     26.3267
   808.0000      8.2926      2.6030      0.0513      2.8494    117.3885     26.7123
   808.1000      8.2926      2.6264      0.0474      1.4286    121.4738     26.9482
   808.2000      8.2926      2.6646      0.0491     -0.8835    120.6511     27.4169
   808.3000      8.2970      2.6969      0.0972     -2.8421    118.8859     27.8028
   808.4000      8.2970      2.7024      0.1107     -3.1743    118.7208     27.9155
   808.5000      8.2940      2.6771      0.1153     -1.6418    117.0999     27.9712
   808.6000      8.2940      2.6308      0.0804      1.1638    109.8165     27.9666
   808.7000      8.2940      2.5851     -0.0470      3.9342    103.0385     28.0389
   808.8000      8.2878      2.5610     -0.0472      5.3933    103.9849     28.2537
   808.9000      8.2878      2.5479      0.0373      6.1901    107.9893     28.2649
   809.0000      8.2901      2.5200     -0.0014      7.8798    112.6572     28.0836
   809.1000      8.2901      2.4744      0.0184     10.6394    116.9970     27.9486
   809.2000      8.2901      2.4120      0.0236     14.4217    115.1458     27.9399
   809.3000      8.3064      2.3194     -0.0394     20.0335    109.0112     28.0536
   809.4000      8.3064      2.1816     -0.0844     28.3903    105.8640     28.2807
   809.5000      8.3411      2.0018     -0.1134     39.2869    107.0499     28.7463
   809.6000      8.3411      1.8210     -0.1986     50.2407    109.3223     29.3149
   809.7000      8.3411      1.6823     -0.1789     58.6489    107.2906     29.6457
   809.8000      8.4216      1.5746     -0.1614     65.1779     98.8140     29.7509
   809.9000      8.4216      1.4627     -0.1618     71.9554     87.8456     29.8865
   810.0000      8.6951      1.3561     -0.1982     78.4158     77.4345     30.2316
   810.1000      8.6951      1.2924     -0.1216     82.2800     70.4623     31.0938
   810.2000      8.6951      1.2748     -0.0465     83.3432     67.8168     32.2307
   810.3000      8.8148      1.2816     -0.0366     82.9304     66.2681     32.8934
   810.4000      8.8148      1.3053      0.0002     81.4983     64.6144     33.2430
   810.5000      8.8323      1.3566     -0.0104     78.3865     63.7273     33.6283
   810.6000      8.8323      1.4473      0.0497     72.8897     63.0183     33.8741
   810.7000      8.8323      1.5683      0.0536     65.5555     61.5955     34.3360
   810.8000      8.8331      1.6958      0.1002     57.8317     59.9774     35.0715
   810.9000      8.8331      1.8170      0.1429     50.4823     58.7873     35.3882
   811.0000      8.8207      1.9437      0.1700     42.8067     59.1769     35.3888
   811.1000      8.8207      2.0829      0.1625     34.3672     63.4452     35.2905
   811.2000      8.8207      2.2031      0.2383     27.0864     74.3449     34.7275
   811.3000      8.6982      2.2677      0.1805     23.1713     90.7525     33.8572
   811.4000      8.6982      2.2853      0.1377     22.1038    103.5187     33.1994
   811.5000      8.4081      2.2761      0.1156     22.6620    107.4672     32.8696
   811.6000      8.4081      2.2395      0.0933     24.8804    105.6976     32.7562
   811.7000      8.4081      2.1786      0.0209     28.5687    101.6201     32.5876
   811.8000      8.1916      2.1072     -0.0172     32.8971    100.4776     32.1676
   811.9000      8.1916      2.0274      0.0581     37.7339    103.2620     31.6588
   812.0000      8.1667      1.9318     -0.0360     43.5255    104.6361     31.4998
   812.1000      8.1667      1.8178     -0.0702     50.4350    102.4151     31.8542
   812.2000      8.1667      1.6901     -0.0945     58.1736     98.6498     32.4357
   812.3000      8.1660      1.5757     -0.1165     65.1087     95.7049     33.0097
   812.4000      8.1660      1.5129     -0.1281     68.9145     93.5603     33.1546
   812.5000      8.1657      1.5184     -0.0554     68.5838     93.0437     33.0253
   812.6000      8.1657      1.5814     -0.0402     64.7627     95.6521     33.2949
   812.7000      8.1657      1.6813     -0.0244     58.7075     97.4282     33.4239
   812.8000      8.1355      1.8004      0.0362     51.4893     92.6573     32.7266
   812.9000      8.1355      1.9244      0.1731     43.9756     83.7898     31.9647
   813.0000      8.0862      2.0491      0.1478     36.4202     77.1351     31.8075
   813.1000      8.0862      2.1753      0.1880     28.7713     77.1484     31.8391
   813.2000      8.0862      2.2847      0.1993     22.1379     86.1029     31.8360
   813.3000      8.0790      2.3611      0.1240     17.5076    102.5338     31.8889
