~Version Information
VERS.                      2.0: CWLS Log ASCII Standard - VERSION 2.0
WRAP.                       NO: One line per depth step
~Well Information Block
STRT.FT               920.0000: 
STOP.FT              3300.2000: 
STEP.FT                 0.1000: 
NULL.                -999.2500: 
COMP.          Pioneer Natural Resources: COMPANY
WELL.              Vespar 43-7: WELL
FLD.           Purgatoire River: FIELD
LOC.           2338' FSL & 1141' FEL: LOCATION
PROV.                 Colorado: PROVINCE
CNTY.               Las Animas: COUNTRY
SRVC.                Patterson: SERVICE COMPANY
DATE.          Wed Jan 26 13:38:02 2005: LOG DATE
UWI.           05 071 07955 00: UNIQUE WELL ID
~Curve Information Block
DEPT.FT            0 000 00 00: Depth
DCAL.in                       : CDL Caliper
RHOB.g/cc                     : CDL Bulk Density
RHOC.g/cc                     : CDL Density Correction
DPOR.pu                       : CDL Density Porosity
NPOR.pu                       : Neutron Porosity
GR.GAPI                       : Gamma Ray
~Parameter Information Block
~A  Depth       DCAL        RHOB        RHOC        DPOR        NPOR         GR     
# ...
  1860.8000      7.9587      2.4011      0.0292     15.0846     14.8608     54.8733
  1860.9000      7.9587      2.4164      0.0473     14.1549     14.5257     56.0959
  1861.0000      7.9581      2.4337      0.1099     13.1081     14.1213     53.9871
  1861.1000      7.9581      2.4372      0.0641     12.8988     13.7153     51.3374
  1861.2000      7.9581      2.4301      0.0506     13.3277     13.5780     52.2192
  1861.3000      7.9606      2.4194      0.0934     13.9745     13.9612     55.3865
  1861.4000      7.9606      2.4112      0.0610     14.4745     14.6542     56.7934
  1861.5000      7.9619      2.4212      0.0454     13.8658     14.9155     55.7213
  1861.6000      7.9619      2.4546      0.0669     11.8421     14.4095     52.5556
  1861.7000      7.9619      2.4883      0.1224      9.7977     13.7542     49.2506
  1861.8000      7.9622      2.4936      0.1268      9.4799     13.4668     48.6567
  1861.9000      7.9622      2.4726      0.0747     10.7509     13.4146     50.0783
  1862.0000      7.9607      2.4562      0.0875     11.7479     13.4572     52.5444
  1862.1000      7.9607      2.4642      0.0641     11.2590     13.7683     55.3082
  1862.2000      7.9607      2.4892      0.0582      9.7465     14.2620     56.4703
  1862.3000      7.9560      2.5120      0.0984      8.3660     14.6067     55.8216
  1862.4000      7.9560      2.5307      0.0401      7.2291     14.9344     55.2136
  1862.5000      7.9520      2.5534      0.1459      5.8521     15.5445     55.6472
  1862.6000      7.9520      2.5682      0.1289      4.9573     16.2418     56.4131
  1862.7000      7.9520      2.5691      0.0416      4.9002     16.7752     57.2748
  1862.8000      7.9507      2.5722      0.0346      4.7146     17.2616     59.1840
  1862.9000      7.9507      2.5830      0.0763      4.0583     17.7657     61.9531
  1863.0000      7.9520      2.5921      0.0729      3.5091     18.2194     63.3303
  1863.1000      7.9520      2.5920      0.0881      3.5145     18.7550     61.4781
  1863.2000      7.9520      2.5847      0.0725      3.9588     19.0339     58.7152
  1863.3000      7.9544      2.5803      0.0449      4.2243     18.7267     57.8922
  1863.4000      7.9544      2.5815      0.0689      4.1513     18.5285     57.2352
  1863.5000      7.9569      2.5778      0.0537      4.3752     18.8981     55.4286
  1863.6000      7.9569      2.5632      0.0138      5.2621     19.4786     55.0954
  1863.7000      7.9569      2.5485      0.0016      6.1496     20.0371     56.7529
  1863.8000      7.9610      2.5581     -0.0594      5.5669     20.4743     57.4528
  1863.9000      7.9610      2.5973      0.0508      3.1953     20.6057     57.6852
  1864.0000      7.9647      2.6288      0.0573      1.2857     20.3327     59.2505
  1864.1000      7.9647      2.6244      0.0649      1.5517     19.8637     60.0296
  1864.2000      7.9647      2.6144      0.0139      2.1565     19.7146     57.7853
  1864.3000      7.9642      2.6329      0.0989      1.0348     20.0708     54.4527
  1864.4000      7.9642      2.6603      0.0492     -0.6263     20.4660     52.7256
  1864.5000      7.9615      2.6614      0.0956     -0.6880     20.3300     51.9953
  1864.6000      7.9615      2.6311      0.0264      1.1463     19.9847     50.8507
  1864.7000      7.9615      2.5957     -0.0033      3.2904     20.0800     50.3358
  1864.8000      7.9627      2.5694      0.0231      4.8861     20.5091     51.6186
  1864.9000      7.9627      2.5491     -0.0045      6.1168     20.9033     52.5539
  1865.0000      7.9650      2.5425     -0.0235      6.5171     21.1546     51.7833
  1865.1000      7.9650      2.5548      0.0478      5.7670     21.0303     51.5999
  1865.2000      7.9650      2.5773      0.0020      4.4090     20.6738     53.0675
  1865.3000      7.9667      2.5978      0.0861      3.1648     20.7648     54.4169
  1865.4000      7.9667      2.6055      0.0540      2.6967     21.1767     54.0661
  1865.5000      7.9683      2.5988      0.0451      3.1057     21.3105     52.3414
  1865.6000      7.9683      2.5868      0.0315      3.8283     21.2603     53.0548
  1865.7000      7.9683      2.5718      0.0634      4.7378     21.2954     57.6893
  1865.8000      7.9669      2.5463      0.0354      6.2848     21.4045     60.7917
  1865.9000      7.9669      2.5146     -0.0010      8.2078     21.2905     59.7802
  1866.0000      7.9588      2.4824      0.0207     10.1599     21.0505     58.4331
  1866.1000      7.9588      2.4487     -0.0136     12.1983     21.0445     58.4611
  1866.2000      7.9588      2.4317     -0.0587     13.2317     20.8831     59.4310
  1866.3000      7.9470      2.4504      0.0193     12.0995     20.1446     62.2777
  1866.4000      7.9470      2.4876      0.0635      9.8398     19.4713     65.0496
  1866.5000      7.9402      2.5170      0.0765      8.0620     19.2845     65.2829
  1866.6000      7.9402      2.5339      0.0834      7.0341     19.2195     64.2292
  1866.7000      7.9402      2.5457      0.0640      6.3183     18.9907     64.0444
  1866.8000      7.9410      2.5537      0.1182      5.8379     18.6330     63.3984
  1866.9000      7.9410      2.5414      0.1358      6.5823     18.1638     58.2615
  1867.0000      7.9521      2.5013      0.0587      9.0109     17.6620     50.1666
  1867.1000      7.9521      2.4547      0.0356     11.8358     17.3779     45.3751
  1867.2000      7.9521      2.4284     -0.0192     13.4315     17.2976     45.7285
  1867.3000      7.9629      2.4367     -0.0108     12.9275     17.2027     49.4141
  1867.4000      7.9629      2.4620      0.0782     11.3923     17.2033     54.0788
  1867.5000      7.9538      2.4650      0.0523     11.2126     17.3694     56.1280
  1867.6000      7.9538      2.4393      0.0498     12.7679     17.3412     55.6571
  1867.7000      7.9538      2.4162      0.0063     14.1703     17.1097     56.0951
  1867.8000      7.9415      2.4156      0.0605     14.2074     16.9095     56.8311
  1867.9000      7.9415      2.4358      0.0451     12.9826     17.0221     55.4596
  1868.0000      7.9383      2.4744      0.0501     10.6425     17.6799     53.6151
  1868.1000      7.9383      2.5132      0.1684      8.2911     18.5761     55.5051
  1868.2000      7.9383      2.5260      0.1280      7.5123     19.1297     61.8271
  1868.3000      7.9389      2.5195      0.1396      7.9086     19.4032     68.6402
  1868.4000      7.9389      2.5157      0.1030      8.1376     20.1564     72.1485
  1868.5000      7.9399      2.5249      0.0641      7.5792     21.3917     72.8948
  1868.6000      7.9399      2.5404      0.0962      6.6431     22.4229     74.2450
  1868.7000      7.9399      2.5460      0.0882      6.3043     23.1162     78.6101
  1868.8000      7.9393      2.5387      0.0617      6.7474     23.7599     85.4723
  1868.9000      7.9393      2.5287      0.0629      7.3545     24.3789     91.1303
  1869.0000      7.9373      2.5264      0.0370      7.4928     24.7516     93.1997
  1869.1000      7.9373      2.5333      0.0490      7.0718     24.6793     95.3735
  1869.2000      7.9373      2.5425      0.0408      6.5138     24.1305     99.6081
  1869.3000      7.9371      2.5487      0.0812      6.1367     23.1411    102.0307
  1869.4000      7.9371      2.5479      0.0750      6.1869     22.0127     99.3684
  1869.5000      7.9380      2.5353      0.0894      6.9497     21.4046     92.7424
  1869.6000      7.9380      2.5160      0.0658      8.1229     21.3811     85.3965
  1869.7000      7.9380      2.5011      0.0590      9.0230     21.3665     81.9344
  1869.8000      7.9382      2.4908      0.0363      9.6470     21.0841     84.4566
  1869.9000      7.9382      2.4844      0.0074     10.0376     20.5923     88.0079
  1870.0000      7.9380      2.4855      0.0573      9.9711     20.1670     87.3082
  1870.1000      7.9380      2.4881      0.0459      9.8113     20.0583     81.6407
  1870.2000      7.9380      2.4869      0.0749      9.8843     20.0300     74.0123
  1870.3000      7.9371      2.4819      0.0925     10.1869     19.7362     68.7179
