~Version Information
VERS.                      2.0: CWLS Log ASCII Standard - VERSION 2.0
WRAP.                       NO: One line per depth step
~Well Information Block
STRT.FT               510.0000: 
STOP.FT              1861.5000: 
STEP.FT                 0.1000: 
NULL.                -999.2500: 
COMP.          Pioneer Natural Resources: COMPANY
WELL.           Guajardo 24-16: WELL
FLD.           Purgatoire River: FIELD
LOC.           883' FSL & 2147' FWL: LOCATION
PROV.                 Colorado: PROVINCE
CNTY.               Las Animas: COUNTRY
SRVC.                Patterson: SERVICE COMPANY
DATE.          Mon Aug 08 09:13:01 2005: LOG DATE
UWI.           05 071 08377 00: UNIQUE WELL ID
~Curve Information Block
DEPT.FT            0 000 00 00: Depth
DCAL.in                       : CDL Caliper
RHOB.g/cc                     : CDL Bulk Density
RHOC.g/cc                     : CDL Density Correction
DPOR.pu                       : CDL Density Porosity
GR.GAPI                       : Gamma Ray
NPOR.pu                       : Neutron Porosity
~Parameter Information Block
~A  Depth       DCAL        RHOB        RHOC        DPOR         GR         NPOR    
# ...
  1575.6000      8.0092      2.3114     -0.0732     20.5234    114.5343     26.9261
  1575.7000      8.0092      2.2743     -0.0203     22.7688    114.1457     27.4001
  1575.8000      7.9925      2.2332     -0.0656     25.2622    112.1121     27.3170
  1575.9000      7.9925      2.1735     -0.0233     28.8814    108.9150     27.0545
  1576.0000      7.9890      2.0925     -0.0438     33.7853    107.7073     26.9295
  1576.1000      7.9890      1.9987     -0.1078     39.4698    105.7668     26.9237
  1576.2000      7.9890      1.8855     -0.0742     46.3326     97.6792     26.7559
  1576.3000      7.9898      1.7376     -0.0957     55.2944     85.7485     26.8688
  1576.4000      7.9898      1.5829     -0.1559     64.6710     78.4253     27.9599
  1576.5000      7.9822      1.4877     -0.2299     70.4397     78.7410     29.8468
  1576.6000      7.9822      1.4806     -0.0819     70.8704     80.5393     31.4176
  1576.7000      7.9822      1.5322     -0.0057     67.7459     80.1759     31.6038
  1576.8000      8.0052      1.6201     -0.0247     62.4160     80.5029     30.7976
  1576.9000      8.0052      1.7301      0.1427     55.7503     82.4327     30.1145
  1577.0000      8.1179      1.8329      0.1269     49.5194     85.3300     30.2554
  1577.1000      8.1179      1.9347      0.1161     43.3528     91.2993     31.1427
  1577.2000      8.1179      2.0651      0.1738     35.4490    100.1653     31.7857
  1577.3000      8.2088      2.2085      0.2149     26.7548    106.4866     31.6148
  1577.4000      8.2088      2.3204      0.1689     19.9748    109.9960     30.8737
  1577.5000      8.1205      2.3907      0.0846     15.7147    117.7824     29.4664
  1577.6000      8.1205      2.4400      0.0908     12.7264    127.7718     27.7343
  1577.7000      8.1205      2.4737      0.1079     10.6830    130.7795     26.7365
  1577.8000      8.0977      2.4829      0.1037     10.1282    127.1618     26.6972
  1577.9000      8.0977      2.4685      0.0560     11.0016    123.8869     26.8463
  1578.0000      8.0636      2.4454     -0.0025     12.3989    123.8484     26.6072
  1578.1000      8.0636      2.4284      0.0181     13.4297    126.0352     26.2771
  1578.2000      8.0636      2.4277     -0.0119     13.4707    131.0614     25.8735
  1578.3000      8.0118      2.4486      0.0139     12.2048    138.8631     25.0728
  1578.4000      8.0118      2.4767      0.0404     10.5043    146.8815     24.3889
  1578.5000      8.0075      2.4938      0.0014      9.4668    148.5661     24.4068
  1578.6000      8.0075      2.5031      0.0310      8.9057    138.6867     24.5214
  1578.7000      8.0075      2.5073      0.1059      8.6471    125.5698     24.3562
  1578.8000      8.0149      2.4980      0.0300      9.2113    118.9250     24.6103
  1578.9000      8.0149      2.4854     -0.0103      9.9767    116.6257     25.2414
  1579.0000      7.9949      2.4873      0.0319      9.8624    112.6628     25.1795
  1579.1000      7.9949      2.5043      0.0242      8.8315    110.5249     24.2437
  1579.2000      7.9949      2.5363      0.0513      6.8916    114.8930     23.4716
  1579.3000      7.9765      2.5725      0.1363      4.6996    121.8646     23.3739
  1579.4000      7.9765      2.5852      0.0965      3.9271    126.7845     23.4768
  1579.5000      7.9703      2.5698      0.0923      4.8612    124.5642     22.8770
  1579.6000      7.9703      2.5518      0.0476      5.9517    112.9525     21.1627
  1579.7000      7.9703      2.5463      0.0974      6.2854    100.1947     19.7926
  1579.8000      7.9864      2.5475      0.0524      6.2126     96.7175     19.9922
  1579.9000      7.9864      2.5535      0.0424      5.8490    102.1116     20.7450
  1580.0000      8.0080      2.5588      0.0653      5.5275    106.8148     20.8965
  1580.1000      8.0080      2.5541      0.0284      5.8138    105.4092     20.9504
  1580.2000      8.0080      2.5417      0.0236      6.5648    102.1920     21.5776
  1580.3000      8.0020      2.5292      0.0341      7.3214     99.3352     22.3354
  1580.4000      8.0020      2.5175      0.0481      8.0304     95.5548     22.1356
  1580.5000      8.0120      2.4965      0.0089      9.3016     95.9048     20.8254
  1580.6000      8.0120      2.4657     -0.0540     11.1705    103.7035     19.6970
  1580.7000      8.0120      2.4378     -0.0156     12.8610    111.8639     19.9299
  1580.8000      8.0179      2.4103      0.0070     14.5254    114.5837     21.3809
  1580.9000      8.0179      2.3742     -0.0265     16.7136    114.7651     22.6514
  1581.0000      8.0184      2.3404     -0.0494     18.7644    115.4053     22.8807
  1581.1000      8.0184      2.3248     -0.0347     19.7094    114.7125     22.8400
  1581.2000      8.0184      2.3301     -0.0518     19.3873    112.4008     23.0097
  1581.3000      8.0289      2.3487     -0.0137     18.2579    110.3324     22.8775
  1581.4000      8.0289      2.3668      0.0077     17.1656    107.2262     22.5954
  1581.5000      8.0198      2.3788      0.0253     16.4377    105.7027     22.7993
  1581.6000      8.0198      2.3922      0.0434     15.6268    108.6798     23.2378
  1581.7000      8.0198      2.4075      0.0763     14.6946    108.2995     23.1721
  1581.8000      8.0149      2.4179      0.0696     14.0652    103.3218     23.2614
  1581.9000      8.0149      2.4263      0.0309     13.5596    101.3056     24.3458
  1582.0000      8.0096      2.4386      0.0341     12.8113    102.2030     25.4291
  1582.1000      8.0096      2.4517      0.0326     12.0199    101.2854     25.4097
  1582.2000      8.0096      2.4667      0.0229     11.1101     96.3079     24.5551
  1582.3000      8.0103      2.4909      0.0240      9.6402     91.3937     23.4324
  1582.4000      8.0103      2.5195      0.0794      7.9072     92.1201     22.9069
  1582.5000      8.0057      2.5419      0.0380      6.5494     96.3129     23.4407
  1582.6000      8.0057      2.5578      0.0644      5.5864     99.9908     23.7079
  1582.7000      8.0057      2.5697      0.0347      4.8683    103.0714     22.7874
  1582.8000      8.0019      2.5740      0.0463      4.6084    106.4971     21.6379
  1582.9000      8.0019      2.5648      0.0643      5.1621    110.9516     21.2391
  1583.0000      8.0075      2.5481      0.0705      6.1731    115.9218     21.6037
  1583.1000      8.0075      2.5358     -0.0014      6.9191    118.6015     21.9879
  1583.2000      8.0075      2.5348      0.0232      6.9822    113.6684     21.7226
  1583.3000      7.9986      2.5520     -0.0334      5.9403    103.5863     20.6585
  1583.4000      7.9986      2.5860      0.0173      3.8808     99.1707     19.3271
  1583.5000      7.9940      2.6072      0.0675      2.5950    103.7310     18.5356
  1583.6000      7.9940      2.5939      0.0581      3.4020    112.9985     18.4858
  1583.7000      7.9940      2.5666     -0.0000      5.0575    120.2033     18.6931
  1583.8000      7.9760      2.5505      0.0211      6.0295    118.4482     18.7291
  1583.9000      7.9760      2.5402     -0.0003      6.6572    110.4769     18.8915
  1584.0000      7.9932      2.5277     -0.0137      7.4124    104.2133     19.4797
  1584.1000      7.9932      2.5256     -0.0176      7.5370    102.4473     19.9320
  1584.2000      7.9932      2.5337      0.0348      7.0515    105.2653     19.8303
  1584.3000      7.9974      2.5358      0.0019      6.9206    109.0991     19.3151
  1584.4000      7.9974      2.5351      0.0071      6.9612    107.8782     18.8400
  1584.5000      7.9914      2.5394      0.0331      6.7047    103.6802     18.8583
  1584.6000      7.9914      2.5501     -0.0208      6.0574    102.4007     19.1179
  1584.7000      7.9914      2.5669      0.0523      5.0346    103.7520     19.0806
  1584.8000      7.9910      2.5765      0.0587      4.4563    106.1676     18.7046
  1584.9000      7.9910      2.5677      0.0746      4.9874    107.8134     18.6419
  1585.0000      8.0034      2.5407      0.0422      6.6244    105.1100     19.5382
  1585.1000      8.0034      2.5070      0.0031      8.6680     99.3649     20.6288
