~Version Information
VERS.                      2.0: CWLS Log ASCII Standard - VERSION 2.0
WRAP.                       NO: One line per depth step
~Well Information Block
STRT.FT               430.0000: 
STOP.FT              1910.2500: 
STEP.FT                 0.2500: 
NULL.                -999.2500: 
COMP.          Pioneer Natural Resources: COMPANY
WELL.          Formula 23-11 Tr: WELL
FLD.           Purgatoire River: FIELD
LOC.           1976' FSL & 1935' FWL--: LOCATION
PROV.                 Colorado: PROVINCE
CNTY.               Las Animas: COUNTRY
SRVC.                Patterson: SERVICE COMPANY
DATE.          Fri Jun 10 22:41:39 2005: LOG DATE
UWI.           05 071 08399 00: UNIQUE WELL ID
~Curve Information Block
DEPT.FT            0 000 00 00: Depth
SN.Ohm-m                      : IEL Short Normal
SP.mV                         : IEL Spontaneous Potential
DIR.Ohm-m                     : IEL Induction Resistivity
GR.GAPI                       : Gamma Ray
~Parameter Information Block
~A  Depth        SN          SP         DIR          GR     
# ...
   631.0000   2000.0000   2000.0000     20.0912    117.9169
   631.2500   2000.0000   2000.0000     20.3812    116.4682
   631.5000   2000.0000   2000.0000     20.7380    113.7658
   631.7500   2000.0000   2000.0000     21.1585    112.0969
   632.0000   2000.0000   2000.0000     21.6423    110.5686
   632.2500   2000.0000   2000.0000     22.1847    110.4007
   632.5000   2000.0000   2000.0000     22.7668    111.2616
   632.7500   2000.0000   2000.0000     23.3480    112.2252
   633.0000   2000.0000   2000.0000     23.8701    113.3670
   633.2500   2000.0000   2000.0000     24.2704    113.4521
   633.5000   2000.0000   2000.0000     24.4998    112.3958
   633.7500   2000.0000   2000.0000     24.5340    111.3041
   634.0000   2000.0000   2000.0000     24.3720    110.3563
   634.2500   2000.0000   2000.0000     24.0286    110.9392
   634.5000   2000.0000   2000.0000     23.5328    114.0981
   634.7500   2000.0000   2000.0000     22.9322    117.1289
   635.0000   2000.0000   2000.0000     22.2897    121.0375
   635.2500   2000.0000   2000.0000     21.6679    122.3372
   635.5000   2000.0000   2000.0000     21.1109    122.3870
   635.7500   2000.0000   2000.0000     20.6369    121.7961
   636.0000   2000.0000   2000.0000     20.2446    120.8532
   636.2500   2000.0000   2000.0000     19.9264    120.2199
   636.5000   2000.0000   2000.0000     19.6773    118.7294
   636.7500   2000.0000   2000.0000     19.4964    117.0652
   637.0000   2000.0000   2000.0000     19.3799    113.4811
   637.2500   2000.0000   2000.0000     19.3161    110.6094
   637.5000   2000.0000   2000.0000     19.2875    106.3137
   637.7500   2000.0000   2000.0000     19.2815    103.9045
   638.0000   2000.0000   2000.0000     19.2977    101.4623
   638.2500   2000.0000   2000.0000     19.3454    100.6932
   638.5000   2000.0000   2000.0000     19.4346    100.6349
   638.7500   2000.0000   2000.0000     19.5717    100.9557
   639.0000   2000.0000   2000.0000     19.7605    101.0226
   639.2500   2000.0000   2000.0000     20.0029    100.4242
   639.5000   2000.0000   2000.0000     20.2952     98.7762
   639.7500   2000.0000   2000.0000     20.6257     97.5657
   640.0000   2000.0000   2000.0000     20.9792     95.9180
   640.2500   2000.0000   2000.0000     21.3460     94.9152
   640.5000   2000.0000   2000.0000     21.7277     93.7674
   640.7500   2000.0000   2000.0000     22.1364     93.5934
   641.0000   2000.0000   2000.0000     22.5881     94.4982
   641.2500   2000.0000   2000.0000     23.0920     95.5107
   641.5000   2000.0000   2000.0000     23.6395     96.4152
   641.7500   2000.0000   2000.0000     24.1972     95.9999
   642.0000   2000.0000   2000.0000     24.7099     93.5319
   642.2500   2000.0000   2000.0000     25.1121     90.9564
   642.5000   2000.0000   2000.0000     25.3403     86.8553
   642.7500   2000.0000   2000.0000     25.3460     84.6556
   643.0000   2000.0000   2000.0000     25.1146     82.5023
   643.2500   2000.0000   2000.0000     24.6857     81.4636
   643.5000   2000.0000   2000.0000     24.1547     79.7557
   643.7500   2000.0000   2000.0000     23.6408     78.4439
   644.0000   2000.0000   2000.0000     23.2391     76.4930
   644.2500   2000.0000   2000.0000     22.9862     75.2343
   644.5000   2000.0000   2000.0000     22.8568     73.1836
   644.7500   2000.0000   2000.0000     22.7870     71.6701
   645.0000   2000.0000   2000.0000     22.7101     69.4299
   645.2500   2000.0000   2000.0000     22.5880     68.1491
   645.5000   2000.0000   2000.0000     22.4227     66.7636
   645.7500   2000.0000   2000.0000     22.2444     66.2048
   646.0000   2000.0000   2000.0000     22.0885     65.6703
   646.2500   2000.0000   2000.0000     21.9762     65.3403
   646.5000   2000.0000   2000.0000     21.9083     64.8977
   646.7500   2000.0000   2000.0000     21.8732     64.7919
   647.0000   2000.0000   2000.0000     21.8586     64.9830
   647.2500   2000.0000   2000.0000     21.8577     65.1938
   647.5000   2000.0000   2000.0000     21.8695     65.3935
   647.7500   2000.0000   2000.0000     21.8961     65.4658
   648.0000   2000.0000   2000.0000     21.9422     65.7091
   648.2500   2000.0000   2000.0000     22.0143     66.0961
   648.5000   2000.0000   2000.0000     22.1218     67.0130
   648.7500   2000.0000   2000.0000     22.2775     67.6260
   649.0000   2000.0000   2000.0000     22.4974     67.9904
   649.2500   2000.0000   2000.0000     22.7943     67.7025
   649.5000   2000.0000   2000.0000     23.1700     66.8338
   649.7500   2000.0000   2000.0000     23.6108     66.5000
   650.0000   2000.0000   2000.0000     24.0883     67.3471
   650.2500   2000.0000   2000.0000     24.5597     69.0446
   650.5000   2000.0000   2000.0000     24.9691     72.8937
   650.7500   2000.0000   2000.0000     25.2562     76.0084
   651.0000   2000.0000   2000.0000     25.3798     81.5544
   651.2500   2000.0000   2000.0000     25.3426     86.0487
   651.5000   2000.0000   2000.0000     25.1945     93.6231
   651.7500   2000.0000   2000.0000     25.0067     98.3888
   652.0000   2000.0000   2000.0000     24.8332    103.4688
   652.2500   2000.0000   2000.0000     24.6837    105.0407
   652.5000   2000.0000   2000.0000     24.5248    105.2045
   652.7500   2000.0000   2000.0000     24.3104    104.6379
   653.0000   2000.0000   2000.0000     24.0201    104.1367
   653.2500   2000.0000   2000.0000     23.6736    104.4230
   653.5000   2000.0000   2000.0000     23.3132    105.3907
   653.7500   2000.0000   2000.0000     22.9718    105.7752
   654.0000   2000.0000   2000.0000     22.6545    105.1873
   654.2500   2000.0000   2000.0000     22.3424    104.1320
   654.5000   2000.0000   2000.0000     22.0085    102.7234
   654.7500   2000.0000   2000.0000     21.6342    102.8154
   655.0000   2000.0000   2000.0000     21.2184    105.5126
   655.2500   2000.0000   2000.0000     20.7746    108.8910
   655.5000   2000.0000   2000.0000     20.3208    115.0086
   655.7500   2000.0000   2000.0000     19.8691    118.8734
   656.0000   2000.0000   2000.0000     19.4238    123.5684
   656.2500   2000.0000   2000.0000     18.9889    126.1737
   656.5000   2000.0000   2000.0000     18.5794    130.1631
   656.7500   2000.0000   2000.0000     18.2262    132.9984
   657.0000   2000.0000   2000.0000     17.9684    136.3889
   657.2500   2000.0000   2000.0000     17.8409    137.0855
   657.5000   2000.0000   2000.0000     17.8665    135.0266
   657.7500   2000.0000   2000.0000     18.0560    131.9732
   658.0000   2000.0000   2000.0000     18.4108    126.0806
   658.2500   2000.0000   2000.0000     18.9232    121.6915
   658.5000   2000.0000   2000.0000     19.5756    114.4969
   658.7500   2000.0000   2000.0000     20.3409    109.3799
   659.0000   2000.0000   2000.0000     21.1888    101.9834
   659.2500   2000.0000   2000.0000     22.0902     97.8420
   659.5000   2000.0000   2000.0000     23.0177     93.3821
   659.7500   2000.0000   2000.0000     23.9412     91.4558
   660.0000   2000.0000   2000.0000     24.8234     89.3559
   660.2500   2000.0000   2000.0000     25.6178     87.9356
   660.5000   2000.0000   2000.0000     26.2684     85.2656
   660.7500   2000.0000   2000.0000     26.7122     83.3614
   661.0000   2000.0000   2000.0000     26.8877     81.5956
   661.2500   2000.0000   2000.0000     26.7482     81.9766
   661.5000   2000.0000   2000.0000     26.2827     85.5324
   661.7500   2000.0000   2000.0000     25.5340     89.6503
   662.0000   2000.0000   2000.0000     24.6021     97.4754
   662.2500   2000.0000   2000.0000     23.6164    103.2929
   662.5000   2000.0000   2000.0000     22.6897    112.3544
   662.7500   2000.0000   2000.0000     21.8841    118.1804
   663.0000   2000.0000   2000.0000     21.2075    125.2996
   663.2500   2000.0000   2000.0000     20.6349    128.1097
   663.5000   2000.0000   2000.0000     20.1386    128.5710
   663.7500   2000.0000   2000.0000     19.7070    126.5154
   664.0000   2000.0000   2000.0000     19.3459    121.2252
   664.2500   2000.0000   2000.0000     19.0703    117.3374
