~Version Information
VERS.                      2.0: CWLS Log ASCII Standard - VERSION 2.0
WRAP.                       NO: One line per depth step
~Well Information Block
STRT.FT               519.6000: 
STOP.FT              2727.5000: 
STEP.FT                 0.1000: 
NULL.                -999.2500: 
COMP.          Petrogulf Corporation: COMPANY
WELL.              Silva 6-22V: WELL
FLD.           Purgatorie River: FIELD
LOC.           1936' FNL & 1798' FWL: LOCATION
CNTY.               Las Animas: COUNTY
SRVC.                         : SERVICE COMPANY
DATE.          Tue Nov 09 12:21:27 2004: LOG DATE
UWI.           05 071 08143 00: UNIQUE WELL ID
STAT.                 Colorado: STATE
~Curve Information Block
DEPT.FT            0 000 00 00: Depth
DCAL.in                       : CDL Caliper
RHOB.g/cc                     : CDL Bulk Density
RHOC.g/cc                     : CDL Density Correction
DPOR.pu                       : CDL Density Porosity
GR.GAPI                       : Gamma Ray
NPOR.pu                       : Neutron Porosity
~Parameter Information Block
~A  Depth       DCAL        RHOB        RHOC        DPOR         GR         NPOR    
# ...
  2132.4000      7.8715      2.5872      0.0960      3.8038    128.4733     22.2414
  2132.5000      7.8651      2.5799      0.0360      4.2514    124.9634     22.3756
  2132.6000      7.8651      2.5769      0.0144      4.4325    124.3360     21.7822
  2132.7000      7.8651      2.5792      0.0403      4.2882    120.6452     21.4456
  2132.8000      7.8595      2.5777      0.0248      4.3797    113.9658     21.4038
  2132.9000      7.8595      2.5699      0.0252      4.8528    108.8179     21.0588
  2133.0000      7.8569      2.5593      0.0430      5.4983    105.2753     19.9428
  2133.1000      7.8569      2.5539      0.0196      5.8214     99.6924     18.0876
  2133.2000      7.8569      2.5579      0.0248      5.5846     91.0963     16.6668
  2133.3000      7.8539      2.5607      0.0305      5.4118     80.9684     16.8941
  2133.4000      7.8539      2.5494      0.0556      6.0976     72.9150     17.8060
  2133.5000      7.8460      2.5266      0.0071      7.4771     70.1146     17.9321
  2133.6000      7.8460      2.5070      0.0362      8.6694     68.3487     17.7106
  2133.7000      7.8460      2.4892      0.0658      9.7435     62.2272     17.6655
  2133.8000      7.8351      2.4641      0.0406     11.2645     54.6864     17.8189
  2133.9000      7.8351      2.4347      0.0478     13.0467     49.4914     18.0575
  2134.0000      7.8295      2.4083      0.0125     14.6512     46.3705     17.5177
  2134.1000      7.8295      2.3944      0.0121     15.4927     45.8108     15.9422
  2134.2000      7.8295      2.3947      0.0685     15.4700     47.7505     14.4760
  2134.3000      7.8267      2.3978      0.0322     15.2877     49.5297     13.8664
  2134.4000      7.8267      2.3967      0.0749     15.3503     48.7455     13.9744
  2134.5000      7.8241      2.3924      0.0287     15.6120     45.3165     14.4801
  2134.6000      7.8241      2.3893      0.0583     15.7970     41.1185     14.9393
  2134.7000      7.8241      2.3931      0.0191     15.5709     37.5408     15.0343
  2134.8000      7.8211      2.4025      0.0696     15.0002     35.0976     14.7895
  2134.9000      7.8211      2.4085      0.0451     14.6359     35.2450     14.0915
  2135.0000      7.8144      2.4060      0.0687     14.7874     37.2918     13.1038
  2135.1000      7.8144      2.3977      0.0351     15.2934     37.6890     12.2705
  2135.2000      7.8144      2.3934      0.0497     15.5511     35.6926     11.8047
  2135.3000      7.8179      2.3956      0.0630     15.4174     34.3664     11.7160
  2135.4000      7.8179      2.3962      0.0604     15.3793     35.0104     11.7767
  2135.5000      7.8323      2.3975      0.0383     15.3009     36.8625     12.1079
  2135.6000      7.8323      2.4031      0.0467     14.9619     40.7893     12.8625
  2135.7000      7.8323      2.4005      0.0682     15.1185     44.7850     13.5348
  2135.8000      7.8374      2.3821      0.0401     16.2354     46.5318     13.9089
  2135.9000      7.8374      2.3626      0.0209     17.4191     48.0032     14.0185
  2136.0000      7.8394      2.3638      0.0161     17.3473     48.9364     13.3423
  2136.1000      7.8394      2.3875      0.0592     15.9088     46.3547     12.0999
  2136.2000      7.8394      2.4127      0.0743     14.3820     41.1601     11.3722
  2136.3000      7.8459      2.4232      0.0611     13.7483     37.2097     11.4368
  2136.4000      7.8459      2.4221      0.0368     13.8133     36.3560     12.0315
  2136.5000      7.8470      2.4153      0.0762     14.2220     37.9724     12.8855
  2136.6000      7.8470      2.4061      0.0269     14.7802     40.6372     13.4983
  2136.7000      7.8470      2.4025      0.0418     14.9977     42.2714     13.6129
  2136.8000      7.8437      2.4025      0.0506     15.0024     42.2878     13.3724
  2136.9000      7.8437      2.3921      0.0933     15.6283     42.1067     12.9600
  2137.0000      7.8408      2.3734      0.0189     16.7621     43.9085     12.5587
  2137.1000      7.8408      2.3636      0.0470     17.3561     47.5886     12.2693
  2137.2000      7.8408      2.3695      0.0307     16.9993     50.8483     12.2120
  2137.3000      7.8340      2.3860      0.0438     15.9982     52.9550     12.3463
  2137.4000      7.8340      2.4016      0.0480     15.0517     53.2176     12.3407
  2137.5000      7.8309      2.4027      0.0854     14.9851     49.9461     12.2714
  2137.6000      7.8309      2.3882      0.0314     15.8662     43.9347     12.6485
  2137.7000      7.8309      2.3732      0.0261     16.7770     38.6223     13.5270
  2137.8000      7.8337      2.3686      0.0351     17.0524     37.2138     14.1143
  2137.9000      7.8337      2.3705      0.0518     16.9415     39.4612     13.8046
  2138.0000      7.8293      2.3643      0.0719     17.3151     42.1741     13.0638
  2138.1000      7.8293      2.3474      0.0160     18.3407     42.7740     12.4580
  2138.2000      7.8293      2.3382      0.0027     18.8948     40.9975     12.1970
  2138.3000      7.8225      2.3477      0.0258     18.3240     39.0903     12.1654
  2138.4000      7.8225      2.3606      0.0554     17.5372     38.6193     12.0999
  2138.5000      7.8226      2.3626      0.0451     17.4160     38.4189     12.0180
  2138.6000      7.8226      2.3634      0.0297     17.3680     39.0294     12.0013
  2138.7000      7.8226      2.3741      0.0360     16.7238     40.0691     12.1959
  2138.8000      7.8276      2.3853      0.0725     16.0446     38.8178     12.4728
  2138.9000      7.8276      2.3837      0.0645     16.1401     35.3521     12.1992
  2139.0000      7.8336      2.3693      0.0604     17.0121     33.4563     11.4290
  2139.1000      7.8336      2.3523      0.0425     18.0428     35.2186     11.3971
  2139.2000      7.8336      2.3488     -0.0056     18.2530     35.9763     12.8035
  2139.3000      7.8335      2.3648      0.0857     17.2878     32.2191     14.5652
  2139.4000      7.8335      2.3858      0.0867     16.0098     29.0153     15.3592
  2139.5000      7.8273      2.4065      0.0652     14.7603     29.8447     15.3776
  2139.6000      7.8273      2.4291      0.1162     13.3881     30.5044     14.5172
  2139.7000      7.8273      2.4426      0.1182     12.5689     28.9169     13.0174
  2139.8000      7.8185      2.4368      0.1109     12.9214     27.9502     11.9773
  2139.9000      7.8185      2.4236      0.0665     13.7187     29.8915     11.4315
  2140.0000      7.8139      2.4207      0.0913     13.8997     34.3667     11.3330
  2140.1000      7.8139      2.4228      0.0695     13.7698     38.6394     11.8699
  2140.2000      7.8139      2.4152      0.0824     14.2294     40.2535     12.1137
  2140.3000      7.8157      2.3953      0.0573     15.4367     39.5830     11.4311
  2140.4000      7.8157      2.3729      0.0237     16.7945     38.0892     10.6913
  2140.5000      7.8228      2.3625      0.0097     17.4236     36.6584     10.2920
  2140.6000      7.8228      2.3680      0.0446     17.0901     35.8617      9.8420
  2140.7000      7.8228      2.3781      0.0605     16.4772     34.5255      9.3667
  2140.8000      7.8263      2.3846      0.0541     16.0836     31.6257      9.1926
  2140.9000      7.8263      2.3906      0.0408     15.7193     30.6440      9.5232
  2141.0000      7.8242      2.3962      0.0601     15.3839     34.6993     10.3907
  2141.1000      7.8242      2.3927      0.0680     15.5946     40.7680     11.3125
  2141.2000      7.8242      2.3768      0.0579     16.5578     42.7421     11.7286
  2141.3000      7.8203      2.3573      0.0247     17.7392     38.5868     11.4448
  2141.4000      7.8203      2.3495      0.0361     18.2145     33.4449     10.6699
  2141.5000      7.8192      2.3605      0.0325     17.5450     32.0175     10.3185
  2141.6000      7.8192      2.3784      0.0776     16.4582     32.7250     10.8007
  2141.7000      7.8192      2.3858      0.0531     16.0135     33.3274     11.5457
  2141.8000      7.8203      2.3801      0.0527     16.3605     34.1708     12.2101
  2141.9000      7.8203      2.3679      0.0609     17.0978     34.9226     12.5607
