~Version Information
VERS.                      2.0: CWLS Log ASCII Standard - VERSION 2.0
WRAP.                       NO: One line per depth step
~Well Information Block
STRT.FT                -9.0000: 
STOP.FT              2518.0000: 
STEP.FT                 0.2500: 
NULL.                -999.2500: 
COMP.          Petrogulf Corporation: COMPANY
WELL.            Montoya 7-12V: WELL
FLD.           Purgatorie River: FIELD
LOC.           1764' FNL & 728' FWL: LOCATION
CNTY.               Las Animas: COUNTY
SRVC.                         : SERVICE COMPANY
DATE.          Mon Mar 08 16:11:04 2004: LOG DATE
UWI.           05-071-07887-00: UNIQUE WELL ID
STAT.                 Colorado: STATE
~Curve Information Block
DEPT.FT            0 000 00 00: Depth
GR.GAPI                       : Gamma Ray
CCL.                          : Casing Collar Locator
TT3.usec                      : CBL 3' Travel Time
AMP3.mV                       : CBL 3' Amplitude
~Parameter Information Block
~A  Depth        GR         CCL         TT3         AMP3    
# ...
   158.5000    132.5330      0.0000    270.2576     77.3732
   158.7500    128.9433      0.0000    270.2548     77.3062
   159.0000    127.2471      0.0000    270.3584     77.1893
   159.2500    128.3884      0.0000    270.4875     77.1219
   159.5000    131.6785      0.0000    270.4875     77.1829
   159.7500    135.9537      0.0000    270.3584     77.3747
   160.0000    140.6282      0.0000    270.2547     77.6419
   160.2500    145.7655      0.0000    270.2566     77.8963
   160.5000    151.5340      0.0000    270.2746     78.0517
   160.7500    157.5245      0.0000    270.2141     78.0883
   161.0000    162.2249      0.0000    270.1094     78.0444
   161.2500    163.4505      0.0000    270.0361     77.9752
   161.5000    160.0698      0.0000    270.0087     77.9379
   161.7500    153.5096      0.0000    270.0096     77.9537
   162.0000    147.2311      0.0000    270.0437     78.0019
   162.2500    144.3363      0.0000    270.1453     78.0699
   162.5000    145.2077      0.0000    270.3224     78.1435
   162.7500    147.1352      0.0000    270.4800     78.1995
   163.0000    146.4332      0.0000    270.4875     78.2731
   163.2500    141.4671      0.0000    270.3659     78.4013
   163.5000    133.8796      0.0000    270.2907     78.5328
   163.7500    126.7778      0.0000    270.3660     78.6059
   164.0000    121.7732      0.0000    270.4887     78.5924
   164.2500    117.8723      0.0000    270.4887     78.4771
   164.5000    113.0676      0.0000    270.3660     78.3256
   164.7500    106.8016      0.0000    270.2907     78.2635
   165.0000    100.9055      0.0000    270.3659     78.3258
   165.2500     98.1476      0.0000    270.4876     78.4138
   165.5000     99.8517      0.0000    270.4812     78.4426
   165.7500    104.9219      0.0000    270.3310     78.4674
   166.0000    110.8654      0.0000    270.1889     78.5959
   166.2500    115.3196      0.0000    270.1889     78.7918
   166.5000    116.9431      0.0000    270.3309     78.8578
   166.7500    115.6177      0.0000    270.4801     78.7097
   167.0000    112.1066      0.0000    270.4801     78.5304
   167.2500    107.5436      0.0000    270.3309     78.5062
   167.5000    103.2633      0.0000    270.1889     78.5601
   167.7500    100.8125      0.0000    270.1889     78.4933
   168.0000    101.5426      0.0000    270.3309     78.3103
   168.2500    105.7366      0.0000    270.4800     78.2099
   168.5000    112.0148      0.0000    270.4791     78.2528
   168.7500    117.8709      0.0000    270.3238     78.2549
   169.0000    121.3182      0.0000    270.1587     77.7914
   169.2500    122.1490      0.0000    270.1254     76.0018
   169.5000    121.4567      0.0000    270.3589     72.1517
   169.7500    120.1808      0.0000    271.0738     67.2805
   170.0000    118.3748      0.0000    272.4092     63.8275
   170.2500    115.6273      0.0000    274.1119     62.3022
   170.5000    112.0324      0.0000    275.6049     61.1479
   170.7500    108.8941      0.0000    276.5032     59.9510
   171.0000    108.3657      0.0000    276.8659     59.2265
   171.2500    112.0031      5.0000    276.9335     58.9056
   171.5000    119.3605      4.3005    276.8454     58.8706
   171.7500    127.9892      0.0000    276.6474     59.2155
   172.0000    134.9188      0.0000    276.4312     59.7555
   172.2500    138.1907      0.0000    276.3118     60.0051
   172.5000    137.2678      0.0000    276.1588     59.8999
   172.7500    132.7868      0.0000    275.4710     60.1384
   173.0000    126.4758      0.0000    273.9026     61.1126
   173.2500    120.8179      0.0000    271.9420     63.0012
   173.5000    117.8353      0.0000    270.5174     66.5826
   173.7500    118.0170      0.0000    269.9612     71.3585
   174.0000    120.6876      0.0000    269.9089     75.2183
   174.2500    125.1228      0.0000    269.9622     77.1006
   174.5000    130.8599      0.0000    269.9843     77.5229
   174.7500    137.2088      0.0000    269.9629     77.2425
   175.0000    142.9627      0.0000    269.8906     76.8088
   175.2500    146.7194      0.0000    269.7870     76.6204
   175.5000    147.5636      0.0000    269.7340     76.7334
   175.7500    145.6186      0.0000    269.7870     76.8698
   176.0000    141.7628      0.0000    269.8895     76.8100
   176.2500    136.5252      0.0000    269.9553     76.5842
   176.5000    129.4837      0.0000    269.9478     76.3149
   176.7500    120.0747      0.0000    269.8460     76.0921
   177.0000    108.7835      0.0000    269.6416     75.9609
   177.2500     97.3048      0.0000    269.4117     75.9312
   177.5000     87.6822      0.0000    269.3081     75.9684
   177.7500     81.3235      0.0000    269.4117     75.9935
   178.0000     78.4300      0.0000    269.6416     75.9936
   178.2500     78.1236      0.0000    269.8460     76.0121
   178.5000     79.1611      0.0000    269.9478     75.9628
   178.7500     80.5150      0.0000    269.9553     75.7384
   179.0000     81.3027      0.0000    269.8895     75.4724
   179.2500     80.5269      0.0000    269.7870     75.3963
   179.5000     77.4675      0.0000    269.7340     75.5485
   179.7500     72.4911      0.0000    269.7870     75.7999
   180.0000     67.0915      0.0000    269.8907     76.0390
   180.2500     62.9163      0.0000    269.9639     76.2219
   180.5000     61.0262      0.0000    269.9913     76.2899
   180.7500     62.1392      0.0000    269.9904     76.1957
   181.0000     66.9582      0.0000    269.9563     76.0208
   181.2500     75.7765      0.0000    269.8547     75.8734
   181.5000     88.0418      0.0000    269.6777     75.7276
   181.7500    102.4963      0.0000    269.5211     75.5256
   182.0000    117.2492      0.0000    269.5211     75.3363
   182.2500    129.8077      0.0000    269.6777     75.3075
   182.5000    137.8308      0.0000    269.8547     75.4882
   182.7500    140.2751      0.0000    269.9564     75.7563
   183.0000    137.8539      0.0000    269.9913     75.9287
   183.2500    132.6890      0.0000    269.9979     75.9217
   183.5000    127.4639      0.0000    269.9923     75.8216
   183.7500    124.1048      0.0000    269.9640     75.7794
   184.0000    122.6414      0.0000    269.8907     75.8352
   184.2500    121.4272      0.0000    269.7870     75.9111
   184.5000    118.8564      0.0000    269.7340     75.9234
   184.7500    115.1082      0.0000    269.7870     75.8721
   185.0000    112.3261      0.0000    269.8907     75.8599
   185.2500    112.9739      0.0000    269.9640     75.9630
   185.5000    117.6103      0.0000    269.9924     76.1536
   185.7500    123.9765      0.0000    269.9991     76.3798
   186.0000    128.4302      0.0000    270.0009     76.5863
   186.2500    128.6337      0.0000    270.0066     76.7301
   186.5000    124.9285      0.0000    270.0284     76.8283
   186.7500    119.2842      0.0000    270.0733     76.9112
   187.0000    113.3867      0.0000    270.1036     76.9873
   187.2500    107.9788      0.0000    270.0530     77.0534
   187.5000    103.4628      0.0000    269.9470     77.0908
   187.7500    100.3920      0.0000    269.8964     77.0989
   188.0000     99.2837      0.0000    269.9267     77.0945
   188.2500    100.3199      0.0000    269.9716     77.0516
   188.5000    103.3037      0.0000    269.9934     76.9415
   188.7500    107.6700      0.0000    269.9991     76.8242
   189.0000    112.4327      0.0000    269.9999     76.7612
   189.2500    116.1690      0.0000    270.0000     76.7151
   189.5000    117.3577      0.0000    270.0000     76.6641
   189.7500    115.3597      0.0000    270.0000     76.6707
   190.0000    111.2955      0.0000    270.0001     76.7567
   190.2500    107.4430      0.0000    270.0014     76.8431
   190.5000    105.3635      0.0000    270.0122     76.8348
   190.7500    104.7414      0.0000    270.0731     76.5988
   191.0000    104.0303      0.0000    270.3056     75.7815
   191.2500    101.9032      0.0000    270.9186     73.7953
   191.5000     98.0871      0.0000    272.0421     70.2292
   191.7500     93.1862      0.0000    273.4789     65.5538
