~Version Information
VERS.                      2.0: CWLS Log ASCII Standard - VERSION 2.0
WRAP.                       NO: One line per depth step
~Well Information Block
STRT.FT               840.0000: 
STOP.FT              2266.0000: 
STEP.FT                 0.1000: 
NULL.                -999.2500: 
COMP.          Pioneer Natural Resources: COMPANY
WELL.              Tonto 42-23: WELL
FLD.           Purgatoire River: FIELD
LOC.           2217' FNL & 423' FEL: LOCATION
PROV.                 Colorado: PROVINCE
CNTY.               Las Animas: COUNTRY
SRVC.                Patterson: SERVICE COMPANY
DATE.          Mon Apr 18 07:15:48 2005: LOG DATE
UWI.           05 071 08335 00: UNIQUE WELL ID
~Curve Information Block
DEPT.FT            0 000 00 00: Depth
DCAL.in                       : CDL Caliper
RHOB.g/cc                     : CDL Bulk Density
RHOC.g/cc                     : CDL Density Correction
DPOR.pu                       : CDL Density Porosity
GR.GAPI                       : Gamma Ray
NPOR.pu                       : Neutron Porosity
~Parameter Information Block
~A  Depth       DCAL        RHOB        RHOC        DPOR         GR         NPOR    
# ...
  2155.2000      7.9583      1.9590      0.1809     41.8785     46.1537     32.3280
  2155.3000      8.1706      2.1453      0.2294     30.5867     49.6766     32.2974
  2155.4000      8.1706      2.2903      0.2384     21.8003     49.7127     31.7451
  2155.5000      8.2236      2.3823      0.2223     16.2224     49.0419     30.5144
  2155.6000      8.2236      2.4458      0.2214     12.3782     52.0782     28.7031
  2155.7000      8.2236      2.4943      0.2043      9.4351     58.1423     26.7050
  2155.8000      7.9865      2.5281      0.1245      7.3886     63.0516     25.0686
  2155.9000      7.9865      2.5505      0.0978      6.0318     66.0468     23.6110
  2156.0000      8.0070      2.5645      0.1021      5.1833     66.7559     21.8727
  2156.1000      8.0070      2.5713      0.1266      4.7700     64.8673     20.3808
  2156.2000      8.0070      2.5728      0.0730      4.6795     62.8959     19.9353
  2156.3000      7.9011      2.5675      0.1424      5.0016     62.5944     19.9236
  2156.4000      7.9011      2.5561      0.0918      5.6923     62.5363     19.5558
  2156.5000      7.8489      2.5449      0.1188      6.3723     62.3067     19.1780
  2156.6000      7.8489      2.5247      0.1262      7.5912     64.8753     18.8224
  2156.7000      7.8489      2.4906      0.0918      9.6607     69.9974     18.1448
  2156.8000      7.8425      2.4677     -0.0149     11.0458     71.2603     17.4295
  2156.9000      7.8425      2.4737      0.0418     10.6872     68.3782     17.0311
  2157.0000      7.8465      2.4911      0.0817      9.6309     69.4569     17.2504
  2157.1000      7.8465      2.4969      0.1055      9.2775     74.6905     17.9683
  2157.2000      7.8465      2.4774      0.0494     10.4591     76.8074     18.4788
  2157.3000      7.8484      2.4393      0.0578     12.7684     75.9926     18.6564
  2157.4000      7.8484      2.4145     -0.0010     14.2717     74.9221     18.6985
  2157.5000      7.8555      2.4275     -0.0162     13.4819     70.7936     18.7548
  2157.6000      7.8555      2.4598      0.1081     11.5252     64.3081     18.7760
  2157.7000      7.8555      2.4731      0.0696     10.7237     62.7992     18.6183
  2157.8000      7.8648      2.4591      0.0565     11.5712     68.7052     18.4982
  2157.9000      7.8648      2.4398      0.0278     12.7423     76.6875     18.7636
  2158.0000      7.8756      2.4375      0.0552     12.8780     80.2487     19.2099
  2158.1000      7.8756      2.4574      0.0300     11.6744     76.8706     19.8155
  2158.2000      7.8756      2.4900      0.0615      9.6950     72.2291     21.0994
  2158.3000      7.8745      2.5202      0.0929      7.8694     73.0726     22.1587
  2158.4000      7.8745      2.5361      0.0883      6.9035     76.8558     21.5309
  2158.5000      7.8775      2.5402      0.0890      6.6550     76.4086     20.1935
  2158.6000      7.8775      2.5391      0.1200      6.7186     69.9208     19.7577
  2158.7000      7.8775      2.5298      0.1145      7.2873     62.7598     20.3706
  2158.8000      7.8616      2.5117      0.0756      8.3797     61.6460     21.0676
  2158.9000      7.8616      2.5020      0.0152      8.9723     64.8792     21.0267
  2159.0000      7.8543      2.5105      0.0744      8.4564     65.1153     20.6955
  2159.1000      7.8543      2.5189      0.0997      7.9426     61.6804     20.1723
  2159.2000      7.8543      2.5144      0.0667      8.2171     59.9524     19.1436
  2159.3000      7.8579      2.5077      0.0971      8.6256     62.3715     18.5080
  2159.4000      7.8579      2.5028      0.1311      8.9201     65.3377     18.8365
  2159.5000      7.8631      2.4981      0.0579      9.2030     66.2752     19.1730
  2159.6000      7.8631      2.5032      0.0570      8.8980     67.5832     18.9087
  2159.7000      7.8631      2.5193      0.0972      7.9228     70.9111     18.8325
  2159.8000      7.8651      2.5338      0.0968      7.0428     72.3622     19.4073
  2159.9000      7.8651      2.5420      0.0727      6.5466     68.7544     19.8466
  2160.0000      7.8760      2.5438      0.0979      6.4348     63.2468     19.5694
  2160.1000      7.8760      2.5391      0.0617      6.7223     59.6015     18.9347
  2160.2000      7.8760      2.5278      0.0713      7.4076     59.2638     18.4040
  2160.3000      7.8860      2.5068      0.0563      8.6791     61.5016     18.1149
  2160.4000      7.8860      2.4872     -0.0046      9.8638     62.3894     17.8409
  2160.5000      7.8962      2.4868      0.0266      9.8923     61.1235     18.0876
  2160.6000      7.8962      2.5048     -0.0227      8.7993     62.4577     19.4651
  2160.7000      7.8962      2.5243      0.0611      7.6173     67.3365     20.8483
  2160.8000      7.8985      2.5265      0.0723      7.4850     73.2780     20.9504
  2160.9000      7.8985      2.5152      0.0466      8.1706     77.1579     20.3906
  2161.0000      7.8928      2.5036      0.0713      8.8738     76.1904     20.2695
  2161.1000      7.8928      2.4935      0.0007      9.4830     72.0781     20.6121
  2161.2000      7.8928      2.4895     -0.0155      9.7283     69.4292     20.5719
  2161.3000      7.8909      2.4890     -0.0018      9.7595     69.6101     20.1560
  2161.4000      7.8909      2.4785      0.0106     10.3950     70.8792     19.8176
  2161.5000      7.8996      2.4629      0.0297     11.3367     72.4453     19.2273
  2161.6000      7.8996      2.4573      0.0157     11.6763     73.8633     18.5938
  2161.7000      7.8996      2.4632      0.0154     11.3192     74.4937     18.1497
  2161.8000      7.9014      2.4785      0.0037     10.3941     72.8400     17.2991
  2161.9000      7.9014      2.5032      0.0319      8.8963     68.1383     16.3531
  2162.0000      7.9023      2.5292      0.1061      7.3190     63.5470     16.5660
  2162.1000      7.9023      2.5478      0.0734      6.1946     61.8449     18.3357
  2162.2000      7.9023      2.5556      0.1145      5.7197     62.3827     20.7108
  2162.3000      7.9015      2.5479      0.0677      6.1860     63.0390     22.3646
  2162.4000      7.9015      2.5315      0.0228      7.1841     62.6228     22.5092
  2162.5000      7.8977      2.5220      0.0694      7.7596     61.8189     21.5628
  2162.6000      7.8977      2.5214      0.0739      7.7963     62.6556     20.2297
  2162.7000      7.8977      2.5194      0.0891      7.9179     65.3218     19.2057
  2162.8000      7.8938      2.5144      0.0333      8.2189     66.9976     19.0142
  2162.9000      7.8938      2.5200      0.0445      7.8798     65.3405     19.1031
  2163.0000      7.8963      2.5345      0.0336      7.0003     61.6877     19.2435
  2163.1000      7.8963      2.5331      0.0838      7.0824     59.0758     19.6568
  2163.2000      7.8963      2.5056      0.0339      8.7515     61.1489     19.8311
  2163.3000      7.9016      2.4751      0.0051     10.5991     67.9829     19.6050
  2163.4000      7.9016      2.4629      0.0375     11.3401     72.8419     19.5313
  2163.5000      7.9009      2.4685      0.0549     11.0005     73.3814     19.8609
  2163.6000      7.9009      2.4836      0.0576     10.0858     73.6135     20.6398
  2163.7000      7.9009      2.4959      0.0371      9.3370     73.5314     21.7369
  2163.8000      7.9045      2.4933      0.0452      9.4966     70.2285     22.5785
  2163.9000      7.9045      2.4748      0.0160     10.6187     63.4444     22.7987
  2164.0000      7.9061      2.4576      0.0453     11.6587     56.7439     22.5033
  2164.1000      7.9061      2.4569      0.0634     11.7043     54.7363     21.8733
  2164.2000      7.9061      2.4638      0.0688     11.2873     58.5200     21.1935
  2164.3000      7.9060      2.4640      0.0521     11.2704     64.8233     20.9654
  2164.4000      7.9060      2.4647      0.0313     11.2305     68.7460     21.4785
  2164.5000      7.8985      2.4775      0.0252     10.4526     68.3524     21.9887
  2164.6000      7.8985      2.4968      0.0829      9.2879     66.7705     21.4970
  2164.7000      7.8985      2.5107      0.0809      8.4418     67.3144     20.5488
