~Version Information
VERS.                      2.0: CWLS Log ASCII Standard - VERSION 2.0
WRAP.                       NO: One line per depth step
~Well Information Block
STRT.FT                15.0000: 
STOP.FT              2565.5000: 
STEP.FT                 0.2500: 
NULL.                -999.2500: 
COMP.          Pioneer Natural Resources: COMPANY
WELL.           Costello 44-24: WELL
FLD.           Purgatoire River: FIELD
LOC.           327' FSL & 378' FEL: LOCATION
PROV.                 Colorado: PROVINCE
CNTY.               Las Animas: COUNTRY
SRVC.                Patterson: SERVICE COMPANY
DATE.          Mon Jul 25 10:15:19 2005: LOG DATE
UWI.           05 071 08413 00: UNIQUE WELL ID
~Curve Information Block
DEPT.FT            0 000 00 00: Depth
GR.GAPI                       : Gamma Ray
CCL.                          : Casing Collar Locator
TT3.usec                      : CBL 3' Travel Time
AMP3.mV                       : CBL 3' Amplitude
~Parameter Information Block
~A  Depth        GR         CCL         TT3         AMP3    
# ...
  2025.0000    124.1124      0.0000    600.7380      4.6120
  2025.2500    121.3605      0.0000    637.3802      4.5879
  2025.5000    118.9866      0.0000    658.8826      4.5705
  2025.7500    117.5317      0.0000    665.4595      4.5500
  2026.0000    117.8570      0.0000    662.7924      4.5179
  2026.2500    120.5113      0.0000    657.2802      4.4734
  2026.5000    124.9551      0.0000    652.8085      4.4228
  2026.7500    129.5996      0.0000    650.4034      4.3735
  2027.0000    132.8022      0.0000    649.5435      4.3273
  2027.2500    133.9051      0.0000    649.4241      4.2819
  2027.5000    133.3162      0.0000    649.4854      4.2392
  2027.7500    131.7789      0.0000    649.3632      4.2095
  2028.0000    129.9194      0.0000    648.6733      4.2016
  2028.2500    128.4777      0.0000    646.7936      4.2131
  2028.5000    128.2723      0.0000    643.0192      4.2330
  2028.7500    129.3938      0.0000    637.4707      4.2549
  2029.0000    130.8004      0.0000    632.0862      4.2828
  2029.2500    131.2278      0.0000    629.9193      4.3236
  2029.5000    130.4248      0.0000    632.5303      4.3775
  2029.7500    129.2609      0.0000    638.3575      4.4385
  2030.0000    128.7288      0.0000    644.2425      4.5026
  2030.2500    129.0822      0.0000    648.1254      4.5718
  2030.5000    130.0387      0.0000    649.9006      4.6490
  2030.7500    131.5982      0.0000    650.4578      4.7308
  2031.0000    134.2815      0.0000    650.7292      4.8057
  2031.2500    138.3962      0.0000    651.5757      4.8591
  2031.5000    143.2497      0.0000    653.9812      4.8837
  2031.7500    147.3377      0.0000    658.7687      4.8868
  2032.0000    149.3766      0.0000    665.8053      4.8863
  2032.2500    149.0256      0.0000    673.4073      4.8955
  2032.5000    146.6245      0.0000    678.5881      4.9103
  2032.7500    142.6630      0.0000    677.6768      4.9123
  2033.0000    137.8200      0.0000    666.9685      4.8815
  2033.2500    133.1761      0.0000    644.6962      4.8079
  2033.5000    129.7099      0.0000    614.6306      4.6973
  2033.7500    127.3224      0.0000    586.9951      4.5703
  2034.0000    124.4585      0.0000    572.3645      4.4533
  2034.2500    118.9079      0.0000    573.0939      4.3659
  2034.5000    109.5173      0.0000    582.1705      4.3156
  2034.7500     97.5567      0.0000    590.7145      4.3002
  2035.0000     86.0842      0.0000    595.0247      4.3134
  2035.2500     77.6675      0.0000    596.6326      4.3474
  2035.5000     73.0845      0.0000    598.0199      4.3940
  2035.7500     72.1750      0.0000    599.7192      4.4434
  2036.0000     74.9660      0.0000    600.7798      4.4814
  2036.2500     81.4075      0.0000    600.7039      4.4908
  2036.5000     90.5636      0.0000    600.5192      4.4615
  2036.7500    100.5631      0.0000    602.2224      4.3983
  2037.0000    109.1756      0.0000    607.1729      4.3187
  2037.2500    114.4270      0.0000    614.6697      4.2436
  2037.5000    115.1357      0.0000    621.8855      4.1898
  2037.7500    111.1955      0.0000    625.5672      4.1648
  2038.0000    103.2993      0.0000    624.4268      4.1651
  2038.2500     92.4963      0.0000    619.9954      4.1786
  2038.5000     80.2604      0.0000    615.0347      4.1888
  2038.7500     68.6983      0.0000    611.3685      4.1821
  2039.0000     59.9853      0.0000    609.2787      4.1564
  2039.2500     55.2125      0.0000    608.2725      4.1220
  2039.5000     53.8166      0.0000    607.8515      4.0918
  2039.7500     54.2246      0.0000    607.7155      4.0677
  2040.0000     55.0785      0.0000    607.6978      4.0392
  2040.2500     55.9328      0.0000    607.7244      3.9949
  2040.5000     57.0564      0.0000    607.8083      3.9346
  2040.7500     58.7901      0.0000    608.0327      3.8710
  2041.0000     61.0117      0.0000    608.4819      3.8203
  2041.2500     63.0523      0.0000    609.2286      3.7923
  2041.5000     64.1123      0.0000    610.4353      3.7893
  2041.7500     63.7644      0.0000    612.5845      3.8095
  2042.0000     62.0827      0.0000    616.4915      3.8516
  2042.2500     59.4955      0.0000    622.7416      3.9130
  2042.5000     56.7005      0.0000    630.8647      3.9851
  2042.7500     54.5343      0.0000    639.3891      4.0524
  2043.0000     53.5838      0.0000    647.1607      4.1011
  2043.2500     53.8716      0.0000    654.4551      4.1303
  2043.5000     54.9793      0.0000    662.3473      4.1511
  2043.7500     56.3916      0.0000    670.9757      4.1765
  2044.0000     57.6753      0.0000    678.7382      4.2103
  2044.2500     58.5476      0.0000    683.1293      4.2454
  2044.5000     59.0438      0.0000    682.0231      4.2681
  2044.7500     59.5593      0.0000    674.4973      4.2665
  2045.0000     60.5431      0.0000    661.5052      4.2367
  2045.2500     62.1162      0.0000    646.1183      4.1864
  2045.5000     64.1149      0.0000    632.2612      4.1294
  2045.7500     66.4937      0.0000    622.4938      4.0778
  2046.0000     69.4663      0.0000    616.9466      4.0363
  2046.2500     73.1205      0.0000    614.2205      4.0057
  2046.5000     76.9898      0.0000    612.8408      3.9867
  2046.7500     79.9705      0.0000    611.9487      3.9793
  2047.0000     80.6295      0.0000    611.2095      3.9819
  2047.2500     78.0357      0.0000    610.5189      3.9925
  2047.5000     72.7950      0.0000    609.8314      4.0102
  2047.7500     67.1181      0.0000    609.1242      4.0328
  2048.0000     63.3652      0.0000    608.4122      4.0562
  2048.2500     62.3633      0.0000    607.7065      4.0764
  2048.5000     63.1768      0.0000    606.8912      4.0926
  2048.7500     64.3079      0.0000    605.5594      4.1055
  2049.0000     64.8922      0.0000    603.0048      4.1147
  2049.2500     64.8622      0.0000    598.6887      4.1185
  2049.5000     64.3916      0.0000    593.1573      4.1158
  2049.7500     63.4301      0.0000    588.5777      4.1072
  2050.0000     61.7319      0.0000    587.8851      4.0919
  2050.2500     59.2254      0.0000    592.9606      4.0684
  2050.5000     56.3547      0.0000    603.5052      4.0358
  2050.7500     54.0645      0.0000    617.3780      3.9954
  2051.0000     53.3700      0.0000    631.5480      3.9513
  2051.2500     54.7533      0.0000    643.0611      3.9084
  2051.5000     57.8049      0.0000    650.2830      3.8724
  2051.7500     61.4121      0.0000    653.9026      3.8488
  2052.0000     64.3627      0.0000    656.4604      3.8445
  2052.2500     65.8224      0.0000    660.5189      3.8647
  2052.5000     65.4074      0.0000    666.9865      3.9088
  2052.7500     63.2057      0.0000    674.7792      3.9688
  2053.0000     59.9003      0.0000    681.8599      4.0324
  2053.2500     56.5642      0.0000    686.6722      4.0915
  2053.5000     54.1458      0.0000    688.7360      4.1483
  2053.7500     53.3197      0.0000    688.2188      4.2124
  2054.0000     54.8402      0.0000    685.4022      4.2896
  2054.2500     59.6670      0.0000    680.6185      4.3721
  2054.5000     68.4860      0.0000    674.3952      4.4398
  2054.7500     81.0586      0.0000    667.5773      4.4724
  2055.0000     95.9072      0.0000    661.4534      4.4605
  2055.2500    110.6314      0.0000    657.4336      4.4088
  2055.5000    122.9338      0.0000    655.8684      4.3313
  2055.7500    131.6513      0.0000    654.8883      4.2458
  2056.0000    136.7790      0.0000    650.8352      4.1664
  2056.2500    138.6749      0.0000    640.8163      4.0991
  2056.5000    137.6941      0.0000    625.6932      4.0412
  2056.7500    134.5119      0.0000    610.3829      3.9880
  2057.0000    130.1221      0.0000    600.5490      3.9379
  2057.2500    125.1662      0.0000    598.6273      3.8947
  2057.5000    119.4821      0.0000    602.4673      3.8677
  2057.7500    112.5776      0.0000    607.1068      3.8711
  2058.0000    104.5117      0.0000    608.2662      3.9176
  2058.2500     96.1677      0.0000    605.5544      4.0039
