~Version Information
VERS.                      2.0: CWLS Log ASCII Standard - VERSION 2.0
WRAP.                       NO: One line per depth step
~Well Information Block
STRT.FT                -6.7500: 
STOP.FT              1766.5000: 
STEP.FT                 0.2500: 
NULL.                -999.2500: 
COMP.          Pioneer Natural Resources: COMPANY
WELL.            Hill 33-22 Tr: WELL
FLD.           Purgatorie River: FIELD
LOC.           1573' FSL & 1585' FEL: LOCATION
PROV.                 Colorado: PROVINCE
CNTY.               Las Animas: COUNTRY
SRVC.          Patterson Wireline: SERVICE COMPANY
DATE.          Tue Apr 19 09:26:19 2005: LOG DATE
UWI.           05-071-08316-00: UNIQUE WELL ID
~Curve Information Block
DEPT.FT            0 000 00 00: Depth
CCL.                          : Casing Collar Locator
TT3.usec                      : CBL 3' Travel Time
AMP3.mV                       : CBL 3' Amplitude
GR.GAPI                       : Gamma Ray
~Parameter Information Block
~A  Depth       CCL         TT3         AMP3         GR     
# ...
   227.7500      0.0000    793.5472      7.4392     61.3935
   228.0000      0.0000    802.1092      7.4291     69.5323
   228.2500      0.0000    812.7504      7.4025     76.1582
   228.5000      0.0000    831.9883      7.3454     81.3936
   228.7500      0.0000    870.3893      7.2453     85.2296
   229.0000      0.0000    933.9635      7.1069     86.9207
   229.2500      0.0000   1011.7710      6.9586     85.5670
   229.5000      0.0000   1075.5386      6.8388     81.3635
   229.7500      0.0000   1100.2994      6.7740     76.1328
   230.0000      0.0000   1085.2163      6.7672     72.2589
   230.2500      0.0000   1047.2463      6.8027     70.9526
   230.5000      0.0000    999.1568      6.8614     71.6745
   230.7500      0.0000    945.2125      6.9303     73.0892
   231.0000      0.0000    893.8811      7.0040     74.1954
   231.2500      0.0000    861.4532      7.0800     74.6035
   231.5000      0.0000    861.6005      7.1586     74.2684
   231.7500      0.0000    895.6946      7.2453     73.3215
   232.0000      0.0000    952.1111      7.3506     72.1497
   232.2500      0.0000   1013.8118      7.4849     71.4949
   232.5000      0.0000   1069.8611      7.6523     72.2699
   232.7500      0.0000   1121.0625      7.8473     75.0424
   233.0000      0.0000   1175.1732      8.0550     79.6492
   233.2500      0.0000   1238.1332      8.2576     85.2125
   233.5000      0.0000   1307.7394      8.4445     90.1920
   233.7500      0.0000   1373.1202      8.6133     92.6566
   234.0000      0.0000   1422.2239      8.7589     91.4586
   234.2500      0.0000   1450.7058      8.8695     87.4418
   234.5000      0.0000   1462.2150      8.9411     82.8659
   234.7500      0.0000   1460.9323      8.9904     79.4931
   235.0000      0.0000   1444.3021      9.0448     77.6566
   235.2500      0.0000   1401.7642      9.1181     76.8713
   235.5000      0.0000   1321.8242      9.1977     76.5217
   235.7500      0.0000   1205.2261      9.2551     76.0891
   236.0000      0.0000   1072.4579      9.2676     75.4753
   236.2500      0.0000    953.8688      9.2355     75.1398
   236.5000      0.0000    870.1142      9.1811     75.3957
   236.7500      0.0000    823.0648      9.1294     75.7122
   237.0000      0.0000    803.5260      9.0892     75.2469
   237.2500      0.0000    803.4443      9.0534     74.0631
   237.5000      0.0000    821.8217      9.0157     73.3662
   237.7500      0.0000    863.2505      8.9801     74.3125
   238.0000      0.0000    929.1215      8.9554     76.7587
   238.2500      0.0000   1004.7554      8.9442     79.3336
   238.5000      0.0000   1057.5701      8.9379     80.4854
   238.7500      0.0000   1058.8748      8.9219     79.3223
   239.0000      0.0000   1011.6925      8.8845     75.9353
   239.2500      0.0000    952.1286      8.8239     71.4201
   239.5000      0.0000    921.3440      8.7470     67.3902
   239.7500      0.0000    937.1754      8.6612     65.0490
   240.0000      0.0000    987.3923      8.5683     64.6325
   240.2500      0.0000   1044.4683      8.4666     65.7204
   240.5000      0.0000   1089.7518      8.3563     67.9307
   240.7500      0.0000   1127.5441      8.2381     71.3076
   241.0000      0.0000   1175.6046      8.1072     75.9934
   241.2500      0.0000   1243.0167      7.9555     81.4435
   241.5000      0.0000   1319.8815      7.7820     86.1722
   241.7500      0.0000   1387.1552      7.5931     88.5728
   242.0000      0.0000   1432.5187      7.3941     88.1201
   242.2500      0.0000   1456.2700      7.1855     85.6692
   242.5000      0.0000   1465.9620      6.9700     82.4888
   242.7500      0.0000   1469.0352      6.7598     79.1724
   243.0000      0.0000   1469.6340      6.5731     75.6827
   243.2500      0.0000   1468.8712      6.4195     72.2058
   243.5000      0.0000   1465.0817      6.2891     69.4728
   243.7500      0.0000   1452.5431      6.1566     68.0748
   244.0000      0.0000   1420.0320      6.0010     67.7628
   244.2500      0.0000   1353.5131      5.8221     67.8204
   244.5000      0.0000   1246.3271      5.6419     68.1083
   244.7500      0.0000   1111.3423      5.4938     69.3068
   245.0000      0.0000    981.9172      5.4073     71.8876
   245.2500      0.0000    896.0379      5.3968     75.2647
   245.5000      0.0000    875.2726      5.4604     78.3298
   245.7500      0.0000    914.7721      5.5887     80.4595
   246.0000      0.0000    989.7204      5.7701     81.4809
   246.2500      0.0000   1071.3301      5.9863     80.9418
   246.5000      0.0000   1139.8967      6.2071     78.2156
   246.7500      0.0000   1186.9281      6.3996     73.4548
   247.0000      0.0000   1211.4783      6.5469     68.0042
   247.2500      0.0000   1218.6986      6.6612     63.8466
   247.5000      0.0000   1217.2507      6.7781     62.7367
   247.7500      0.0000   1211.5824      6.9309     65.3044
   248.0000      0.0000   1198.8479      7.1255     70.4238
   248.2500      0.0000   1177.7759      7.3314     75.7809
   248.5000      0.0000   1157.7954      7.5006     79.5390
   248.7500      0.0000   1155.3439      7.6006     81.3414
   249.0000      0.0000   1182.3145      7.6353     81.7690
   249.2500      0.0000   1237.3481      7.6317     81.4537
   249.5000      0.0000   1303.5463      7.6136     80.9416
   249.7500      0.0000   1353.1824      7.5881     80.9461
   250.0000      0.0000   1358.8247      7.5527     82.2427
   250.2500      0.0000   1306.1306      7.5075     85.1889
   250.5000      0.0000   1203.2903      7.4612     89.2130
   250.7500      0.0000   1081.3278      7.4254     92.8450
   251.0000      0.0000    979.8381      7.4033     94.7257
   251.2500      0.0000    924.3800      7.3835     94.7094
   251.5000      0.0000    913.8419      7.3515     93.6353
   251.7500      0.0000    927.7629      7.3091     92.1189
   252.0000      0.0000    944.0434      7.2766     90.0197
   252.2500      0.0000    950.0887      7.2740     87.1380
   252.5000      0.0000    941.7603      7.3039     84.1150
   252.7500      0.0000    919.1497      7.3527     82.3168
   253.0000      0.0000    886.8058      7.4053     82.6192
   253.2500      0.0000    853.5508      7.4553     84.3304
   253.5000      0.0000    827.2925      7.5040     85.5185
   253.7500      0.0000    810.2914      7.5542     84.5090
   254.0000      0.0000    800.3843      7.6055     81.0564
   254.2500      0.0000    795.0209      7.6525     76.2072
   254.5000      0.0000    793.0580      7.6808     71.2920
   254.7500      0.0000    793.9718      7.6712     67.1340
   255.0000      0.0000    796.7656      7.6103     63.9628
   255.2500      0.0000    799.8774      7.5005     61.6690
   255.5000      0.0000    801.8342      7.3575     60.0436
   255.7500      0.0000    802.2791      7.2047     59.0368
   256.0000      0.0000    803.5300      7.0553     58.9489
   256.2500      0.0000    813.2451      6.8703     60.1133
   256.5000      0.0000    845.9723      6.5350     62.2873
   256.7500      0.0000    917.5394      5.9330     64.5996
   257.0000      0.0000   1030.3154      5.0872     66.1509
   257.2500      0.0000   1161.5636      4.2048     66.4808
   257.5000      0.0000   1272.1429      3.5412     65.5499
   257.7500      0.0000   1332.6140      3.2173     63.6146
   258.0000      0.0000   1341.6503      3.1820     61.1458
   258.2500     -5.0000   1319.4662      3.3230     58.6426
   258.5000      5.0000   1286.0834      3.5690     56.4924
   258.7500      0.0000   1248.4426      3.9014     55.0823
   259.0000      0.0000   1205.9905      4.3208     54.9170
   259.2500      0.0000   1159.5646      4.8205     56.4025
   259.5000      0.0000   1108.8817      5.3847     59.5015
   259.7500      0.0000   1049.0448      6.0318     63.6950
   260.0000      0.0000    978.9581      6.8523     68.2860
   260.2500      0.0000    909.4245      7.9246     72.7464
   260.5000      0.0000    855.5883      9.1572     76.7769
   260.7500      0.0000    823.8027     10.2879     79.9688
   261.0000      0.0000    809.5557     11.0850     81.5910
