~Version Information
 VERS.                                  2.0 : CWLS LAS VERSION
 WRAP.                                   NO : WRAPING MODE
 SWARE .                 MController 2.5.0J : SOFTWARE VERSION
~Well Information
 WELL.            Rabbit Bush Federal 44-19 : WELL
 COMP.  Pioneer Natural Resources USA, Inc. : COMPANY
 FLD.                      Purgatoire River : FIELD
 LOC.              SE/SE  Sec 19 T32S  R66W : LOCATION
 DATE.                      8/24/06-8/25/06 : DATE(S) LOGGED
 SRVC.       BLANCO Geological Services LLC : SERVICE COMPANY
 STAT.                                   CO : STATE
 CNTY.                            Las Animas: COUNTY
 CTRY.                               U.S.A. : COUNTRY
 API.                       05-071-08149-00 : API NUMBER
 STRT.FT                             539.00 : START DEPTH
 STOP.FT                            2785.00 : STOP DEPTH
 STEP.FT                               1.00 : DEPTH INCREMENT
 NULL.                                -9999 : NULL VALUE
~Curve information
 DEPTH.FT                                   :
 ROP.MIN/FT                                 :
 GAS.UNITS                                  :
~ASCII Log data
# ...
      1539.0         0.37         12.5 
      1540.0         0.23         12.4 
      1541.0         0.30         12.5 
      1542.0         0.27         16.5 
      1543.0         0.23         19.4 
      1544.0         0.30         19.0 
      1545.0         0.27         16.9 
      1546.0         0.27         14.4 
      1547.0         0.28         10.8 
      1548.0         0.27          9.1 
      1549.0         0.23          8.4 
      1550.0         0.20          8.3 
      1551.0         0.17          9.4 
      1552.0         0.17         10.6 
      1553.0         0.27         15.5 
      1554.0         0.17         22.1 
      1555.0         0.33         34.7 
      1556.0         3.42         38.7 
      1557.0         0.27         12.8 
      1558.0         0.33         11.8 
      1559.0         0.33         10.2 
      1560.0         0.30          9.7 
      1561.0         0.32          9.9 
      1562.0         0.23         11.0 
      1563.0         0.33         11.4 
      1564.0         0.33         11.3 
      1565.0         0.30         10.5 
      1566.0         0.33         10.1 
      1567.0         0.27          9.7 
      1568.0         0.33          9.6 
      1569.0         0.23          9.7 
      1570.0         0.17          9.8 
      1571.0         0.33          8.9 
      1572.0         0.27          9.8 
      1573.0         0.35          9.7 
      1574.0         0.33         11.6 
      1575.0         0.37         13.7 
      1576.0         0.23         12.3 
      1577.0         0.27          8.8 
      1578.0         0.27          6.9 
      1579.0         0.20          7.0 
      1580.0         0.23          6.9 
      1581.0         0.27          9.2 
      1582.0         0.23         11.9 
      1583.0         0.20         15.7 
      1584.0         0.17         19.5 
      1585.0         0.13         23.5 
      1586.0         2.75         37.6 
      1587.0         0.33         14.1 
      1588.0         0.33         12.5 
      1589.0         0.25         14.3 
      1590.0         0.27         14.5 
      1591.0         0.33         12.3 
      1592.0         0.27         11.1 
      1593.0         0.27         10.0 
      1594.0         0.27          9.7 
      1595.0         0.17          9.5 
      1596.0         0.20          9.2 
      1597.0         0.17          9.5 
      1598.0         0.13          9.2 
      1599.0         0.23          8.9 
      1600.0         0.17          9.0 
      1601.0         0.20          8.9 
      1602.0         0.27          9.0 
      1603.0         0.35          9.1 
      1604.0         0.20          8.8 
      1605.0         0.23          8.3 
      1606.0         0.30          7.2 
      1607.0         0.23          4.5 
      1608.0         0.23          4.4 
      1609.0         0.30          4.3 
      1610.0         0.27          4.9 
      1611.0         0.27          5.6 
      1612.0         0.23          7.4 
      1613.0         0.27         11.3 
      1614.0         0.27         19.4 
      1615.0         0.23         30.6 
      1616.0         3.12         33.9 
      1617.0         0.43         10.6 
      1618.0         0.35          9.8 
      1619.0         0.27          9.8 
      1620.0         0.27          9.9 
      1621.0         0.27          9.0 
      1622.0         0.27          9.0 
      1623.0         0.27          8.2 
      1624.0         0.30          8.8 
      1625.0         0.23          8.7 
      1626.0         0.27          9.2 
      1627.0         0.17          8.6 
      1628.0         0.20          8.3 
      1629.0         0.30          8.2 
      1630.0         0.72          8.6 
      1631.0         0.60          8.5 
      1632.0         0.30          8.6 
      1633.0         0.40          8.8 
      1634.0         0.20          8.0 
      1635.0         0.27          8.3 
      1636.0         0.20          8.4 
      1637.0         0.40         12.7 
      1638.0         0.40         12.5 
      1639.0         0.35          7.9 
      1640.0         0.20          5.4 
      1641.0         0.23          3.9 
      1642.0         0.23          4.2 
      1643.0         0.30          4.6 
      1644.0         0.40          6.3 
      1645.0         0.33         10.1 
      1646.0         4.28         41.5 
      1647.0         0.37         11.4 
      1648.0         0.35         11.3 
      1649.0         0.33          9.9 
      1650.0         0.30          9.5 
      1651.0         0.30          9.2 
      1652.0         0.30          9.4 
      1653.0         0.33          8.6 
      1654.0         0.30          7.0 
      1655.0         0.30          7.1 
      1656.0         0.27          7.7 
      1657.0         0.30          7.5 
      1658.0         0.30          7.6 
      1659.0         0.28          7.4 
      1660.0         0.33          7.8 
      1661.0         0.33          8.0 
      1662.0         0.33          7.4 
      1663.0         0.37          7.5 
      1664.0         0.37          7.2 
      1665.0         0.37          8.1 
      1666.0         0.40          6.5 
      1667.0         0.40          4.4 
      1668.0         0.28          3.2 
      1669.0         0.20          3.7 
      1670.0         0.23          4.8 
      1671.0         0.20          6.0 
      1672.0         0.27          7.8 
      1673.0         0.23         11.0 
      1674.0         0.23         15.9 
      1675.0         0.20         22.3 
      1676.0         4.45         28.4 
      1677.0         0.27          5.7 
      1678.0         0.33          4.9 
      1679.0         0.28          5.2 
      1680.0         0.20          4.8 
      1681.0         0.23          5.7 
      1682.0         0.23          5.1 
      1683.0         0.23          5.5 
      1684.0         0.50          5.5 
      1685.0         0.27          4.5 
      1686.0         0.47          4.1 
      1687.0         0.30          3.7 
      1688.0         0.30          3.9 
      1689.0         0.27          4.0 
      1690.0         0.32          3.5 
      1691.0         0.30          3.6 
      1692.0         0.60          3.5 
      1693.0         0.40          3.6 
      1694.0         0.43          3.7 
      1695.0         0.43          3.7 
      1696.0         0.40          3.0 
      1697.0         0.47          3.7 
      1698.0         0.38          5.2 
      1699.0         0.43          4.0 
      1700.0         0.43          2.9 
      1701.0         0.43          2.8 
      1702.0         0.40          3.1 
      1703.0         0.43          3.2 
      1704.0         0.37          3.5 
      1705.0         0.30          3.1 
      1706.0         2.82          5.0 
      1707.0         0.40          5.5 
      1708.0         0.48          5.5 
      1709.0         0.57          5.2 
      1710.0         0.40          4.8 
      1711.0         0.53          4.1 
      1712.0         0.40          4.3 
      1713.0         0.33          4.3 
      1714.0         0.53          4.8 
      1715.0         0.23          5.0 
      1716.0         0.25          5.3 
      1717.0         0.30          5.2 
      1718.0         0.23          4.6 
      1719.0         0.23          3.9 
      1720.0         0.27          4.3 
      1721.0         0.33          4.0 
      1722.0         0.30          3.7 
      1723.0         0.27          3.7 
      1724.0         0.30          3.4 
      1725.0         0.27          3.6 
      1726.0         0.23          6.5 
      1727.0         0.27          7.8 
      1728.0         0.27          8.3 
      1729.0         0.25          5.9 
      1730.0         0.27          3.0 
      1731.0         0.23          2.8 
      1732.0         0.23          2.8 
      1733.0         0.23          2.6 
      1734.0         0.30          2.9 
      1735.0         0.30          3.2 
      1736.0         3.98          5.4 
      1737.0         0.40          6.0 
      1738.0         0.30          5.7 
