~Version Information
VERS.                      2.0: CWLS Log ASCII Standard - VERSION 2.0
WRAP.                       NO: One line per depth step
~Well Information Block
STRT.FT               665.0000: 
STOP.FT              1972.5000: 
STEP.FT                 0.1000: 
NULL.                -999.2500: 
COMP.          Petrogulf Corporation: COMPANY
WELL.          Great Plains 22-21V: WELL
FLD.           Purgatorie River: FIELD
LOC.           63' FNL & 1895' FWL: LOCATION
PROV.                 Colorado: PROVINCE
CNTY.               Las Animas: COUNTRY
SRVC.                Patterson: SERVICE COMPANY
DATE.          Thu Sep 01 07:39:43 2005: LOG DATE
UWI.                          : UNIQUE WELL ID
~Curve Information Block
DEPT.FT            0 000 00 00: Depth
DCAL.in                       : CDL Caliper
RHOB.g/cc                     : CDL Bulk Density
RHOC.g/cc                     : CDL Density Correction
DPOR.pu                       : CDL Density Porosity
GR.GAPI                       : Gamma Ray
NPOR.pu                       : Neutron Porosity
~Parameter Information Block
~A  Depth       DCAL        RHOB        RHOC        DPOR         GR         NPOR    
# ...
  1183.4000      8.1444      2.5070      0.0073      8.6640    116.0778      5.2372
  1183.5000      8.1571      2.5058      0.0145      8.7382    117.5027      5.1687
  1183.6000      8.1571      2.5124     -0.0070      8.3398    120.3488      5.2502
  1183.7000      8.1571      2.5319      0.0441      7.1598    125.7067      5.4236
  1183.8000      8.2005      2.5586      0.1060      5.5396    131.2108      6.0849
  1183.9000      8.2005      2.5696      0.1302      4.8724    136.3561      6.8768
  1184.0000      8.2370      2.5548      0.0978      5.7679    141.4117      6.9410
  1184.1000      8.2370      2.5303      0.0729      7.2517    145.0967      6.6180
  1184.2000      8.2370      2.5159      0.0746      8.1272    148.4819      6.6690
  1184.3000      8.2612      2.5181      0.0458      7.9921    151.1811      7.0698
  1184.4000      8.2612      2.5281      0.0777      7.3901    151.4614      7.5176
  1184.5000      8.2869      2.5344      0.0467      7.0081    151.3512      7.8943
  1184.6000      8.2869      2.5411      0.0861      6.6020    150.6886      8.2021
  1184.7000      8.2869      2.5492      0.1186      6.1070    146.1077      8.1865
  1184.8000      8.2819      2.5511      0.0885      5.9928    139.3912      7.7067
  1184.9000      8.2819      2.5510      0.0882      6.0002    134.8319      7.1538
  1185.0000      8.2208      2.5549      0.1065      5.7662    132.8840      6.8932
  1185.1000      8.2208      2.5584      0.1259      5.5537    131.3650      7.0322
  1185.2000      8.2208      2.5603      0.1124      5.4352    128.7484      7.3684
  1185.3000      8.1435      2.5657      0.0822      5.1078    126.9253      7.5570
  1185.4000      8.1435      2.5734      0.0949      4.6453    126.7327      7.4835
  1185.5000      8.1437      2.5726      0.1152      4.6919    124.7282      6.9465
  1185.6000      8.1437      2.5639      0.0668      5.2163    118.9376      5.9678
  1185.7000      8.1437      2.5623      0.0706      5.3135    111.7330      4.9793
  1185.8000      8.1206      2.5746      0.0620      4.5697    104.3153      4.2151
  1185.9000      8.1206      2.5960      0.0736      3.2739     95.7731      3.5753
  1186.0000      8.1093      2.6137      0.1105      2.1991     88.9331      2.7869
  1186.1000      8.1093      2.6199      0.0802      1.8250     87.6885      2.0554
  1186.2000      8.1093      2.6202      0.0796      1.8080     88.4783      1.9200
  1186.3000      8.1159      2.6184      0.0947      1.9155     84.8093      1.9355
  1186.4000      8.1159      2.6118      0.0796      2.3177     78.0017      1.3686
  1186.5000      8.1125      2.5993      0.0512      3.0742     72.8618      0.4180
  1186.6000      8.1125      2.5876      0.0602      3.7792     69.6708     -0.5476
  1186.7000      8.1125      2.5890      0.0582      3.6941     67.2711     -0.8971
  1186.8000      8.0842      2.6052      0.0576      2.7163     66.5757      0.0115
  1186.9000      8.0842      2.6228      0.0870      1.6512     67.1509      1.3062
  1187.0000      8.1105      2.6286      0.1100      1.2961     66.3202      1.5947
  1187.1000      8.1105      2.6205      0.1052      1.7850     64.5307      0.8091
  1187.2000      8.1105      2.6100      0.0376      2.4229     64.6606     -0.2070
  1187.3000      8.0982      2.6065      0.0852      2.6363     66.0472     -0.8985
  1187.4000      8.0982      2.6030      0.0942      2.8505     68.2578     -1.1310
  1187.5000      8.0792      2.5946      0.0467      3.3569     71.5637     -0.9605
  1187.6000      8.0792      2.5835      0.0753      4.0275     72.4890     -0.3768
  1187.7000      8.0792      2.5699      0.0390      4.8558     69.9076      0.4414
  1187.8000      8.0762      2.5630      0.0132      5.2699     69.3057      0.9429
  1187.9000      8.0762      2.5669      0.0763      5.0394     74.7902      0.9742
  1188.0000      8.0749      2.5687      0.0678      4.9244     84.1620      1.2033
  1188.1000      8.0749      2.5678      0.0477      4.9825     93.6966      2.0191
  1188.2000      8.0749      2.5731      0.0687      4.6598    101.5713      2.8807
  1188.3000      8.1004      2.5833      0.0815      4.0399    106.1506      3.1426
  1188.4000      8.1004      2.5918      0.1034      3.5251    107.0766      2.9246
  1188.5000      8.0885      2.5848      0.0982      3.9518    106.0797      2.9354
  1188.6000      8.0885      2.5525      0.0635      5.9095    103.6275      3.3040
  1188.7000      8.0885      2.5264      0.0122      7.4896     99.7348      3.3456
  1188.8000      8.1120      2.5421      0.0556      6.5380     97.2949      2.9892
  1188.9000      8.1120      2.5730      0.0920      4.6655     96.8187      2.7557
  1189.0000      8.0931      2.5822      0.0216      4.1063     94.1821      2.7045
  1189.1000      8.0931      2.5732      0.0584      4.6536     88.6005      2.8446
  1189.2000      8.0931      2.5598      0.0233      5.4675     83.8701      3.1407
  1189.3000      8.0681      2.5544     -0.0191      5.7930     82.4158      2.9439
  1189.4000      8.0681      2.5624      0.0471      5.3111     83.7685      1.9480
  1189.5000      8.0767      2.5705      0.0487      4.8165     85.9444      0.8259
  1189.6000      8.0767      2.5693      0.0240      4.8938     86.1033      0.3213
  1189.7000      8.0767      2.5670      0.0373      5.0309     83.2299      0.3348
  1189.8000      8.1031      2.5701      0.0654      4.8395     79.9869      0.3053
  1189.9000      8.1031      2.5723      0.0575      4.7062     79.8728      0.0305
  1190.0000      8.1418      2.5661      0.0359      5.0827     83.7264     -0.3488
  1190.1000      8.1418      2.5496      0.0709      6.0838     90.2282     -0.4140
  1190.2000      8.1418      2.5288      0.0453      7.3466     97.2021      0.4390
  1190.3000      8.1138      2.5124      0.0549      8.3401    102.9847      2.1047
  1190.4000      8.1138      2.5020      0.0472      8.9697    106.0176      3.4783
  1190.5000      8.1129      2.5006      0.0463      9.0552    106.8940      3.8790
  1190.6000      8.1129      2.5064      0.0779      8.7034    110.6880      3.8122
  1190.7000      8.1129      2.5041      0.1064      8.8415    119.3286      4.0496
  1190.8000      8.1164      2.4944      0.0947      9.4289    127.2660      4.6380
  1190.9000      8.1164      2.4974      0.0942      9.2490    131.7724      5.0192
  1191.0000      8.1724      2.5137      0.1406      8.2611    136.9384      5.2313
  1191.1000      8.1724      2.5209      0.1515      7.8224    142.0495      5.8682
  1191.2000      8.1724      2.5101      0.0986      8.4785    143.8337      6.9491
  1191.3000      8.3538      2.4933      0.0937      9.4954    147.1632      7.6554
  1191.4000      8.3538      2.4807      0.0544     10.2630    155.7001      7.1115
  1191.5000      8.3483      2.4735      0.0497     10.6958    162.5750      5.7273
  1191.6000      8.3483      2.4695      0.0384     10.9398    161.0775      5.0759
  1191.7000      8.3483      2.4711      0.0160     10.8438    153.7109      5.9527
  1191.8000      8.3993      2.4818      0.0407     10.1915    147.5280      7.4515
  1191.9000      8.3993      2.4948      0.0465      9.4043    144.8848      8.3394
  1192.0000      8.3881      2.5044      0.0597      8.8232    142.3233      8.2342
  1192.1000      8.3881      2.5140      0.0314      8.2434    139.3762      7.2046
  1192.2000      8.3881      2.5258      0.0566      7.5300    138.9022      6.1128
  1192.3000      8.3284      2.5380      0.0645      6.7901    140.0201      5.7941
  1192.4000      8.3284      2.5506      0.0645      6.0270    140.2272      5.9111
  1192.5000      8.2762      2.5632      0.0699      5.2619    139.6585      6.0884
  1192.6000      8.2762      2.5682      0.1069      4.9556    140.6398      6.4803
  1192.7000      8.2762      2.5535      0.0608      5.8504    143.2989      6.6652
  1192.8000      8.2476      2.5198      0.0648      7.8902    143.6749      6.3043
  1192.9000      8.2476      2.4907      0.0019      9.6535    141.2571      6.1452
