~Version Information
VERS.                      2.0: CWLS Log ASCII Standard - VERSION 2.0
WRAP.                       NO: One line per depth step
~Well Information Block
STRT.FT               420.0000: 
STOP.FT              1528.5000: 
STEP.FT                 0.2500: 
NULL.                -999.2500: 
COMP.          Evergreen Operating Corporation: COMPANY
WELL.              Chase 21-10: WELL
FLD.           Purgatoire River: FIELD
LOC.           1122' FNL & 1544' FWL: LOCATION
PROV.                       CO: PROVINCE
CNTY.               Las Animas: COUNTRY
SRVC.                         : SERVICE COMPANY
DATE.          Sun May 23 21:20:45 2004: LOG DATE
UWI.           05 071 08006 00: UNIQUE WELL ID
~Curve Information Block
DEPT.FT            0 000 00 00: Depth
SN.Ohm-m                      : IEL Short Normal
SP.mV                         : IEL Spontaneous Potential
DIR.Ohm-m                     : IEL Induction Resistivity
GR.GAPI                       : Gamma Ray
~Parameter Information Block
~A  Depth        SN          SP         DIR          GR     
   420.0000   2000.0000   2038.0000     10.5713     74.6898
   420.2500   2000.0000   2038.0000     10.4349     77.1494
   420.5000   2000.0000   2038.0000     10.3451     78.2944
   420.7500   2000.0000   2038.0000     10.2824     77.1802
   421.0000   2000.0000   2038.0000     10.2302     73.8177
   421.2500   2000.0000   2038.0000     10.1782     71.3276
   421.5000   2000.0000   2038.0000     10.1221     68.4620
   421.7500   2000.0000   2038.0000     10.0626     67.7327
   422.0000   2000.0000   2038.0000     10.0055     68.7519
   422.2500   2000.0000   2038.0000      9.9600     70.1910
   422.5000   2000.0000   2038.0000      9.9345     71.4259
   422.7500   2000.0000   2038.0000      9.9317     70.8779
   423.0000   2000.0000   2038.0000      9.9459     68.4276
   423.2500   2000.0000   2038.0000      9.9646     66.4201
   423.5000   2000.0000   2038.0000      9.9751     63.5876
   423.7500   2000.0000   2038.0000      9.9732     61.9969
   424.0000   2000.0000   2038.0000      9.9675     60.7326
   424.2500   2000.0000   2038.0000      9.9752     61.2995
   424.5000   2000.0000   2038.0000     10.0131     64.8607
   424.7500   2000.0000   2038.0000     10.0885     68.5489
   425.0000   2000.0000   2038.0000     10.1969     74.1126
   425.2500   2000.0000   2038.0000     10.3239     76.8339
   425.5000   2000.0000   2038.0000     10.4472     78.7277
   425.7500   2000.0000   2038.0000     10.5357     78.5144
   426.0000   2000.0000   2038.0000     10.5491     76.1585
   426.2500   2000.0000   2038.0000     10.4449     73.5533
   426.5000   2000.0000   2038.0000     10.1985     69.2048
   426.7500   2000.0000   2038.0000      9.8268     66.7527
   427.0000   2000.0000   2038.0000      9.3904     64.4828
   427.2500   2000.0000   2038.0000      8.9669     63.9405
   427.5000   2000.0000   2038.0000      8.6165     64.4815
   427.7500   2000.0000   2038.0000      8.3631     65.9181
   428.0000   2000.0000   2038.0000      8.1974     70.4018
   428.2500   2000.0000   2038.0000      8.0920     75.3338
   428.5000   2000.0000   2038.0000      8.0191     85.6606
   428.7500   2000.0000   2038.0000      7.9686     93.9072
   429.0000   2000.0000   2038.0000      7.9638    106.3212
   429.2500   2000.0000   2038.0000      8.0823    113.3161
   429.5000   2000.0000   2038.0000      8.4974    120.5074
   429.7500   2000.0000   2038.0000      9.6018    123.0936
   430.0000   2000.0000   2038.0000     12.5282    124.5932
   430.2500   2000.0000   2038.0000     23.0089    124.6282
   430.5000   2000.0000   2038.0000 100000.0000    123.8123
   430.7500   2000.0000   2038.0000 100000.0000    122.7499
   431.0000   2000.0000   2038.0000 100000.0000    120.4177
   431.2500   2000.0000   2038.0000 100000.0000    118.4456
   431.5000   2000.0000   2038.0000 100000.0000    114.7435
   431.7500   2000.0000   2038.0000 100000.0000    111.4998
   432.0000   2000.0000   2038.0000 100000.0000    105.1080
   432.2500   2000.0000   2038.0000 100000.0000     99.9051
   432.5000   2000.0000   2038.0000 100000.0000     91.0927
   432.7500   2000.0000   2038.0000 100000.0000     84.7785
   433.0000   2000.0000   2038.0000 100000.0000     75.2209
   433.2500   2000.0000   2038.0000 100000.0000     69.3201
   433.5000   2000.0000   2038.0000 100000.0000     61.9342
   433.7500   2000.0000   2038.0000 100000.0000     58.0353
   434.0000   2000.0000   2038.0000 100000.0000     53.2521
   434.2500   2000.0000   2038.0000 100000.0000     50.4978
   434.5000   2000.0000   2038.0000 100000.0000     46.9878
   434.7500   2000.0000   2038.0000 100000.0000     45.3581
   435.0000   2000.0000   2038.0000 100000.0000     44.7639
   435.2500   2000.0000   2038.0000 100000.0000     45.9077
   435.5000   2000.0000   2038.0000 100000.0000     49.8150
   435.7500   2000.0000   2038.0000 100000.0000     53.6273
   436.0000   2000.0000   2038.0000 100000.0000     61.2740
   436.2500   2000.0000   2038.0000 100000.0000     68.3291
   436.5000   2000.0000   2038.0000      2.9106     83.6161
   436.7500   2000.0000   2038.0000      0.8662     97.7290
   437.0000   2000.0000   2038.0000      0.3574    124.5395
   437.2500   2000.0000   2038.0000      0.1564    144.7326
   437.5000   2000.0000   2038.0000      0.0748    174.1841
   437.7500   2000.0000   2038.0000      0.0448    190.4843
   438.0000   2000.0000   2038.0000      0.0362    206.5739
   438.2500   2000.0000   2038.0000      0.0394    211.3204
   438.5000   2000.0000   2038.0000      0.0556    211.9568
   438.7500   2000.0000   2038.0000      0.0954    210.8407
   439.0000   2000.0000   2038.0000      0.1823    211.2655
   439.2500   2000.0000   2038.0000      0.3578    199.6908
   439.5000   2000.0000   2038.0000      0.7201    205.7560
   439.7500   2000.0000   2038.0000      1.6551    209.9759
   440.0000   2000.0000   2038.0000      5.8210    214.3029
   440.2500   2000.0000   2038.0000 100000.0000    184.2335
   440.5000   2000.0000   2038.0000 100000.0000    182.0862
   440.7500   2000.0000   2038.0000 100000.0000    179.4771
   441.0000   2000.0000   2038.0000 100000.0000    175.2461
   441.2500   2000.0000   2038.0000 100000.0000    143.3751
   441.5000   2000.0000   2038.0000 100000.0000    137.1598
   441.7500   2000.0000   2038.0000     61.3308    130.5996
   442.0000   2000.0000   2038.0000     25.9726    117.4711
   442.2500   2000.0000   2038.0000     21.0876    107.8931
   442.5000   2000.0000   2038.0000     23.1321     95.2516
   442.7500   2000.0000   2038.0000     35.9379     89.1642
   443.0000   2000.0000   2038.0000    303.0008     83.7855
   443.2500   2000.0000   2038.0000 100000.0000     81.9556
   443.5000   2000.0000   2038.0000 100000.0000     80.1600
   443.7500   2000.0000   2038.0000 100000.0000     78.9428
   444.0000   2000.0000   2038.0000 100000.0000     76.9243
   444.2500   2000.0000   2038.0000 100000.0000     75.8392
   444.5000   2000.0000   2038.0000 100000.0000     75.6954
   444.7500   2000.0000   2038.0000 100000.0000     77.1120
   445.0000   2000.0000   2038.0000 100000.0000     81.6276
   445.2500   2000.0000   2038.0000 100000.0000     85.8579
   445.5000   2000.0000   2038.0000 100000.0000     93.2364
   445.7500   2000.0000   2038.0000 100000.0000     98.5312
   446.0000   2000.0000   2038.0000 100000.0000    106.3776
   446.2500   2000.0000   2038.0000     64.4467    110.7267
   446.5000   2000.0000   2038.0000     28.6342    114.0462
   446.7500   2000.0000   2038.0000     21.0939    113.5444
   447.0000   2000.0000   2038.0000     18.5876    109.7961
   447.2500   2000.0000   2038.0000     18.0343    106.7744
   447.5000   2000.0000   2038.0000     18.6383    103.5321
   447.7500   2000.0000   2038.0000     20.1943    102.6126
   448.0000   2000.0000   2038.0000     22.6813    102.9771
   448.2500   2000.0000   2038.0000     26.0678    104.2959
   448.5000   2000.0000   2038.0000     30.1755    107.3891
   448.7500   2000.0000   2038.0000     34.6339    109.4540
   449.0000   2000.0000   2038.0000     38.9727    111.0865
   449.2500   2000.0000   2038.0000     42.7721    110.6893
   449.5000   2000.0000   2038.0000     45.7755    107.8252
   449.7500   2000.0000   2038.0000     47.9495    104.8121
   450.0000   2000.0000   2038.0000     49.4868     99.8965
   450.2500   2000.0000   2038.0000     50.6968     97.0799
   450.5000   2000.0000   2038.0000     51.8522     94.1083
   450.7500   2000.0000   2038.0000     53.0910     92.8990
   451.0000   2000.0000   2038.0000     54.4094     91.8778
   451.2500   2000.0000   2038.0000     55.7030     91.5265
   451.5000   2000.0000   2038.0000     56.8437     91.1689
   451.7500   2000.0000   2038.0000     57.7574     90.7880
   452.0000   2000.0000   2038.0000     58.4571     89.5256
   452.2500   2000.0000   2038.0000     58.9926     88.2242
   452.5000   2000.0000   2038.0000     59.3953     86.5370
   452.7500   2000.0000   2038.0000     59.7234     86.4183
   453.0000   2000.0000   2038.0000     60.1674     88.3981
   453.2500   2000.0000   2038.0000     61.0182     90.7311
