~Version Information
VERS.                      2.0: CWLS Log ASCII Standard - VERSION 2.0
WRAP.                       NO: One line per depth step
~Well Information Block
STRT.FT               420.0000: 
STOP.FT              1527.5000: 
STEP.FT                 0.1000: 
NULL.                -999.2500: 
COMP.          Evergreen Operating Corporation: COMPANY
WELL.              Chase 21-10: WELL
FLD.           Purgatoire River: FIELD
LOC.           1122' FNL & 1544' FWL: LOCATION
PROV.                       CO: PROVINCE
CNTY.               Las Animas: COUNTRY
SRVC.                         : SERVICE COMPANY
DATE.          Tue May 25 08:18:37 2004: LOG DATE
UWI.           05 071 08006 00: UNIQUE WELL ID
~Curve Information Block
DEPT.FT            0 000 00 00: Depth
DCAL.in                       : CDL Caliper
RHOB.g/cc                     : CDL Bulk Density
RHOC.g/cc                     : CDL Density Correction
DPOR.pu                       : CDL Density Porosity
GR.GAPI                       : Gamma Ray
NPOR.pu                       : Neutron Porosity
~Parameter Information Block
~A  Depth       DCAL        RHOB        RHOC        DPOR         GR         NPOR    
# ...
   861.6000      7.9333      2.6395      0.1336      0.6386    107.5357     40.2086
   861.7000      7.9333      2.6474      0.1367      0.1550    102.2418     40.3817
   861.8000      7.9683      2.6507      0.1375     -0.0408     94.6057     40.2979
   861.9000      7.9683      2.6458      0.1041      0.2545     92.4599     40.4058
   862.0000      7.9221      2.6361      0.0889      0.8441     96.1484     40.9281
   862.1000      7.9221      2.6338      0.1119      0.9816     97.7612     41.6088
   862.2000      7.9221      2.6385      0.0520      0.6941     98.7314     42.1333
   862.3000      7.8782      2.6428      0.0525      0.4353    101.9249     42.1195
   862.4000      7.8782      2.6499      0.1066      0.0070    104.1637     41.5036
   862.5000      7.8807      2.6600      0.0967     -0.6070    105.3526     40.9774
   862.6000      7.8807      2.6611      0.0879     -0.6706    108.2833     40.8011
   862.7000      7.8807      2.6409      0.0656      0.5530    115.7592     40.2923
   862.8000      7.8736      2.5963      0.0743      3.2548    127.2204     39.3849
   862.9000      7.8736      2.5435      0.0115      6.4516    135.9838     38.9214
   863.0000      7.8679      2.5142      0.0188      8.2279    135.9184     39.1082
   863.1000      7.8679      2.5203      0.0319      7.8625    127.0004     39.4706
   863.2000      7.8679      2.5448      0.0749      6.3774    114.2092     39.9355
   863.3000      7.8847      2.5627      0.0910      5.2929    104.9522     40.5872
   863.4000      7.8847      2.5642      0.0852      5.1986    107.8587     41.2484
   863.5000      7.9071      2.5637      0.0595      5.2330    123.7073     41.6078
   863.6000      7.9071      2.5780      0.0966      4.3618    139.9767     41.6592
   863.7000      7.9071      2.5965      0.1559      3.2443    146.7746     41.4960
   863.8000      7.9366      2.6077      0.1316      2.5629    145.0349     41.3353
   863.9000      7.9366      2.6248      0.0827      1.5281    139.5607     41.4633
   864.0000      7.8907      2.6418      0.1601      0.4942    135.4484     41.7584
   864.1000      7.8907      2.6385      0.1121      0.6958    136.4524     42.0095
   864.2000      7.8907      2.6247      0.0966      1.5323    140.3858     42.1191
   864.3000      7.9143      2.6283      0.0746      1.3164    143.5808     42.2408
   864.4000      7.9143      2.6484      0.1677      0.0944    146.9052     42.5547
   864.5000      7.9484      2.6507      0.1066     -0.0446    149.8179     42.7688
   864.6000      7.9484      2.6284      0.1201      1.3077    148.0342     42.7435
   864.7000      7.9484      2.6010      0.0662      2.9670    139.3254     42.9031
   864.8000      7.9268      2.5687      0.1190      4.9295    128.1521     43.2904
   864.9000      7.9268      2.5475      0.0108      6.2134    123.7950     43.5096
   865.0000      7.9059      2.5754      0.0408      4.5236    129.1495     43.5494
   865.1000      7.9059      2.6322      0.1091      1.0765    133.8829     43.3867
   865.2000      7.9059      2.6592      0.0938     -0.5589    132.9024     42.8916
   865.3000      7.9448      2.6474      0.1094      0.1582    135.1285     42.4096
   865.4000      7.9448      2.6245      0.1041      1.5438    140.2700     42.3048
   865.5000      7.9566      2.6010      0.0924      2.9686    139.0481     42.5621
   865.6000      7.9566      2.5813      0.0665      4.1607    135.8383     43.1388
   865.7000      7.9566      2.5858      0.0556      3.8919    136.7281     43.7779
   865.8000      7.9402      2.6145      0.1281      2.1499    138.1937     44.0079
   865.9000      7.9402      2.6326      0.1687      1.0569    139.6934     43.9470
   866.0000      7.9245      2.6225      0.0515      1.6650    144.0361     44.0882
   866.1000      7.9245      2.5996      0.1101      3.0547    149.3456     44.4984
   866.2000      7.9245      2.5782      0.0635      4.3511    149.5816     44.8057
   866.3000      7.9586      2.5688      0.0279      4.9188    146.7211     44.7497
   866.4000      7.9586      2.5601      0.1139      5.4496    147.4682     44.5371
   866.5000      8.0152      2.5277      0.0305      7.4126    150.7146     44.5590
   866.6000      8.0152      2.4785     -0.0160     10.3932    152.6637     44.7353
   866.7000      8.0152      2.4437     -0.0845     12.5037    154.3604     44.8512
   866.8000      7.9979      2.4442     -0.0357     12.4718    157.8981     44.9039
   866.9000      7.9979      2.4711      0.0221     10.8397    158.0946     44.6998
   867.0000      7.9983      2.5063      0.0017      8.7103    149.7969     44.2500
   867.1000      7.9983      2.5454      0.0702      6.3417    137.3643     44.0542
   867.2000      7.9983      2.5828      0.0981      4.0750    128.3596     44.1864
   867.3000      7.9983      2.6055      0.1098      2.6981    126.7955     44.3023
   867.4000      7.9983      2.6050      0.0710      2.7251    130.1476     44.1243
   867.5000      7.9973      2.5854      0.0208      3.9148    131.1640     43.5528
   867.6000      7.9973      2.5524      0.0771      5.9130    128.9296     43.0963
   867.7000      7.9973      2.5190     -0.0145      7.9393    134.8099     43.2598
   867.8000      7.9873      2.5124     -0.0022      8.3409    145.3881     43.5720
   867.9000      7.9873      2.5355      0.0210      6.9382    150.0833     43.5132
   868.0000      7.9406      2.5627      0.0018      5.2912    150.7433     43.1937
   868.1000      7.9406      2.5673      0.0766      5.0124    142.6500     42.6712
   868.2000      7.9406      2.5413     -0.0112      6.5887    127.1997     42.1775
   868.3000      7.9813      2.5065     -0.0081      8.6956    118.5243     42.2113
   868.4000      7.9813      2.4964     -0.0464      9.3077    119.3340     42.6194
   868.5000      8.0164      2.5235      0.0041      7.6644    123.0810     42.8139
   868.6000      8.0164      2.5620      0.0259      5.3339    125.4874     42.7748
   868.7000      8.0164      2.5773      0.0989      4.4063    122.4261     42.8062
   868.8000      8.0264      2.5655      0.0514      5.1218    113.9910     42.6736
   868.9000      8.0264      2.5529      0.0084      5.8872    106.2300     42.1669
   869.0000      8.0292      2.5622      0.0389      5.3198    104.3725     41.8975
   869.1000      8.0292      2.5898      0.0904      3.6515    114.1436     42.2041
   869.2000      8.0292      2.6142      0.0471      2.1675    133.0119     42.8354
   869.3000      8.0504      2.6190      0.0505      1.8807    147.6675     43.3021
   869.4000      8.0504      2.5979      0.0887      3.1583    149.5907     43.1154
   869.5000      7.9910      2.5589      0.0373      5.5219    144.2766     42.5056
   869.6000      7.9910      2.5330     -0.0106      7.0904    140.2045     42.2473
   869.7000      7.9910      2.5482     -0.0407      6.1721    139.8888     42.5753
   869.8000      7.9386      2.5851      0.0814      3.9338    142.0082     43.0128
   869.9000      7.9386      2.5984      0.0921      3.1285    143.9014     43.1816
   870.0000      7.9143      2.5978     -0.0732      3.1656    145.5034     43.1369
   870.1000      7.9143      2.6223      0.0738      1.6806    148.6416     42.9753
   870.2000      7.9143      2.6527      0.1430     -0.1654    150.4536     42.7153
   870.3000      7.8922      2.6552      0.1099     -0.3133    148.2845     42.4744
   870.4000      7.8922      2.6281      0.0760      1.3295    147.3970     42.3372
   870.5000      7.8998      2.5903      0.0363      3.6205    148.7789     42.4716
   870.6000      7.8998      2.5692      0.0894      4.8940    143.1371     42.8421
   870.7000      7.8998      2.5681      0.1152      4.9665    128.9378     43.1980
   870.8000      7.8959      2.5774      0.0719      4.3998    118.9118     43.4021
   870.9000      7.8959      2.5999      0.0889      3.0353    121.5845     43.3886
   871.0000      7.8986      2.6193      0.2114      1.8623    131.2193     43.0110
   871.1000      7.8986      2.6138      0.1625      2.1942    136.3716     42.2845
