~Version Information
VERS.                      2.0: CWLS Log ASCII Standard - VERSION 2.0
WRAP.                       NO: One line per depth step
~Well Information Block
STRT.FT               650.0000: 
STOP.FT              1999.0000: 
STEP.FT                 0.2500: 
NULL.                -999.2500: 
COMP.          Pioneer Natural Resources: COMPANY
WELL.           Firehawk 34-26: WELL
FLD.           Purgatoire River: FIELD
LOC.           1196' FSL & 1595' FEL--: LOCATION
STAT.                 Colorado: State
CNTY.               Las Animas: COUNTY
CTRY. USA : Country
SECT. 26 : Section
TOWN. 32S : Township
RANG. 66W : Range
SRVC.                Patterson: SERVICE COMPANY
DATE.          Sun Oct 16 16:57:28 2005: LOG DATE
API.           05 071 08389 00: UNIQUE WELL ID
~Curve Information Block
DEPT.FT            0 000 00 00: Depth
SN.Ohm-m                      : IEL Short Normal
SP.mV                         : IEL Spontaneous Potential
DIR.Ohm-m                     : IEL Induction Resistivity
GR.GAPI                       : Gamma Ray
~Parameter Information Block
~A  Depth        SN          SP         DIR          GR     
# ...
  1789.0000     17.0589     96.3068     16.2052    109.1428
  1789.2500     17.9363     95.8427     16.4667    111.5314
  1789.5000     18.7769     95.0621     16.7125    112.2911
  1789.7500     19.3561     94.1162     16.9148    111.8007
  1790.0000     19.6008     93.2974     17.0519    111.3188
  1790.2500     19.5671     92.9284     17.1134    111.7873
  1790.5000     19.3758     93.2049     17.1019    113.8261
  1790.7500     19.1409     94.0995     17.0300    115.6485
  1791.0000     18.9263     95.3709     16.9160    117.7740
  1791.2500     18.7511     96.6411     16.7773    118.1903
  1791.5000     18.6207     97.5099     16.6261    117.4538
  1791.7500     18.5374     97.7053     16.4663    116.7533
  1792.0000     18.4943     97.2348     16.2957    116.4250
  1792.2500     18.4697     96.4246     16.1090    116.5281
  1792.5000     18.4259     95.7429     15.9014    115.7978
  1792.7500     18.3299     95.4796     15.6694    114.1806
  1793.0000     18.1874     95.5448     15.4123    110.8616
  1793.2500     18.0413     95.5739     15.1359    109.2643
  1793.5000     17.9431     95.2483     14.8561    109.4819
  1793.7500     17.9341     94.5480     14.5961    111.3671
  1794.0000     18.0177     93.7320     14.3804    114.9286
  1794.2500     18.1437     93.1084     14.2260    116.3233
  1794.5000     18.2407     92.8227     14.1402    115.6911
  1794.7500     18.2654     92.8165     14.1218    113.8374
  1795.0000     18.2223     92.9225     14.1656    110.4411
  1795.2500     18.1679     92.9881     14.2663    108.4151
  1795.5000     18.2150     92.9504     14.4210    106.0279
  1795.7500     18.5068     92.8364     14.6299    104.8167
  1796.0000     19.1465     92.7064     14.8959    103.4669
  1796.2500     20.1347     92.5850     15.2228    102.7604
  1796.5000     21.3588     92.4272     15.6109    101.6500
  1796.7500     22.6289     92.1302     16.0533    100.8567
  1797.0000     23.7534     91.5677     16.5341    100.1526
  1797.2500     24.6404     90.6163     17.0326    100.2815
  1797.5000     25.3582     89.1986     17.5313    100.8264
  1797.7500     26.1059     87.3840     18.0237    100.6783
  1798.0000     27.1052     85.4831     18.5182     98.9810
  1798.2500     28.4675     83.9817     19.0366     97.2557
  1798.5000     30.0915     83.2863     19.6055     95.3411
  1798.7500     31.6637     83.4952     20.2413     95.1789
  1799.0000     32.8319     84.3984     20.9327     96.0850
  1799.2500     33.4495     85.6588     21.6310     96.1280
  1799.5000     33.6269     86.9809     22.2541     92.4976
  1799.7500     33.5655     88.1772     22.7031     86.6244
  1800.0000     33.4458     89.1702     22.8886     73.6263
  1800.2500     33.4619     89.9731     22.7589     64.2943
  1800.5000     33.8050     90.6599     22.3214     53.6990
  1800.7500     34.5250     91.3281     21.6422     50.6418
  1801.0000     35.4299     92.0564     20.8200     52.6579
  1801.2500     36.0732     92.8715     19.9510     57.7190
  1801.5000     35.8529     93.7415     19.1031     68.9990
  1801.7500     34.3605     94.6028     18.3092     77.7243
  1802.0000     31.7443     95.3940     17.5744     90.2453
  1802.2500     28.5978     96.0730     16.8874     96.7612
  1802.5000     25.4730     96.6211     16.2321    101.8752
  1802.7500     22.6083     97.0492     15.5951    102.0432
  1803.0000     20.0593     97.3913     14.9710     99.4500
  1803.2500     17.9006     97.6714     14.3657     97.6616
  1803.5000     16.2402     97.8743     13.7942     97.0121
  1803.7500     15.1224     97.9644     13.2739     98.0277
  1804.0000     14.4989     97.9508     12.8155    100.7288
  1804.2500     14.2596     97.9365     12.4197    102.7457
  1804.5000     14.2450     98.0888     12.0792    105.5759
  1804.7500     14.2787     98.5226     11.7855    107.1272
  1805.0000     14.2575     99.1822     11.5333    108.5227
  1805.2500     14.2038     99.8394     11.3213    108.6841
  1805.5000     14.2050    100.2354     11.1515    108.0440
  1805.7500     14.3096    100.2481     11.0261    107.4093
  1806.0000     14.4861     99.9468     10.9469    106.6413
  1806.2500     14.6608     99.5097     10.9141    106.2647
  1806.5000     14.7793     99.0981     10.9268    105.4550
  1806.7500     14.8374     98.7878     10.9835    104.3678
  1807.0000     14.8660     98.5811     11.0821    101.5397
  1807.2500     14.8999     98.4514     11.2188     99.0159
  1807.5000     14.9573     98.3750     11.3863     95.0777
  1807.7500     15.0302     98.3373     11.5721     92.8630
  1808.0000     15.0966     98.3279     11.7591     90.7215
  1808.2500     15.1490     98.3367     11.9288     90.1228
  1808.5000     15.2063     98.3569     12.0667     90.0398
  1808.7500     15.2905     98.3898     12.1671     90.1831
  1809.0000     15.4022     98.4419     12.2340     90.6224
  1809.2500     15.5283     98.5149     12.2764     91.4927
  1809.5000     15.6590     98.5992     12.3024     94.6534
  1809.7500     15.7791     98.6764     12.3158     98.2143
  1810.0000     15.8537     98.7290     12.3173    105.2324
  1810.2500     15.8479     98.7510     12.3082    110.5810
  1810.5000     15.7622     98.7506     12.2926    119.2797
  1810.7500     15.6339     98.7451     12.2768    125.5217
  1811.0000     15.4920     98.7551     12.2675    135.1075
  1811.2500     15.3369     98.8019     12.2693    140.9514
  1811.5000     15.1772     98.9006     12.2830    147.4112
  1811.7500     15.0464     99.0451     12.3072    149.5118
  1812.0000     14.9762     99.1943     12.3389    148.8978
  1812.2500     14.9794     99.2866     12.3742    146.1890
  1812.5000     15.0507     99.2825     12.4094    139.9352
  1812.7500     15.1721     99.1937     12.4436    135.3423
  1813.0000     15.3289     99.0638     12.4816    129.0281
  1813.2500     15.5098     98.9180     12.5343    125.1594
  1813.5000     15.6921     98.7309     12.6144    118.9502
  1813.7500     15.8562     98.4378     12.7322    114.1217
  1814.0000     16.0113     97.9731     12.8912    106.0133
  1814.2500     16.1861     97.3108     13.0877    100.6308
  1814.5000     16.4135     96.5039     13.3116     93.8598
  1814.7500     16.7281     95.7192     13.5497     90.6640
  1815.0000     17.1393     95.2289     13.7894     87.8674
  1815.2500     17.5902     95.3030     14.0212     87.1329
  1815.5000     17.9745     96.0073     14.2396     87.4704
  1815.7500     18.2123     97.0411     14.4417     88.5483
  1816.0000     18.2934     97.8021     14.6242     91.1129
  1816.2500     18.2496     97.7179     14.7810     93.1533
  1816.5000     18.1140     96.6249     14.9020     96.1501
  1816.7500     17.9037     94.8959     14.9768     97.7543
  1817.0000     17.6213     93.2288     14.9995     98.8333
  1817.2500     17.2720     92.2794     14.9728     98.3328
  1817.5000     16.8907     92.3626     14.9073     95.9316
  1817.7500     16.5490     93.3314     14.8169     93.8346
  1818.0000     16.3169     94.6464     14.7134     91.3465
  1818.2500     16.2121     95.6265     14.6064     90.8935
  1818.5000     16.1957     95.7892     14.5050     92.8044
  1818.7500     16.2159     95.0771     14.4213     95.5728
  1819.0000     16.2445     93.8041     14.3686    100.1625
  1819.2500     16.2831     92.4010     14.3572    102.2843
  1819.5000     16.3523     91.1994     14.3883    103.2234
  1819.7500     16.4639     90.3629     14.4532    102.6758
  1820.0000     16.6032     89.8982     14.5390    100.8822
  1820.2500     16.7532     89.6937     14.6362     99.2367
  1820.5000     16.9183     89.5928     14.7450     96.1919
  1820.7500     17.1193     89.4745     14.8739     93.8693
  1821.0000     17.3742     89.2933     15.0308     90.1312
  1821.2500     17.6863     89.0639     15.2155     87.5489
  1821.5000     18.0445     88.8214     15.4174     83.7441
  1821.7500     18.4247     88.5890     15.6236     81.4486
  1822.0000     18.7915     88.3746     15.8271     78.5855
  1822.2500     19.1104     88.1788     16.0292     76.9897
