~Version Information
VERS.                      2.0: CWLS Log ASCII Standard - VERSION 2.0
WRAP.                       NO: One line per depth step
~Well Information Block
STRT.FT               482.2000: 
STOP.FT              2349.0000: 
STEP.FT                 0.1000: 
NULL.                -999.2500: 
COMP.          Pioneer Natural Resources: COMPANY
WELL.          Hill Climb 22-2: WELL
FLD.           Purgatoire River: FIELD
LOC.           1820' FNL & 2193' FWL: LOCATION
PROV.                 Colorado: PROVINCE
CNTY.               Las Animas: COUNTRY
SRVC.                Patterson: SERVICE COMPANY
DATE.          Wed Oct 20 09:25:25 2004: LOG DATE
UWI.           05 071 08175 00: UNIQUE WELL ID
~Curve Information Block
DEPT.FT            0 000 00 00: Depth
DCAL.in                       : CDL Caliper
DPOR.pu                       : CDL Density Porosity
NPOR.pu                       : Neutron Porosity
RHOB.g/cc                     : CDL Bulk Density
RHOC.g/cc                     : CDL Density Correction
GR.GAPI                       : Gamma Ray
~Parameter Information Block
~A  Depth       DCAL        DPOR        NPOR        RHOB        RHOC         GR     
# ...
   597.4000      7.9721     11.9452     23.2222      2.4529      0.0370     91.3126
   597.5000      7.9725     13.0914     23.9755      2.4340     -0.0101    102.7782
   597.6000      7.9725     13.4077     24.5701      2.4288      0.0108    111.4110
   597.7000      7.9725     12.7308     24.5565      2.4399     -0.0006    114.0211
   597.8000      7.9735     11.7674     24.1797      2.4558      0.0023    108.4564
   597.9000      7.9735     11.1730     23.8463      2.4656     -0.0029     97.6795
   598.0000      7.9734     11.0756     23.6082      2.4673     -0.0286     87.9738
   598.1000      7.9734     11.1103     23.2879      2.4667      0.0114     83.9357
   598.2000      7.9734     10.6480     22.8945      2.4743      0.0130     87.4856
   598.3000      7.9732      9.1512     22.7687      2.4990      0.0308     89.6905
   598.4000      7.9732      7.3166     22.9070      2.5293      0.0884     83.7869
   598.5000      7.9734      6.7372     22.9753      2.5388      0.1030     78.9507
   598.6000      7.9734      7.6218     22.8253      2.5242      0.0350     82.5116
   598.7000      7.9734      8.9017     22.5080      2.5031      0.0633     87.2540
   598.8000      7.9767     10.0156     22.1663      2.4847      0.0144     83.7725
   598.9000      7.9767     10.8252     21.8425      2.4714      0.0322     71.8863
   599.0000      7.9851     11.6813     21.2404      2.4573      0.0340     59.7814
   599.1000      7.9851     12.9288     20.1804      2.4367      0.0125     56.2761
   599.2000      7.9851     14.0543     18.9578      2.4181      0.0108     62.9637
   599.3000      7.9939     14.6204     17.9279      2.4088     -0.0039     71.6452
   599.4000      7.9939     14.8296     17.0802      2.4053      0.0161     74.5268
   599.5000      8.0002     14.7725     16.4269      2.4063     -0.0339     72.8760
   599.6000      8.0002     14.3573     16.1140      2.4131      0.0176     68.6495
   599.7000      8.0002     14.0905     15.9215      2.4175      0.0341     63.1493
   599.8000      8.0058     14.2650     15.4944      2.4146      0.0176     58.0152
   599.9000      8.0058     14.3838     14.9971      2.4127      0.0011     53.0306
   600.0000      8.0080     14.2508     14.8010      2.4149      0.0173     48.3715
   600.1000      8.0080     14.1580     14.9479      2.4164      0.0452     46.6423
   600.2000      8.0080     14.2825     15.2599      2.4143      0.0267     48.7199
   600.3000      8.0052     14.6466     15.4734      2.4083      0.0436     52.8880
   600.4000      8.0052     15.1544     15.2517      2.4000     -0.0082     56.9594
   600.5000      8.0003     15.5485     14.9267      2.3935      0.0026     57.6518
   600.6000      8.0003     15.5848     15.1802      2.3929     -0.0198     55.7129
   600.7000      8.0003     15.4690     15.8198      2.3948     -0.0057     54.2198
   600.8000      7.9936     15.9243     16.3736      2.3872      0.0165     53.8565
   600.9000      7.9936     16.9334     16.7534      2.3706     -0.0080     56.0050
   601.0000      7.9854     17.5699     16.9870      2.3601     -0.0093     62.5726
   601.1000      7.9854     17.7387     17.3423      2.3573     -0.0237     66.3583
   601.2000      7.9854     18.2466     18.1706      2.3489      0.0041     62.1826
   601.3000      7.9788     19.2782     19.4563      2.3319      0.0120     58.6494
   601.4000      7.9788     20.2201     20.7075      2.3164     -0.0047     61.1018
   601.5000      7.9751     20.8236     21.5862      2.3064      0.0008     64.3684
   601.6000      7.9751     21.5596     22.2207      2.2943     -0.0291     66.3316
   601.7000      7.9751     22.6710     22.7265      2.2759      0.0074     72.3619
   601.8000      7.9739     23.8314     23.0575      2.2568      0.0253     82.8248
   601.9000      7.9739     24.9055     23.0720      2.2391      0.0465     92.6488
   602.0000      7.9791     26.9601     22.6411      2.2052      0.0795    101.8673
   602.1000      7.9791     31.4425     21.8828      2.1312      0.0811    110.6404
   602.2000      7.9791     37.7844     21.1771      2.0266      0.0508    119.6501
   602.3000      8.0032     43.2197     20.8627      1.9369      0.1316    130.6811
   602.4000      8.0032     45.7122     21.0229      1.8957      0.1305    140.0899
   602.5000      8.0921     44.7728     21.4639      1.9112      0.0834    143.4090
   602.6000      8.0921     40.1194     21.8862      1.9880      0.1892    140.6444
   602.7000      8.0921     32.5271     22.4019      2.1133      0.3820    137.8341
   602.8000      8.2750     24.8237     23.4514      2.2404      0.5015    142.5634
   602.9000      8.2750     19.6190     24.9382      2.3263      0.4793    151.6652
   603.0000      8.4547     17.0120     26.1967      2.3693      0.4144    158.3180
   603.1000      8.4547     16.2491     26.7755      2.3819      0.4181    158.4234
   603.2000      8.4547     17.2497     26.6139      2.3654      0.3253    153.4744
   603.3000      8.5152     19.6444     25.9074      2.3259      0.2217    151.3607
   603.4000      8.5152     22.8314     24.7773      2.2733      0.1299    155.1284
   603.5000      8.4548     26.3128     23.1588      2.2158      0.0760    159.9389
   603.6000      8.4548     29.3451     21.4434      2.1658      0.0729    159.8086
   603.7000      8.4548     31.9777     20.2749      2.1224      0.1267    147.0419
   603.8000      8.3613     35.9256     19.6464      2.0572      0.1287    128.2357
   603.9000      8.3613     42.8600     19.0470      1.9428      0.1453    122.0969
   604.0000      8.3264     51.7337     18.2645      1.7964      0.0688    126.3711
   604.1000      8.3264     58.6422     17.4868      1.6824      0.1641    124.0649
   604.2000      8.3264     60.7298     17.0940      1.6480      0.2606    116.6005
   604.3000      8.4908     58.4116     17.2385      1.6862      0.3446    118.5431
   604.4000      8.4908     53.6645     17.7426      1.7645      0.3992    122.3256
   604.5000      8.9211     48.0044     18.5451      1.8579      0.4723    107.8266
   604.6000      8.9211     42.1172     19.5589      1.9551      0.5705     86.3358
   604.7000      8.9211     36.6563     20.6075      2.0452      0.6235     83.6812
   604.8000      9.3955     32.1992     21.7093      2.1187      0.6036     98.9519
   604.9000      9.3955     28.5540     22.8433      2.1789      0.5798    111.8513
   605.0000      9.5904     24.8189     23.8260      2.2405      0.5608    113.4674
   605.1000      9.5904     19.9849     24.5698      2.3202      0.5834    112.9304
   605.2000      9.5904     13.6945     25.0566      2.4240      0.5914    122.1372
   605.3000      9.4237      6.5314     25.4008      2.5422      0.6145    134.4108
   605.4000      9.4237     -0.0846     25.9392      2.6514      0.5935    135.5730
   605.5000      9.1484     -4.6404     26.6897      2.7266      0.5709    126.5002
   605.6000      9.1484     -6.5046     27.2764      2.7573      0.5472    117.1336
   605.7000      9.1484     -6.0128     27.5061      2.7492      0.5201    115.4559
   605.8000      8.9785     -4.1629     27.4391      2.7187      0.4651    121.7509
   605.9000      8.9785     -2.0498     27.3934      2.6838      0.4073    127.2757
   606.0000      8.7496     -0.2207     27.4966      2.6536      0.3388    127.2999
   606.1000      8.7496      1.2332     27.4242      2.6297      0.2569    125.7029
   606.2000      8.7496      2.3808     27.4369      2.6107      0.2066    129.8633
   606.3000      8.4326      3.4967     27.9473      2.5923      0.1559    139.7048
   606.4000      8.4326      4.5388     28.3193      2.5751      0.0569    141.7390
   606.5000      8.2348      5.1482     28.0534      2.5651      0.0355    134.0636
   606.6000      8.2348      5.4844     27.5586      2.5595      0.0436    129.6906
   606.7000      8.2348      5.6818     27.2434      2.5563      0.0316    132.7136
   606.8000      8.1539      5.6389     27.0587      2.5570      0.0829    137.2192
   606.9000      8.1539      5.9617     26.7002      2.5516      0.1308    135.9823
