~Version Information
VERS.                      2.0: CWLS Log ASCII Standard - VERSION 2.0
WRAP.                       NO: One line per depth step
~Well Information Block
STRT.FT               546.0000: 
STOP.FT              1771.5000: 
STEP.FT                 0.1000: 
NULL.                -999.2500: 
COMP.          Petrogulf Corporation: COMPANY
WELL.             McLeod 9-42R: WELL
FLD.           Purgatorie River: FIELD
LOC.           1748' FNL & 372' FEL: LOCATION
PROV.                 Colorado: PROVINCE
CNTY.               Las Animas: COUNTRY
SRVC.                Patterson: SERVICE COMPANY
DATE.          Tue Aug 16 11:11:38 2005: LOG DATE
UWI.                071 08092 : UNIQUE WELL ID
~Curve Information Block
DEPT.FT            0 000 00 00: Depth
DCAL.in                       : CDL Caliper
RHOB.g/cc                     : CDL Bulk Density
RHOC.g/cc                     : CDL Density Correction
DPOR.pu                       : CDL Density Porosity
GR.GAPI                       : Gamma Ray
NPOR.pu                       : Neutron Porosity
~Parameter Information Block
~A  Depth       DCAL        RHOB        RHOC        DPOR         GR         NPOR    
# ...
  1410.0000      8.1025      2.4508      0.0665     12.0756     55.4144     22.4301
  1410.1000      8.1025      2.4459      0.0748     12.3710     59.4071     22.9932
  1410.2000      8.1025      2.4408      0.0622     12.6768     64.5172     23.1897
  1410.3000      8.1446      2.4452      0.0489     12.4142     69.8092     22.5554
  1410.4000      8.1446      2.4612      0.0990     11.4398     73.7166     21.7836
  1410.5000      8.1481      2.4829      0.0634     10.1256     75.4237     21.7863
  1410.6000      8.1481      2.5014      0.1194      9.0066     77.1786     22.3587
  1410.7000      8.1481      2.5091      0.1108      8.5367     79.4569     22.3776
  1410.8000      8.1400      2.5124      0.0757      8.3413     80.8755     21.6655
  1410.9000      8.1400      2.5168      0.1250      8.0735     83.2596     21.4804
  1411.0000      8.1118      2.5175      0.0839      8.0286     86.7720     22.5361
  1411.1000      8.1118      2.5140      0.0557      8.2451     88.6724     23.5914
  1411.2000      8.1118      2.5111      0.0842      8.4192     88.9445     23.2475
  1411.3000      8.0477      2.5144      0.0448      8.2189     89.2918     22.2715
  1411.4000      8.0477      2.5220      0.0841      7.7604     89.7217     21.8490
  1411.5000      8.0045      2.5209      0.0852      7.8247     87.9634     22.0049
  1411.6000      8.0045      2.5090      0.0325      8.5428     82.3866     22.2551
  1411.7000      8.0045      2.5003      0.0302      9.0729     75.5370     22.3498
  1411.8000      7.9432      2.5014      0.0424      9.0031     71.9221     22.2462
  1411.9000      7.9432      2.5097      0.0496      8.5003     71.8418     21.9295
  1412.0000      7.9378      2.5226      0.0372      7.7226     72.9613     21.5391
  1412.1000      7.9378      2.5357      0.0786      6.9291     75.6148     21.4673
  1412.2000      7.9378      2.5479      0.0432      6.1891     79.7615     21.9076
  1412.3000      7.9478      2.5662      0.0442      5.0783     83.7548     22.3793
  1412.4000      7.9478      2.5894      0.0865      3.6737     88.2967     22.4672
  1412.5000      7.9633      2.6040      0.1157      2.7896     95.6711     22.5546
  1412.6000      7.9633      2.6029      0.0773      2.8521    105.7305     23.0898
  1412.7000      7.9633      2.5926      0.0591      3.4776    114.5010     23.6920
  1412.8000      7.9645      2.5852      0.0542      3.9244    119.5544     23.9727
  1412.9000      7.9645      2.5879      0.0695      3.7655    124.4954     24.1854
  1413.0000      7.9609      2.5942      0.1005      3.3840    132.0638     24.5223
  1413.1000      7.9609      2.5894      0.1037      3.6712    138.8094     24.8861
  1413.2000      7.9609      2.5636      0.1107      5.2365    140.3566     25.2334
  1413.3000      7.9748      2.5245      0.0746      7.6039    137.7267     25.9158
  1413.4000      7.9748      2.4933      0.0586      9.4972    135.7113     26.9320
  1413.5000      7.9954      2.4792      0.0792     10.3541    136.2960     27.7270
  1413.6000      7.9954      2.4740      0.0919     10.6643    137.8802     27.9779
  1413.7000      7.9954      2.4719      0.0314     10.7931    139.8361     27.8400
  1413.8000      7.9840      2.4733      0.0704     10.7097    140.8536     27.7886
  1413.9000      7.9840      2.4767      0.0696     10.5004    139.1709     27.9675
  1414.0000      7.9822      2.4783      0.0809     10.4045    136.4200     28.0895
  1414.1000      7.9822      2.4737      0.0702     10.6873    133.9303     28.3681
  1414.2000      7.9822      2.4650      0.0684     11.2145    132.8794     29.3141
  1414.3000      7.9781      2.4620      0.0625     11.3954    135.2322     30.3637
  1414.4000      7.9781      2.4738      0.0301     10.6789    137.8479     30.6708
  1414.5000      8.0108      2.4976      0.0802      9.2338    137.4661     30.3900
  1414.6000      8.0108      2.5225      0.0635      7.7287    137.7971     30.0940
  1414.7000      8.0108      2.5420      0.0695      6.5458    141.0337     30.0013
  1414.8000      7.9944      2.5519      0.1053      5.9471    144.5516     29.8762
  1414.9000      7.9944      2.5504      0.0775      6.0336    145.4400     29.5368
  1415.0000      7.9886      2.5447      0.1046      6.3840    142.5098     29.2372
  1415.1000      7.9886      2.5432      0.0738      6.4741    138.8226     29.3519
  1415.2000      7.9886      2.5459      0.0923      6.3109    136.6358     29.5807
  1415.3000      7.9861      2.5429      0.0731      6.4939    134.7104     29.4139
  1415.4000      7.9861      2.5315      0.0310      7.1826    132.0037     28.7212
  1415.5000      7.9886      2.5177      0.0723      8.0190    128.2358     27.6388
  1415.6000      7.9886      2.5041      0.0701      8.8435    123.4806     26.9249
  1415.7000      7.9886      2.4978      0.0381      9.2234    119.0802     27.4252
  1415.8000      7.9763      2.5092      0.0441      8.5318    115.3493     28.5486
  1415.9000      7.9763      2.5365      0.0784      6.8762    111.5850     28.8799
  1416.0000      7.9389      2.5724      0.1034      4.7017    108.7936     28.0355
  1416.1000      7.9389      2.6123      0.1334      2.2835    107.2358     26.8271
  1416.2000      7.9389      2.6435      0.1715      0.3920    104.3252     25.9276
  1416.3000      7.9333      2.6520      0.1498     -0.1220     99.5245     25.1026
  1416.4000      7.9333      2.6388      0.1673      0.6797     96.0835     24.4100
  1416.5000      7.9085      2.6151      0.1285      2.1152     94.8354     24.5557
  1416.6000      7.9085      2.5902      0.1013      3.6218     93.8969     25.3030
  1416.7000      7.9085      2.5682      0.0611      4.9594     92.6533     25.5530
  1416.8000      7.9006      2.5522      0.0310      5.9271     92.3241     25.0086
  1416.9000      7.9006      2.5379      0.0381      6.7919     93.6051     24.4363
  1417.0000      7.9490      2.5152      0.0488      8.1691     96.2994     24.3081
  1417.1000      7.9490      2.4876      0.0472      9.8408    100.5417     24.6043
  1417.2000      7.9490      2.4666      0.0874     11.1157    105.9431     25.4978
  1417.3000      7.9432      2.4513      0.0600     12.0395    111.5797     26.7715
  1417.4000      7.9432      2.4361      0.0923     12.9659    116.1335     27.7780
  1417.5000      7.9816      2.4186      0.0729     14.0266    119.0466     28.3752
  1417.6000      7.9816      2.4013      0.0532     15.0700    121.5184     28.6544
  1417.7000      7.9816      2.3884      0.0659     15.8570    122.9671     28.6492
  1417.8000      7.9918      2.3793      0.0575     16.4048    122.5065     28.5895
  1417.9000      7.9918      2.3755      0.0326     16.6363    122.6281     28.5320
  1418.0000      8.0176      2.3810      0.0515     16.3001    123.5779     28.2391
  1418.1000      8.0176      2.3954      0.0265     15.4297    121.7331     27.7374
  1418.2000      8.0176      2.4122      0.0895     14.4091    117.3068     27.3498
  1418.3000      8.0262      2.4239      0.0894     13.7005    116.0193     27.5386
  1418.4000      8.0262      2.4246      0.1215     13.6602    119.3923     28.4768
  1418.5000      8.0301      2.4137      0.0518     14.3186    122.3404     29.6223
  1418.6000      8.0301      2.4052      0.0342     14.8382    121.0303     30.1509
  1418.7000      8.0301      2.4140      0.0777     14.3042    116.2785     29.7671
  1418.8000      8.0530      2.4397      0.0859     12.7435    111.6087     28.9667
  1418.9000      8.0530      2.4760      0.0900     10.5462    108.4221     28.6062
  1419.0000      8.0538      2.5117      0.1480      8.3819    106.2963     28.8215
  1419.1000      8.0538      2.5318      0.1517      7.1635    105.8849     29.1470
  1419.2000      8.0538      2.5384      0.0799      6.7656    106.0623     29.0498
  1419.3000      8.0687      2.5458      0.1030      6.3123    104.9788     28.1787
  1419.4000      8.0687      2.5578      0.0690      5.5905    103.8591     27.2298
  1419.5000      8.0278      2.5663      0.1304      5.0732    103.8914     26.8707
