~Version Information
VERS.                      2.0: CWLS Log ASCII Standard - VERSION 2.0
WRAP.                       NO: One line per depth step
~Well Information Block
STRT.FT               825.0000: 
STOP.FT              2446.5000: 
STEP.FT                 0.2500: 
NULL.                -999.2500: 
COMP.          Petrogulf Corporation: COMPANY
WELL.            Kraft 17-23 V: WELL
FLD.           Purgatorie River: FIELD
LOC.           1500' FSL & 1773' FWL: LOCATION
CNTY.               Las Animas: COUNTY
SRVC.                         : SERVICE COMPANY
DATE.          Thu Nov 20 06:35:41 2003: LOG DATE
UWI.                          : UNIQUE WELL ID
STAT.                 Colorado: STATE
~Curve Information Block
DEPT.FT            0 000 00 00: Depth
SN.Ohm-m                      : IEL Short Normal
SP.mV                         : IEL Spontaneous Potential
DIR.Ohm-m                     : IEL Induction Resistivity
GR.GAPI                       : Gamma Ray
~Parameter Information Block
~A  Depth        SN          SP         DIR          GR     
# ...
  1562.0000     12.2894    -41.4146     11.8858    131.4021
  1562.2500     12.4962    -41.6906     11.0080    136.7656
  1562.5000     12.6237    -41.8646     10.2158    141.8793
  1562.7500     12.1328    -42.0595      9.5406    143.9468
  1563.0000     11.3426    -42.6133      8.9891    145.4501
  1563.2500     10.8659    -43.7345      8.5530    145.1708
  1563.5000     10.8483    -45.2362      8.2122    142.7512
  1563.7500     10.9706    -46.6670      7.9365    140.4577
  1564.0000     10.9701    -47.6515      7.6937    137.7384
  1564.2500     11.0855    -48.0695      7.4599    136.9954
  1564.5000     11.8092    -48.0205      7.2288    137.1730
  1564.7500     12.9468    -47.7378      7.0096    137.6226
  1565.0000     13.3284    -47.5126      6.8154    138.4891
  1565.2500     12.3037    -47.5646      6.6510    139.5518
  1565.5000     10.7363    -47.8884      6.5095    142.3063
  1565.7500      9.5797    -48.2476      6.3775    144.3564
  1566.0000      8.8254    -48.3604      6.2461    145.8505
  1566.2500      8.3671    -48.0824      6.1180    145.2186
  1566.5000      8.4487    -47.4122      6.0063    142.7691
  1566.7500      8.8125    -46.4189      5.9254    141.2681
  1567.0000      8.7621    -45.2634      5.8837    140.4978
  1567.2500      8.2922    -44.2454      5.8811    140.8722
  1567.5000      7.9094    -43.6869      5.9118    141.3139
  1567.7500      7.7941    -43.6930      5.9697    140.5042
  1568.0000      7.8722    -44.0443      6.0507    136.9606
  1568.2500      8.1251    -44.3607      6.1544    133.6605
  1568.5000      8.5325    -44.3802      6.2830    129.4896
  1568.7500      8.9992    -44.0870      6.4416    128.3375
  1569.0000      9.4763    -43.5844      6.6382    129.2728
  1569.2500      9.8808    -42.9201      6.8817    130.7353
  1569.5000      9.9370    -42.1306      7.1782    132.0369
  1569.7500      9.5289    -41.4366      7.5244    131.6225
  1570.0000      9.0522    -41.2041      7.9032    129.5098
  1570.2500      9.0014    -41.6155      8.2825    127.9435
  1570.5000      9.4728    -42.5117      8.6252    126.4871
  1570.7500     10.2999    -43.6472      8.9046    126.0760
  1571.0000     11.3712    -44.9518      9.1187    125.3061
  1571.2500     12.7120    -46.4472      9.2871    124.1993
  1571.5000     14.3566    -48.0441      9.4351    121.7277
  1571.7500     16.1218    -49.5280      9.5755    119.8561
  1572.0000     17.5348    -50.6787      9.7015    116.7532
  1572.2500     18.1515    -51.3444      9.7956    114.1239
  1572.5000     18.0409    -51.4520      9.8465    108.8779
  1572.7500     17.7417    -51.0225      9.8614    104.9256
  1573.0000     17.5880    -50.2255      9.8631    100.4212
  1573.2500     17.3595    -49.4174      9.8735     99.8027
  1573.5000     16.7209    -49.0005      9.8975    103.4507
  1573.7500     15.6877    -49.1011      9.9179    108.1306
  1574.0000     14.4945    -49.4061      9.9049    115.7993
  1574.2500     13.3041    -49.4142      9.8350    120.2170
  1574.5000     12.3239    -48.8197      9.7061    126.0320
  1574.7500     11.8982    -47.6189      9.5383    130.1431
  1575.0000     12.0596    -45.9577      9.3600    136.6698
  1575.2500     12.3449    -43.9896      9.1947    140.0928
  1575.5000     12.4601    -41.8474      9.0547    141.6761
  1575.7500     12.5535    -39.6662      8.9432    140.1674
  1576.0000     12.6928    -37.5838      8.8606    135.5167
  1576.2500     12.7881    -35.7017      8.8083    131.8505
  1576.5000     12.9106    -34.0342      8.7881    126.5715
  1576.7500     13.1759    -32.5017      8.7997    123.5116
  1577.0000     13.5763    -30.9766      8.8390    119.9197
  1577.2500     14.1763    -29.3337      8.8975    118.1127
  1577.5000     14.9640    -27.4769      8.9646    115.5244
  1577.7500     15.3926    -25.3889      9.0303    113.3924
  1578.0000     14.9312    -23.2207      9.0877    109.7280
  1578.2500     13.9324    -21.2781      9.1340    107.7742
  1578.5000     13.1088    -19.8041      9.1712    106.9724
  1578.7500     12.6645    -18.7793      9.2043    107.8988
  1579.0000     12.3641    -17.9896      9.2406    110.3919
  1579.2500     11.9621    -17.2430      9.2892    112.2886
  1579.5000     11.5033    -16.4919      9.3600    115.4853
  1579.7500     11.3792    -15.8228      9.4642    117.8801
  1580.0000     11.8617    -15.3758      9.6125    121.3247
  1580.2500     12.6874    -15.2363      9.8148    123.1444
  1580.5000     13.4844    -15.4014     10.0805    124.9072
  1580.7500     14.2825    -15.8423     10.4189    125.2880
  1581.0000     15.3617    -16.5125     10.8396    124.1090
  1581.2500     16.8290    -17.2360     11.3551    122.0029
  1581.5000     18.3246    -17.6695     11.9836    117.4341
  1581.7500     19.3879    -17.5064     12.7543    113.9699
  1582.0000     20.3090    -16.7597     13.7095    108.5390
  1582.2500     21.9042    -15.7950     14.9015    104.6897
  1582.5000     24.3417    -15.0577     16.3800     98.3816
  1582.7500     27.0257    -14.7782     18.1752     93.8657
  1583.0000     29.6405    -14.8955     20.2713     87.1367
  1583.2500     32.3768    -15.1582     22.5716     83.1012
  1583.5000     35.0939    -15.2727     24.8644     78.0035
  1583.7500     37.2687    -15.0564     26.8360     74.9801
  1584.0000     38.7847    -14.5481     28.1903     70.3932
  1584.2500     40.0874    -13.9658     28.8361     67.2574
  1584.5000     41.5559    -13.5172     28.9477     62.9040
  1584.7500     43.1152    -13.2721     28.8167     60.5482
  1585.0000     44.5072    -13.2285     28.6505     58.1971
  1585.2500     45.5119    -13.4247     28.4846     57.5572
  1585.5000     45.8326    -13.9186     28.2413     58.0239
  1585.7500     45.3487    -14.6990     27.8567     59.0589
  1586.0000     44.4797    -15.6715     27.3815     60.8963
  1586.2500     43.8099    -16.7208     26.9627     61.8336
  1586.5000     43.4562    -17.7690     26.7484     62.4915
  1586.7500     43.0830    -18.7918     26.7823     62.5534
  1587.0000     42.4891    -19.8156     26.9623     62.3508
  1587.2500     41.9079    -20.9146     27.0756     62.0574
  1587.5000     41.6489    -22.1824     26.9046     61.4095
  1587.7500     41.7151    -23.6588     26.3726     60.8893
  1588.0000     41.7981    -25.2722     25.5763     59.9049
  1588.2500     41.4885    -26.8911     24.6825     58.9940
  1588.5000     40.6141    -28.4342     23.7911     57.4369
  1588.7500     39.3331    -29.8764     22.8831     56.7542
  1589.0000     37.7694    -31.1501     21.8702     57.2007
  1589.2500     35.8243    -32.1318     20.6870     58.6524
  1589.5000     33.5356    -32.7748     19.3523     62.0334
  1589.7500     31.2364    -33.1905     17.9569     64.6463
  1590.0000     29.1468    -33.5413     16.6033     68.8512
  1590.2500     27.1620    -33.8889     15.3593     72.0596
  1590.5000     25.1354    -34.1827     14.2534     78.0178
  1590.7500     23.0877    -34.3644     13.2945     82.8958
  1591.0000     21.0710    -34.4537     12.4927     91.2109
  1591.2500     19.2145    -34.5480     11.8652     96.8313
  1591.5000     17.9475    -34.7609     11.4287    104.1917
  1591.7500     17.5335    -35.1590     11.1856    108.0064
  1592.0000     17.5238    -35.7192     11.1155    112.3024
  1592.2500     17.3344    -36.3246     11.1734    114.6174
  1592.5000     16.9690    -36.8187     11.2994    117.8713
  1592.7500     16.6986    -37.1014     11.4390    120.0691
  1593.0000     16.3667    -37.1868     11.5643    123.1737
  1593.2500     15.3766    -37.1854     11.6845    124.5732
  1593.5000     13.5526    -37.2431     11.8359    124.5243
  1593.7500     11.9705    -37.4883     12.0653    122.8862
  1594.0000     12.2050    -38.0050     12.4142    119.0215
  1594.2500     14.3743    -38.8270     12.9126    116.3282
  1594.5000     16.8895    -39.9533     13.5800    112.5873
  1594.7500     18.4024    -41.3785     14.4331    109.9101
  1595.0000     19.0005    -43.1057     15.4957    104.8556
  1595.2500     19.6025    -45.0986     16.7993    100.7981
