~Version Information
VERS.                      2.0: CWLS Log ASCII Standard - VERSION 2.0
WRAP.                       NO: One line per depth step
~Well Information Block
STRT.FT                 5.5000: 
STOP.FT              1635.7500: 
STEP.FT                 0.2500: 
NULL.                -999.2500: 
COMP.          Pioneer Natural Resources: COMPANY
WELL.                Mead 11-9: WELL
FLD.           Purgatoire River: FIELD
LOC.           1127' FNL & 668' FWL: LOCATION
PROV.                 Colorado: PROVINCE
CNTY.               Las Animas: COUNTRY
SRVC.                Patterson: SERVICE COMPANY
DATE.          Wed Mar 02 13:48:38 2005: LOG DATE
UWI.           05 071 08160 00: UNIQUE WELL ID
~Curve Information Block
DEPT.FT            0 000 00 00: Depth
CCL.                          : Casing Collar Locator
TT3.usec                      : CBL 3' Travel Time
AMP3.mV                       : CBL 3' Amplitude
GR.GAPI                       : Gamma Ray
~Parameter Information Block
~A  Depth       CCL         TT3         AMP3         GR     
# ...
  1077.5000      0.0000    981.6778      3.9692    162.5576
  1077.7500      0.0000    987.8007      3.8180    165.0323
  1078.0000      0.0000    994.6172      3.6854    167.2181
  1078.2500      0.0000    999.5636      3.6120    167.4092
  1078.5000      0.0000    999.6280      3.5896    164.8965
  1078.7500      3.0000    995.6453      3.5873    160.6972
  1079.0000     -3.0000    991.0935      3.5905    156.7245
  1079.2500      0.0000    986.4685      3.6138    154.2679
  1079.5000      0.0000    976.3564      3.6850    153.5122
  1079.7500      0.0000    955.0092      3.8102    154.1512
  1080.0000      0.0000    925.1652      3.9457    155.6983
  1080.2500      0.0000    897.9775      4.0219    157.2876
  1080.5000      0.0000    884.0105      4.0159    157.7051
  1080.7500      0.0000    886.1689      3.9834    155.7400
  1081.0000      0.0000    899.2935      3.9965    150.8717
  1081.2500      0.0000    913.4230      4.0698    144.2508
  1081.5000      0.0000    919.1489      4.1628    138.7447
  1081.7500      0.0000    913.5030      4.2336    137.0889
  1082.0000      0.0000    901.3107      4.2716    139.7599
  1082.2500      0.0000    889.7922      4.2908    145.1149
  1082.5000      0.0000    882.1414      4.3067    151.2872
  1082.7500      0.0000    877.1685      4.3245    157.2304
  1083.0000      0.0000    874.0373      4.3399    162.3337
  1083.2500      0.0000    874.9018      4.3457    166.2139
  1083.5000      0.0000    881.9882      4.3343    169.0632
  1083.7500      0.0000    893.5595      4.3002    171.4882
  1084.0000      0.0000    905.1162      4.2439    173.6773
  1084.2500      0.0000    914.8146      4.1732    175.0557
  1084.5000      0.0000    925.0543      4.0985    174.9606
  1084.7500      0.0000    937.2582      4.0265    173.4335
  1085.0000      0.0000    947.6845      3.9605    171.1267
  1085.2500      0.0000    950.5389      3.9070    168.5314
  1085.5000      0.0000    943.4580      3.8785    165.3900
  1085.7500      0.0000    928.7907      3.8872    160.8373
  1086.0000      0.0000    911.6017      3.9360    154.3584
  1086.2500      0.0000    897.0579      4.0171    146.7856
  1086.5000      0.0000    888.6344      4.1186    140.0843
  1086.7500      0.0000    888.0177      4.2329    135.9426
  1087.0000      0.0000    894.4752      4.3640    134.6113
  1087.2500      0.0000    902.2593      4.5281    135.0634
  1087.5000      0.0000    901.9352      4.7443    135.9903
  1087.7500      0.0000    888.7834      5.0197    136.6694
  1088.0000      0.0000    868.7071      5.3406    137.2157
  1088.2500      0.0000    852.9559      5.6683    137.9486
  1088.5000      0.0000    848.9078      5.9412    138.4218
  1088.7500      0.0000    857.7856      6.0895    137.6481
  1089.0000      0.0000    879.4490      6.0655    135.5179
  1089.2500      0.0000    917.3588      5.8741    133.2571
  1089.5000      0.0000    977.8540      5.5723    132.0735
  1089.7500      0.0000   1062.4449      5.2341    131.8810
  1090.0000      0.0000   1160.7554      4.9057    131.5947
  1090.2500      0.0000   1254.0850      4.5909    130.2407
  1090.5000      0.0000   1326.9335      4.2672    127.5267
  1090.7500      0.0000   1373.4901      3.9137    123.4585
  1091.0000      0.0000   1394.1492      3.5285    117.8206
  1091.2500      0.0000   1387.7791      3.1311    110.6262
  1091.5000      0.0000   1347.5492      2.7538    103.0975
  1091.7500      0.0000   1266.6370      2.4282     97.3383
  1092.0000      0.0000   1153.0624      2.1759     94.5407
  1092.2500      0.0000   1039.5333      2.0026     94.0884
  1092.5000      0.0000    971.9504      1.8985     94.8140
  1092.7500      0.0000    981.0178      1.8439     96.4301
  1093.0000      0.0000   1061.5394      1.8178     99.1751
  1093.2500      0.0000   1177.0826      1.8017    102.5934
  1093.5000      0.0000   1284.7521      1.7808    105.2615
  1093.7500      0.0000   1359.1453      1.7462    105.6534
  1094.0000      0.0000   1398.4111      1.6995    103.2272
  1094.2500      0.0000   1413.2732      1.6506     98.8393
  1094.5000      0.0000   1412.7891      1.6101     93.9893
  1094.7500      0.0000   1396.9447      1.5831     89.5239
  1095.0000      0.0000   1358.2307      1.5702     85.2623
  1095.2500      0.0000   1291.9296      1.5721     80.8663
  1095.5000      0.0000   1209.5876      1.5908     76.5520
  1095.7500      0.0000   1138.6569      1.6252     72.7436
  1096.0000      0.0000   1098.8988      1.6669     69.6209
  1096.2500      0.0000   1079.9055      1.7042     67.3987
  1096.5000      0.0000   1053.3828      1.7324     66.5746
  1096.7500      0.0000   1008.2687      1.7595     67.3629
  1097.0000      0.0000    961.7749      1.7996     69.0507
  1097.2500      0.0000    934.0831      1.8631     70.3868
  1097.5000      0.0000    923.6563      1.9498     70.5238
  1097.7500      0.0000    912.4623      2.0492     69.2430
  1098.0000      0.0000    888.6382      2.1439     66.6033
  1098.2500      0.0000    859.0883      2.2162     62.9981
  1098.5000      0.0000    841.6469      2.2547     59.4608
  1098.7500      0.0000    846.1545      2.2557     57.3304
  1099.0000      0.0000    861.7639      2.2204     57.3714
  1099.2500      0.0000    864.3196      2.1530     59.2872
  1099.5000      0.0000    839.4956      2.0602     62.0779
  1099.7500      0.0000    797.4551      1.9511     64.7673
  1100.0000      0.0000    763.2161      1.8365     66.8692
  1100.2500      0.0000    757.3564      1.7257     68.5054
  1100.5000      0.0000    787.5421      1.6254     70.2414
  1100.7500      0.0000    850.6716      1.5394     72.5613
  1101.0000      0.0000    936.2505      1.4699     75.3153
  1101.2500      0.0000   1030.2368      1.4194     77.7858
  1101.5000      0.0000   1118.6852      1.3917     79.3568
  1101.7500      0.0000   1187.5300      1.3896     80.0170
  1102.0000      0.0000   1223.6237      1.4106     80.2735
  1102.2500      0.0000   1224.3313      1.4468     80.7140
  1102.5000      0.0000   1204.2469      1.4914     81.5680
  1102.7500      0.0000   1184.2880      1.5432     82.4889
  1103.0000      0.0000   1172.6508      1.6064     82.7371
  1103.2500      0.0000   1161.4531      1.6847     81.7222
  1103.5000      0.0000   1145.0623      1.7790     79.4106
  1103.7500      0.0000   1137.3317      1.8904     76.1877
  1104.0000      0.0000   1161.5280      2.0215     72.5208
  1104.2500      0.0000   1222.5608      2.1722     68.8419
  1104.5000      0.0000   1298.3383      2.3341     65.5289
  1104.7500      0.0000   1360.8511      2.4945     62.9882
  1105.0000      0.0000   1397.9742      2.6455     61.8727
  1105.2500      0.0000   1414.0724      2.7884     62.9016
  1105.5000      0.0000   1417.8579      2.9294     66.1630
  1105.7500      0.0000   1413.5991      3.0727     70.7715
  1106.0000      0.0000   1399.6836      3.2157     75.3554
  1106.2500      0.0000   1371.8248      3.3494     78.7006
  1106.5000      0.0000   1328.7456      3.4639     80.1745
  1106.7500      0.0000   1277.2291      3.5576     80.0555
  1107.0000      0.0000   1231.9569      3.6398     79.3247
  1107.2500      0.0000   1208.8666      3.7226     78.7284
  1107.5000      0.0000   1216.6217      3.8132     78.0896
  1107.7500      0.0000   1251.9818      3.9150     76.7479
  1108.0000      0.0000   1300.7573      4.0339     74.6282
  1108.2500      0.0000   1343.3344      4.1806     72.6432
  1108.5000      0.0000   1362.4069      4.3659     71.8167
  1108.7500      0.0000   1349.2059      4.5887     72.1142
  1109.0000      0.0000   1306.0121      4.8277     72.5394
  1109.2500      0.0000   1244.8207      5.0446     72.5509
  1109.5000      0.0000   1182.1246      5.2033     73.1063
  1109.7500      0.0000   1132.0228      5.2874     76.0816
  1110.0000      0.0000   1102.0863      5.3040     82.7772
  1110.2500      0.0000   1091.3760      5.2749     93.1345
  1110.5000      0.0000   1088.9142      5.2254    106.1608
  1110.7500      0.0000   1077.4210      5.1758    120.6249
