~Version Information
VERS.                      2.0: CWLS Log ASCII Standard - VERSION 2.0
WRAP.                       NO: One line per depth step
~Well Information Block
STRT.FT               250.0000: 
STOP.FT              2600.7500: 
STEP.FT                 0.2500: 
NULL.                -999.2500: 
COMP.          Pioneer Natural Resources: COMPANY
WELL.              Quack 22-24: WELL
FLD.           Purgatoire River: FIELD
LOC.           2492' FNL & 2459' FWL--: LOCATION
PROV.                 Colorado: PROVINCE
CNTY.               Las Animas: COUNTRY
SRVC.                Patterson: SERVICE COMPANY
DATE.          Sun Jun 12 09:02:01 2005: LOG DATE
UWI.            05 071 0840200: UNIQUE WELL ID
~Curve Information Block
DEPT.FT            0 000 00 00: Depth
SN.Ohm-m                      : IEL Short Normal
SP.mV                         : IEL Spontaneous Potential
DIR.Ohm-m                     : IEL Induction Resistivity
GR.GAPI                       : Gamma Ray
~Parameter Information Block
~A  Depth        SN          SP         DIR          GR     
# ...
   551.5000   2000.0000   1983.0000     36.4786     80.7179
   551.7500   2000.0000   1983.0000     37.0914     79.4111
   552.0000   2000.0000   1983.0000     37.8408     78.8787
   552.2500   2000.0000   1983.0000     38.6787     79.6407
   552.5000   2000.0000   1983.0000     39.5168     81.9461
   552.7500   2000.0000   1983.0000     40.2514     83.6007
   553.0000   2000.0000   1983.0000     40.7953     85.2260
   553.2500   2000.0000   1983.0000     41.1017     85.5058
   553.5000   2000.0000   1983.0000     41.1762     84.8815
   553.7500   2000.0000   1983.0000     41.0768     84.0070
   554.0000   2000.0000   1983.0000     40.8973     82.4778
   554.2500   2000.0000   1983.0000     40.7424     81.5147
   554.5000   2000.0000   1983.0000     40.7060     80.1717
   554.7500   2000.0000   1983.0000     40.8591     79.2363
   555.0000   2000.0000   1983.0000     41.2375     77.6906
   555.2500   2000.0000   1983.0000     41.8268     76.6066
   555.5000   2000.0000   1983.0000     42.5544     75.0339
   555.7500   2000.0000   1983.0000     43.3095     74.1250
   556.0000   2000.0000   1983.0000     43.9875     73.1111
   556.2500   2000.0000   1983.0000     44.5233     72.6544
   556.5000   2000.0000   1983.0000     44.8907     72.1887
   556.7500   2000.0000   1983.0000     45.0849     72.0055
   557.0000   2000.0000   1983.0000     45.1185     71.9490
   557.2500   2000.0000   1983.0000     45.0273     72.0395
   557.5000   2000.0000   1983.0000     44.8622     72.3438
   557.7500   2000.0000   1983.0000     44.6657     72.7415
   558.0000   2000.0000   1983.0000     44.4581     73.9185
   558.2500   2000.0000   1983.0000     44.2446     75.1795
   558.5000   2000.0000   1983.0000     44.0278     77.5339
   558.7500   2000.0000   1983.0000     43.8135     79.1296
   559.0000   2000.0000   1983.0000     43.6093     81.2958
   559.2500   2000.0000   1983.0000     43.4332     82.5837
   559.5000   2000.0000   1983.0000     43.3243     84.1077
   559.7500   2000.0000   1983.0000     43.3383     84.5796
   560.0000   2000.0000   1983.0000     43.5179     84.1456
   560.2500   2000.0000   1983.0000     43.8561     83.2074
   560.5000   2000.0000   1983.0000     44.2804     81.3370
   560.7500   2000.0000   1983.0000     44.6743     79.9779
   561.0000   2000.0000   1983.0000     44.9284     77.7521
   561.2500   2000.0000   1983.0000     44.9872     76.1195
   561.5000   2000.0000   1983.0000     44.8646     73.8020
   561.7500   2000.0000   1983.0000     44.6218     72.6987
   562.0000   2000.0000   1983.0000     44.3361     71.8913
   562.2500   2000.0000   1983.0000     44.0795     71.5958
   562.5000   2000.0000   1983.0000     43.9065     70.8903
   562.7500   2000.0000   1983.0000     43.8436     70.3503
   563.0000   2000.0000   1983.0000     43.8872     70.1918
   563.2500   2000.0000   1983.0000     44.0132     70.6369
   563.5000   2000.0000   1983.0000     44.1937     71.4027
   563.7500   2000.0000   1983.0000     44.4080     71.5446
   564.0000   2000.0000   1983.0000     44.6413     71.2993
   564.2500   2000.0000   1983.0000     44.8851     71.2277
   564.5000   2000.0000   1983.0000     45.1398     71.7495
   564.7500   2000.0000   1983.0000     45.4137     72.4284
   565.0000   2000.0000   1983.0000     45.7130     73.1780
   565.2500   2000.0000   1983.0000     46.0296     73.0139
   565.5000   2000.0000   1983.0000     46.3426     71.7754
   565.7500   2000.0000   1983.0000     46.6270     70.9109
   566.0000   2000.0000   1983.0000     46.8637     70.8247
   566.2500   2000.0000   1983.0000     47.0420     71.8682
   566.5000   2000.0000   1983.0000     47.1599     74.7394
   566.7500   2000.0000   1983.0000     47.2227     77.1134
   567.0000   2000.0000   1983.0000     47.2342     80.6001
   567.2500   2000.0000   1983.0000     47.1859     82.4332
   567.5000   2000.0000   1983.0000     47.0607     83.8182
   567.7500   2000.0000   1983.0000     46.8549     83.6311
   568.0000   2000.0000   1983.0000     46.5968     81.9137
   568.2500   2000.0000   1983.0000     46.3284     80.4051
   568.5000   2000.0000   1983.0000     46.0660     79.0025
   568.7500   2000.0000   1983.0000     45.7902     79.1327
   569.0000   2000.0000   1983.0000     45.4902     80.5510
   569.2500   2000.0000   1983.0000     45.2183     81.6200
   569.5000   2000.0000   1983.0000     45.0946     82.4016
   569.7500   2000.0000   1983.0000     45.2439     82.2416
   570.0000   2000.0000   1983.0000     45.7106     81.4366
   570.2500   2000.0000   1983.0000     46.4047     80.8456
   570.5000   2000.0000   1983.0000     47.1193     79.8491
   570.7500   2000.0000   1983.0000     47.6322     78.7604
   571.0000   2000.0000   1983.0000     47.8425     76.1499
   571.2500   2000.0000   1983.0000     47.8246     74.0687
   571.5000   2000.0000   1983.0000     47.7473     71.4224
   571.7500   2000.0000   1983.0000     47.7444     70.3640
   572.0000   2000.0000   1983.0000     47.8543     70.0408
   572.2500   2000.0000   1983.0000     48.0456     70.6748
   572.5000   2000.0000   1983.0000     48.2721     72.5654
   572.7500   2000.0000   1983.0000     48.4953     73.8985
   573.0000   2000.0000   1983.0000     48.6758     74.8720
   573.2500   2000.0000   1983.0000     48.7718     74.5054
   573.5000   2000.0000   1983.0000     48.7656     72.6356
   573.7500   2000.0000   1983.0000     48.6888     70.8684
   574.0000   2000.0000   1983.0000     48.6142     68.1878
   574.2500   2000.0000   1983.0000     48.6246     66.8517
   574.5000   2000.0000   1983.0000     48.7855     66.0498
   574.7500   2000.0000   1983.0000     49.1352     66.2610
   575.0000   2000.0000   1983.0000     49.6810     67.0813
   575.2500   2000.0000   1983.0000     50.3915     67.5256
   575.5000   2000.0000   1983.0000     51.1899     67.4504
   575.7500   2000.0000   1983.0000     51.9664     66.7779
   576.0000   2000.0000   1983.0000     52.6099     65.1924
   576.2500   2000.0000   1983.0000     53.0456     64.2014
   576.5000   2000.0000   1983.0000     53.2559     63.4298
   576.7500   2000.0000   1983.0000     53.2726     63.4109
   577.0000   2000.0000   1983.0000     53.1568     63.6638
   577.2500   2000.0000   1983.0000     52.9865     63.7566
   577.5000   2000.0000   1983.0000     52.8568     63.7257
   577.7500   2000.0000   1983.0000     52.8647     63.6975
   578.0000   2000.0000   1983.0000     53.0668     63.6647
   578.2500   2000.0000   1983.0000     53.4331     63.5310
   578.5000   2000.0000   1983.0000     53.8388     62.9273
   578.7500   2000.0000   1983.0000     54.1202     62.1549
   579.0000   2000.0000   1983.0000     54.1672     60.4715
   579.2500   2000.0000   1983.0000     53.9806     59.2659
   579.5000   2000.0000   1983.0000     53.6471     58.0938
   579.7500   2000.0000   1983.0000     53.2609     58.0219
   580.0000   2000.0000   1983.0000     52.8626     58.8198
   580.2500   2000.0000   1983.0000     52.4355     59.6621
   580.5000   2000.0000   1983.0000     51.9502     60.9899
   580.7500   2000.0000   1983.0000     51.4128     61.7563
   581.0000   2000.0000   1983.0000     50.8790     62.4613
   581.2500   2000.0000   1983.0000     50.4247     62.5321
   581.5000   2000.0000   1983.0000     50.1035     62.0694
   581.7500   2000.0000   1983.0000     49.9227     61.5064
   582.0000   2000.0000   1983.0000     49.8526     60.5905
   582.2500   2000.0000   1983.0000     49.8428     60.0896
   582.5000   2000.0000   1983.0000     49.8349     59.6020
   582.7500   2000.0000   1983.0000     49.7734     59.4477
   583.0000   2000.0000   1983.0000     49.6302     59.4423
   583.2500   2000.0000   1983.0000     49.4255     59.5307
   583.5000   2000.0000   1983.0000     49.2179     59.5641
   583.7500   2000.0000   1983.0000     49.0603     59.3599
   584.0000   2000.0000   1983.0000     48.9527     58.5620
   584.2500   2000.0000   1983.0000     48.8262     57.7735
   584.5000   2000.0000   1983.0000     48.5763     56.7071
   584.7500   2000.0000   1983.0000     48.1340     56.5028
