~Version Information
VERS.                      2.0: CWLS Log ASCII Standard - VERSION 2.0
WRAP.                       NO: One line per depth step
~Well Information Block
STRT.FT                -7.0000: 
STOP.FT              2389.2500: 
STEP.FT                 0.2500: 
NULL.                -999.2500: 
COMP.          Pioneer Natural Resources: COMPANY
WELL.            Victory 12-14: WELL
FLD.           Purgatorie River: FIELD
LOC.           2434' FNL & 188' FWL------: LOCATION
PROV.                       CO: PROVINCE
CNTY.               Las Animas: COUNTRY
SRVC.          Patterson Wireline: SERVICE COMPANY
DATE.          Fri Apr 22 14:29:17 2005: LOG DATE
UWI.           05 071 08332 00: UNIQUE WELL ID
~Curve Information Block
DEPT.FT            0 000 00 00: Depth
CCL.                          : Casing Collar Locator
TT3.usec                      : CBL 3' Travel Time
AMP3.mV                       : CBL 3' Amplitude
GR.GAPI                       : Gamma Ray
~Parameter Information Block
~A  Depth       CCL         TT3         AMP3         GR     
# ...
  1902.5000      0.0000    714.3074      6.2607    122.2828
  1902.7500      0.0000    714.2077      6.1946    114.4957
  1903.0000      0.0000    714.1292      5.9403    108.7992
  1903.2500      0.0000    714.1561      5.6724    105.8783
  1903.5000      0.0000    714.3040      5.5801    105.0358
  1903.7500      0.0000    714.3826      5.7634    104.5020
  1904.0000      0.0000    713.8541      6.1672    102.8890
  1904.2500      0.0000    711.6201      6.6035    100.5033
  1904.5000      0.0000    705.8674      6.8548     99.1118
  1904.7500      0.0000    694.2563      6.7907    100.3547
  1905.0000      0.0000    674.3043      6.4299    104.3018
  1905.2500      0.0000    643.7601      5.9305    109.4507
  1905.5000      0.0000    601.8884      5.5197    114.1337
  1905.7500      0.0000    552.3512      5.3903    117.9333
  1906.0000      0.0000    504.8473      5.6078    121.6092
  1906.2500      0.0000    472.1630      6.0818    125.7090
  1906.5000      0.0000    464.5793      6.6136    129.5566
  1906.7500      0.0000    485.8604      6.9881    131.7592
  1907.0000      0.0000    531.3958      7.0606    131.5208
  1907.2500      0.0000    588.5476      6.8120    129.2470
  1907.5000      0.0000    641.5724      6.3497    125.9278
  1907.7500      0.0000    679.6329      5.8544    122.2297
  1908.0000      0.0000    701.0276      5.5007    118.1971
  1908.2500      0.0000    710.3482      5.3920    113.5726
  1908.5000      0.0000    712.9208      5.5368    108.3999
  1908.7500      0.0000    711.7704      5.8669    103.5091
  1909.0000      0.0000    708.0522      6.2772    100.4228
  1909.2500      0.0000    703.0114      6.6617    100.5567
  1909.5000      0.0000    699.2251      6.9361    104.1551
  1909.7500      0.0000    699.8316      7.0522    109.7785
  1910.0000      0.0000    706.2389      7.0065    114.9788
  1910.2500      0.0000    716.5785      6.8290    117.9122
  1910.5000      0.0000    726.8267      6.5560    118.5257
  1910.7500      0.0000    733.9984      6.2135    118.2134
  1911.0000      0.0000    738.1956      5.8242    118.4911
  1911.2500      0.0000    741.2873      5.4212    120.0059
  1911.5000      0.0000    743.8174      5.0484    122.1238
  1911.7500      0.0000    744.0687      4.7468    122.9879
  1912.0000      0.0000    740.7826      4.5437    120.7675
  1912.2500      0.0000    736.3823      4.4487    115.9303
  1912.5000      0.0000    735.8771      4.4530    112.1280
  1912.7500      0.0000    741.5305      4.5328    113.7442
  1913.0000      0.0000    749.9356      4.6616    122.0638
  1913.2500      0.0000    755.7314      4.8222    134.0909
  1913.5000      0.0000    757.0887      5.0146    144.9444
  1913.7500      0.0000    756.4949      5.2504    151.0703
  1914.0000      0.0000    757.2629      5.5361    151.8105
  1914.2500      0.0000    760.3130      5.8566    149.1662
  1914.5000      0.0000    764.0780      6.1735    146.2201
  1914.7500      0.0000    766.9429      6.4440    144.7710
  1915.0000      0.0000    769.1993      6.6399    143.9639
  1915.2500      0.0000    772.3508      6.7518    141.5946
  1915.5000      0.0000    776.7185      6.7886    136.8575
  1915.7500      0.0000    780.1295      6.7816    131.5441
  1916.0000      0.0000    779.0670      6.7770    128.6324
  1916.2500      0.0000    771.3788      6.8072    129.8745
  1916.5000      0.0000    758.2271      6.8670    134.5298
  1916.7500      0.0000    743.5183      6.9271    140.1118
  1917.0000      0.0000    731.3496      6.9710    144.3642
  1917.2500      0.0000    723.8301      7.0116    146.7119
  1917.5000      0.0000    720.9281      7.0693    148.1096
  1917.7500      0.0000    721.6642      7.1378    149.7807
  1918.0000      0.0000    725.0719      7.1743    152.0169
  1918.2500      0.0000    730.3265      7.1213    153.8001
  1918.5000      0.0000    736.5222      6.9404    153.4012
  1918.7500      0.0000    742.3656      6.6344    149.4732
  1919.0000      0.0000    745.7582      6.2541    141.6487
  1919.2500      0.0000    744.0876      5.8897    130.4449
  1919.5000      0.0000    736.0556      5.6439    117.2983
  1919.7500      0.0000    723.4635      5.5870    104.7631
  1920.0000      0.0000    710.3641      5.7208     95.9479
  1920.2500      0.0000    700.1837      5.9839     92.9234
  1920.5000      0.0000    694.0663      6.2931     95.1840
  1920.7500      0.0000    691.4202      6.5816     99.6063
  1921.0000      0.0000    690.9938      6.8052    102.2672
  1921.2500      0.0000    691.4896      6.9332    100.9411
  1921.5000      0.0000    691.9196      6.9488     96.5402
  1921.7500      0.0000    691.8190      6.8533     92.4027
  1922.0000      0.0000    691.3372      6.6597     91.8034
  1922.2500      0.0000    691.1979      6.3821     95.5535
  1922.5000      0.0000    692.3307      6.0349    101.6101
  1922.7500      0.0000    695.2795      5.6364    106.7682
  1923.0000      0.0000    699.9510      5.2093    108.6937
  1923.2500      0.0000    705.8893      4.7749    106.7451
  1923.5000      0.0000    712.5420      4.3508    101.6136
  1923.7500      0.0000    718.9520      3.9567     94.7947
  1924.0000      0.0000    723.2719      3.6270     88.1625
  1924.2500      0.0000    723.4899      3.4155     82.9771
  1924.5000      0.0000    719.5256      3.3788     78.7822
  1924.7500      0.0000    714.0450      3.5449     73.8516
  1925.0000      0.0000    710.2666      3.8932     67.0455
  1925.2500      0.0000    709.2914      4.3622     58.8841
  1925.5000      0.0000    710.0458      4.8757     50.9912
  1925.7500      0.0000    711.0759      5.3653     45.0603
  1926.0000      0.0000    711.6910      5.7851     42.1104
  1926.2500      0.0000    711.8626      6.1166     42.0609
  1926.5000      0.0000    711.7613      6.3637     44.0070
  1926.7500      0.0000    711.5285      6.5431     47.0326
  1927.0000      0.0000    711.2498      6.6741     50.4777
  1927.2500      0.0000    710.9853      6.7710     53.5186
  1927.5000      0.0000    710.7697      6.8358     55.2263
  1927.7500      0.0000    710.6010      6.8602     55.3886
  1928.0000      0.0000    710.4564      6.8366     54.8303
  1928.2500      0.0000    710.3206      6.7694     54.4835
  1928.5000      0.0000    710.2063      6.6756     54.3798
  1928.7500      0.0000    710.1680      6.5753     53.9864
  1929.0000      0.0000    710.2927      6.4826     53.3450
  1929.2500      0.0000    710.6458      6.4035     53.4694
  1929.5000      0.0000    711.1943      6.3383     55.5997
  1929.7500      0.0000    711.8861      6.2845     60.0857
  1930.0000      0.0000    712.9550      6.2426     65.8609
  1930.2500      0.0000    715.2478      6.2185     71.1168
  1930.5000      0.0000    719.9300      6.2190     74.8554
  1930.7500      0.0000    727.1237      6.2384     77.9608
  1931.0000      0.0000    734.5299      6.2484     82.5777
  1931.2500      0.0000    738.3253      6.2061     90.2084
  1931.5000      0.0000    736.5623      6.0897    100.2523
  1931.7500      0.0000    731.4323      5.9264    110.3243
  1932.0000      0.0000    727.7019      5.7722    117.9926
  1932.2500      0.0000    729.2799      5.6608    122.2492
  1932.5000      0.0000    737.0647      5.5859    123.6510
  1932.7500      0.0000    748.5588      5.5314    123.5211
  1933.0000      0.0000    758.8500      5.5019    122.9227
  1933.2500      0.0000    762.9918      5.5247    121.9372
  1933.5000      0.0000    758.7232      5.6272    119.9244
  1933.7500      0.0000    747.6224      5.8104    116.6604
  1934.0000      0.0000    733.8505      6.0415    112.8882
  1934.2500      0.0000    721.7889      6.2747    109.4848
  1934.5000      0.0000    714.5074      6.4856    106.6177
  1934.7500      0.0000    713.2521      6.6837    104.2004
  1935.0000      0.0000    716.8095      6.8954    102.6327
  1935.2500      0.0000    721.5628      7.1370    102.5096
  1935.5000      0.0000    723.8013      7.3987    103.8814
  1935.7500      0.0000    722.4714      7.6458    106.1392
