~Version Information
VERS.                      2.0: CWLS Log ASCII Standard - VERSION 2.0
WRAP.                       NO: One line per depth step
~Well Information Block
STRT.FT               -14.2500: 
STOP.FT              2177.5000: 
STEP.FT                 0.2500: 
NULL.                -999.2500: 
COMP.          Evergreen Operating Corp.: COMPANY
WELL.            Triumph 13-10: WELL
FLD.           Purgatorie River: FIELD
LOC.           1551' FSL & 522' FWL--: LOCATION
PROV.                       CO: PROVINCE
CNTY.               Las Animas: COUNTRY
SRVC.                         : SERVICE COMPANY
DATE.          Sat Aug 21 09:27:32 2004: LOG DATE
UWI.           005 071 08108 : UNIQUE WELL ID
~Curve Information Block
DEPT.FT            0 000 00 00: Depth
CCL.                          : Casing Collar Locator
TT3.usec                      : CBL 3' Travel Time
AMP3.mV                       : CBL 3' Amplitude
GR.GAPI                       : Gamma Ray
~Parameter Information Block
~A  Depth       CCL         TT3         AMP3         GR     
# ...
   856.7500      0.0000    661.0013      3.8814     77.4731
   857.0000      0.0000    645.2475      3.9626     87.3625
   857.2500      0.0000    641.2222      3.9873     98.8888
   857.5000      0.0000    651.6498      3.9141    111.7029
   857.7500      0.0000    670.8426      3.8185    124.3601
   858.0000      0.0000    688.8084      3.7872    135.0361
   858.2500      0.0000    697.4076      3.8183    142.5652
   858.5000      0.0000    692.9648      3.8451    146.8417
   858.7500      0.0000    675.9526      3.8136    148.5653
   859.0000      0.0000    650.8919      3.7030    148.7296
   859.2500      0.0000    625.4330      3.5122    148.2850
   859.5000      0.0000    606.8340      3.2764    147.7927
   859.7500      0.0000    598.5826      3.0776    146.9725
   860.0000      0.0000    600.0861      2.9882    144.9409
   860.2500      0.0000    608.1644      3.0059    141.5437
   860.5000      0.0000    618.9075      3.0700    138.1048
   860.7500      0.0000    630.4408      3.1360    136.2315
   861.0000      0.0000    644.3424      3.2029    136.3032
   861.2500      0.0000    662.3471      3.2690    137.7212
   861.5000      0.0000    682.0416      3.3040    140.1402
   861.7500      0.0000    698.0396      3.2864    143.6478
   862.0000      0.0000    706.8859      3.2405    147.7990
   862.2500      0.0000    709.1395      3.2044    151.0865
   862.5000      0.0000    707.5991      3.1740    151.9403
   862.7500      0.0000    704.6679      3.1307    150.2929
   863.0000      0.0000    701.0931      3.1187    147.7261
   863.2500      0.0000    696.4604      3.2282    145.8994
   863.5000      0.0000    690.7603      3.4779    145.2544
   863.7500      0.0000    685.2234      3.7594    145.3636
   864.0000      0.0000    681.6321      3.9211    145.8285
   864.2500      0.0000    681.3126      3.8903    146.5777
   864.5000      0.0000    684.6606      3.7148    147.7128
   864.7500      0.0000    690.7066      3.5016    149.1915
   865.0000      0.0000    696.6359      3.3177    150.5760
   865.2500      0.0000    698.0262      3.1571    151.3337
   865.5000      0.0000    690.6322      3.0044    151.0341
   865.7500      0.0000    673.6606      2.8878    148.7357
   866.0000      0.0000    652.1644      2.8416    143.2716
   866.2500      0.0000    634.7156      2.8513    135.1357
   866.5000      0.0000    627.1381      2.8792    127.0505
   866.7500      0.0000    629.1430      2.9242    121.7152
   867.0000      0.0000    636.8418      3.0095    119.7858
   867.2500      0.0000    646.3564      3.1175    120.5630
   867.5000      0.0000    655.4601      3.1827    123.6705
   867.7500      0.0000    664.1722      3.1587    129.2202
   868.0000      0.0000    673.5353      3.0576    136.6884
   868.2500      0.0000    682.9757      2.9171    144.2523
   868.5000      0.0000    689.9675      2.7765    149.6233
   868.7500      0.0000    692.7272      2.7009    151.8033
   869.0000      0.0000    692.3342      2.7738    151.9503
   869.2500      0.0000    692.1006      3.0150    152.0635
   869.5000      0.0000    695.3864      3.3258    152.6871
   869.7500      0.0000    703.5844      3.5623    152.1795
   870.0000      0.0000    715.2050      3.6593    148.5100
   870.2500      0.0000    726.5225      3.6461    141.7627
   870.5000      0.0000    733.7328      3.5566    134.5755
   870.7500      0.0000    735.0021      3.3895    129.7963
   871.0000      1.8018    730.6183      3.1673    127.8847
   871.2500      0.0000    721.9865      2.9686    126.9999
   871.5000      0.0000    711.6255      2.8676    125.4239
   871.7500      0.0000    703.4677      2.8725    123.4034
   872.0000      0.0000    700.9389      2.9387    122.6634
   872.2500      0.0000    704.1783      3.0164    124.6605
   872.5000      0.0000    710.3465      3.0757    129.5045
   872.7500      0.0000    716.6227      3.1060    136.1096
   873.0000      0.0000    721.7167      3.1074    142.7406
   873.2500      0.0000    724.9015      3.0998    147.3154
   873.5000      0.0000    725.3333      3.1471    147.8172
   873.7500      0.0000    723.0737      3.3226    143.2830
   874.0000      0.0000    719.7537      3.6161    134.8931
   874.2500      0.0000    717.1646      3.9120    125.8759
   874.5000      0.0000    715.5875      4.0880    119.7248
   874.7500      0.0000    714.1949      4.1152    118.2502
   875.0000      0.0000    712.7648      4.0585    121.2577
   875.2500      0.0000    712.1415      4.0084    127.3797
   875.5000      0.0000    712.9999      4.0030    134.4878
   875.7500      0.0000    714.8552      3.9990    139.9514
   876.0000      0.0000    716.5846      3.9351    142.0164
   876.2500      0.0000    717.5009      3.8246    141.4280
   876.5000      0.0000    717.6618      3.7438    140.7900
   876.7500      0.0000    717.4620      3.7396    141.6267
   877.0000      0.0000    717.2271      3.7944    142.4516
   877.2500      0.0000    717.0883      3.8674    140.4714
   877.5000      0.0000    717.0303      3.9133    135.1467
   877.7500      0.0000    716.9901      3.8789    129.2619
   878.0000      0.0000    716.8870      3.7422    126.0780
   878.2500      0.0000    716.5486      3.5531    126.2576
   878.5000      0.0000    715.6544      3.4002    128.2684
   878.7500      0.0000    713.8401      3.3410    130.8851
   879.0000      0.0000    711.0443      3.3743    134.1067
   879.2500      0.0000    707.8320      3.4630    138.1501
   879.5000      0.0000    705.1826      3.5764    142.5919
   879.7500      0.0000    703.7872      3.7149    146.2986
   880.0000      0.0000    703.7299      3.8820    147.6913
   880.2500      0.0000    704.5748      4.0364    145.3966
   880.5000      0.0000    704.9836      4.1056    139.2218
   880.7500      0.0000    701.9476      4.0516    130.7086
   881.0000      0.0000    691.6382      3.9067    122.4879
   881.2500      0.0000    672.8569      3.7546    116.7936
   881.5000      0.0000    650.0254      3.6852    114.4324
   881.7500      0.0000    630.3550      3.7382    114.9628
   882.0000      0.0000    616.2310      3.8683    117.3229
   882.2500      0.0000    603.4112      3.9811    120.1407
   882.5000      0.0000    590.0262      4.0236    122.3029
   882.7500      0.0000    583.8536      4.0249    123.8020
   883.0000      0.0000    594.9965      4.0342    125.2451
   883.2500      0.0000    622.6297      4.0459    126.1105
   883.5000      0.0000    654.1407      4.0179    124.6103
   883.7500      0.0000    677.2920      3.9471    119.9664
   884.0000      0.0000    689.2231      3.8912    113.8144
   884.2500      0.0000    693.4810      3.9176    108.3898
   884.5000      0.0000    692.0935      4.0438    103.9343
   884.7500      0.0000    682.7950      4.2224     98.8906
   885.0000      0.0000    663.3827      4.3853     92.2792
   885.2500      0.0000    636.6371      4.5057     85.0136
   885.5000      0.0000    608.8034      4.6068     78.9557
   885.7500      0.0000    584.2910      4.7107     75.3530
   886.0000      0.0000    566.3671      4.7975     74.3261
   886.2500      0.0000    562.5070      4.8211     75.4532
   886.5000      0.0000    580.9430      4.7563     78.6956
   886.7500      0.0000    618.7873      4.6206     84.8171
   887.0000      0.0000    659.8723      4.4562     94.6660
   887.2500      0.0000    687.3951      4.2996    107.7382
   887.5000      0.0000    695.5094      4.1694    121.6373
   887.7500      0.0000    689.5090      4.0729    133.2137
   888.0000      0.0000    680.0776      4.0112    140.1450
   888.2500      0.0000    677.4086      3.9769    141.4936
   888.5000      0.0000    685.6088      3.9558    137.4108
   888.7500      0.0000    700.5027      3.9469    128.8961
   889.0000      0.0000    714.0911      3.9718    117.8466
   889.2500      0.0000    721.4137      4.0379    106.9602
   889.5000      0.0000    722.8250      4.0971     98.9664
   889.7500      0.0000    721.2451      4.0850     95.3862
   890.0000      0.0000    718.9662      4.0023     95.8580
