~Version Information
VERS.                      2.0: CWLS Log ASCII Standard - VERSION 2.0
WRAP.                       NO: One line per depth step
~Well Information Block
STRT.FT               806.0000: 
STOP.FT              1812.2000: 
STEP.FT                 0.1000: 
NULL.                -999.2500: 
COMP.          Pioneer Natural Resources: COMPANY
WELL.            Hill 33-22 Tr: WELL
FLD.           Purgatoire River: FIELD
LOC.           1573' FSL & 1585' FEL: LOCATION
PROV.                 Colorado: PROVINCE
CNTY.               Las Animas: COUNTRY
SRVC.                Patterson: SERVICE COMPANY
DATE.          Thu Apr 14 12:25:33 2005: LOG DATE
UWI.           05 071 08316 00: UNIQUE WELL ID
~Curve Information Block
DEPT.FT            0 000 00 00: Depth
DCAL.in                       : CDL Caliper
RHOB.g/cc                     : CDL Bulk Density
RHOC.g/cc                     : CDL Density Correction
DPOR.pu                       : CDL Density Porosity
GR.GAPI                       : Gamma Ray
NPOR.pu                       : Neutron Porosity
~Parameter Information Block
~A  Depth       DCAL        RHOB        RHOC        DPOR         GR         NPOR    
# ...
  1199.6000      7.9903      2.5454     -0.0034      6.3372    154.2886     11.9831
  1199.7000      7.9903      2.5616      0.0211      5.3563    156.0367     12.7886
  1199.8000      7.9610      2.5744      0.0428      4.5819    154.4966     14.0442
  1199.9000      7.9610      2.5758      0.0362      4.4997    156.0538     15.0935
  1200.0000      7.9554      2.5637      0.0376      5.2276    161.2232     15.6344
  1200.1000      7.9554      2.5403      0.0497      6.6473    164.0045     15.5094
  1200.2000      7.9554      2.5081      0.0337      8.5989    165.5325     14.7385
  1200.3000      7.9686      2.4798     -0.0305     10.3166    167.8513     13.9764
  1200.4000      7.9686      2.4720     -0.0204     10.7849    166.6680     14.0618
  1200.5000      7.9818      2.4893     -0.0199      9.7383    164.0941     14.9265
  1200.6000      7.9818      2.5312      0.0129      7.2019    165.2725     15.3070
  1200.7000      7.9818      2.5830      0.0638      4.0598    168.7981     15.1242
  1200.8000      7.9867      2.6090      0.1574      2.4833    171.8355     15.6393
  1200.9000      7.9867      2.5963      0.0738      3.2529    171.9732     17.0907
  1201.0000      7.9985      2.5709      0.0800      4.7951    167.8130     18.4953
  1201.1000      7.9985      2.5480      0.0835      6.1813    161.1373     19.3711
  1201.2000      7.9985      2.5272      0.0271      7.4441    155.1161     19.6983
  1201.3000      8.0020      2.5135     -0.0129      8.2709    152.9877     19.4979
  1201.4000      8.0020      2.5022      0.0383      8.9561    153.8750     19.2535
  1201.5000      8.0012      2.4824      0.0016     10.1553    152.2509     18.9376
  1201.6000      8.0012      2.4671      0.0072     11.0824    146.7480     18.4495
  1201.7000      8.0012      2.4721      0.0545     10.7792    142.6666     18.4944
  1201.8000      8.0166      2.4897      0.0308      9.7147    142.8089     19.3010
  1201.9000      8.0166      2.5075      0.0302      8.6354    143.5516     20.2024
  1202.0000      8.0398      2.5182      0.0481      7.9879    141.6467     20.3418
  1202.1000      8.0398      2.5219      0.0278      7.7639    137.8837     19.6689
  1202.2000      8.0398      2.5261      0.0118      7.5063    134.7032     19.0342
  1202.3000      8.0088      2.5329      0.0132      7.0945    134.8501     18.7388
  1202.4000      8.0088      2.5353      0.0042      6.9486    139.2468     18.4917
  1202.5000      8.0041      2.5298      0.0222      7.2829    145.0285     18.6731
  1202.6000      8.0041      2.5202      0.0374      7.8681    150.0230     19.7868
  1202.7000      8.0041      2.5082     -0.0032      8.5920    154.7982     21.0956
  1202.8000      7.9919      2.4958     -0.0148      9.3425    157.1058     21.6070
  1202.9000      7.9919      2.4933     -0.0306      9.4959    154.8881     21.7187
  1203.0000      7.9819      2.5083     -0.0014      8.5902    151.9993     21.9671
  1203.1000      7.9819      2.5278      0.0025      7.4041    151.6261     22.0181
  1203.2000      7.9819      2.5365      0.0069      6.8771    152.0600     21.7003
  1203.3000      8.0002      2.5407      0.0264      6.6270    150.7083     21.2043
  1203.4000      8.0002      2.5439      0.0640      6.4318    145.8688     20.1688
  1203.5000      7.9947      2.5335      0.0869      7.0599    139.3640     18.6770
  1203.6000      7.9947      2.5154      0.0623      8.1590    136.9058     18.1043
  1203.7000      7.9947      2.5119      0.0575      8.3711    140.6287     18.9434
  1203.8000      7.9543      2.5301      0.0597      7.2654    144.5828     20.2110
  1203.9000      7.9543      2.5628      0.0779      5.2862    141.6358     21.2820
  1204.0000      7.9493      2.5994      0.0997      3.0645    132.5790     22.1053
  1204.1000      7.9493      2.6295      0.1311      1.2405    125.8028     22.8282
  1204.2000      7.9493      2.6410      0.1427      0.5455    125.6482     23.8379
  1204.3000      7.9586      2.6333      0.1045      1.0146    129.1269     24.9204
  1204.4000      7.9586      2.6239      0.1106      1.5829    134.4732     25.2537
  1204.5000      7.9609      2.6224      0.0814      1.6747    141.6243     24.4630
  1204.6000      7.9609      2.6206      0.0409      1.7824    147.3190     23.6830
  1204.7000      7.9609      2.6048      0.0600      2.7416    145.7607     23.9675
  1204.8000      7.9648      2.5709     -0.0282      4.7947    136.7742     24.1359
  1204.9000      7.9648      2.5377     -0.0019      6.8081    130.0682     23.2485
  1205.0000      7.9950      2.5254     -0.0174      7.5521    130.2357     22.1494
  1205.1000      7.9950      2.5351      0.0252      6.9623    131.0643     21.1631
  1205.2000      7.9950      2.5521      0.0876      5.9313    128.8854     20.1540
  1205.3000      8.0399      2.5593      0.0790      5.4958    127.2558     19.5030
  1205.4000      8.0399      2.5550      0.0987      5.7600    127.2822     19.7250
  1205.5000      8.0103      2.5529      0.0856      5.8877    126.0551     21.2088
  1205.6000      8.0103      2.5654      0.0886      5.1276    125.6295     23.1312
  1205.7000      8.0103      2.5908      0.1026      3.5870    128.6271     23.5343
  1205.8000      7.9724      2.6125      0.1070      2.2712    131.0293     22.3558
  1205.9000      7.9724      2.6122      0.0892      2.2930    129.1695     21.1423
  1206.0000      7.9618      2.5885      0.0731      3.7269    126.1198     20.2624
  1206.1000      7.9618      2.5639      0.0188      5.2173    125.3683     19.8268
  1206.2000      7.9618      2.5591      0.0154      5.5083    127.1867     20.2625
  1206.3000      7.9610      2.5577      0.0858      5.5947    132.3595     21.1491
  1206.4000      7.9610      2.5383      0.0059      6.7696    139.0260     22.0655
  1206.5000      7.9923      2.5137      0.0166      8.2587    140.4544     22.7662
  1206.6000      7.9923      2.4990      0.0070      9.1494    133.3413     22.9129
  1206.7000      7.9923      2.4974     -0.0146      9.2471    123.2947     22.8859
  1206.8000      7.9999      2.5104      0.0211      8.4611    119.8638     23.0560
  1206.9000      7.9999      2.5331      0.0692      7.0835    125.6603     23.1645
  1207.0000      7.9947      2.5612      0.0258      5.3815    130.4071     22.8966
  1207.1000      7.9947      2.5942      0.0553      3.3823    127.0331     22.1116
  1207.2000      7.9947      2.6181      0.1023      1.9321    121.1569     21.2990
  1207.3000      7.9523      2.6225      0.0694      1.6668    116.0882     21.3329
  1207.4000      7.9523      2.6191      0.0841      1.8743    112.8169     22.1826
  1207.5000      7.9458      2.6197      0.0356      1.8334    115.7033     23.0261
  1207.6000      7.9458      2.6258      0.0728      1.4644    124.0764     23.2947
  1207.7000      7.9458      2.6333      0.0759      1.0113    130.1374     22.9871
  1207.8000      7.9773      2.6387      0.0831      0.6878    128.5917     22.3034
  1207.9000      7.9773      2.6415      0.0453      0.5166    123.2119     21.6910
  1208.0000      8.0070      2.6391      0.0264      0.6598    121.9028     22.0089
  1208.1000      8.0070      2.6228      0.0061      1.6501    126.8812     23.4491
  1208.2000      8.0070      2.5862      0.0064      3.8663    133.8906     24.5571
  1208.3000      8.0143      2.5370     -0.0013      6.8502    137.0998     24.0720
  1208.4000      8.0143      2.4917     -0.0484      9.5919    136.4288     22.6545
  1208.5000      8.0422      2.4614     -0.0513     11.4294    136.7760     21.9674
  1208.6000      8.0422      2.4495     -0.0726     12.1527    137.3307     22.8513
  1208.7000      8.0422      2.4598     -0.0779     11.5253    136.6380     24.2892
  1208.8000      8.0703      2.4869     -0.0420      9.8878    136.7776     24.9924
  1208.9000      8.0703      2.5042      0.0088      8.8350    136.3463     24.9486
  1209.0000      8.0757      2.4963     -0.0655      9.3154    132.6408     24.0914
  1209.1000      8.0757      2.4838     -0.0343     10.0740    128.6773     22.9923
