~Version Information
VERS.                      2.0: CWLS Log ASCII Standard - VERSION 2.0
WRAP.                       NO: One line per depth step
~Well Information Block
STRT.FT               605.6000: 
STOP.FT              1938.0000: 
STEP.FT                 0.1000: 
NULL.                -999.2500: 
COMP.          Petrogulf Corporation: COMPANY
WELL.              Graff 9-31R: WELL
FLD.           Purgatorie River: FIELD
LOC.           707' FNL & 1713' FEL: LOCATION
CNTY.               Las Animas: COUNTY
SRVC.                         : SERVICE COMPANY
DATE.          Mon Oct 25 06:13:30 2004: LOG DATE
UWI.           05 071 08037 00: UNIQUE WELL ID
STAT.                 Colorado: STATE
~Curve Information Block
DEPT.FT            0 000 00 00: Depth
DCAL.in                       : CDL Caliper
RHOB.g/cc                     : CDL Bulk Density
RHOC.g/cc                     : CDL Density Correction
DPOR.pu                       : CDL Density Porosity
GR.GAPI                       : Gamma Ray
NPOR.pu                       : Neutron Porosity
~Parameter Information Block
~A  Depth       DCAL        RHOB        RHOC        DPOR         GR         NPOR    
# ...
  1834.4000      7.8826      2.4478      0.0805     12.2545     31.0558     19.2756
  1834.5000      7.8731      2.4597      0.0981     11.5322     28.3740     18.7847
  1834.6000      7.8731      2.4624      0.1602     11.3686     31.0152     18.9521
  1834.7000      7.8731      2.4525      0.0964     11.9681     36.4624     18.7369
  1834.8000      7.8673      2.4477      0.0499     12.2579     38.8271     18.2858
  1834.9000      7.8673      2.4541      0.1038     11.8743     36.2570     18.1757
  1835.0000      7.8689      2.4535      0.0771     11.9073     33.4668     18.3669
  1835.1000      7.8689      2.4358      0.0405     12.9794     33.4455     18.5707
  1835.2000      7.8689      2.4111     -0.0070     14.4766     33.4227     18.4646
  1835.3000      7.8760      2.4005     -0.0074     15.1235     32.5554     18.2531
  1835.4000      7.8760      2.4103      0.0679     14.5267     33.2942     18.3303
  1835.5000      7.8818      2.4242      0.0747     13.6866     35.5978     18.5233
  1835.6000      7.8818      2.4317      0.0435     13.2321     37.7999     18.4386
  1835.7000      7.8818      2.4352      0.0911     13.0187     40.3501     18.2942
  1835.8000      7.8822      2.4330      0.0839     13.1488     41.0534     18.3650
  1835.9000      7.8822      2.4265      0.0908     13.5436     36.9867     18.3734
  1836.0000      7.8731      2.4204      0.0809     13.9122     33.4796     18.1000
  1836.1000      7.8731      2.4160      0.0427     14.1817     34.8638     17.9335
  1836.2000      7.8731      2.4149      0.0522     14.2506     36.3292     18.0899
  1836.3000      7.8718      2.4168      0.0207     14.1360     35.0608     18.3732
  1836.4000      7.8718      2.4127      0.0382     14.3804     33.2169     18.8154
  1836.5000      7.8793      2.3963      0.0235     15.3752     33.1536     19.3514
  1836.6000      7.8793      2.3818      0.0179     16.2569     34.2474     19.9537
  1836.7000      7.8793      2.3847      0.0065     16.0783     33.2793     20.4491
  1836.8000      7.8875      2.3965      0.0526     15.3613     31.4599     20.5644
  1836.9000      7.8875      2.4020      0.0470     15.0310     32.4218     20.3848
  1837.0000      7.8905      2.4093      0.0079     14.5866     35.8746     20.2720
  1837.1000      7.8905      2.4353      0.0825     13.0107     38.4007     20.3721
  1837.2000      7.8905      2.4711      0.1043     10.8404     37.5451     20.3495
  1837.3000      7.8715      2.4927      0.1568      9.5342     35.2015     20.3261
  1837.4000      7.8715      2.4932      0.1163      9.5049     34.1400     20.8189
  1837.5000      7.8383      2.4866      0.1177      9.9058     35.1327     21.5430
  1837.6000      7.8383      2.4797      0.1126     10.3221     38.0125     21.9575
  1837.7000      7.8383      2.4713      0.0824     10.8333     41.5498     22.1904
  1837.8000      7.8153      2.4652      0.1107     11.2007     43.1981     22.3811
  1837.9000      7.8153      2.4648      0.0834     11.2232     39.3657     22.4512
  1838.0000      7.8207      2.4712      0.1025     10.8350     31.8743     22.5643
  1838.1000      7.8207      2.4737      0.1479     10.6841     27.3457     22.6065
  1838.2000      7.8207      2.4635      0.0403     11.3041     25.3452     22.2083
  1838.3000      7.8204      2.4487      0.0664     12.1995     22.6501     21.6666
  1838.4000      7.8204      2.4366      0.0655     12.9363     21.0568     21.3265
  1838.5000      7.7945      2.4360      0.0207     12.9711     22.2300     21.3892
  1838.6000      7.7945      2.4542      0.0573     11.8674     25.4798     21.8757
  1838.7000      7.7945      2.4789      0.0893     10.3704     29.5019     21.9941
  1838.8000      7.8577      2.4967      0.1176      9.2885     31.9986     21.3485
  1838.9000      7.8577      2.5101      0.1261      8.4817     31.6412     21.0023
  1839.0000      7.8938      2.5233      0.1173      7.6779     33.0088     21.5651
  1839.1000      7.8938      2.5349      0.1048      6.9780     38.8043     22.4094
  1839.2000      7.8938      2.5423      0.0834      6.5251     43.4017     23.0139
  1839.3000      7.8747      2.5402      0.1070      6.6556     43.8927     23.4179
  1839.4000      7.8747      2.5229      0.0529      7.7046     44.3270     23.8268
  1839.5000      7.8759      2.5029      0.0272      8.9128     49.3835     24.4656
  1839.6000      7.8759      2.4960     -0.0048      9.3326     60.2779     25.2007
  1839.7000      7.8759      2.4998      0.0127      9.1017     72.3892     25.6581
  1839.8000      7.8714      2.5091     -0.0143      8.5364     82.9757     25.9757
  1839.9000      7.8714      2.5346      0.0299      6.9967     93.5629     26.6425
  1840.0000      7.8792      2.5783      0.0941      4.3438    104.8677     27.3852
  1840.1000      7.8792      2.6089      0.2123      2.4922    117.1737     27.4610
  1840.2000      7.8792      2.5958      0.1825      3.2855    128.6839     27.2530
  1840.3000      7.8876      2.5562      0.1295      5.6858    134.8293     27.5165
  1840.4000      7.8876      2.5302      0.1366      7.2632    134.8830     28.2423
  1840.5000      7.8902      2.5369      0.1342      6.8561    134.4835     29.2719
  1840.6000      7.8902      2.5699      0.1261      4.8570    139.5208     30.0821
  1840.7000      7.8902      2.6078      0.1637      2.5568    148.6548     29.9645
  1840.8000      7.8956      2.6273      0.1835      1.3780    154.2660     29.2109
  1840.9000      7.8956      2.6153      0.1827      2.1015    155.3055     28.7051
  1841.0000      7.8976      2.5773      0.1058      4.4060    160.1761     28.8424
  1841.1000      7.8976      2.5357      0.1013      6.9300    168.3753     29.2920
  1841.2000      7.8976      2.5092      0.1152      8.5333    169.2474     29.4143
  1841.3000      7.9114      2.4990      0.1434      9.1523    161.3153     29.3196
  1841.4000      7.9114      2.5008      0.0502      9.0411    152.1731     29.3494
  1841.5000      7.9156      2.5152      0.0515      8.1717    149.8902     28.9989
  1841.6000      7.9156      2.5332      0.0915      7.0791    155.8995     28.3288
  1841.7000      7.9156      2.5377      0.1096      6.8053    163.3135     28.4071
  1841.8000      7.9097      2.5304      0.1244      7.2492    168.7561     29.0440
  1841.9000      7.9097      2.5273      0.1452      7.4355    171.1291     29.2385
  1842.0000      7.9150      2.5316      0.1252      7.1770    166.9190     28.8906
  1842.1000      7.9150      2.5400      0.1125      6.6640    157.5338     28.1557
  1842.2000      7.9150      2.5531      0.1372      5.8730    147.1166     27.3603
  1842.3000      7.8939      2.5648      0.0985      5.1636    137.3005     27.0039
  1842.4000      7.8939      2.5624      0.1346      5.3099    130.3802     27.0457
  1842.5000      7.9003      2.5487      0.0585      6.1367    128.4294     27.1804
  1842.6000      7.9003      2.5441      0.0734      6.4169    130.3484     27.3034
  1842.7000      7.9003      2.5452      0.1420      6.3519    133.3642     27.4515
  1842.8000      7.9110      2.5379      0.0938      6.7932    136.4130     27.3573
  1842.9000      7.9110      2.5341      0.0975      7.0267    140.6556     26.6887
  1843.0000      7.9095      2.5401      0.1127      6.6604    143.0594     26.0553
  1843.1000      7.9095      2.5397      0.0823      6.6839    138.1348     26.0286
  1843.2000      7.9095      2.5278      0.0672      7.4048    130.6375     26.3372
  1843.3000      7.9140      2.5201      0.0547      7.8753    127.4789     26.9467
  1843.4000      7.9140      2.5209      0.0865      7.8253    124.0058     27.7917
  1843.5000      7.9237      2.5181      0.0946      7.9960    113.6839     28.2859
  1843.6000      7.9237      2.5101      0.0741      8.4788    100.4146     28.3501
  1843.7000      7.9237      2.5087      0.0504      8.5664     93.8055     28.3939
  1843.8000      7.9311      2.5152      0.1051      8.1726     94.2430     28.3675
  1843.9000      7.9311      2.5150      0.1305      8.1818     93.2724     27.8901
