~Version Information
VERS.                      2.0: CWLS Log ASCII Standard - VERSION 2.0
WRAP.                       NO: One line per depth step
~Well Information Block
STRT.FT                -6.7500: 
STOP.FT               983.2500: 
STEP.FT                 0.2500: 
NULL.                -999.2500: 
COMP.          Pioneer Natural Resources: COMPANY
WELL.          Run-Away-Train 43-26: WELL
FLD.           Purgatorie River: FIELD
LOC.           1693' FSL & 1195' FWL------------: LOCATION
PROV.                       CO: PROVINCE
CNTY.               Las Animas: COUNTRY
SRVC.          Patterson Wireline: SERVICE COMPANY
DATE.          Thu Apr 14 12:30:00 2005: LOG DATE
UWI.           05 071 08188 00: UNIQUE WELL ID
~Curve Information Block
DEPT.FT            0 000 00 00: Depth
CCL.                          : Casing Collar Locator
TT3.usec                      : CBL 3' Travel Time
AMP3.mV                       : CBL 3' Amplitude
GR.GAPI                       : Gamma Ray
~Parameter Information Block
~A  Depth       CCL         TT3         AMP3         GR     
# ...
   495.7500      0.0000    814.1420      4.5898     69.9178
   496.0000      0.0000    817.6815      4.6623     70.8193
   496.2500      0.0000    816.8198      4.7939     71.4270
   496.5000      0.0000    806.4464      4.9871     71.5604
   496.7500      0.0000    788.3964      5.2296     71.6118
   497.0000      0.0000    770.5880      5.4826     72.4866
   497.2500      0.0000    761.9988      5.6955     74.8894
   497.5000      0.0000    767.2950      5.8415     78.7455
   497.7500      0.0000    784.4119      5.9251     83.5650
   498.0000      0.0000    806.0363      5.9607     89.0213
   498.2500      0.0000    823.6782      5.9609     94.8545
   498.5000      0.0000    832.1833      5.9412    100.4851
   498.7500      0.0000    832.2283      5.9156    105.1059
   499.0000      0.0000    828.7856      5.8852    108.1990
   499.2500      0.0000    826.8193      5.8339    109.8676
   499.5000      0.0000    828.3427      5.7386    110.5895
   499.7500      0.0000    832.7047      5.5893    110.7057
   500.0000      0.0000    838.1147      5.4133    110.4165
   500.2500      0.0000    842.6253      5.2745    110.1795
   500.5000      0.0000    844.9249      5.2335    110.4634
   500.7500      0.0000    844.7359      5.3033    110.9715
   501.0000      0.0000    841.7459      5.4460    110.8093
   501.2500      0.0000    834.2347      5.6116    109.6971
   501.5000      0.0000    820.1388      5.7761    108.4559
   501.7500      0.0000    800.1459      5.9450    107.9327
   502.0000      0.0000    778.7553      6.1292    107.8162
   502.2500      0.0000    761.3538      6.3271    106.8752
   502.5000      0.0000    750.4779      6.5271    104.2889
   502.7500      0.0000    745.2453      6.7123    100.5941
   503.0000      0.0000    743.7003      6.8627     97.2342
   503.2500      0.0000    745.1452      6.9679     95.0950
   503.5000      0.0000    750.8827      7.0416     93.6568
   503.7500      0.0000    763.1041      7.1092     91.7904
   504.0000      0.0000    782.0074      7.1819     89.1230
   504.2500      0.0000    803.6625      7.2567     86.2618
   504.5000      0.0000    822.0652      7.3382     83.9179
   504.7500      0.0000    833.8101      7.4471     82.3821
   505.0000      0.0000    839.8602      7.6018     81.8361
   505.2500      0.0000    842.9241      7.7906     82.5659
   505.5000      0.0000    844.3456      7.9665     84.6535
   505.7500      0.0000    843.5309      8.0756     87.7822
   506.0000      0.0000    839.4764      8.0926     91.5248
   506.2500      0.0000    832.6172      8.0300     95.6443
   506.5000      0.0000    825.3278      7.9244    100.0258
   506.7500      0.0000    820.5367      7.8173    104.3935
   507.0000      0.0000    819.7670      7.7411    108.2146
   507.2500      0.0000    822.3883      7.7073    110.9627
   507.5000      0.0000    826.0534      7.7069    112.3769
   507.7500      0.0000    827.2645      7.7216    112.2418
   508.0000      0.0000    822.3813      7.7324    110.1117
   508.2500      0.0000    809.9004      7.7277    105.8001
   508.5000      0.0000    792.2970      7.7134    100.2593
   508.7500      0.0000    774.6001      7.7042     95.4971
   509.0000      0.0000    760.6304      7.6918     93.1680
   509.2500      0.0000    751.0151      7.6347     93.3224
   509.5000      0.0000    744.5645      7.4981     94.8067
   509.7500      0.0000    740.4427      7.2933     96.7484
   510.0000      0.0000    738.5828      7.0666     99.1642
   510.2500      0.0000    738.5638      6.8568    102.0548
   510.5000      0.0000    738.6989      6.6780    104.5556
   510.7500      0.0000    736.6348      6.5347    105.3480
   511.0000      0.0000    731.3569      6.4371    103.5993
   511.2500      0.0000    724.7962      6.3961     99.3594
   511.5000      0.0000    721.1118      6.4099     93.5268
   511.7500      0.0000    723.8721      6.4562     87.7182
   512.0000      0.0000    733.3590      6.4950     83.7537
   512.2500      0.0000    746.1385      6.4860     82.8197
   512.5000      0.0000    757.7271      6.4158     85.1672
   512.7500      0.0000    766.7034      6.3068     90.3870
   513.0000      0.0000    775.7906      6.1949     97.3099
   513.2500      0.0000    787.9236      6.0982    103.6542
   513.5000      0.0000    802.3898      6.0144    106.8011
   513.7500      0.0000    816.2853      5.9396    105.6451
   514.0000      0.0000    828.1998      5.8803    101.4837
   514.2500      0.0000    838.2499      5.8474     96.9279
   514.5000      0.0000    845.5809      5.8431     94.0594
   514.7500      0.0000    848.2785      5.8568     93.3390
   515.0000      0.0000    845.8000      5.8686     93.7664
   515.2500      0.0000    840.2012      5.8587     94.0054
   515.5000      0.0000    834.8499      5.8193     93.5920
   515.7500      0.0000    832.4477      5.7594     93.0078
   516.0000      0.0000    833.9930      5.6946     92.4982
   516.2500      0.0000    838.7130      5.6345     91.2149
   516.5000      0.0000    844.7372      5.5786     88.0386
   516.7500      0.0000    850.5599      5.5201     83.1539
   517.0000      0.0000    856.2375      5.4510     78.3335
   517.2500      0.0000    863.0566      5.3664     75.4629
   517.5000      0.0000    871.8632      5.2713     75.0441
   517.7500      0.0000    881.3103      5.1781     76.3442
   518.0000      0.0000    887.2715      5.0922     78.6571
   518.2500      0.0000    884.6799      5.0020     81.7712
   518.5000      0.0000    871.4620      4.8878     85.1739
   518.7500      0.0000    851.1630      4.7432     87.5689
   519.0000      0.0000    831.2630      4.5878     87.7876
   519.2500      0.0000    818.0663      4.4560     86.0826
   519.5000      0.0000    811.5829      4.3731     84.2340
   519.7500      0.0000    804.5134      4.3374     84.2124
   520.0000      0.0000    788.0108      4.3219     86.5706
   520.2500      0.0000    760.6802      4.2932     89.9625
   520.5000      0.0000    730.8500      4.2258     92.2282
   520.7500      0.0000    707.7128      4.1065     92.1328
   521.0000      0.0000    691.8256      3.9400     90.2799
   521.2500      0.0000    677.8849      3.7575     88.4406
   521.5000      0.0000    664.8955      3.6073     88.0617
   521.7500      0.0000    658.7673      3.5199     89.4623
   522.0000      0.0000    664.9576      3.4855     92.2200
   522.2500      0.0000    681.3591      3.4693     95.8471
   522.5000      0.0000    699.1781      3.4401     99.9225
   522.7500      0.0000    710.7987      3.3840    103.7455
   523.0000      0.0000    716.7148      3.3101    106.2251
   523.2500      0.0000    722.9834      3.2495    106.5126
   523.5000      0.0000    731.5234      3.2368    104.9022
   523.7500      0.0000    736.7006      3.2829    103.0072
   524.0000      0.0000    734.0396      3.3640    102.7497
   524.2500      0.0000    729.3679      3.4406    104.6710
   524.5000      0.0000    735.5790      3.4870    107.0358
   524.7500      0.0000    760.3093      3.5057    107.0162
   525.0000      0.0000    798.1781      3.5163    103.1651
   525.2500      0.0000    835.3117      3.5372     96.8487
   525.5000      2.0000    860.5340      3.5781     91.4709
   525.7500      2.0000    871.8608      3.6434     90.2618
   526.0000      0.0000    873.9470      3.7319     94.1069
   526.2500      0.0000    871.5349      3.8377    100.8811
   526.5000      0.0000    865.0160      3.9570    106.8888
   526.7500      0.0000    850.3108      4.0896    109.1490
   527.0000      0.0000    822.5074      4.2249    106.7732
   527.2500      0.0000    780.0056      4.3392    100.9186
   527.5000      0.0000    725.6955      4.4302     93.9542
   527.7500      0.0000    665.9122      4.5455     88.3295
   528.0000      0.0000    609.4357      4.7404     85.3585
   528.2500      0.0000    565.5088      5.0010     84.5681
   528.5000      0.0000    540.4057      5.2360     84.4485
   528.7500      0.0000    535.7966      5.3546     84.2072
   529.0000      0.0000    549.9573      5.3402     84.5917
