~Version Information
VERS.                      2.0: CWLS Log ASCII Standard - VERSION 2.0
WRAP.                       NO: One line per depth step
~Well Information Block
STRT.FT                -8.7500: 
STOP.FT              1126.7500: 
STEP.FT                 0.2500: 
NULL.                -999.2500: 
COMP.          Evergreen Operating Corp.: COMPANY
WELL.             Bernice 21-3: WELL
FLD.           Purgatorie River: FIELD
LOC.           201' FNL & 2575' FWL--: LOCATION
PROV.                       CO: PROVINCE
CNTY.               Las Animas: COUNTRY
SRVC.          Patterson Wireline: SERVICE COMPANY
DATE.          Mon Feb 02 12:04:59 2004: LOG DATE
UWI.              05 071 07912: UNIQUE WELL ID
~Curve Information Block
DEPT.FT            0 000 00 00: Depth
CCL.                          : Casing Collar Locator
TT3.usec                      : CBL 3' Travel Time
AMP3.mV                       : CBL 3' Amplitude
GR.GAPI                       : Gamma Ray
~Parameter Information Block
~A  Depth       CCL         TT3         AMP3         GR     
# ...
   962.7500      0.0000    775.1520      5.1513     61.8243
   963.0000      0.0000    774.9073      5.0085     59.8411
   963.2500      0.0000    770.8561      4.9999     60.0730
   963.5000      0.0000    764.8615      5.1283     62.6521
   963.7500      0.0000    758.8634      5.3115     66.9029
   964.0000      0.0000    753.1251      5.4582     71.5910
   964.2500      0.0000    746.5809      5.5327     75.6811
   964.5000      0.0000    738.5001      5.5534     78.9312
   964.7500      0.0000    729.6045      5.5545     81.7864
   965.0000      0.0000    721.6158      5.5554     84.6850
   965.2500      0.0000    715.9244      5.5481     87.5102
   965.5000      0.0000    712.8943      5.5107     89.7641
   965.7500      0.0000    712.3419      5.4348     91.2079
   966.0000      0.0000    714.3486      5.3327     92.1736
   966.2500      0.0000    719.3846      5.2266     93.1165
   966.5000      0.0000    727.6770      5.1463     93.9115
   966.7500      0.0000    738.6542      5.1241     93.8934
   967.0000      0.0000    751.1037      5.1728     92.7149
   967.2500      0.0000    763.6113      5.2714     90.8429
   967.5000      0.0000    774.6496      5.3832     88.9265
   967.7500      0.0000    782.6184      5.4821     87.0029
   968.0000      0.0000    786.3841      5.5610     84.7012
   968.2500      0.0000    786.0526      5.6231     81.9950
   968.5000      0.0000    783.3600      5.6679     79.3778
   968.7500      0.0000    781.1191      5.6827     77.4092
   969.0000      0.0000    781.6731      5.6475     76.4185
   969.2500      0.0000    785.5210      5.5551     76.6805
   969.5000      0.0000    791.4979      5.4325     78.5133
   969.7500      0.0000    798.1191      5.3273     81.7582
   970.0000      0.0000    804.5840      5.2567     85.1245
   970.2500      0.0000    810.9227      5.1881     86.6278
   970.5000      0.0000    817.5034      5.0974     85.1513
   970.7500      0.0000    824.1690      5.0135     81.4658
   971.0000      0.0000    829.8351      4.9751     77.6548
   971.2500      0.0000    833.1794      4.9717     75.7141
   971.5000      0.0000    833.7499      4.9620     76.4273
   971.7500     -4.0000    832.3199      4.9258     79.0041
   972.0000      0.0000    830.0159      4.8821     81.6673
   972.2500      0.0000    826.8043      4.8750     82.9667
   972.5000      0.0000    820.9866      4.9467     82.8479
   972.7500      0.0000    810.7718      5.1001     82.4883
   973.0000      0.0000    796.5707      5.2854     83.0155
   973.2500      0.0000    781.3933      5.4406     84.3599
   973.5000      0.0000    768.7955      5.5378     85.4000
   973.7500      0.0000    760.5657      5.5863     85.1582
   974.0000      0.0000    756.2673      5.6135     83.7500
   974.2500      0.0000    754.4229      5.6458     82.3629
   974.5000      0.0000    753.7433      5.6913     82.5291
   974.7500      0.0000    753.5304      5.7371     85.0939
   975.0000      0.0000    753.4966      5.7691     89.3836
   975.2500      0.0000    753.5214      5.7827     93.4449
   975.5000      0.0000    753.5377      5.7647     95.5175
   975.7500      0.0000    753.5192      5.6834     95.3786
   976.0000      0.0000    753.4842      5.5191     94.1397
   976.2500      0.0000    753.4749      5.3077     92.9180
   976.5000      0.0000    753.5236      5.1338     91.9396
   976.7500      0.0000    753.6412      5.0621     90.8377
   977.0000      0.0000    753.8428      5.0809     89.6287
   977.2500      0.0000    754.2128      5.1244     89.1423
   977.5000      0.0000    755.0075      5.1352     90.1805
   977.7500      0.0000    756.7985      5.0957     92.3367
   978.0000      0.0000    760.5089      5.0225     94.0511
   978.2500      0.0000    767.0257      4.9552     93.9206
   978.5000      0.0000    776.2440      4.9382     91.9193
   978.7500      0.0000    786.1736      4.9892     89.5547
   979.0000      0.0000    793.3156      5.0819     88.8467
   979.2500      0.0000    794.7338      5.1645     90.6946
   979.5000      0.0000    790.3325      5.1914     93.9253
   979.7500      0.0000    782.9454      5.1465     96.0450
   980.0000      0.0000    775.8728      5.0453     94.9468
   980.2500      0.0000    770.5806      4.9174     90.0378
   980.5000      0.0000    766.9744      4.7835     82.3377
   980.7500      0.0000    764.9707      4.6464     73.7872
   981.0000      0.0000    764.7045      4.5029     66.0319
   981.2500      0.0000    765.5060      4.3588     59.5721
   981.5000      0.0000    765.8527      4.2283     54.0426
   981.7500      0.0000    764.8511      4.1193     49.0119
   982.0000      0.0000    763.4001      4.0230     44.2889
   982.2500      0.0000    763.6130      3.9195     39.8141
   982.5000      0.0000    767.1747      3.7913     35.6678
   982.7500      0.0000    774.1005      3.6346     32.1469
   983.0000      0.0000    782.6649      3.4684     29.6375
   983.2500      0.0000    790.4990      3.3356     28.3580
   983.5000      0.0000    796.0294      3.2833     28.1736
   983.7500      0.0000    799.0841      3.3291     28.6163
   984.0000      0.0000    800.4019      3.4451     29.1130
   984.2500      0.0000    800.8422      3.5786     29.2505
   984.5000      0.0000    800.9938      3.6906     28.9899
   984.7500      0.0000    801.1460      3.7808     28.8172
   985.0000      0.0000    801.3538      3.8807     29.6785
   985.2500      0.0000    801.4800      4.0192     32.6823
   985.5000      0.0000    801.2071      4.1891     38.7086
   985.7500      0.0000    799.9741      4.3451     47.7859
   986.0000      0.0000    796.9778      4.4371     58.3737
   986.2500      0.0000    791.6232      4.4539     67.6639
   986.5000      0.0000    784.4796      4.4424     73.3676
   986.7500      0.0000    777.7850      4.4759     75.3385
   987.0000      0.0000    774.2925      4.5916     75.1339
   987.2500      0.0000    775.0967      4.7620     74.1574
   987.5000      0.0000    778.8369      4.9322     72.6357
   987.7500      0.0000    783.3142      5.0705     70.1859
   988.0000      0.0000    787.2911      5.1744     66.7845
   988.2500      0.0000    790.1201      5.2446     63.1418
   988.5000      0.0000    790.4794      5.2723     60.5133
   988.7500      0.0000    786.9709      5.2492     60.0736
   989.0000      0.0000    780.1161      5.1803     62.0402
   989.2500      0.0000    772.5551      5.0840     65.2393
   989.5000      0.0000    766.7361      4.9801     67.7523
   989.7500      0.0000    763.1191      4.8840     68.2809
   990.0000      0.0000    761.1847      4.8158     66.9577
   990.2500      0.0000    761.4360      4.8018     64.7476
   990.5000      0.0000    765.2609      4.8492     62.3043
   990.7500      0.0000    772.8373      4.9282     59.8233
   991.0000      0.0000    782.1076      4.9974     57.8188
   991.2500      0.0000    790.1998      5.0380     57.4359
   991.5000      0.0000    795.4081      5.0530     59.7481
   991.7500      0.0000    797.6586      5.0419     64.9260
   992.0000      0.0000    797.5038      4.9938     72.1667
   992.2500      0.0000    795.0562      4.9095     80.2644
   992.5000      0.0000    789.8414      4.8170     88.0379
   992.7500      0.0000    781.4342      4.7530     94.2915
   993.0000      0.0000    770.0712      4.7334     97.8818
   993.2500      0.0000    756.6716      4.7523     98.2504
   993.5000      0.0000    742.6064      4.7970     95.8026
   993.7500      0.0000    729.5726      4.8468     91.5751
   994.0000      0.0000    719.2056      4.8729     86.7313
   994.2500      0.0000    712.2993      4.8648     82.4147
   994.5000      0.0000    708.4276      4.8461     79.6004
   994.7500      0.0000    706.4983      4.8414     78.6527
   995.0000      0.0000    705.6942      4.8336     79.1900
   995.2500      0.0000    706.1545      4.7770     80.5553
   995.5000      0.0000    709.0965      4.6545     82.2250
   995.7500      0.0000    715.9016      4.5087     83.7491
   996.0000      0.0000    726.1314      4.4068     84.5526
