~Version Information
 VERS.                                  2.0 : CWLS LAS VERSION
 WRAP.                                   NO : WRAPING MODE
 SWARE .                 MController 2.5.0H : SOFTWARE VERSION
~Well Information
 WELL.                        TAMI J. 23-18 : WELL
 COMP.            PIONEER NATURAL RESOURCES : COMPANY
 FLD.                      PURGATOIRE RIVER : FIELD
 LOC.                 NE/SW Sec18 T33S R65W : LOCATION
 DATE.                             12/12/04 : DATE(S) LOGGED
 SRVC.        BLANCO GEOLOGICAL SEVICES LLC : SERVICE COMPANY
 STAT.                                   CO : STATE
 CNTY.                           LAS ANIMAS : COUNTY
 CTRY.                                  USA : COUNTRY
 API.                          05-071-08073 : API NUMBER
 STRT.FT                             263.00 : START DEPTH
 STOP.FT                            1765.00 : STOP DEPTH
 STEP.FT                               1.00 : DEPTH INCREMENT
 NULL.                                -9999 : NULL VALUE
~Curve information
 DEPTH.FT                                   :
 ROP.MIN/FT                                 :
 GAS.UNITS                                  :
~ASCII Log data
# ...
      463.00        0.200          5.3 
      464.00        0.233          4.3 
      465.00        0.267          2.8 
      466.00        0.200          2.3 
      467.00        0.250          2.4 
      468.00        0.200          2.1 
      469.00        0.167          1.8 
      470.00        0.167          2.2 
      471.00        0.133          1.6 
      472.00        0.133          1.4 
      473.00        0.167          1.6 
      474.00        0.133          1.6 
      475.00        0.133          1.7 
      476.00        1.400          1.8 
      477.00        0.200          1.8 
      478.00        0.167          1.8 
      479.00        0.283          1.9 
      480.00        0.233          1.7 
      481.00        0.233          2.0 
      482.00        0.300          2.0 
      483.00        0.200          2.3 
      484.00        0.200          1.8 
      485.00        0.267          2.1 
      486.00        0.233          2.1 
      487.00        0.133          2.1 
      488.00        0.133          2.2 
      489.00        0.100          2.2 
      490.00        0.100          2.0 
      491.00        0.100          2.0 
      492.00        0.267          2.2 
      493.00        0.233          2.5 
      494.00        0.233          1.9 
      495.00        0.200          2.0 
      496.00        0.217          2.1 
      497.00        0.200          2.4 
      498.00        0.200          2.4 
      499.00        0.233          2.4 
      500.00        0.167          2.2 
      501.00        0.233          2.1 
      502.00        0.133          2.3 
      503.00        0.067          2.3 
      504.00        0.100          2.3 
      505.00        0.167          2.9 
      506.00        1.533          3.1 
      507.00        0.383          2.8 
      508.00        0.333          2.7 
      509.00        0.267          2.8 
      510.00        0.233          3.1 
      511.00        0.233          3.0 
      512.00        0.233          3.2 
      513.00        0.200          2.8 
      514.00        0.233          3.2 
      515.00        0.300          3.3 
      516.00        0.233          2.9 
      517.00        0.200          2.9 
      518.00        0.167          2.8 
      519.00        0.100          2.8 
      520.00        0.100          2.7 
      521.00        0.100          2.7 
      522.00        0.167          3.0 
      523.00        0.217          3.0 
      524.00        0.133          2.9 
      525.00        0.133          2.9 
      526.00        0.167          3.2 
      527.00        0.200          3.1 
      528.00        0.200          3.6 
      529.00        0.233          2.9 
      530.00        0.267          3.3 
      531.00        0.200          2.9 
      532.00        0.233          3.0 
      533.00        0.200          2.7 
      534.00        0.200          3.2 
      535.00        0.200          2.9 
      536.00        1.717          3.5 
      537.00        0.367          3.5 
      538.00        0.233          3.4 
      539.00        0.233          3.0 
      540.00        0.233          3.3 
      541.00        0.267          3.1 
      542.00        0.200          3.2 
      543.00        0.200          3.5 
      544.00        0.167          3.2 
      545.00        0.200          3.5 
      546.00        0.167          3.2 
      547.00        0.200          3.2 
      548.00        0.183          3.3 
      549.00        0.167          3.2 
      550.00        0.167          3.3 
      551.00        0.167          3.4 
      552.00        0.200          3.5 
      553.00        0.167          3.4 
      554.00        0.133          3.5 
      555.00        0.167          3.5 
      556.00        0.167          3.4 
      557.00        0.133          3.4 
      558.00        0.167          3.4 
      559.00        0.167          3.4 
      560.00        0.167          3.4 
      561.00        0.133          3.3 
      562.00        0.167          3.3 
      563.00        0.167          3.4 
      564.00        0.167          3.4 
      565.00        0.233          3.7 
      566.00        1.483          3.9 
      567.00        0.333          3.4 
      568.00        0.267          4.1 
      569.00        0.233          3.4 
      570.00        0.200          3.7 
      571.00        0.200          3.8 
      572.00        0.167          3.6 
      573.00        0.167          3.4 
      574.00        0.200          3.7 
      575.00        0.133          3.7 
      576.00        0.133          3.4 
      577.00        0.100          3.6 
      578.00        0.117          3.6 
      579.00        0.067          3.6 
      580.00        0.100          3.4 
      581.00        0.133          3.4 
      582.00        0.267          3.6 
      583.00        0.233          3.5 
      584.00        0.200          3.2 
      585.00        0.133          3.2 
      586.00        0.100          3.2 
      587.00        0.067          3.5 
      588.00        0.100          3.5 
      589.00        0.100          3.5 
      590.00        0.100          3.5 
      591.00        0.167          3.5 
      592.00        0.267          3.5 
      593.00        0.200          3.2 
      594.00        0.233          3.6 
      595.00        0.133          3.4 
      596.00        2.183          3.8 
      597.00        0.300          3.5 
      598.00        0.267          3.4 
      599.00        0.233          3.7 
      600.00        0.200          3.5 
      601.00        0.233          3.5 
      602.00        0.233          3.7 
      603.00        0.167          3.6 
      604.00        0.167          4.0 
      605.00        0.150          4.2 
      606.00        0.167          3.4 
      607.00        0.167          3.9 
      608.00        0.300          3.3 
      609.00        0.133          3.7 
      610.00        0.200          3.3 
      611.00        0.267          3.5 
      612.00        0.167          3.5 
      613.00        0.200          3.6 
      614.00        0.167          3.6 
      615.00        0.200          3.8 
      616.00        0.233          3.5 
      617.00        0.233          3.6 
      618.00        0.200          3.6 
      619.00        0.167          3.8 
      620.00        0.200          3.9 
      621.00        0.200          4.0 
      622.00        0.217          4.0 
      623.00        0.200          3.6 
      624.00        0.200          3.3 
      625.00        0.200          3.9 
      626.00        1.767          4.1 
      627.00        0.333          3.6 
      628.00        0.233          3.6 
      629.00        0.200          3.4 
      630.00        0.317          3.6 
      631.00        0.233          4.1 
      632.00        0.233          3.7 
      633.00        0.200          3.5 
      634.00        0.200          3.3 
      635.00        0.200          3.5 
      636.00        0.167          3.7 
      637.00        0.267          3.6 
      638.00        0.200          3.4 
      639.00        0.200          3.4 
      640.00        0.167          3.7 
      641.00        0.167          3.7 
      642.00        0.200          3.8 
      643.00        0.200          6.0 
      644.00        0.200          5.8 
      645.00        0.200          5.4 
      646.00        0.217          5.7 
      647.00        0.233          5.6 
      648.00        0.233          5.4 
      649.00        0.233          5.5 
      650.00        0.233          5.7 
      651.00        0.200          5.7 
      652.00        0.133          6.0 
      653.00        0.067          6.0 
      654.00        0.133          5.7 
      655.00        0.100          5.7 
      656.00        2.783          6.1 
      657.00        0.333          6.2 
      658.00        0.167          5.7 
      659.00        0.133          5.6 
      660.00        0.267          5.7 
      661.00        0.200          5.5 
      662.00        0.200          6.1 
