~Version Information
VERS.                      2.0: CWLS Log ASCII Standard - VERSION 2.0
WRAP.                       NO: One line per depth step
~Well Information Block
STRT.FT               546.2500: 
STOP.FT              2488.5000: 
STEP.FT                 0.2500: 
NULL.                -999.2500: 
COMP.          Petrogulf Corporation: COMPANY
WELL.               Egan 9-11V: WELL
FLD.           Purgatorie River: FIELD
LOC.           724' FNL & 1379' FWL: LOCATION
PROV.                 Colorado: PROVINCE
CNTY.               Las Animas: COUNTRY
SRVC.          Patterson Wireline: SERVICE COMPANY
DATE.          Fri Jul 11 23:16:48 2003: LOG DATE
UWI.           05 071 07875 00: UNIQUE WELL ID
~Curve Information Block
DEPT.FT            0 000 00 00: Depth
DCAL.in                       : CDL Caliper
RHOB.g/cc                     : CDL Bulk Density
RHOC.g/cc                     : CDL Density Correction
DPOR.pu                       : CDL Density Porosity
GR.GAPI                       : Gamma Ray
NPOR.pu                       : Neutron Porosity
~Parameter Information Block
~A  Depth       DCAL        RHOB        RHOC        DPOR         GR         NPOR    
# ...
  1962.2500      8.0202      2.6407      0.0549      0.5644     64.5999     21.4661
  1962.5000      8.0185      2.6334      0.0501      1.0079     61.6214     21.1404
  1962.7500      8.0230      2.6289      0.0479      1.2764     59.8982     21.0240
  1963.0000      8.0242      2.6243      0.0492      1.5588     57.9890     21.1644
  1963.2500      8.0182      2.6228      0.0528      1.6461     57.5046     21.4985
  1963.5000      8.0139      2.6229      0.0589      1.6452     58.2314     22.2893
  1963.7500      8.0137      2.6237      0.0615      1.5925     59.5022     22.9181
  1964.0000      8.0165      2.6251      0.0618      1.5096     61.9438     23.8498
  1964.2500      8.0210      2.6255      0.0597      1.4860     63.5568     24.4006
  1964.5000      8.0240      2.6249      0.0543      1.5210     65.4070     25.0609
  1964.7500      8.0259      2.6239      0.0506      1.5807     65.9438     25.3496
  1965.0000      8.0288      2.6222      0.0480      1.6855     65.2338     25.4749
  1965.2500      8.0313      2.6211      0.0496      1.7498     63.6395     25.3311
  1965.5000      8.0292      2.6193      0.0564      1.8591     59.8459     24.8132
  1965.7500      8.0220      2.6172      0.0612      1.9871     56.8001     24.3316
  1966.0000      8.0188      2.6109      0.0632      2.3674     52.3907     23.5836
  1966.2500      8.0188      2.6040      0.0592      2.7892     50.1226     23.1988
  1966.5000      8.0181      2.5896      0.0463      3.6607     48.5673     22.9565
  1966.7500      8.0201      2.5784      0.0362      4.3403     48.9506     23.0072
  1967.0000      8.0288      2.5615      0.0246      5.3666     51.0565     23.1891
  1967.2500      8.0479      2.5511      0.0211      5.9939     52.7370     23.2190
  1967.5000      8.0687      2.5373      0.0217      6.8276     54.5206     22.9396
  1967.7500      8.0706      2.5289      0.0241      7.3402     54.8022     22.5055
  1968.0000      8.0579      2.5163      0.0277      8.1032     53.3433     21.5236
  1968.2500      8.0490      2.5079      0.0298      8.6151     50.9592     20.7218
  1968.5000      8.0445      2.4960      0.0330      9.3305     45.8185     19.5397
  1968.7500      8.0400      2.4897      0.0356      9.7123     42.2610     18.9588
  1969.0000      8.0314      2.4842      0.0412     10.0470     38.5670     18.6804
  1969.2500      8.0217      2.4835      0.0463     10.0892     37.8581     18.9439
  1969.5000      8.0166      2.4862      0.0552      9.9284     39.3305     19.8617
  1969.7500      8.0176      2.4892      0.0607      9.7433     41.3209     20.6159
  1970.0000      8.0228      2.4932      0.0655      9.5001     44.1289     21.5141
  1970.2500      8.0260      2.4944      0.0659      9.4323     45.0417     21.7272
  1970.5000      8.0268      2.4930      0.0628      9.5156     44.5481     21.3275
  1970.7500      8.0287      2.4905      0.0595      9.6683     43.3322     20.7182
  1971.0000      8.0320      2.4860      0.0551      9.9406     41.0415     19.7951
  1971.2500      8.0336      2.4836      0.0535     10.0862     39.5517     19.4599
  1971.5000      8.0337      2.4821      0.0542     10.1745     37.9914     19.6053
  1971.7500      8.0333      2.4829      0.0559     10.1300     37.9949     20.1100
  1972.0000      8.0317      2.4865      0.0576      9.9108     40.6730     21.3365
  1972.2500      8.0316      2.4904      0.0574      9.6699     44.6056     22.3916
  1972.5000      8.0349      2.4986      0.0559      9.1775     53.8005     24.1537
  1972.7500      8.0379      2.5052      0.0564      8.7764     61.9601     25.2672
  1973.0000      8.0411      2.5159      0.0628      8.1294     76.2064     26.4929
  1973.2500      8.0527      2.5224      0.0712      7.7330     85.6056     26.8869
  1973.5000      8.0734      2.5291      0.0849      7.3248     95.8884     26.8043
  1973.7500      8.0799      2.5305      0.0907      7.2398     98.2134     26.3274
  1974.0000      8.0705      2.5274      0.0911      7.4286     93.6454     25.0705
  1974.2500      8.0681      2.5223      0.0870      7.7395     86.2006     23.9788
  1974.5000      8.0528      2.5115      0.0792      8.3915     72.2980     22.2569
  1974.7500      8.0110      2.5033      0.0743      8.8914     63.6795     21.2439
  1975.0000      7.9733      2.4907      0.0671      9.6536     54.3072     20.1570
  1975.2500      7.9599      2.4829      0.0623     10.1288     50.5808     19.7550
  1975.5000      7.9686      2.4729      0.0569     10.7349     47.6082     19.5457
  1975.7500      7.9936      2.4678      0.0556     11.0452     46.5744     19.5783
  1976.0000      8.0196      2.4626      0.0563     11.3604     45.6208     19.7521
  1976.2500      8.0336      2.4605      0.0577     11.4822     45.2775     19.9027
  1976.5000      8.0356      2.4590      0.0600     11.5757     45.3595     20.1424
  1976.7500      8.0287      2.4584      0.0617     11.6121     45.8137     20.2968
  1977.0000      8.0146      2.4571      0.0641     11.6922     46.5744     20.4659
  1977.2500      8.0030      2.4554      0.0648     11.7969     46.6078     20.4917
  1977.5000      8.0003      2.4510      0.0646     12.0619     45.1836     20.3508
  1977.7500      8.0034      2.4470      0.0647     12.3024     43.1659     20.1414
  1978.0000      8.0060      2.4405      0.0672     12.6998     39.1564     19.6801
  1978.2500      8.0053      2.4365      0.0706     12.9418     36.4562     19.2699
  1978.5000      7.9987      2.4322      0.0762     13.2002     33.3507     18.4583
  1978.7500      7.9840      2.4309      0.0789     13.2801     32.2259     17.7836
  1979.0000      7.9659      2.4313      0.0806     13.2567     31.9310     16.6787
  1979.2500      7.9552      2.4329      0.0802     13.1557     32.3577     15.9943
  1979.5000      7.9527      2.4370      0.0780     12.9075     33.2411     15.2226
  1979.7500      7.9524      2.4404      0.0757     12.7033     33.7791     14.9337
  1980.0000      7.9509      2.4455      0.0708     12.3919     34.7574     14.8826
  1980.2500      7.9508      2.4486      0.0657     12.2075     35.8419     15.1232
  1980.5000      7.9622      2.4524      0.0562     11.9742     38.2911     15.8944
  1980.7500      7.9878      2.4549      0.0505     11.8226     40.2531     16.6244
  1981.0000      8.0138      2.4598      0.0467     11.5253     43.3493     17.8517
  1981.2500      8.0222      2.4645      0.0478     11.2413     45.6510     18.6444
  1981.5000      8.0075      2.4740      0.0518     10.6696     49.9436     19.6786
  1981.7500      7.9807      2.4815      0.0536     10.2135     53.2590     20.2303
  1982.0000      7.9594      2.4935      0.0540      9.4844     57.7027     20.7791
  1982.2500      7.9518      2.5014      0.0546      9.0038     59.4467     20.9074
  1982.5000      7.9542      2.5127      0.0600      8.3220     59.6256     20.7080
  1982.7500      7.9528      2.5197      0.0666      7.8956     58.5063     20.3646
  1983.0000      7.9335      2.5297      0.0767      7.2917     56.4573     19.7589
  1983.2500      7.9050      2.5359      0.0805      6.9148     55.7247     19.4685
  1983.5000      7.8933      2.5442      0.0791      6.4147     56.2931     19.4450
  1983.7500      7.9036      2.5484      0.0742      6.1552     57.6100     19.7475
  1984.0000      7.9249      2.5519      0.0642      5.9434     60.3278     20.5391
  1984.2500      7.9450      2.5518      0.0575      5.9521     62.5759     21.1274
  1984.5000      7.9567      2.5478      0.0497      6.1954     67.3305     21.8843
  1984.7500      7.9562      2.5432      0.0478      6.4737     71.9042     22.3131
  1985.0000      7.9518      2.5354      0.0548      6.9467     80.8633     23.0259
  1985.2500      7.9499      2.5308      0.0675      7.2236     87.7082     23.6329
  1985.5000      7.9477      2.5265      0.0951      7.4876     98.1797     24.7256
  1985.7500      7.9417      2.5256      0.1141      7.5387    104.8858     25.4936
  1986.0000      7.9345      2.5275      0.1366      7.4266    114.1794     26.5343
