~Version Information
VERS.                      2.0: CWLS Log ASCII Standard - VERSION 2.0
WRAP.                       NO: One line per depth step
~Well Information Block
STRT.FT               375.0000: 
STOP.FT              2795.7000: 
STEP.FT                 0.1000: 
NULL.                -999.2500: 
COMP.          Pioneer Natural Resources: COMPANY
WELL.              Getem 21-23: WELL
FLD.           Purgatoire River: FIELD
LOC.           2623' FWL & 790' FNL--: LOCATION
PROV.                 Colorado: PROVINCE
CNTY.               Las Animas: COUNTRY
SRVC.                Patterson: SERVICE COMPANY
DATE.          Mon Jun 20 07:26:21 2005: LOG DATE
UWI.           05 071 08411 00: UNIQUE WELL ID
~Curve Information Block
DEPT.FT            0 000 00 00: Depth
DCAL.in                       : CDL Caliper
RHOB.g/cc                     : CDL Bulk Density
RHOC.g/cc                     : CDL Density Correction
DPOR.pu                       : CDL Density Porosity
NPOR.pu                       : Neutron Porosity
GR.GAPI                       : Gamma Ray
~Parameter Information Block
~A  Depth       DCAL        RHOB        RHOC        DPOR        NPOR         GR     
# ...
  2448.6000      7.8280      2.5495     -0.0097      6.0892     24.2232     86.0319
  2448.7000      7.8280      2.5238      0.0141      7.6482     23.5243     86.3285
  2448.8000      7.8322      2.4989      0.0152      9.1550     22.3614     87.1513
  2448.9000      7.8322      2.4863      0.0046      9.9212     21.2396     89.7684
  2449.0000      7.8325      2.4889      0.0516      9.7612     20.8647     89.8447
  2449.1000      7.8325      2.4915      0.0831      9.6086     20.9639     86.6054
  2449.2000      7.8325      2.4760      0.0642     10.5450     20.6272     88.0129
  2449.3000      7.8318      2.4266      0.0811     13.5401     19.6344     95.0253
  2449.4000      7.8318      2.3312      0.0530     19.3193     18.3811     97.6598
  2449.5000      7.8299      2.2125     -0.0353     26.5147     17.3409     94.4791
  2449.6000      7.8299      2.1203     -0.0481     32.1047     16.7520     92.7275
  2449.7000      7.8299      2.0777     -0.0124     34.6828     16.0664     93.1296
  2449.8000      7.8271      2.0720     -0.0177     35.0305     14.7029     92.1096
  2449.9000      7.8271      2.0896      0.0046     33.9609     13.1838     89.5488
  2450.0000      7.8252      2.1248      0.0952     31.8289     12.1266     87.1180
  2450.1000      7.8252      2.1646      0.1499     29.4180     11.4476     86.6432
  2450.2000      7.8252      2.2029      0.1627     27.0962     10.7766     86.6611
  2450.3000      7.8241      2.2570      0.1808     23.8195     10.2008     85.6103
  2450.4000      7.8241      2.3405      0.2228     18.7574     10.1864     84.7536
  2450.5000      7.8264      2.4287      0.2715     13.4145     10.7140     85.4664
  2450.6000      7.8264      2.4850      0.1515      9.9979     11.1716     89.5069
  2450.7000      7.8264      2.5080      0.1390      8.6046     11.4373     94.3261
  2450.8000      7.8307      2.5139      0.1068      8.2486     12.0248     94.6691
  2450.9000      7.8307      2.5179      0.0981      8.0067     12.8732     89.7060
  2451.0000      7.8320      2.5278      0.1014      7.4070     13.5065     82.6225
  2451.1000      7.8320      2.5367      0.0938      6.8644     13.9005     78.1254
  2451.2000      7.8320      2.5392      0.0798      6.7142     14.2332     79.0533
  2451.3000      7.8310      2.5447      0.0726      6.3809     14.7262     83.2671
  2451.4000      7.8310      2.5657      0.0878      5.1072     15.5128     86.0318
  2451.5000      7.8310      2.5921      0.1057      3.5067     16.5349     85.8000
  2451.6000      7.8310      2.5961      0.1155      3.2638     17.7588     85.6942
  2451.7000      7.8310      2.5740      0.0514      4.6054     18.9056     86.7970
  2451.8000      7.8320      2.5584      0.0165      5.5494     19.5280     87.0095
  2451.9000      7.8320      2.5663      0.0574      5.0728     19.7905     86.5913
  2452.0000      7.8328      2.5759      0.1038      4.4939     20.0008     86.7784
  2452.1000      7.8328      2.5744      0.0362      4.5792     20.0425     86.9700
  2452.2000      7.8328      2.5798      0.0453      4.2532     19.9482     88.0970
  2452.3000      7.8339      2.5986      0.0535      3.1152     19.9320     91.2918
  2452.4000      7.8339      2.6075      0.0896      2.5745     20.0753     93.9172
  2452.5000      7.8329      2.5911      0.0490      3.5716     20.3670     92.9480
  2452.6000      7.8329      2.5672      0.0483      5.0192     20.6848     89.1229
  2452.7000      7.8329      2.5576      0.0481      5.6030     20.9646     86.3917
  2452.8000      7.8321      2.5582      0.0883      5.5646     21.4261     87.6398
  2452.9000      7.8321      2.5556      0.0315      5.7206     22.1838     91.3994
  2453.0000      7.8319      2.5520      0.0436      5.9369     22.9209     94.8176
  2453.1000      7.8319      2.5582      0.0215      5.5647     23.2043     97.6845
  2453.2000      7.8319      2.5775      0.0589      4.3915     23.0960    100.5480
  2453.3000      7.8301      2.5934      0.1198      3.4329     23.0146    101.6527
  2453.4000      7.8301      2.5877      0.0697      3.7734     23.1856     99.6287
  2453.5000      7.8277      2.5651      0.0451      5.1453     23.5400     95.9636
  2453.6000      7.8277      2.5356      0.0603      6.9306     23.6410     91.6557
  2453.7000      7.8277      2.5138      0.0120      8.2537     23.1446     87.3194
  2453.8000      7.8274      2.5143      0.0385      8.2232     22.4435     85.2503
  2453.9000      7.8274      2.5301      0.0358      7.2659     21.9155     88.1911
  2454.0000      7.8298      2.5417      0.0565      6.5632     21.4101     94.2185
  2454.1000      7.8298      2.5414      0.0449      6.5796     20.7228     96.8568
  2454.2000      7.8298      2.5381      0.0527      6.7804     19.7720     94.7190
  2454.3000      7.8329      2.5443      0.0580      6.4051     18.9864     92.0025
  2454.4000      7.8329      2.5581      0.0667      5.5674     18.8264     90.6534
  2454.5000      7.8343      2.5580      0.1132      5.5786     18.9719     91.0997
  2454.6000      7.8343      2.5331      0.0308      7.0876     18.9216     93.1330
  2454.7000      7.8343      2.5095     -0.0028      8.5128     18.6850     94.1093
  2454.8000      7.8348      2.5096      0.0299      8.5061     18.3733     91.5013
  2454.9000      7.8348      2.5247      0.0490      7.5932     17.9091     84.8757
  2455.0000      7.8343      2.5479      0.0030      6.1893     17.5725     76.3545
  2455.1000      7.8343      2.5835      0.0535      4.0307     17.9819     69.8337
  2455.2000      7.8343      2.6158      0.1222      2.0733     18.9189     65.7506
  2455.3000      7.8333      2.6250      0.0773      1.5126     19.3509     63.2753
  2455.4000      7.8333      2.6211      0.0753      1.7502     19.1066     64.7761
  2455.5000      7.8328      2.6179      0.0875      1.9431     18.9947     70.9311
  2455.6000      7.8328      2.6158      0.0965      2.0724     19.2815     75.7898
  2455.7000      7.8328      2.6134      0.0694      2.2173     19.5399     73.0394
  2455.8000      7.8330      2.6080      0.0890      2.5459     19.4831     65.9770
  2455.9000      7.8330      2.5982      0.0883      3.1366     19.2164     62.9564
  2456.0000      7.8331      2.5903      0.0534      3.6205     18.8782     64.1517
  2456.1000      7.8331      2.5855      0.0873      3.9075     18.3071     64.8854
  2456.2000      7.8331      2.5820      0.0357      4.1190     17.6719     64.1074
  2456.3000      7.8320      2.5858      0.0359      3.8899     17.4556     62.5703
  2456.4000      7.8320      2.5975      0.0558      3.1811     17.6418     61.8124
  2456.5000      7.8327      2.6069      0.0663      2.6144     18.0289     61.6965
  2456.6000      7.8327      2.6032      0.0332      2.8356     18.5361     60.2750
  2456.7000      7.8327      2.5868      0.0155      3.8274     18.9193     58.8903
  2456.8000      7.8355      2.5695      0.0077      4.8789     19.0161     58.7475
  2456.9000      7.8355      2.5695     -0.0058      4.8778     18.8116     59.0038
  2457.0000      7.8356      2.5990      0.0005      3.0900     18.4912     59.8444
  2457.1000      7.8356      2.6406      0.0817      0.5700     18.4062     59.8490
  2457.2000      7.8356      2.6632      0.0690     -0.7999     18.5836     56.6290
  2457.3000      7.8343      2.6655      0.0560     -0.9414     18.7774     52.4144
  2457.4000      7.8343      2.6674      0.0670     -1.0521     18.6860     51.8583
  2457.5000      7.8344      2.6716      0.0689     -1.3110     18.3615     55.8568
  2457.6000      7.8344      2.6623      0.0767     -0.7445     18.1431     60.1842
  2457.7000      7.8344      2.6329      0.0559      1.0365     18.2254     61.4284
  2457.8000      7.8327      2.6035     -0.0154      2.8168     18.7143     60.4395
  2457.9000      7.8327      2.5921      0.0583      3.5092     19.2725     59.1093
  2458.0000      7.8307      2.5892      0.0387      3.6872     19.4080     58.8191
  2458.1000      7.8307      2.5830      0.0417      4.0617     19.4039     59.1967
