~Version Information
VERS.                      2.0: CWLS Log ASCII Standard - VERSION 2.0
WRAP.                       NO: One line per depth step
~Well Information Block
STRT.FT               875.6000: 
STOP.FT              2510.0000: 
STEP.FT                 0.1000: 
NULL.                -999.2500: 
COMP.          Petrogulf Corporation: COMPANY
WELL.          Collister 17-31 V: WELL
FLD.           Purgatoire River: FIELD
LOC.           910' FNL & 1594' FEL: LOCATION
PROV.                 Colorado: PROVINCE
CNTY.               Las Animas: COUNTRY
SRVC.                Patterson: SERVICE COMPANY
DATE.          Fri Dec 12 13:49:30 2003: LOG DATE
UWI.                          : UNIQUE WELL ID
~Curve Information Block
DEPT.FT            0 000 00 00: Depth
DCAL.in                       : CDL Caliper
DPOR.pu                       : CDL Density Porosity
NPOR.pu                       : Neutron Porosity
RHOB.g/cc                     : CDL Bulk Density
RHOC.g/cc                     : CDL Density Correction
GR.GAPI                       : Gamma Ray
~Parameter Information Block
~A  Depth       DCAL        DPOR        NPOR        RHOB        RHOC         GR     
# ...
  2286.8000      8.0444     -0.7352     15.8733      2.6621      0.1740     65.5371
  2286.9000      8.0444     -0.9678     14.8238      2.6660      0.1608     61.1470
  2287.0000      8.0549     -0.5220     13.5714      2.6586      0.1490     56.7440
  2287.1000      8.0549      0.3309     13.0100      2.6445      0.1662     57.0138
  2287.2000      8.0549      1.9658     13.3900      2.6176      0.1141     61.8911
  2287.3000      8.0666      3.2799     14.2157      2.5959      0.0689     66.0536
  2287.4000      8.0666      2.5530     14.6348      2.6079      0.1298     65.8245
  2287.5000      8.0894      0.6752     14.5958      2.6389      0.1630     62.2107
  2287.6000      8.0894     -0.3667     14.8227      2.6561      0.1261     59.1457
  2287.7000      8.0894     -0.6304     15.3895      2.6604      0.0810     57.5323
  2287.8000      8.0976     -0.7630     15.8288      2.6626      0.1492     55.2540
  2287.9000      8.0976     -0.3653     16.0659      2.6560      0.1229     52.0763
  2288.0000      8.1323      0.4390     16.3508      2.6428      0.0897     50.1526
  2288.1000      8.1323      1.2554     17.1649      2.6293      0.0516     53.1355
  2288.2000      8.1323      2.1286     18.4419      2.6149      0.0540     62.5806
  2288.3000      8.1131      3.0563     19.3921      2.5996      0.0755     71.3630
  2288.4000      8.1131      4.1080     20.1848      2.5822      0.0195     68.6082
  2288.5000      8.1370      5.6124     21.5632      2.5574      0.0240     57.2652
  2288.6000      8.1370      7.7791     23.4836      2.5216      0.0162     52.9651
  2288.7000      8.1370      9.6425     25.2228      2.4909     -0.0195     59.6159
  2288.8000      8.1522      9.4340     26.0500      2.4943      0.0349     69.3706
  2288.9000      8.1522      7.0262     26.0400      2.5341      0.0676     78.3833
  2289.0000      8.1566      4.5666     25.9476      2.5747      0.0867     88.8767
  2289.1000      8.1566      4.4488     26.1631      2.5766      0.1261    103.7881
  2289.2000      8.1566      7.0954     26.4798      2.5329      0.0837    117.8540
  2289.3000      8.1629     10.9622     26.9686      2.4691      0.1053    123.1830
  2289.4000      8.1629     14.4573     27.7142      2.4115      0.0613    123.0155
  2289.5000      8.1491     16.5425     27.9464      2.3770      0.0526    126.1241
  2289.6000      8.1491     17.0318     27.4847      2.3690      0.0788    130.4516
  2289.7000      8.1491     16.9463     27.3920      2.3704      0.1083    128.1167
  2289.8000      8.1829     17.1962     27.9527      2.3663      0.1143    122.8665
  2289.9000      8.1829     17.3632     28.3708      2.3635      0.0460    121.7629
  2290.0000      8.1804     16.6963     28.2385      2.3745      0.0792    124.3134
  2290.1000      8.1804     15.3182     27.5810      2.3972      0.1173    128.5943
  2290.2000      8.1804     13.9152     26.5575      2.4204      0.1128    133.5947
  2290.3000      8.1823     13.2477     25.7056      2.4314      0.1248    136.1004
  2290.4000      8.1823     14.0729     25.4524      2.4178      0.1433    133.7076
  2290.5000      8.1862     16.2456     25.6440      2.3819      0.0827    131.0242
  2290.6000      8.1862     18.2811     25.9464      2.3484      0.0321    131.8921
  2290.7000      8.1862     19.2576     26.3207      2.3322      0.0380    132.0824
  2290.8000      8.1981     20.0158     26.7819      2.3197      0.0699    129.1798
  2290.9000      8.1981     21.4602     27.2311      2.2959      0.0461    125.7738
  2291.0000      8.1825     23.4778     27.5932      2.2626      0.0388    126.7383
  2291.1000      8.1825     24.8351     27.4449      2.2402     -0.0106    128.1046
  2291.2000      8.1825     24.0297     26.8063      2.2535      0.0691    120.9346
  2291.3000      8.1826     21.5841     26.4806      2.2939      0.1086    112.4690
  2291.4000      8.1826     19.1152     26.5657      2.3346      0.1054    111.6782
  2291.5000      8.1984     17.0304     26.3091      2.3690      0.1248    113.9244
  2291.6000      8.1984     14.8286     25.6929      2.4053      0.1170    114.6320
  2291.7000      8.1984     12.3942     25.4442      2.4455      0.1634    113.5596
  2291.8000      8.1819      9.9711     25.5977      2.4855      0.0790    113.0645
  2291.9000      8.1819      7.6503     25.5962      2.5238      0.1411    118.7912
  2292.0000      8.1742      6.2177     25.1858      2.5474      0.1892    132.3831
  2292.1000      8.1742      6.1471     24.2914      2.5486      0.1106    146.8087
  2292.2000      8.1742      6.1750     23.2783      2.5481      0.1086    147.8815
  2292.3000      8.1261      5.1707     22.9274      2.5647      0.1369    134.3524
  2292.4000      8.1261      3.8514     23.3096      2.5865      0.1103    124.6703
  2292.5000      8.1359      3.6414     23.8458      2.5899      0.1226    129.1505
  2292.6000      8.1359      4.5263     24.1819      2.5753      0.0849    139.0167
  2292.7000      8.1359      4.9872     24.0380      2.5677      0.0497    139.0799
  2292.8000      8.1348      4.6289     23.4323      2.5736      0.0456    127.7914
  2292.9000      8.1348      4.9505     22.8989      2.5683      0.1154    116.9638
  2293.0000      8.1542      6.0908     22.5302      2.5495      0.0517    110.7228
  2293.1000      8.1542      5.6429     22.1873      2.5569      0.0108    110.0058
  2293.2000      8.1542      3.2095     22.2049      2.5970      0.1106    117.1877
  2293.3000      8.1545      1.9416     22.6034      2.6180      0.1932    122.5798
  2293.4000      8.1545      2.8693     22.9558      2.6027      0.0346    117.2169
  2293.5000      8.1317      3.5685     23.1061      2.5911      0.1196    109.9659
  2293.6000      8.1317      3.1501     23.0078      2.5980      0.0573    108.3011
  2293.7000      8.1317      2.4839     22.5675      2.6090      0.0277    107.1944
  2293.8000      8.1452      2.4166     22.0054      2.6101      0.0995    105.5628
  2293.9000      8.1452      3.4326     21.7807      2.5934      0.0470    107.9442
  2294.0000      8.1873      4.8663     21.8896      2.5697      0.0572    114.3186
  2294.1000      8.1873      6.1234     21.9147      2.5490      0.0915    120.1632
  2294.2000      8.1873      7.5865     21.5940      2.5248      0.0459    120.6552
  2294.3000      8.1920      8.9300     21.0919      2.5027     -0.0135    113.5272
  2294.4000      8.1920      9.3045     20.8009      2.4965      0.0038    101.6816
  2294.5000      8.1686      8.5288     21.1292      2.5093      0.0024     91.5892
  2294.6000      8.1686      6.8466     21.9071      2.5370      0.0244     87.2700
  2294.7000      8.1686      5.1316     22.1757      2.5653      0.0864     87.0158
  2294.8000      8.1723      4.7601     21.7188      2.5715      0.0446     85.4460
  2294.9000      8.1723      6.3193     21.1294      2.5457      0.0738     84.9053
  2295.0000      8.1864      8.1718     20.6519      2.5152     -0.0090     91.5730
  2295.1000      8.1864      7.5413     20.7803      2.5256     -0.0225    101.6236
  2295.2000      8.1864      4.7682     21.8752      2.5713      0.1662    109.1569
  2295.3000      8.1855      2.7473     23.2674      2.6047      0.0875    114.9756
  2295.4000      8.1855      2.6412     24.0661      2.6064      0.0620    119.8938
  2295.5000      8.1535      4.1758     23.9928      2.5811      0.0960    122.7338
  2295.6000      8.1535      6.3177     23.4074      2.5458     -0.0081    122.3276
  2295.7000      8.1535      7.8209     22.8172      2.5210      0.0310    114.7498
  2295.8000      8.1476      8.9683     22.3468      2.5020      0.0014     99.9616
  2295.9000      8.1476     10.3217     21.8602      2.4797      0.0593     90.4521
  2296.0000      8.1343     11.6984     21.2989      2.4570      0.0595     94.1723
  2296.1000      8.1343     12.5697     20.8988      2.4426      0.0367     99.3832
  2296.2000      8.1343     12.0256     21.0463      2.4516      0.0040     97.9620
  2296.3000      8.1589      9.4825     21.7481      2.4935      0.0511     97.6672
