~Version Information
VERS.                      2.0: CWLS Log ASCII Standard - VERSION 2.0
WRAP.                       NO: One line per depth step
~Well Information Block
STRT.FT               375.0000: 
STOP.FT              1727.7000: 
STEP.FT                 0.1000: 
NULL.                -999.2500: 
COMP.          Pioneer Natural Resources: COMPANY
WELL.          Warrior 33-1 Tr: WELL
FLD.           Purgatoire River: FIELD
LOC.           2648' FSL & 2341' FEL--: LOCATION
PROV.                 Colorado: PROVINCE
CNTY.               Las Animas: COUNTRY
SRVC.                Patterson: SERVICE COMPANY
DATE.          Sat Jun 18 07:53:12 2005: LOG DATE
UWI.           05 071 08412 00: UNIQUE WELL ID
~Curve Information Block
DEPT.FT            0 000 00 00: Depth
DCAL.in                       : CDL Caliper
RHOB.g/cc                     : CDL Bulk Density
RHOC.g/cc                     : CDL Density Correction
DPOR.pu                       : CDL Density Porosity
NPOR.pu                       : Neutron Porosity
GR.GAPI                       : Gamma Ray
~Parameter Information Block
~A  Depth       DCAL        RHOB        RHOC        DPOR        NPOR         GR     
# ...
   903.0000      8.1628      2.5464      0.0639      6.2800     28.4040    128.4114
   903.1000      8.1628      2.5387      0.0616      6.7426     27.4502    133.9833
   903.2000      8.1628      2.5503      0.0746      6.0419     26.8452    136.4612
   903.3000      8.1704      2.5727      0.0984      4.6861     26.3247    135.7469
   903.4000      8.1704      2.5906      0.0846      3.6005     25.5818    132.0278
   903.5000      8.1667      2.5990      0.0694      3.0887     25.1411    129.1282
   903.6000      8.1667      2.6019      0.0975      2.9168     25.6884    130.1335
   903.7000      8.1667      2.6017      0.0753      2.9254     27.1308    128.6662
   903.8000      8.1626      2.5993      0.0621      3.0727     28.5541    118.2300
   903.9000      8.1626      2.5928      0.0801      3.4678     29.0168    106.4743
   904.0000      8.1632      2.5839      0.0797      4.0067     28.4324    102.8326
   904.1000      8.1632      2.5861      0.0354      3.8730     27.4328    105.1501
   904.2000      8.1632      2.6014      0.0647      2.9448     26.7093    107.7000
   904.3000      8.1648      2.6165      0.0331      2.0304     26.8111    109.6047
   904.4000      8.1648      2.6308      0.0358      1.1624     27.5980    112.9999
   904.5000      8.1614      2.6387      0.1108      0.6845     27.9421    116.4109
   904.6000      8.1614      2.6195      0.0968      1.8505     27.1096    116.0370
   904.7000      8.1614      2.5756      0.0466      4.5083     25.9094    114.3773
   904.8000      8.1514      2.5372      0.0331      6.8340     25.3769    116.8173
   904.9000      8.1514      2.5292      0.0042      7.3235     25.3736    121.8700
   905.0000      8.1414      2.5473      0.0563      6.2224     25.1880    125.3429
   905.1000      8.1414      2.5636      0.0613      5.2377     24.6988    125.8030
   905.2000      8.1414      2.5625      0.0302      5.3047     24.1193    123.4064
   905.3000      8.1395      2.5540      0.0232      5.8175     23.5135    119.9260
   905.4000      8.1395      2.5546      0.0242      5.7847     23.1273    117.1676
   905.5000      8.1408      2.5700      0.0540      4.8459     23.0520    115.8039
   905.6000      8.1408      2.5919      0.0691      3.5226     22.9225    113.9613
   905.7000      8.1408      2.6111      0.0427      2.3602     22.7198    111.8656
   905.8000      8.1397      2.6180      0.1201      1.9371     22.7404    111.6669
   905.9000      8.1397      2.5981      0.0835      3.1437     22.7230    111.1096
   906.0000      8.1375      2.5497      0.0657      6.0774     22.4492    108.7757
   906.1000      8.1375      2.4972     -0.0271      9.2622     22.2577    107.9203
   906.2000      8.1375      2.4798     -0.0378     10.3158     22.4185    108.2543
   906.3000      8.1353      2.5065      0.0485      8.6996     22.8368    109.2763
   906.4000      8.1353      2.5370      0.0443      6.8513     23.3452    113.6100
   906.5000      8.1345      2.5425      0.0329      6.5146     23.6210    118.4759
   906.6000      8.1345      2.5435      0.0169      6.4553     23.6027    119.8988
   906.7000      8.1345      2.5583      0.0468      5.5595     23.9790    118.4011
   906.8000      8.1349      2.5668      0.1141      5.0413     25.0117    117.2200
   906.9000      8.1349      2.5546      0.0442      5.7824     26.1434    116.0169
   907.0000      8.1354      2.5426      0.0565      6.5090     26.8327    112.2818
   907.1000      8.1354      2.5465      0.0437      6.2725     27.0578    107.0489
   907.2000      8.1354      2.5576      0.0645      5.5997     27.1032    105.3944
   907.3000      8.1355      2.5615      0.0628      5.3611     27.2523    110.0618
   907.4000      8.1355      2.5485      0.0822      6.1489     27.7798    117.3815
   907.5000      8.1354      2.5178      0.0235      8.0126     28.5261    121.9126
   907.6000      8.1354      2.4853      0.0195      9.9820     28.7384    122.4955
   907.7000      8.1354      2.4783      0.0364     10.4053     28.2382    120.5934
   907.8000      8.1355      2.5111      0.0592      8.4179     27.8990    115.9656
   907.9000      8.1355      2.5633      0.0835      5.2520     28.1968    110.2965
   908.0000      8.1362      2.5976      0.1225      3.1751     28.4060    109.7347
   908.1000      8.1362      2.6049      0.0817      2.7358     28.0689    115.8989
   908.2000      8.1362      2.6025      0.1124      2.8778     27.6164    121.7839
   908.3000      8.1365      2.5968      0.0854      3.2249     27.3847    121.4871
   908.4000      8.1365      2.5910      0.0650      3.5777     27.4752    116.4498
   908.5000      8.1368      2.5939      0.0698      3.4010     27.9820    111.5761
   908.6000      8.1368      2.5993      0.0668      3.0704     28.6120    109.8161
   908.7000      8.1368      2.5980      0.0545      3.1541     28.6027    109.8565
   908.8000      8.1378      2.5988      0.0081      3.1050     27.8546    111.4155
   908.9000      8.1378      2.6032      0.0853      2.8355     27.0022    113.1504
   909.0000      8.1403      2.6068     -0.0195      2.6194     26.2147    114.3023
   909.1000      8.1403      2.6218      0.0776      1.7109     25.5938    116.6406
   909.2000      8.1403      2.6414      0.1341      0.5224     25.5155    118.2110
   909.3000      8.1464      2.6473      0.1291      0.1614     25.9578    118.1792
   909.4000      8.1464      2.6371      0.1439      0.7801     26.5047    117.0775
   909.5000      8.1510      2.6099      0.0925      2.4282     27.1741    113.7722
   909.6000      8.1510      2.5717      0.0783      4.7472     27.8876    113.0182
   909.7000      8.1510      2.5366      0.0284      6.8750     28.0723    118.6078
   909.8000      8.1520      2.5117     -0.0134      8.3834     27.8263    122.8085
   909.9000      8.1520      2.4947      0.0252      9.4119     27.7549    122.7899
   910.0000      8.1538      2.4867     -0.0087      9.8952     27.8403    127.2677
   910.1000      8.1538      2.4909      0.0619      9.6453     27.7671    136.7382
   910.2000      8.1538      2.5039      0.0101      8.8564     27.8102    140.1660
   910.3000      8.1582      2.5281      0.0097      7.3864     28.2277    136.3365
   910.4000      8.1582      2.5602      0.0990      5.4396     28.6703    133.7614
   910.5000      8.1619      2.5830      0.1648      4.0583     28.9058    134.6442
   910.6000      8.1619      2.5881      0.1449      3.7487     28.8567    136.4561
   910.7000      8.1619      2.5780      0.1394      4.3666     28.5251    135.8372
   910.8000      8.1641      2.5537      0.1076      5.8361     28.5265    132.8326
   910.9000      8.1641      2.5187      0.0814      7.9586     29.0460    131.1281
   911.0000      8.1712      2.4812      0.0827     10.2297     29.2910    129.4727
   911.1000      8.1712      2.4583     -0.0080     11.6190     29.2235    127.1164
   911.2000      8.1712      2.4595      0.0467     11.5473     29.5600    127.4649
   911.3000      8.1839      2.4678      0.0273     11.0403     30.1953    130.2615
   911.4000      8.1839      2.4649      0.0235     11.2183     30.6081    135.5741
   911.5000      8.1973      2.4501      0.0384     12.1168     30.7085    147.4327
   911.6000      8.1973      2.4312      0.0290     13.2596     30.7114    160.2955
   911.7000      8.1973      2.4202      0.0175     13.9271     30.6927    161.2225
   911.8000      8.2099      2.4263      0.0443     13.5601     30.3453    151.4462
   911.9000      8.2099      2.4423      0.0663     12.5896     29.4881    143.0991
   912.0000      8.2227      2.4591      0.0377     11.5678     28.5672    140.8198
   912.1000      8.2227      2.4844      0.0712     10.0391     28.0687    138.8538
   912.2000      8.2227      2.5235      0.1311      7.6691     27.7978    134.3900
   912.3000      8.2369      2.5716      0.1074      4.7487     27.5868    131.4324
   912.4000      8.2369      2.6238      0.1754      1.5899     27.5108    130.2854
   912.5000      8.2460      2.6732      0.1576     -1.4075     27.2497    125.6131
