~Version Information
VERS.                      2.0: CWLS Log ASCII Standard - VERSION 2.0
WRAP.                       NO: One line per depth step
~Well Information Block
STRT.FT               350.0000: 
STOP.FT              1390.0000: 
STEP.FT                 0.1000: 
NULL.                -999.2500: 
COMP.          Petrogulf Corporation: COMPANY
WELL.             Leier 17-42R: WELL
FLD.           Purgatorie River: FIELD
LOC.           2398' FNL & 1109' FEL: LOCATION
PROV.                 Colorado: PROVINCE
CNTY.               Las Animas: COUNTRY
SRVC.                Patterson: SERVICE COMPANY
DATE.          Tue Oct 18 07:06:44 2005: LOG DATE
UWI.                          : UNIQUE WELL ID
~Curve Information Block
DEPT.FT            0 000 00 00: Depth
DCAL.in                       : CDL Caliper
RHOB.g/cc                     : CDL Bulk Density
RHOC.g/cc                     : CDL Density Correction
DPOR.pu                       : CDL Density Porosity
GR.GAPI                       : Gamma Ray
NPOR.pu                       : Neutron Porosity
~Parameter Information Block
~A  Depth       DCAL        RHOB        RHOC        DPOR         GR         NPOR    
# ...
   830.0000      7.9364      2.5515      0.0544      5.9721    157.0356     26.8567
   830.1000      7.9364      2.5990      0.0882      3.0883    155.6396     27.3854
   830.2000      7.9364      2.6395      0.1285      0.6340    149.6624     27.7137
   830.3000      7.9405      2.6577      0.1593     -0.4662    146.8518     27.8603
   830.4000      7.9405      2.6485      0.1448      0.0900    150.9151     28.1098
   830.5000      7.9444      2.6234      0.0728      1.6122    156.1099     28.3892
   830.6000      7.9444      2.6003      0.0874      3.0129    155.7692     28.4197
   830.7000      7.9444      2.5867      0.0633      3.8379    151.3974     28.2819
   830.8000      7.9482      2.5811      0.0694      4.1737    150.2373     28.2870
   830.9000      7.9482      2.5755      0.1291      4.5150    152.7499     28.3493
   831.0000      7.9500      2.5660      0.0339      5.0896    153.1551     28.1247
   831.1000      7.9500      2.5579      0.0413      5.5807    150.2705     27.7134
   831.2000      7.9500      2.5573      0.0605      5.6166    146.3554     27.4972
   831.3000      7.9445      2.5684      0.0658      4.9468    143.3797     27.6267
   831.4000      7.9445      2.5850      0.0764      3.9380    144.0789     27.8878
   831.5000      7.9394      2.6038      0.0448      2.8001    147.1694     27.9168
   831.6000      7.9394      2.6260      0.1160      1.4543    148.1102     27.6164
   831.7000      7.9394      2.6413      0.0847      0.5301    148.0375     27.2358
   831.8000      7.9369      2.6454      0.1095      0.2770    148.2930     27.0990
   831.9000      7.9369      2.6430      0.0759      0.4262    145.8663     27.3257
   832.0000      7.9380      2.6310      0.1077      1.1534    144.2909     27.8238
   832.1000      7.9380      2.6083      0.0855      2.5261    148.4149     28.1665
   832.2000      7.9380      2.5838      0.0586      4.0144    151.8324     28.0446
   832.3000      7.9400      2.5602      0.0848      5.4424    151.0325     27.8957
   832.4000      7.9400      2.5324      0.0418      7.1291    150.4987     28.0244
   832.5000      7.9422      2.5057      0.0282      8.7465    150.7720     28.0221
   832.6000      7.9422      2.4893      0.0092      9.7392    150.3660     27.9175
   832.7000      7.9422      2.4822      0.0245     10.1721    150.8183     28.0654
   832.8000      7.9651      2.4713      0.0549     10.8327    152.9991     28.3837
   832.9000      7.9651      2.4494     -0.0008     12.1592    156.1394     28.5989
   833.0000      7.9752      2.4281     -0.0071     13.4498    159.9805     28.5737
   833.1000      7.9752      2.4130      0.0550     14.3664    161.5827     28.4141
   833.2000      7.9752      2.4003      0.0240     15.1323    159.4179     28.2550
   833.3000      7.9610      2.3958      0.0179     15.4044    157.0857     28.1338
   833.4000      7.9610      2.4071      0.0315     14.7240    157.0018     28.1240
   833.5000      7.9579      2.4338      0.0553     13.1035    159.0915     28.2977
   833.6000      7.9579      2.4701      0.1091     10.9044    162.3916     28.5394
   833.7000      7.9579      2.5029      0.1795      8.9136    162.3080     28.6547
   833.8000      7.9518      2.5172      0.1804      8.0471    153.4962     28.8472
   833.9000      7.9518      2.5096      0.1546      8.5107    141.1870     29.4096
   834.0000      7.9661      2.4855      0.1542      9.9667    136.5988     29.9829
   834.1000      7.9661      2.4428      0.1647     12.5549    140.3151     30.0912
   834.2000      7.9661      2.3744      0.0938     16.7058    143.0956     29.9598
   834.3000      8.0387      2.2817      0.0398     22.3195    138.5051     29.9330
   834.4000      8.0387      2.1792     -0.0101     28.5355    129.8486     30.1181
   834.5000      8.1917      2.0790     -0.0137     34.6087    122.3112     30.4807
   834.6000      8.1917      1.9744     -0.0348     40.9463    117.3968     30.7531
   834.7000      8.1917      1.8638     -0.1048     47.6484    115.1740     30.7822
   834.8000      8.2091      1.7612     -0.0845     53.8646    112.0358     30.8039
   834.9000      8.2091      1.6675     -0.0903     59.5454    103.8679     30.9950
   835.0000      8.1832      1.5796     -0.0772     64.8754     93.7218     31.3899
   835.1000      8.1832      1.5117     -0.0570     68.9891     87.2432     31.9113
   835.2000      8.1832      1.4761      0.0109     71.1449     84.2931     32.2670
   835.3000      8.1721      1.4653      0.0427     71.8029     81.3384     32.2140
   835.4000      8.1721      1.4623      0.0293     71.9846     77.9840     32.0615
   835.5000      8.1798      1.4495      0.0678     72.7556     75.6985     32.3216
   835.6000      8.1798      1.4227     -0.0320     74.3829     73.6054     32.7570
   835.7000      8.1798      1.4003     -0.0241     75.7373     71.0334     32.9141
   835.8000      8.1652      1.3955      0.0077     76.0289     69.5507     32.9376
   835.9000      8.1652      1.4058      0.0011     75.4040     72.1453     33.0878
   836.0000      8.1716      1.4342      0.0308     73.6823     79.7636     33.2788
   836.1000      8.1716      1.4890      0.0146     70.3641     88.3666     33.3719
   836.2000      8.1716      1.5645      0.0650     65.7877     93.9174     33.3443
   836.3000      8.1622      1.6451      0.0394     60.9056     97.4202     33.2120
   836.4000      8.1622      1.7276      0.0765     55.9027    100.8672     33.1006
   836.5000      8.1651      1.8110      0.1450     50.8513    104.8591     33.0617
   836.6000      8.1651      1.8884      0.1614     46.1574    111.1584     32.9464
   836.7000      8.1651      1.9580      0.1510     41.9390    119.6259     32.7066
   836.8000      8.1619      2.0142      0.1449     38.5326    127.4213     32.4752
   836.9000      8.1619      2.0498      0.1216     36.3787    132.7727     32.3820
   837.0000      8.1136      2.0692      0.0654     35.2030    136.5441     32.4138
   837.1000      8.1136      2.0824      0.0389     34.3981    138.5185     32.3663
   837.2000      8.1136      2.0973      0.0519     33.4970    136.3881     32.0917
   837.3000      8.0575      2.1234      0.0343     31.9182    131.9287     31.7894
   837.4000      8.0575      2.1624      0.0759     29.5536    129.9394     31.7966
   837.5000      8.0203      2.2067      0.0641     26.8681    132.1008     31.9396
   837.6000      8.0203      2.2498      0.1320     24.2569    137.0841     31.7809
   837.7000      8.0203      2.2811      0.1395     22.3553    141.4262     31.4643
   837.8000      8.0473      2.2959      0.1270     21.4588    141.5623     31.2777
   837.9000      8.0473      2.3002      0.0875     21.2020    138.6285     31.0339
   838.0000      8.0106      2.2995      0.0494     21.2424    136.5558     30.7121
   838.1000      8.0106      2.2930      0.0582     21.6379    136.6022     30.6372
   838.2000      8.0106      2.2735      0.0618     22.8184    137.0439     30.6749
   838.3000      8.0393      2.2376      0.0438     24.9938    137.2887     30.4705
   838.4000      8.0393      2.1902      0.0105     27.8639    138.4402     30.1798
   838.5000      8.0488      2.1418      0.0243     30.7970    140.6390     30.1703
   838.6000      8.0488      2.1089      0.0059     32.7967    143.0465     30.5027
   838.7000      8.0488      2.1003      0.0206     33.3141    144.4912     30.8322
   838.8000      8.0509      2.1087      0.0342     32.8036    144.0807     30.8700
   838.9000      8.0509      2.1322      0.0447     31.3831    141.4877     30.8471
   839.0000      8.1294      2.1734      0.1084     28.8847    138.3864     31.0590
   839.1000      8.1294      2.2238      0.1242     25.8322    139.8584     31.3118
   839.2000      8.1294      2.2758      0.1693     22.6781    148.0651     31.1949
   839.3000      8.1548      2.3223      0.1931     19.8606    157.1364     30.9084
   839.4000      8.1548      2.3513      0.1426     18.1038    161.0005     31.0006
   839.5000      8.1337      2.3635      0.0640     17.3619    159.4014     31.4255
