~Version Information
VERS.                      2.0: CWLS Log ASCII Standard - VERSION 2.0
WRAP.                       NO: One line per depth step
~Well Information Block
STRT.FT               545.0000: 
STOP.FT              1920.5000: 
STEP.FT                 0.1000: 
NULL.                -999.2500: 
COMP.          Pioneer Natural Resources: COMPANY
WELL.            Summers 21-19: WELL
FLD.           Purgatoire River: FIELD
LOC.           900' FNL & 1950' FWL: LOCATION
PROV.                 Colorado: PROVINCE
CNTY.               Las Animas: COUNTRY
SRVC.                Patterson: SERVICE COMPANY
DATE.          Mon Oct 17 07:05:22 2005: LOG DATE
UWI.           05 071 08315 00: UNIQUE WELL ID
~Curve Information Block
DEPT.FT            0 000 00 00: Depth
DCAL.in                       : CDL Caliper
RHOB.g/cc                     : CDL Bulk Density
RHOC.g/cc                     : CDL Density Correction
DPOR.pu                       : CDL Density Porosity
GR.GAPI                       : Gamma Ray
NPOR.pu                       : Neutron Porosity
~Parameter Information Block
~A  Depth       DCAL        RHOB        RHOC        DPOR         GR         NPOR    
# ...
  1543.4000      8.0336      2.4051      0.0633     14.8409     43.9130     15.1599
  1543.5000      8.0337      2.4110      0.1141     14.4843     48.2886     14.8924
  1543.6000      8.0337      2.4233      0.0766     13.7389     57.8583     15.3858
  1543.7000      8.0337      2.4432      0.0869     12.5336     64.8765     15.9556
  1543.8000      8.0339      2.4698      0.0773     10.9184     66.1196     16.2235
  1543.9000      8.0339      2.4933      0.0993      9.4979     69.6017     16.3170
  1544.0000      8.0292      2.5058      0.0718      8.7388     79.6009     16.0742
  1544.1000      8.0292      2.5055      0.0679      8.7567     91.3687     15.5107
  1544.2000      8.0292      2.4968      0.0293      9.2829     98.3287     15.1701
  1544.3000      8.0284      2.4966      0.0339      9.2990     96.3897     15.4129
  1544.4000      8.0284      2.5110      0.0844      8.4228     89.2379     15.7206
  1544.5000      8.0139      2.5199      0.0470      7.8843     85.4385     15.6977
  1544.6000      8.0139      2.5040      0.0536      8.8486     88.7148     15.8730
  1544.7000      8.0139      2.4685     -0.0269     10.9999     97.1210     16.3506
  1544.8000      8.0054      2.4397     -0.0427     12.7480    103.0268     16.6838
  1544.9000      8.0054      2.4362      0.0053     12.9566     98.9551     16.6144
  1545.0000      7.9912      2.4454      0.0440     12.4018     90.2771     16.2667
  1545.1000      7.9912      2.4433      0.0577     12.5265     85.6797     16.0625
  1545.2000      7.9912      2.4282      0.0143     13.4451     83.8611     16.0396
  1545.3000      8.0161      2.4122      0.0332     14.4117     79.4104     16.1102
  1545.4000      8.0161      2.4026      0.0042     14.9948     73.3566     16.0747
  1545.5000      7.9882      2.4038      0.0084     14.9228     70.1829     15.5426
  1545.6000      7.9882      2.4135      0.0644     14.3329     69.9413     14.8395
  1545.7000      7.9882      2.4309      0.0152     13.2818     70.8294     14.5933
  1545.8000      7.9913      2.4609      0.0307     11.4582     71.9072     15.0897
  1545.9000      7.9913      2.4933      0.0371      9.4966     74.1485     15.7662
  1546.0000      8.0197      2.5081      0.0705      8.6027     77.5515     15.7626
  1546.1000      8.0197      2.5045      0.0745      8.8157     78.1718     15.3949
  1546.2000      8.0197      2.5006      0.0271      9.0552     76.7630     15.3075
  1546.3000      8.0251      2.5077      0.0453      8.6270     78.7248     15.4388
  1546.4000      8.0251      2.5216      0.0602      7.7836     79.9437     15.6942
  1546.5000      8.0493      2.5275      0.0666      7.4272     76.2894     15.7492
  1546.6000      8.0493      2.5138      0.0570      8.2535     73.3070     15.6253
  1546.7000      8.0493      2.4901     -0.0022      9.6912     72.9273     16.0233
  1546.8000      8.1002      2.4755      0.0328     10.5775     73.1904     16.6433
  1546.9000      8.1002      2.4842     -0.0155     10.0505     74.7066     16.6993
  1547.0000      8.1366      2.5198      0.0169      7.8905     75.4518     16.7801
  1547.1000      8.1366      2.5610      0.0436      5.3956     73.8844     17.3035
  1547.2000      8.1366      2.5715      0.0935      4.7592     75.2092     17.2892
  1547.3000      8.1040      2.5410      0.0078      6.6051     80.5268     16.5099
  1547.4000      8.1040      2.4948     -0.0148      9.4076     84.3244     16.1666
  1547.5000      8.0906      2.4583     -0.0498     11.6172     85.0561     16.7672
  1547.6000      8.0906      2.4449     -0.0755     12.4275     84.7927     17.6705
  1547.7000      8.0906      2.4555     -0.0227     11.7890     83.4401     17.9354
  1547.8000      8.0596      2.4656      0.0487     11.1775     79.1311     17.3814
  1547.9000      8.0596      2.4479      0.0357     12.2509     72.7177     16.9397
  1548.0000      8.0663      2.4074     -0.0325     14.7046     66.6827     17.0310
  1548.1000      8.0663      2.3701     -0.0726     16.9626     62.6555     17.0211
  1548.2000      8.0663      2.3510     -0.0189     18.1236     61.2192     16.5480
  1548.3000      8.0749      2.3502     -0.0552     18.1673     60.8414     15.9183
  1548.4000      8.0749      2.3695     -0.0502     16.9975     61.3046     15.2234
  1548.5000      8.0299      2.3985      0.0543     15.2422     61.3652     14.4785
  1548.6000      8.0299      2.4129      0.0647     14.3679     57.7847     13.9269
  1548.7000      8.0299      2.4069      0.0289     14.7344     51.6676     13.5913
  1548.8000      8.0034      2.3917      0.0359     15.6551     46.2064     13.3807
  1548.9000      8.0034      2.3779      0.0338     16.4901     42.9294     13.2950
  1549.0000      8.0148      2.3786      0.0116     16.4506     42.5017     13.1738
  1549.1000      8.0148      2.3972      0.0215     15.3212     42.7985     12.7404
  1549.2000      8.0148      2.4118      0.1132     14.4371     41.1114     12.1977
  1549.3000      7.9955      2.4057      0.0753     14.8077     41.2887     12.1270
  1549.4000      7.9955      2.3919      0.0531     15.6433     47.7263     12.6181
  1549.5000      7.9958      2.3812      0.0505     16.2899     55.9901     13.4696
  1549.6000      7.9958      2.3742     -0.0131     16.7142     59.0573     14.4849
  1549.7000      7.9958      2.3738      0.0372     16.7396     57.2474     15.2081
  1549.8000      7.9971      2.3712      0.0729     16.8990     56.8201     15.2791
  1549.9000      7.9971      2.3605      0.0293     17.5425     61.3943     15.4588
  1550.0000      7.9983      2.3524      0.0490     18.0390     67.1375     16.6406
  1550.1000      7.9983      2.3548      0.0275     17.8930     69.8616     18.2096
  1550.2000      7.9983      2.3711      0.0216     16.9060     70.1363     18.6146
  1550.3000      8.0089      2.3960      0.0252     15.3933     68.6880     17.5743
  1550.4000      8.0089      2.4239     -0.0028     13.7010     69.0380     16.3308
  1550.5000      8.0066      2.4576      0.0702     11.6623     74.3602     15.3766
  1550.6000      8.0066      2.4886      0.1312      9.7835     78.9379     14.4886
  1550.7000      8.0066      2.5018      0.1059      8.9810     77.3783     14.1209
  1550.8000      7.9981      2.4916      0.1070      9.5987     73.6905     14.7137
  1550.9000      7.9981      2.4581      0.1131     11.6281     72.8288     15.4661
  1551.0000      7.9924      2.4156      0.0449     14.2059     73.1983     15.2620
  1551.1000      7.9924      2.3957      0.0102     15.4100     72.4708     14.5336
  1551.2000      7.9924      2.4080      0.0448     14.6667     72.9239     14.5021
  1551.3000      8.0001      2.4248      0.0597     13.6480     75.8752     15.4260
  1551.4000      8.0001      2.4274      0.0389     13.4880     78.2801     16.3929
  1551.5000      7.9967      2.4345      0.0239     13.0583     77.6315     16.3806
  1551.6000      7.9967      2.4660      0.0584     11.1530     73.3390     15.7914
  1551.7000      7.9967      2.5062      0.0875      8.7163     69.6230     15.6019
  1551.8000      7.9981      2.5261      0.1061      7.5090     73.3483     15.8474
  1551.9000      7.9981      2.5218      0.0605      7.7721     81.4319     16.1628
  1552.0000      7.9890      2.5129      0.0478      8.3109     85.5314     16.3050
  1552.1000      7.9890      2.5050      0.0392      8.7869     85.0886     16.1987
  1552.2000      7.9890      2.4753      0.1264     10.5906     82.9419     16.0536
  1552.3000      8.0080      2.4209     -0.0480     13.8847     79.1280     16.0260
  1552.4000      8.0080      2.3779     -0.0519     16.4884     72.7354     16.1075
  1552.5000      8.0084      2.3572      0.0014     17.7460     64.9442     16.2012
  1552.6000      8.0084      2.3412     -0.0544     18.7159     60.7375     16.0693
  1552.7000      8.0084      2.3313     -0.0314     19.3145     62.3509     15.7349
  1552.8000      8.0118      2.3389      0.0273     18.8516     65.7133     15.4876
  1552.9000      8.0118      2.3601      0.0498     17.5702     64.7422     15.4720
