~Version Information
VERS.                      2.0: CWLS Log ASCII Standard - VERSION 2.0
WRAP.                       NO: One line per depth step
~Well Information Block
STRT.FT                -9.5000: 
STOP.FT              2451.0000: 
STEP.FT                 0.2500: 
NULL.                -999.2500: 
COMP.          Petrogulf Corporation: COMPANY
WELL.           Vallejo 19-31V: WELL
FLD.           Purgatorie River: FIELD
LOC.           345' FNL & 2457' FEL: LOCATION
CNTY.               Las Animas: COUNTY
SRVC.                         : SERVICE COMPANY
DATE.          Mon Mar 08 08:24:37 2004: LOG DATE
UWI.           05-071-07919-00: UNIQUE WELL ID
STAT.                 Colorado: STATE
~Curve Information Block
DEPT.FT            0 000 00 00: Depth
MINMK.                        : Surface Line Tension
GR.GAPI                       : Gamma Ray
CCL.                          : Casing Collar Locator
TT3.usec                      : CBL 3' Travel Time
AMP3.mV                       : CBL 3' Amplitude
~Parameter Information Block
~A  Depth      MINMK         GR         CCL         TT3         AMP3    
# ...
   326.5000      0.0000    122.5200      0.0000    270.9924     81.6910
   326.7500      0.0000    124.0439      0.0000    270.9639     81.6687
   327.0000      0.0000    125.0035      0.0000    270.8895     81.6778
   327.2500      0.0000    124.5043      0.0000    270.7784     81.6748
   327.5000      0.0000    122.2467      0.0000    270.6904     81.6363
   327.7500      1.0000    118.2950      0.0000    270.6416     81.5855
   328.0000      0.0000    112.8398      0.0000    270.5672     81.5496
   328.2500      0.0000    106.4031      0.0000    270.4764     81.5330
   328.5000      0.0000     99.9972      0.0000    270.4699     81.5219
   328.7500      0.0000     94.7993      0.0000    270.5313     81.4974
   329.0000      0.0000     91.4142      0.0000    270.5312     81.4648
   329.2500      0.0000     89.2497      0.0000    270.4688     81.4532
   329.5000      0.0000     86.9022      0.0000    270.4688     81.4717
   329.7500      0.0000     83.6239      0.0000    270.5313     81.4965
   330.0000      0.0000     80.2789      0.0000    270.5322     81.5070
   330.2500      0.0000     78.4882      0.0000    270.4764     81.5130
   330.5000      0.0000     78.8841      0.0000    270.5049     81.5351
   330.7500      0.0000     80.3794      0.0000    270.6406     81.5779
   331.0000      0.0000     81.0538      0.0000    270.7452     81.6383
   331.2500      0.0000     79.6394      0.0000    270.7435     81.7099
   331.5000      0.0000     76.2924      0.0000    270.7264     81.7682
   331.7500      0.0000     72.2429      0.0000    270.7935     81.7873
   332.0000      0.0000     68.7759      0.0000    270.9266     81.7797
   332.2500      0.0000     66.3895      0.0000    271.0733     81.7930
   332.5000      0.0000     64.8870      0.0000    271.2054     81.8462
   332.7500      0.0000     64.1561      0.0000    271.2649     81.8977
   333.0000      0.0000     64.4087      0.0000    271.2129     81.9091
   333.2500      0.0000     65.5674      0.0000    271.1093     81.9038
   333.5000      0.0000     66.9781      0.0000    271.0360     81.9245
   333.7500      0.0000     68.1284      0.0000    271.0076     81.9717
   334.0000      0.0000     69.4467      0.0000    271.0010     82.0198
   334.2500      0.0000     72.0734      0.0000    271.0001     82.0650
   334.5000      0.0000     76.8390      0.0000    271.0000     82.1237
   334.7500      0.0000     83.4480      0.0000    271.0000     82.1967
   335.0000      0.0000     90.4848      0.0000    271.0000     82.2636
   335.2500      0.0000     96.2862      0.0000    271.0000     82.3140
   335.5000      0.0000    100.0821      0.0000    271.0000     82.3559
   335.7500      0.0000    102.3402      0.0000    271.0000     82.3887
   336.0000      0.0000    104.0618      0.0000    271.0000     82.4165
   336.2500      0.0000    106.0146      0.0000    271.0000     82.4739
   336.5000      0.0000    108.4119      0.0000    271.0000     82.5773
   336.7500      0.0000    110.6785      0.0000    271.0000     82.6800
   337.0000      0.0000    111.6121      0.0000    271.0000     82.7299
   337.2500      0.0000    110.5372      0.0000    271.0000     82.7391
   337.5000      0.0000    108.2567      0.0000    271.0000     82.7467
   337.7500      0.0000    106.2290      0.0000    271.0000     82.7540
   338.0000      0.0000    104.9817      0.0000    271.0000     82.7516
   338.2500      0.0000    103.8420      0.0000    271.0000     82.7662
   338.5000      0.0000    101.9223      0.0000    271.0000     82.8209
   338.7500      0.0000     99.0590      0.0000    271.0000     82.8802
   339.0000      0.0000     96.3227      0.0000    271.0000     82.8981
   339.2500      0.0000     95.8463      0.0000    271.0000     82.8960
   339.5000      0.0000     99.4310      0.0000    271.0000     82.9083
   339.7500      0.0000    106.7615      0.0000    271.0000     82.9155
   340.0000      0.0000    115.2772      0.0000    271.0000     82.9099
   340.2500      0.0000    121.9883      0.0000    271.0000     82.9249
   340.5000      0.0000    125.2211      0.0000    271.0000     82.9620
   340.7500      0.0000    124.9073      0.0000    271.0000     82.9939
   341.0000      0.0000    122.0548      0.0000    271.0000     83.0253
   341.2500      0.0000    118.3042      0.0000    271.0000     83.0669
   341.5000      0.0000    115.3655      0.0000    271.0000     83.0978
   341.7500      0.0000    114.1070      0.0000    271.0000     83.1156
   342.0000      0.0000    114.1257      0.0000    271.0000     83.1489
   342.2500      0.0000    114.4242      0.0000    271.0006     83.2046
   342.5000      0.0000    114.3870      0.0000    271.0077     83.2869
   342.7500      0.0000    113.8984      0.0000    271.0602     83.3893
   343.0000      0.0000    112.7519      0.0000    271.3084     83.2261
   343.2500      0.0000    110.5302      0.0000    272.0652     81.8163
   343.5000      0.0000    107.2748      0.0000    273.5678     77.8252
   343.7500      0.0000    103.6463      0.0000    275.5459     71.4372
   344.0000      0.0000    100.0049      0.0000    277.2946     64.9886
   344.2500      0.0000     95.9461      0.0000    278.2720     60.1294
   344.5000      0.0000     91.3461      0.0000    278.4686     56.7105
   344.7500      0.0000     87.3215     -4.9548    278.2841     54.7668
   345.0000      0.0000     85.4328     -5.0000    278.0992     54.2958
   345.2500      0.0000     86.0702      0.0000    278.0192     54.4790
   345.5000      0.0000     88.1639      0.0000    278.0034     54.5718
   345.7500      0.0000     90.4334      0.0000    278.0564     54.2283
   346.0000      0.0000     92.5770      0.0000    278.2433     53.2994
   346.2500      0.0000     95.1340      0.0000    278.4050     52.5074
   346.5000      0.0000     98.4678      0.0000    277.8989     54.1311
   346.7500      0.0000    102.3628      0.0000    276.2240     59.9574
   347.0000      0.0000    106.6862      0.0000    273.9199     68.2233
   347.2500      0.0000    111.7368      0.0000    272.0884     75.2677
   347.5000      0.0000    117.4670      0.0000    271.2103     79.5096
   347.7500      0.0000    122.9533      0.0000    270.9851     81.5428
   348.0000      0.0000    127.0590      0.0000    270.9788     82.3131
   348.2500      0.0000    129.0638      0.0000    270.9929     82.5120
   348.5000      0.0000    128.5752      0.0000    270.9904     82.5303
   348.7500      0.0000    125.7800      0.0000    270.9553     82.5145
   349.0000      0.0000    122.0251      0.0000    270.8471     82.4985
   349.2500      0.0000    119.2330      0.0000    270.6417     82.4789
   349.5000      0.0000    118.3383      0.0000    270.4117     82.4592
   349.7500      0.0000    118.6877      0.0000    270.3081     82.4468
   350.0000      0.0000    119.0034      0.0000    270.4117     82.4422
   350.2500      0.0000    118.3337      0.0000    270.6417     82.4465
   350.5000      0.0000    116.0717      0.0000    270.8471     82.4471
   350.7500      0.0000    111.8741      0.0000    270.9554     82.4404
   351.0000      0.0000    106.0585      0.0000    270.9912     82.4486
   351.2500      0.0000     99.8043      0.0000    270.9978     82.4592
   351.5000      0.0000     94.6710      0.0000    270.9912     82.4293
   351.7500      0.0000     91.8824      0.0000    270.9554     82.3550
   352.0000      0.0000     91.7349      0.0000    270.8471     82.2666
   352.2500      0.0000     93.3505      0.0000    270.6417     82.1922
   352.5000      0.0000     95.2421      0.0000    270.4117     82.1411
   352.7500      0.0000     96.5548      0.0000    270.3080     82.1097
   353.0000      0.0000     97.6184      0.0000    270.4107     82.0902
   353.2500      0.0000     99.0389      0.0000    270.6341     82.0769
   353.5000      0.0000    100.6314      0.0000    270.8111     82.0735
   353.7500      0.0000    101.6209      0.0000    270.8460     82.0676
   354.0000      0.0000    101.4933      0.0000    270.7783     82.0371
   354.2500      0.0000    100.2311      0.0000    270.7329     81.9972
