~Version Information
VERS.                      2.0: CWLS Log ASCII Standard - VERSION 2.0
WRAP.                       NO: One line per depth step
~Well Information Block
STRT.FT               930.0000: 
STOP.FT              2783.2500: 
STEP.FT                 0.2500: 
NULL.                -999.2500: 
COMP.          Pioneer Natural Resources: COMPANY
WELL.           Desoto 13-7TR: WELL
FLD.           Purgatoire River: FIELD
LOC.           1404' FSL & 1115' FWL: LOCATION
PROV.                 Colorado: PROVINCE
CNTY.               Las Animas: COUNTRY
SRVC.                Patterson: SERVICE COMPANY
DATE.          Fri Jan 14 11:02:13 2005: LOG DATE
UWI.           05 071 08216 00: UNIQUE WELL ID
~Curve Information Block
DEPT.FT            0 000 00 00: Depth
SN.Ohm-m                      : IEL Short Normal
SP.mV                         : IEL Spontaneous Potential
DIR.Ohm-m                     : IEL Induction Resistivity
GR.GAPI                       : Gamma Ray
~Parameter Information Block
~A  Depth        SN          SP         DIR          GR     
# ...
  1164.5000   2000.0000   2000.0000     41.8772     47.2723
  1164.7500   2000.0000   2000.0000     41.1271     46.5044
  1165.0000   2000.0000   2000.0000     40.4258     45.7126
  1165.2500   2000.0000   2000.0000     39.8611     45.5662
  1165.5000   2000.0000   2000.0000     39.4884     46.0116
  1165.7500   2000.0000   2000.0000     39.2993     46.5625
  1166.0000   2000.0000   2000.0000     39.2278     47.1443
  1166.2500   2000.0000   2000.0000     39.1946     47.1164
  1166.5000   2000.0000   2000.0000     39.1519     46.6007
  1166.7500   2000.0000   2000.0000     39.0912     46.3292
  1167.0000   2000.0000   2000.0000     39.0149     46.8379
  1167.2500   2000.0000   2000.0000     38.9115     48.0897
  1167.5000   2000.0000   2000.0000     38.7608     51.2133
  1167.7500   2000.0000   2000.0000     38.5552     53.7106
  1168.0000   2000.0000   2000.0000     38.3071     57.2475
  1168.2500   2000.0000   2000.0000     38.0329     59.1072
  1168.5000   2000.0000   2000.0000     37.7375     60.7583
  1168.7500   2000.0000   2000.0000     37.4199     60.9884
  1169.0000   2000.0000   2000.0000     37.0926     60.1437
  1169.2500   2000.0000   2000.0000     36.7853     59.0309
  1169.5000   2000.0000   2000.0000     36.5253     56.9919
  1169.7500   2000.0000   2000.0000     36.3147     55.5302
  1170.0000   2000.0000   2000.0000     36.1390     53.3326
  1170.2500   2000.0000   2000.0000     36.0051     52.1395
  1170.5000   2000.0000   2000.0000     35.9563     51.8862
  1170.7500   2000.0000   2000.0000     36.0171     53.6455
  1171.0000   2000.0000   2000.0000     36.0946     60.3837
  1171.2500   2000.0000   2000.0000     35.9473     67.7025
  1171.5000   2000.0000   2000.0000     35.3227     81.6950
  1171.7500   2000.0000   2000.0000     34.1884     91.6064
  1172.0000   2000.0000   2000.0000     32.7917    104.3768
  1172.2500   2000.0000   2000.0000     31.4655    110.0574
  1172.5000   2000.0000   2000.0000     30.4156    113.4076
  1172.7500   2000.0000   2000.0000     29.6698    112.6980
  1173.0000   2000.0000   2000.0000     29.1454    109.2145
  1173.2500   2000.0000   2000.0000     28.7379    106.5319
  1173.5000   2000.0000   2000.0000     28.3766    103.5688
  1173.7500   2000.0000   2000.0000     28.0366    102.8437
  1174.0000   2000.0000   2000.0000     27.7231    103.8601
  1174.2500   2000.0000   2000.0000     27.4515    105.5659
  1174.5000   2000.0000   2000.0000     27.2425    108.4173
  1174.7500   2000.0000   2000.0000     27.1235    109.8948
  1175.0000   2000.0000   2000.0000     27.1194    111.0818
  1175.2500   2000.0000   2000.0000     27.2268    111.1813
  1175.5000   2000.0000   2000.0000     27.3927    110.4235
  1175.7500   2000.0000   2000.0000     27.5238    109.5540
  1176.0000   2000.0000   2000.0000     27.5347    108.2347
  1176.2500   2000.0000   2000.0000     27.4039    107.4398
  1176.5000   2000.0000   2000.0000     27.1905    106.1359
  1176.7500   2000.0000   2000.0000     26.9959    105.1182
  1177.0000   2000.0000   2000.0000     26.8948    103.6520
  1177.2500   2000.0000   2000.0000     26.8884    103.0420
  1177.5000   2000.0000   2000.0000     26.9078    103.4371
  1177.7500   2000.0000   2000.0000     26.8616    105.1059
  1178.0000   2000.0000   2000.0000     26.6821    110.2106
  1178.2500   2000.0000   2000.0000     26.3352    114.9537
  1178.5000   2000.0000   2000.0000     25.8036    122.3010
  1178.7500   2000.0000   2000.0000     25.0903    126.3137
  1179.0000   2000.0000   2000.0000     24.2400    130.2087
  1179.2500   2000.0000   2000.0000     23.3413    131.4856
  1179.5000   2000.0000   2000.0000     22.4920    132.0111
  1179.7500   2000.0000   2000.0000     21.7591    131.8575
  1180.0000   2000.0000   2000.0000     21.1644    131.5186
  1180.2500   2000.0000   2000.0000     20.6950    131.4469
  1180.5000   2000.0000   2000.0000     20.3200    131.6250
  1180.7500   2000.0000   2000.0000     20.0054    131.7801
  1181.0000   2000.0000   2000.0000     19.7262    131.5506
  1181.2500   2000.0000   2000.0000     19.4750    130.7773
  1181.5000   2000.0000   2000.0000     19.2656    128.4623
  1181.7500   2000.0000   2000.0000     19.1266    126.2572
  1182.0000   2000.0000   2000.0000     19.0878    122.3869
  1182.2500   2000.0000   2000.0000     19.1647    119.6787
  1182.5000   2000.0000   2000.0000     19.3484    115.6793
  1182.7500   2000.0000   2000.0000     19.6058    113.1651
  1183.0000   2000.0000   2000.0000     19.8929    110.0165
  1183.2500   2000.0000   2000.0000     20.1752    108.6658
  1183.5000   2000.0000   2000.0000     20.4465    108.0181
  1183.7500   2000.0000   2000.0000     20.7292    108.1936
  1184.0000   2000.0000   2000.0000     21.0560    108.2788
  1184.2500   2000.0000   2000.0000     21.4510    107.7519
  1184.5000   2000.0000   2000.0000     21.9237    106.1474
  1184.7500   2000.0000   2000.0000     22.4768    104.8319
  1185.0000   2000.0000   2000.0000     23.1149    102.7294
  1185.2500   2000.0000   2000.0000     23.8419    101.1508
  1185.5000   2000.0000   2000.0000     24.6499     98.3031
  1185.7500   2000.0000   2000.0000     25.5113     96.0407
  1186.0000   2000.0000   2000.0000     26.3890     92.2480
  1186.2500   2000.0000   2000.0000     27.2611     89.7340
  1186.5000   2000.0000   2000.0000     28.1403     86.7455
  1186.7500   2000.0000   2000.0000     29.0629     85.6216
  1187.0000   2000.0000   2000.0000     30.0502     85.1473
  1187.2500   2000.0000   2000.0000     31.0704     85.2229
  1187.5000   2000.0000   2000.0000     32.0294     85.2250
  1187.7500   2000.0000   2000.0000     32.8049     85.0276
  1188.0000   2000.0000   2000.0000     33.2965     84.6260
  1188.2500   2000.0000   2000.0000     33.4589     84.4158
  1188.5000   2000.0000   2000.0000     33.3106     84.2414
  1188.7500   2000.0000   2000.0000     32.9370     84.2462
  1189.0000   2000.0000   2000.0000     32.4938     84.5976
  1189.2500   2000.0000   2000.0000     32.1787     85.1245
  1189.5000   2000.0000   2000.0000     32.1615     86.1730
  1189.7500   2000.0000   2000.0000     32.5089     86.7838
  1190.0000   2000.0000   2000.0000     33.1529     86.9403
  1190.2500   2000.0000   2000.0000     33.9244     86.1069
  1190.5000   2000.0000   2000.0000     34.6396     82.9779
  1190.7500   2000.0000   2000.0000     35.1807     79.8691
  1191.0000   2000.0000   2000.0000     35.5199     74.9753
  1191.2500   2000.0000   2000.0000     35.6920     72.2943
  1191.5000   2000.0000   2000.0000     35.7654     69.2739
  1191.7500   2000.0000   2000.0000     35.8227     67.4838
  1192.0000   2000.0000   2000.0000     35.9341     64.9673
  1192.2500   2000.0000   2000.0000     36.1135     64.1954
  1192.5000   2000.0000   2000.0000     36.2938     66.4943
  1192.7500   2000.0000   2000.0000     36.3616     70.9549
  1193.0000   2000.0000   2000.0000     36.2400     80.8146
  1193.2500   2000.0000   2000.0000     35.9550     87.6683
  1193.5000   2000.0000   2000.0000     35.6224     95.0880
  1193.7500   2000.0000   2000.0000     35.3666     97.1489
  1194.0000   2000.0000   2000.0000     35.2455     96.5515
  1194.2500   2000.0000   2000.0000     35.2314     94.9607
  1194.5000   2000.0000   2000.0000     35.2535     92.9258
  1194.7500   2000.0000   2000.0000     35.2704     92.4294
  1195.0000   2000.0000   2000.0000     35.3120     92.8813
  1195.2500   2000.0000   2000.0000     35.4489     93.5336
  1195.5000   2000.0000   2000.0000     35.7064     94.2125
  1195.7500   2000.0000   2000.0000     35.9970     94.2100
  1196.0000   2000.0000   2000.0000     36.1265     93.6698
  1196.2500   2000.0000   2000.0000     35.8903     93.2647
  1196.5000   2000.0000   2000.0000     35.1955     93.2285
  1196.7500   2000.0000   2000.0000     34.1093     93.9728
  1197.0000   2000.0000   2000.0000     32.8011     96.7937
  1197.2500   2000.0000   2000.0000     31.4433     99.9409
  1197.5000   2000.0000   2000.0000     30.1553    106.2864
  1197.7500   2000.0000   2000.0000     28.9979    111.0534
