~Version Information
VERS.                      2.0: CWLS Log ASCII Standard - VERSION 2.0
WRAP.                       NO: One line per depth step
~Well Information Block
STRT.FT               946.8000: 
STOP.FT              2134.5000: 
STEP.FT                 0.1000: 
NULL.                -999.2500: 
COMP.          Petrogulf Corporation: COMPANY
WELL.             Valejo 8-12R: WELL
FLD.           Purgatorie River: FIELD
LOC.           1351'' FNL & 1562' FWL: LOCATION
CNTY.               Las Animas: COUNTY
SRVC.                         : SERVICE COMPANY
DATE.          Wed Apr 28 13:22:45 2004: LOG DATE
UWI.           05 071 08038 00: UNIQUE WELL ID
STAT.                 Colorado: STATE
~Curve Information Block
DEPT.FT            0 000 00 00: Depth
DCAL.in                       : CDL Caliper
RHOB.g/cc                     : CDL Bulk Density
RHOC.g/cc                     : CDL Density Correction
DPOR.pu                       : CDL Density Porosity
NPOR.pu                       : Neutron Porosity
GR.GAPI                       : Gamma Ray
~Parameter Information Block
~A  Depth       DCAL        RHOB        RHOC        DPOR        NPOR         GR     
# ...
  1417.2000      8.0364      2.5336      0.1646      7.0562     29.0975    135.5809
  1417.3000      8.0376      2.5299      0.1349      7.2788     29.7549    139.0511
  1417.4000      8.0376      2.5033      0.0791      8.8882     29.8798    137.8634
  1417.5000      8.0464      2.4824      0.0893     10.1568     29.4911    131.9662
  1417.6000      8.0464      2.4854      0.0498      9.9765     29.2778    125.2191
  1417.7000      8.0464      2.5130      0.0781      8.3056     29.2472    125.2282
  1417.8000      8.0553      2.5517      0.1234      5.9590     29.2292    128.8709
  1417.9000      8.0553      2.5759      0.1769      4.4909     29.2678    124.6791
  1418.0000      8.0567      2.5660      0.1593      5.0934     29.1509    114.9491
  1418.1000      8.0567      2.5301      0.1043      7.2638     28.9816    111.3209
  1418.2000      8.0567      2.5004      0.0774      9.0648     28.9862    117.6017
  1418.3000      8.0508      2.4991      0.0885      9.1471     29.0736    127.8808
  1418.4000      8.0508      2.5152      0.1460      8.1706     29.1733    133.5628
  1418.5000      8.0523      2.5322      0.1107      7.1391     29.1179    130.9365
  1418.6000      8.0523      2.5559      0.1141      5.7043     28.6156    124.4240
  1418.7000      8.0523      2.5904      0.1306      3.6140     27.8217    123.4687
  1418.8000      8.0470      2.6240      0.1692      1.5775     26.8770    128.5791
  1418.9000      8.0470      2.6504      0.1653     -0.0225     25.6692    130.7626
  1419.0000      8.0164      2.6777      0.1719     -1.6788     24.6004    127.9289
  1419.1000      8.0164      2.7071      0.1808     -3.4588     24.3421    123.1004
  1419.2000      8.0164      2.7280      0.1584     -4.7300     24.4587    114.7334
  1419.3000      7.9890      2.7316      0.1901     -4.9473     23.8293    105.4900
  1419.4000      7.9890      2.7164      0.1120     -4.0265     22.7105    100.9412
  1419.5000      7.9978      2.6961      0.1089     -2.7967     22.2175     98.7056
  1419.6000      7.9978      2.6870      0.1100     -2.2400     22.2301     95.1529
  1419.7000      7.9978      2.6870      0.1710     -2.2426     22.1153     92.1409
  1419.8000      7.9862      2.6809      0.1114     -1.8713     22.2143     91.1197
  1419.9000      7.9862      2.6639      0.1188     -0.8413     22.7899     93.1970
  1420.0000      7.9841      2.6409      0.0968      0.5499     23.0885     98.8069
  1420.1000      7.9841      2.6141      0.1118      2.1750     22.8379    103.2878
  1420.2000      7.9841      2.5911      0.0336      3.5672     22.9238    103.0233
  1420.3000      7.9862      2.5825      0.0564      4.0900     23.6340    101.4952
  1420.4000      7.9862      2.5799      0.0555      4.2506     24.4461    102.1334
  1420.5000      7.9845      2.5737      0.0291      4.6255     24.9764    102.1650
  1420.6000      7.9845      2.5680      0.0398      4.9704     25.2874    101.5140
  1420.7000      7.9845      2.5614      0.0351      5.3718     25.6628    102.2909
  1420.8000      7.9877      2.5414      0.0180      6.5831     26.1243    103.2362
  1420.9000      7.9877      2.5033      0.0170      8.8891     26.3459    103.9283
  1421.0000      7.9855      2.4724     -0.0660     10.7637     25.9412    105.7180
  1421.1000      7.9855      2.4765     -0.0005     10.5147     25.0224    109.4508
  1421.2000      7.9855      2.5015      0.0679      8.9981     24.5311    115.6938
  1421.3000      7.9847      2.5195      0.0683      7.9113     25.0335    124.8766
  1421.4000      7.9847      2.5254      0.0915      7.5537     25.7479    131.7430
  1421.5000      7.9856      2.5241      0.0602      7.6299     25.8596    130.5291
  1421.6000      7.9856      2.5212      0.0815      7.8068     25.5399    124.5905
  1421.7000      7.9856      2.5276      0.0451      7.4195     25.2689    119.9599
  1421.8000      7.9835      2.5470      0.0576      6.2423     25.2501    117.7033
  1421.9000      7.9835      2.5578      0.1175      5.5886     25.1923    118.2519
  1422.0000      7.9852      2.5441      0.0813      6.4195     24.7045    122.3063
  1422.1000      7.9852      2.5316      0.0497      7.1741     24.0315    125.5688
  1422.2000      7.9852      2.5435      0.1068      6.4530     23.6973    124.8212
  1422.3000      7.9825      2.5655      0.0699      5.1218     23.6903    122.5447
  1422.4000      7.9825      2.5850      0.0822      3.9371     23.6583    119.6567
  1422.5000      7.9876      2.6010      0.0865      2.9723     23.5132    113.0076
  1422.6000      7.9876      2.6074      0.1172      2.5795     23.3298    103.6996
  1422.7000      7.9876      2.6035      0.1196      2.8188     23.1398     99.6149
  1422.8000      7.9888      2.5979      0.0734      3.1566     22.9193    103.5210
  1422.9000      7.9888      2.5957      0.0939      3.2904     22.8662    106.9509
  1423.0000      7.9997      2.5964      0.0729      3.2485     23.2684    105.2877
  1423.1000      7.9997      2.6032      0.0599      2.8340     24.0224    103.5653
  1423.2000      7.9997      2.6102      0.1078      2.4093     24.7423    102.0743
  1423.3000      7.9883      2.6015      0.1011      2.9420     25.0029     97.6769
  1423.4000      7.9883      2.5807      0.0525      4.1986     24.4967     97.6942
  1423.5000      7.9844      2.5664      0.0564      5.0691     23.5996    106.7101
  1423.6000      7.9844      2.5580      0.0655      5.5735     23.0313    112.6706
  1423.7000      7.9844      2.5553     -0.0186      5.7402     22.7119    106.8639
  1423.8000      7.9867      2.5727      0.0313      4.6872     22.5677     98.6061
  1423.9000      7.9867      2.6033      0.0581      2.8274     22.9981     97.3201
  1424.0000      7.9834      2.6263      0.0764      1.4366     23.5005     98.0651
  1424.1000      7.9834      2.6351      0.0990      0.9056     23.3594     94.7081
  1424.2000      7.9834      2.6326      0.1074      1.0560     22.9248     91.1802
  1424.3000      7.9893      2.6227      0.0744      1.6563     22.8360     91.0845
  1424.4000      7.9893      2.6108      0.0731      2.3750     22.9806     91.3043
  1424.5000      7.9976      2.6004      0.0884      3.0054     22.8862     91.5591
  1424.6000      7.9976      2.5906      0.0646      3.6010     22.8628     94.6186
  1424.7000      7.9976      2.5822      0.0539      4.1080     23.4584     98.8629
  1424.8000      8.0155      2.5766      0.0366      4.4509     24.4990    102.6828
  1424.9000      8.0155      2.5725      0.0576      4.6995     25.7402    106.2046
  1425.0000      8.0169      2.5656      0.0442      5.1156     27.0297    105.7168
  1425.1000      8.0169      2.5491      0.0379      6.1163     27.9268    101.4976
  1425.2000      8.0169      2.5180      0.0365      8.0004     28.3719     98.7569
  1425.3000      8.0500      2.4762      0.0108     10.5312     28.9494     99.9309
  1425.4000      8.0500      2.4337      0.0203     13.1088     29.8783    105.3181
  1425.5000      8.0476      2.3899      0.0308     15.7636     30.8710    113.0663
  1425.6000      8.0476      2.3383      0.0022     18.8902     31.6124    118.7603
  1425.7000      8.0476      2.2891      0.0283     21.8732     31.8950    121.2466
  1425.8000      8.0722      2.2644      0.0049     23.3680     31.9187    121.4174
  1425.9000      8.0722      2.2657      0.0839     23.2894     32.0657    118.4933
  1426.0000      8.0984      2.2702      0.0756     23.0165     32.4050    115.3919
  1426.1000      8.0984      2.2722      0.0656     22.8978     32.7003    114.9319
  1426.2000      8.0984      2.2878      0.1256     21.9513     32.5190    113.5775
  1426.3000      8.1263      2.3240      0.1843     19.7603     31.6915    109.7557
  1426.4000      8.1263      2.3702      0.2345     16.9556     30.8718    106.5506
  1426.5000      8.2166      2.4148      0.2650     14.2534     30.4384    104.2706
  1426.6000      8.2166      2.4575      0.2435     11.6641     29.9684    101.2306
  1426.7000      8.2166      2.4942      0.3124      9.4416     29.6269     99.0392
