~Version Information
 VERS.                                  2.0 : CWLS LAS VERSION
 WRAP.                                   NO : WRAPING MODE
 SWARE .                 MController 2.5.0J : SOFTWARE VERSION
~Well Information
 WELL.                         McLeod 9-42V: WELL
 COMP.                       Petrogulf Corp : COMPANY
 FLD.                       Purgatoire River: FIELD
 LOC.                  SE/NE Sec 9 T33S R67W: LOCATION
 DATE.                             11/11/04 : DATE(S) LOGGED
 SRVC.        Blanco Geological Services LLC: SERVICE COMPANY
 STAT.                                    CO: STATE
 CNTY.                            Las Animas: COUNTY
 CTRY.                                   USA: COUNTRY
 API.                           05-071-08071: API NUMBER
 STRT.FT                             424.00 : START DEPTH
 STOP.FT                            2270.00 : STOP DEPTH
 STEP.FT                               1.00 : DEPTH INCREMENT
 NULL.                                -9999 : NULL VALUE
~Curve information
 DEPTH.FT                                   :
 ROP.MIN/FT                                 :
 GAS.UNITS                                  :
~ASCII Log data
# ...
       824.0         0.28         13.3 
       825.0         0.30         13.7 
       826.0         0.33         13.7 
       827.0         0.40         13.8 
       828.0         0.47         13.8 
       829.0         0.13         13.8 
       830.0         0.13         13.8 
       831.0         0.37         13.7 
       832.0         0.30         13.9 
       833.0         0.23         13.9 
       834.0         0.30         14.1 
       835.0         0.20         14.0 
       836.0         0.13         14.3 
       837.0         0.13         14.4 
       838.0         0.13         14.0 
       839.0         0.27         14.1 
       840.0         0.17         13.5 
       841.0         0.20         13.4 
       842.0         0.22         13.7 
       843.0         0.17         13.4 
       844.0         0.20         13.6 
       845.0         0.20         13.7 
       846.0         0.30         13.9 
       847.0         0.17         14.3 
       848.0         0.23         14.6 
       849.0         0.20         13.7 
       850.0         0.23         13.8 
       851.0         0.23         13.8 
       852.0         0.23         14.1 
       853.0         0.23         13.8 
       854.0         0.20         14.0 
       855.0         0.23         13.9 
       856.0         0.23         14.1 
       857.0         0.22         14.6 
       858.0         0.13         14.3 
       859.0         0.13         14.9 
       860.0         0.40         14.3 
       861.0         0.52         15.1 
       862.0         0.33         14.6 
       863.0         0.27         14.8 
       864.0         0.27         14.5 
       865.0         0.27         14.9 
       866.0         0.27         15.0 
       867.0         0.27         14.9 
       868.0         0.23         14.0 
       869.0         0.23         14.3 
       870.0         0.20         14.0 
       871.0         0.23         14.0 
       872.0         0.23         14.9 
       873.0         0.25         14.9 
       874.0         0.27         14.4 
       875.0         0.30         14.6 
       876.0         0.27         14.2 
       877.0         0.27         14.6 
       878.0         0.27         14.3 
       879.0         0.27         14.4 
       880.0         0.30         14.3 
       881.0         0.23         14.3 
       882.0         0.20         14.4 
       883.0         0.20         13.8 
       884.0         0.20         14.1 
       885.0         0.17         15.1 
       886.0         0.17         14.5 
       887.0         0.28         15.6 
       888.0         0.73         16.2 
       889.0         0.38         15.8 
       890.0         0.30         15.9 
       891.0         0.30         16.0 
       892.0         0.33         17.4 
       893.0         0.30         16.7 
       894.0         0.20         16.5 
       895.0         0.23         17.0 
       896.0         0.20         16.2 
       897.0         0.17         16.9 
       898.0         0.23         16.6 
       899.0         0.30         16.6 
       900.0         0.27         17.1 
       901.0         0.32         16.6 
       902.0         0.30         16.8 
       903.0         0.30         16.8 
       904.0         0.30         17.1 
       905.0         0.30         17.3 
       906.0         0.27         16.9 
       907.0         0.33         17.7 
       908.0         0.30         17.1 
       909.0         0.30         17.2 
       910.0         0.37         17.7 
       911.0         0.23         18.1 
       912.0         0.20         17.6 
       913.0         0.38         18.0 
       914.0         0.40         18.2 
       915.0         0.27         18.1 
       916.0         0.20         18.0 
       917.0         0.23         17.6 
       918.0         0.58         18.2 
       919.0         0.23         18.0 
       920.0         0.20         18.3 
       921.0         0.33         17.6 
       922.0         0.57         17.6 
       923.0         0.37         17.4 
       924.0         0.33         17.1 
       925.0         0.33         17.2 
       926.0         0.30         16.4 
       927.0         0.32         16.3 
       928.0         0.30         16.3 
       929.0         0.27         15.9 
       930.0         0.30         16.4 
       931.0         0.33         15.7 
       932.0         0.27         15.3 
       933.0         0.27         15.5 
       934.0         0.30         16.0 
       935.0         0.27         15.3 
       936.0         0.30         15.3 
       937.0         0.33         15.2 
       938.0         0.35         15.2 
       939.0         0.27         15.5 
       940.0         0.27         15.8 
       941.0         0.30         15.4 
       942.0         0.30         14.8 
       943.0         0.27         15.0 
       944.0         0.27         14.6 
       945.0         0.23         14.7 
       946.0         0.27         15.2 
       947.0         0.33         14.0 
       948.0         0.17         14.1 
       949.0         0.37         14.2 
       950.0         0.53         13.1 
       951.0         0.42         13.4 
       952.0         0.43         13.5 
       953.0         0.33         13.7 
       954.0         0.33         14.2 
       955.0         0.33         14.0 
       956.0         0.33         13.6 
       957.0         0.37         13.8 
       958.0         0.27         13.0 
       959.0         0.27         13.4 
       960.0         0.23         13.9 
       961.0         0.30         13.5 
       962.0         0.25         13.4 
       963.0         0.27         12.9 
       964.0         0.23         12.9 
       965.0         0.23         13.1 
       966.0         0.27         13.4 
       967.0         0.23         13.4 
       968.0         0.27         14.7 
       969.0         0.23         15.5 
       970.0         0.23         16.4 
       971.0         0.30         17.3 
       972.0         0.27         18.7 
       973.0         0.23         20.1 
       974.0         0.27         19.5 
       975.0         0.28         19.3 
       976.0         0.30         17.9 
       977.0         0.40         16.2 
       978.0         0.20         15.8 
       979.0         0.22         15.9 
       980.0         0.40         15.4 
       981.0         0.37         15.5 
       982.0         0.30         16.5 
       983.0         0.37         20.9 
       984.0         0.37         27.8 
       985.0         0.30         32.0 
       986.0         0.27         36.0 
       987.0         0.30         38.1 
       988.0         0.30         39.1 
       989.0         0.32         37.8 
       990.0         0.33         36.3 
       991.0         0.27         34.2 
       992.0         0.30         31.3 
       993.0         0.40         28.3 
       994.0         0.33         25.7 
       995.0         0.27         22.7 
       996.0         0.20         22.1 
       997.0         0.23         19.7 
       998.0         0.20         18.8 
       999.0         0.20         18.4 
      1000.0         0.20         17.1 
      1001.0         0.13         16.7 
      1002.0         0.10         16.7 
      1003.0         0.12         15.9 
      1004.0         0.13         15.9 
      1005.0         0.10         15.2 
      1006.0         0.33         14.7 
      1007.0         0.17         15.4 
      1008.0         0.20         16.9 
      1009.0         0.20         19.0 
      1010.0         0.27         32.8 
      1011.0         0.33         51.2 
      1012.0         0.17         58.1 
      1013.0         0.17         63.4 
      1014.0         0.10         65.6 
      1015.0         0.15         67.4 
      1016.0         0.17         67.8 
      1017.0         0.20         67.0 
      1018.0         0.20         63.7 
      1019.0         0.13         60.3 
      1020.0         0.23         55.6 
      1021.0         0.20         52.8 
      1022.0         0.20         48.2 
      1023.0         0.23         43.9 
