~Version Information
VERS.                      2.0: CWLS Log ASCII Standard - VERSION 2.0
WRAP.                       NO: One line per depth step
~Well Information Block
STRT.FT               -10.0000: 
STOP.FT              2184.0000: 
STEP.FT                 0.2500: 
NULL.                -999.2500: 
COMP.          Petrogulf Corporation: COMPANY
WELL.              Silva 1-43R: WELL
FLD.           Purgatorie River: FIELD
LOC.           1971' FSL & 526' FEL--: LOCATION
CNTY.               Las Animas: COUNTY
SRVC.          Patterson Wireline: SERVICE COMPANY
DATE.          Thu Jul 13 13:08:17 2006: LOG DATE
UWI.           05 072 08372 00: UNIQUE WELL ID
STAT.                       CO: STATE
~Curve Information Block
DEPT.FT            0 000 00 00: Depth
CCL.                          : Casing Collar Locator
TT3.usec                      : CBL 3' Travel Time
AMP3.mV                       : CBL 3' Amplitude
GR.GAPI                       : Gamma Ray
~Parameter Information Block
~A  Depth       CCL         TT3         AMP3         GR     
# ...
  2033.5000      0.0000    612.5304      4.1904    168.1416
  2033.7500      0.0000    617.3154      4.4954    172.5545
  2034.0000      0.0000    626.6241      4.7872    170.4341
  2034.2500      0.0000    639.9207      4.9988    163.3084
  2034.5000      0.0000    655.4901      5.1274    152.7597
  2034.7500      0.0000    671.2452      5.2423    140.4118
  2035.0000      0.0000    684.5246      5.4032    128.6640
  2035.2500      0.0000    692.7638      5.5936    120.0406
  2035.5000      0.0000    695.1946      5.7455    115.5574
  2035.7500     -2.0000    693.1004      5.8106    114.2345
  2036.0000      0.0000    688.0953      5.8034    114.3396
  2036.2500      0.0000    680.9098      5.7829    115.0670
  2036.5000      0.0000    672.1476      5.7879    117.0518
  2036.7500      0.0000    663.4744      5.7800    121.2603
  2037.0000      0.0000    657.2979      5.6704    127.4201
  2037.2500      0.0000    655.1292      5.4167    133.7729
  2037.5000      0.0000    656.4227      5.0670    138.3231
  2037.7500      0.0000    659.0912      4.6910    139.9861
  2038.0000      0.0000    661.1095      4.3056    138.5978
  2038.2500      0.0000    661.5269      3.8903    134.5878
  2038.5000      0.0000    660.3419      3.4438    129.2591
  2038.7500      0.0000    658.1415      3.0015    124.9198
  2039.0000      0.0000    656.2145      2.6107    123.5932
  2039.2500      0.0000    656.4527      2.3037    125.2354
  2039.5000      0.0000    660.2384      2.0876    127.7714
  2039.7500      0.0000    667.2109      1.9508    129.0876
  2040.0000      0.0000    675.5050      1.8774    128.5862
  2040.2500      0.0000    683.0227      1.8551    126.8134
  2040.5000      0.0000    687.8479      1.8743    124.1232
  2040.7500      0.0000    687.5764      1.9227    120.1733
  2041.0000      0.0000    679.7864      1.9834    114.7274
  2041.2500      0.0000    664.8026      2.0398    108.5839
  2041.5000      0.0000    647.8839      2.0829    103.2086
  2041.7500      0.0000    636.3491      2.1149     99.4726
  2042.0000      0.0000    632.2663      2.1440     97.0174
  2042.2500      0.0000    628.4410      2.1757     94.6466
  2042.5000      0.0000    613.6568      2.2103     91.1614
  2042.7500      0.0000    582.8059      2.2468     86.2502
  2043.0000      0.0000    541.7432      2.2887     80.8889
  2043.2500      0.0000    502.4328      2.3423     76.6196
  2043.5000      0.0000    473.9581      2.4130     74.2435
  2043.7500      0.0000    457.9954      2.4996     73.2996
  2044.0000      0.0000    451.0186      2.5941     72.7461
  2044.2500      0.0000    448.7368      2.6858     72.0052
  2044.5000      0.0000    448.4468      2.7698     71.3949
  2044.7500      0.0000    448.9406      2.8507     71.7750
  2045.0000      0.0000    449.7132      2.9382     73.8636
  2045.2500      0.0000    450.4951      3.0382     77.5941
  2045.5000      0.0000    451.1562      3.1494     81.6887
  2045.7500      0.0000    451.7592      3.2659     84.0097
  2046.0000      0.0000    452.7630      3.3799     82.8861
  2046.2500      0.0000    455.5413      3.4831     78.2568
  2046.5000      0.0000    462.9159      3.5681     71.5488
  2046.7500      0.0000    478.4118      3.6328     64.7088
  2047.0000      0.0000    502.7978      3.6827     59.2202
  2047.2500      0.0000    529.7080      3.7288     55.6011
  2047.5000      0.0000    546.3906      3.7817     53.7378
  2047.7500      0.0000    542.6012      3.8439     53.5919
  2048.0000      0.0000    519.8752      3.9040     55.2110
  2048.2500      0.0000    490.2601      3.9404     58.1085
  2048.5000      0.0000    466.0531      3.9378     61.0884
  2048.7500      0.0000    452.7021      3.9012     62.8719
  2049.0000      0.0000    450.9567      3.8514     62.8487
  2049.2500      0.0000    462.1358      3.8056     61.3670
  2049.5000      0.0000    488.2166      3.7628     59.3673
  2049.7500      0.0000    526.2977      3.7109     57.6239
  2050.0000      0.0000    565.5582      3.6422     56.3950
  2050.2500      0.0000    593.4259      3.5621     55.9747
  2050.5000      0.0000    605.3040      3.4871     57.2480
  2050.7500      0.0000    605.6790      3.4369     61.0511
  2051.0000      0.0000    600.0371      3.4266     66.8495
  2051.2500      0.0000    590.0322      3.4636     72.4267
  2051.5000      0.0000    577.3370      3.5471     75.1681
  2051.7500      0.0000    567.5534      3.6698     73.8988
  2052.0000      0.0000    567.6601      3.8181     69.8232
  2052.2500      0.0000    581.0084      3.9762     65.6980
  2052.5000      0.0000    604.8166      4.1315     63.7179
  2052.7500      0.0000    630.6569      4.2782     63.9873
  2053.0000      0.0000    647.8325      4.4171     64.9381
  2053.2500      0.0000    648.9146      4.5495     65.0339
  2053.5000      0.0000    634.1533      4.6731     64.0164
  2053.7500      0.0000    611.0313      4.7824     62.6933
  2054.0000      0.0000    588.6880      4.8734     61.7153
  2054.2500      0.0000    571.4241      4.9470     60.7515
  2054.5000      0.0000    557.1676      5.0097     58.9715
  2054.7500      0.0000    542.5377      5.0740     56.1617
  2055.0000      0.0000    529.3864      5.1574     53.0610
  2055.2500      0.0000    525.8198      5.2773     50.7472
  2055.5000      0.0000    539.9006      5.4421     50.1249
  2055.7500      0.0000    571.6468      5.6471     51.7359
  2056.0000      0.0000    611.3615      5.8778     55.1295
  2056.2500      0.0000    646.5080      6.1144     58.3814
  2056.5000      0.0000    670.2056      6.3346     59.1685
  2056.7500      0.0000    682.9786      6.5166     56.6253
  2057.0000      0.0000    688.0162      6.6497     51.8336
  2057.2500      0.0000    686.8096      6.7417     46.7824
  2057.5000      0.0000    678.6519      6.8145     43.2608
  2057.7500      0.0000    662.2098      6.8882     42.3048
  2058.0000      0.0000    638.1521      6.9701     43.9559
  2058.2500      0.0000    612.5593      7.0538     47.2883
  2058.5000      0.0000    596.7905      7.1249     50.8554
  2058.7500      0.0000    600.0322      7.1654     53.3877
  2059.0000      0.0000    621.1118      7.1587     54.2364
  2059.2500      0.0000    650.0565      7.0928     53.3339
  2059.5000      0.0000    677.4617      6.9621     51.0630
  2059.7500      0.0000    699.9234      6.7719     48.3164
  2060.0000      0.0000    717.5970      6.5377     46.2983
  2060.2500      0.0000    730.4888      6.2765     45.8160
  2060.5000      0.0000    738.1606      5.9985     46.6854
  2060.7500      0.0000    740.9409      5.7129     48.0010
  2061.0000      0.0000    740.1255      5.4409     49.0957
  2061.2500      0.0000    737.3587      5.2105     50.1722
  2061.5000      0.0000    734.0239      5.0384     51.9200
  2061.7500      0.0000    731.0133      4.9200     54.5881
  2062.0000      0.0000    729.0552      4.8404     57.5024
  2062.2500      0.0000    728.9646      4.7881     59.4371
  2062.5000      0.0000    730.9802      4.7582     59.5127
  2062.7500      0.0000    733.9615      4.7460     57.8855
  2063.0000      0.0000    735.8038      4.7435     55.5468
  2063.2500      0.0000    734.5928      4.7416     53.4176
  2063.5000      0.0000    729.3087      4.7287     51.9339
  2063.7500      0.0000    720.2129      4.6870     51.5292
  2064.0000      0.0000    709.2255      4.6042     52.8447
  2064.2500      0.0000    699.5786      4.4953     56.3097
  2064.5000      0.0000    694.2573      4.4036     62.2549
  2064.7500      0.0000    694.1382      4.3672     71.5523
  2065.0000      0.0000    697.3595      4.3907     85.1595
  2065.2500      0.0000    700.7209      4.4530    102.4165
  2065.5000      0.0000    702.2137      4.5307    120.2687
  2065.7500      0.0000    702.3842      4.6071    134.7702
  2066.0000      0.0000    703.0629      4.6688    143.4837
  2066.2500      0.0000    704.8108      4.7086    146.5580
  2066.5000      0.0000    705.8470      4.7342    145.9912
  2066.7500      0.0000    703.5124      4.7650    144.1557
