~Version Information
VERS.                      2.0: CWLS Log ASCII Standard - VERSION 2.0
WRAP.                       NO: One line per depth step
~Well Information Block
STRT.FT              1882.7500: 
STOP.FT              2400.5000: 
STEP.FT                 0.2500: 
NULL.                -999.2500: 
COMP.          Pioneer Natural Resources: COMPANY
WELL.          Flying Horse 12-11: WELL
FLD.           Purgatoire River: FIELD
LOC.           2,428' FNL & 308' FWL------: LOCATION
PROV.                 Colorado: PROVINCE
CNTY.               Las Animas: COUNTRY
SRVC.                         : SERVICE COMPANY
DATE.          Fri Jun 10 06:52:30 2005: LOG DATE
UWI.                          : UNIQUE WELL ID
~Curve Information Block
DEPT.FT            0 000 00 00: Depth
CCL.                          : Casing Collar Locator
TT3.usec                      : CBL 3' Travel Time
AMP3.mV                       : CBL 3' Amplitude
AMP5.mV                       : CBL 5' Amplitude
GR.GAPI                       : Gamma Ray
~Parameter Information Block
~A  Depth       CCL         TT3         AMP3        AMP5         GR     
# ...
  2078.7500      0.0000    701.2688     11.7221      2.3891    128.5049
  2079.0000      0.0000    691.0157     11.5349      2.3891    127.1533
  2079.2500      0.0000    685.8844     11.3684      2.3021    126.2496
  2079.5000      0.0000    689.3391     11.2205      2.3891    124.9609
  2079.7500      0.0000    698.5904     11.0730      2.2150    123.5715
  2080.0000      0.0000    707.7158     10.9018      1.9539    122.8530
  2080.2500      0.0000    713.1340     10.6953      1.9539    122.9247
  2080.5000      0.0000    715.2143     10.4695      1.9539    122.9708
  2080.7500      0.0000    716.4877     10.2616      2.3021    121.8611
  2081.0000      0.0000    719.4578     10.1081      2.4762    118.8713
  2081.2500      0.0000    725.0764     10.0259      2.3021    114.1419
  2081.5000      0.0000    732.2874     10.0105      2.0409    108.8494
  2081.7500      0.0000    739.0023     10.0444      1.9539    104.6935
  2082.0000      0.0000    743.7137     10.1052      1.9539    102.6606
  2082.2500      0.0000    746.2153     10.1689      2.1280    102.3100
  2082.5000      0.0000    747.1556     10.2151      2.0409    102.5700
  2082.7500      0.0000    747.2782     10.2323      2.1280    103.1051
  2083.0000      0.0000    747.0664     10.2188      2.1280    104.5986
  2083.2500      0.0000    746.7847     10.1775      1.8668    107.9109
  2083.5000      0.0000    746.5912     10.1098      1.7798    113.2917
  2083.7500      0.0000    746.5690     10.0160      1.6057    120.1682
  2084.0000      0.0000    746.6970      9.9022      1.6927    127.1333
  2084.2500      0.0000    746.8265      9.7841      1.9539    132.0453
  2084.5000      0.0000    746.7060      9.6779      1.6057    132.7692
  2084.7500      0.0000    746.0168      9.5869      1.5186    128.6612
  2085.0000      0.0000    744.4856      9.4957      1.8668    121.4772
  2085.2500      0.0000    742.2029      9.3784      1.6057    114.1117
  2085.5000      0.0000    739.9451      9.2121      1.2575    107.9490
  2085.7500      0.0000    738.8815      8.9904      0.9964    101.8294
  2086.0000      0.0000    739.6055      8.7270      1.2575     93.8817
  2086.2500      0.0000    741.4594      8.4479      1.0834     83.9386
  2086.5000      0.0000    742.8832      8.1780      1.4316     73.8380
  2086.7500      0.0000    742.1496      7.9304      0.7352     65.7221
  2087.0000      0.0000    737.8962      7.6956      1.3446     60.3889
  2087.2500      0.0000    730.0140      7.4294      2.1280     57.1366
  2087.5000      0.0000    720.6926      7.0587      0.6482     54.8768
  2087.7500      0.0000    713.6340      6.5360      0.5611     53.2357
  2088.0000      0.0000    710.8629      5.9216      0.9964     52.4806
  2088.2500      0.0000    710.7856      5.4123      1.4316     52.6192
  2088.5000      0.0000    710.2127      5.2512      1.6057     53.1054
  2088.7500      0.0000    707.4141      5.5653      1.6927     53.6649
  2089.0000      0.0000    701.6678      6.2648      1.6057     55.2223
  2089.2500     -2.0000    690.8461      7.0957      1.3446     59.7114
  2089.5000      0.0000    672.1700      7.7957      1.5186     68.7468
  2089.7500      0.0000    646.8690      8.2193      1.7798     82.3398
  2090.0000      0.0000    623.0410      8.3799      1.0834     98.8561
  2090.2500      0.0000    611.7941      8.4364      1.2575    116.1800
  2090.5000      0.0000    619.1370      8.6073      1.3446    132.7038
  2090.7500      0.0000    640.6580      8.9848      1.2575    147.2281
  2091.0000      0.0000    663.9783      9.3979      1.5186    158.5282
  2091.2500      0.0000    677.7950      9.5368      1.4316    165.7041
  2091.5000      0.0000    679.8753      9.2363      0.5611    168.7710
  2091.7500      0.0000    676.6110      8.5950      1.4316    168.2701
  2092.0000      0.0000    675.6591      7.8404      2.9984    164.1951
  2092.2500      0.0000    679.8947      7.1503      1.1705    155.7969
  2092.5000      0.0000    687.2618      6.5964      1.2575    142.8590
  2092.7500      0.0000    694.3122      6.1850      0.9093    127.1545
  2093.0000      0.0000    699.0383      5.9038      0.9093    112.3390
  2093.2500      0.0000    701.3649      5.7383      0.5611    101.9636
  2093.5000      0.0000    702.0160      5.6707      0.7352     97.1493
  2093.7500      0.0000    701.3467      5.6778      0.8223     96.0131
  2094.0000      0.0000    698.9645      5.7341      0.5611     95.3518
  2094.2500      0.0000    694.0384      5.8124      0.4741     92.8082
  2094.5000      0.0000    685.8065      5.8857      0.3000     87.7025
  2094.7500      0.0000    673.6454      5.9348      0.8223     80.7056
  2095.0000      0.0000    657.0458      5.9572      0.4741     73.3887
  2095.2500      0.0000    636.8684      5.9611      0.4741     67.7351
  2095.5000      0.0000    617.5212      5.9509      0.3870     65.1689
  2095.7500      0.0000    606.2335      5.9208      0.7352     65.6088
  2096.0000      0.0000    607.4680      5.8673      0.5611     67.6305
  2096.2500      0.0000    617.6682      5.8012      0.5611     69.7370
  2096.5000      0.0000    626.1780      5.7414      0.9093     71.3457
  2096.7500      0.0000    620.9195      5.7021      0.4741     72.5344
  2097.0000      0.0000    594.3140      5.6883      0.6482     73.2202
  2097.2500      0.0000    547.6396      5.6998      0.6482     72.9867
  2097.5000      0.0000    491.7636      5.7340      0.3870     71.7773
  2097.7500      0.0000    441.4754      5.7867      0.9093     70.3709
  2098.0000      0.0000    406.6021      5.8536      0.3870     69.7882
  2098.2500      0.0000    387.9038      5.9290      0.5611     70.3554
  2098.5000      0.0000    380.5670      6.0005      0.5611     71.5639
  2098.7500      0.0000    380.0615      6.0478      0.4741     72.5158
  2099.0000      0.0000    385.4077      6.0509      0.4741     72.2342
  2099.2500      0.0000    398.8174      6.0033      0.1259     70.0739
  2099.5000      0.0000    422.8503      5.9179      0.6482     66.4288
  2099.7500      0.0000    457.2834      5.8179      0.3870     62.8110
  2100.0000      0.0000    498.5954      5.7178      0.2129     60.7029
  2100.2500      0.0000    542.0732      5.6118      0.3870     60.3497
  2100.5000      0.0000    583.0954      5.4838      0.3000     60.8645
  2100.7500      0.0000    617.0336      5.3281      0.5611     61.3105
  2101.0000      0.0000    640.5431      5.1579      0.2129     61.4119
  2101.2500      0.0000    653.6746      4.9913      0.1259     61.4157
  2101.5000      0.0000    659.5782      4.8295      0.5611     61.5757
  2101.7500      0.0000    662.1091      4.6474     -0.2223     61.7970
  2102.0000      0.0000    664.2070      4.4112      0.4741     61.7973
  2102.2500      0.0000    667.8414      4.1203      1.2575     61.5774
  2102.5000      0.0000    674.1508      3.8398      0.2129     61.4378
  2102.7500      0.0000    682.7656      3.6671     -0.0482     61.4013
  2103.0000      0.0000    691.2728      3.6446      0.3000     60.9842
  2103.2500      0.0000    696.2759      3.7432      0.9093     59.7436
  2103.5000      0.0000    695.8347      3.9589      0.9093     57.7834
  2103.7500      0.0000    690.7789      4.3634      0.4741     55.5227
  2104.0000      0.0000    683.4395      4.9964      0.7352     53.1585
  2104.2500      0.0000    675.4492      5.7500      0.8223     50.6167
  2104.5000      2.0000    666.6882      6.4111      0.9093     48.0375
  2104.7500      0.0000    656.1723      6.7838      0.6482     46.0950
  2105.0000      0.0000    644.7444      6.7609      0.9964     45.5535
  2105.2500      0.0000    637.2322      6.3596      1.1705     46.4514
  2105.5000      0.0000    639.7936      5.7532      1.0834     47.9259
  2105.7500      0.0000    653.1130      5.2200      1.3446     48.9093
  2106.0000      0.0000    669.8335      4.9834      1.2575     48.8701
  2106.2500      0.0000    680.8619      5.0927      1.3446     48.0099
  2106.5000      0.0000    683.0510      5.4484      1.0834     47.0421
