~Version Information
VERS.                      2.0: CWLS Log ASCII Standard - VERSION 2.0
WRAP.                       NO: One line per depth step
~Well Information Block
STRT.FT                 0.5000: 
STOP.FT              1575.0000: 
STEP.FT                 0.2500: 
NULL.                -999.2500: 
COMP.          Evergreen Operating Corporation: COMPANY
WELL.                Eric 42-9: WELL
FLD.           Purgatorie River: FIELD
LOC.           2050' FNL & 850' FEL: LOCATION
PROV.                 Colorado: PROVINCE
CNTY.               Las Animas: COUNTRY
SRVC.                         : SERVICE COMPANY
DATE.          Tue Nov 09 16:28:59 2004: LOG DATE
UWI.           05 071 07999 00: UNIQUE WELL ID
~Curve Information Block
DEPT.FT            0 000 00 00: Depth
LTEN.lb                       : Surface Line Tension
TT3.usec                      : CBL 3' Travel Time
AMP3.mV                       : CBL 3' Amplitude
ATT3.db/ft                    : CBL 3' Attenuation
GR.GAPI                       : Gamma Ray
CCL.                          : Casing Collar Locator
~Parameter Information Block
~A  Depth       LTEN        TT3         AMP3        ATT3         GR         CCL     
# ...
  1440.5000    816.8207    749.7379      8.2465     -7.0706     83.4687      0.0000
  1440.7500    818.9097    749.3288      8.3256     -7.0429     77.4298      0.0000
  1441.0000    817.9755    747.0631      8.3284     -7.0420     72.5861      0.0000
  1441.2500    815.3323    745.1420      8.2505     -7.0692     68.7415      0.0000
  1441.5000    812.4959    746.1686      8.1102     -7.1188     65.2567      0.0000
  1441.7500    810.1057    750.8739      7.9421     -7.1795     61.8254      0.0000
  1442.0000    808.1205    757.6730      7.7898     -7.2355     58.7454      0.0000
  1442.2500    806.6643    763.8708      7.6765     -7.2779     56.6026      0.0000
  1442.5000    806.2156    767.0350      7.5887     -7.3113     55.7995      0.0000
  1442.7500    806.9577    765.3552      7.5060     -7.3430     56.3040      0.0000
  1443.0000    808.2744    757.7455      7.4413     -7.3680     57.6660      0.0000
  1443.2500    809.1132    745.2369      7.4353     -7.3704     59.3126      0.0000
  1443.5000    808.9023    732.6674      7.5142     -7.3398     60.9313      0.0000
  1443.7500    808.0268    726.9257      7.6669     -7.2816     62.5354      0.0000
  1444.0000    807.3094    731.4045      7.8628     -7.2085     64.1853      0.0000
  1444.2500    807.1107    742.7957      8.0710     -7.1329     65.7793      0.0000
  1444.5000    807.0110    754.5229      8.2537     -7.0680     67.0349      0.0000
  1444.7500    806.3168    762.3786      8.3664     -7.0288     67.5509      0.0000
  1445.0000    804.8051    766.1702      8.3941     -7.0192     67.0731      0.0000
  1445.2500    802.9811    767.5941      8.3775     -7.0249     65.9237      0.0000
  1445.5000    801.5737    768.0954      8.3748     -7.0259     64.9693      0.0000
  1445.7500    800.7987    768.3106      8.3963     -7.0185     64.9487      0.0000
  1446.0000    800.2109    768.3830      8.3976     -7.0180     66.0365      0.0000
  1446.2500    799.2760    768.3032      8.3391     -7.0383     68.2347      0.0000
  1446.5000    798.0154    768.0703      8.2304     -7.0762     71.9144      0.0000
  1446.7500    797.2015    767.5202      8.1210     -7.1150     77.6264      0.0000
  1447.0000    797.9194    765.9556      8.0740     -7.1318     85.2660      0.0000
  1447.2500    800.5736    761.6490      8.1384     -7.1088     93.5151      0.0000
  1447.5000    804.1131    752.1039      8.3106     -7.0482    100.2251      0.0000
  1447.7500    806.5765    735.9863      8.5199     -6.9761    103.4787      0.0000
  1448.0000    806.7305    715.8940      8.6689     -6.9259    102.5560      0.0000
  1448.2500    805.0644    698.8212      8.6962     -6.9168     98.2075      0.0000
  1448.5000    803.1673    692.5441      8.6146     -6.9442     92.0786      0.0000
  1448.7500    802.4932    700.5426      8.5086     -6.9800     85.7905      0.0000
  1449.0000    803.6583    719.7609      8.4777     -6.9905     80.5439      0.0000
  1449.2500    806.2999    742.9186      8.5476     -6.9667     77.2006      0.0000
  1449.5000    809.2546    763.1597      8.6346     -6.9374     75.9723      0.0000
  1449.7500    811.1063    776.7993      8.6192     -6.9426     75.9097      0.0000
  1450.0000    810.9229    782.6978      8.4630     -6.9956     75.3188      0.0000
  1450.2500    808.7257    781.0255      8.2389     -7.0733     73.0692      0.0000
  1450.5000    805.4048    773.4284      8.0433     -7.1428     69.5051      0.0000
  1450.7500    802.1926    763.0397      7.9030     -7.1938     66.2701      0.0000
  1451.0000    800.1403    753.1731      7.7860     -7.2369     65.5495      0.0000
  1451.2500    799.9099    745.9205      7.6746     -7.2787     69.2933      0.0000
  1451.5000    801.7053    741.7784      7.5836     -7.3132     78.4525      0.0000
  1451.7500    805.0547    739.8141      7.5193     -7.3379     92.3416      0.0000
  1452.0000    808.7770    738.4506      7.4632     -7.3595    108.6980      0.0000
  1452.2500    811.6077    736.9807      7.3990     -7.3845    124.6243      0.0000
  1452.5000    812.9414    736.4932      7.3290     -7.4121    137.5991      0.0000
  1452.7500    812.8160    738.8253      7.2623     -7.4385    145.7049      0.0000
  1453.0000    811.5192    744.4495      7.2057     -7.4612    147.4917      0.0000
  1453.2500    809.7121    751.4897      7.1676     -7.4766    142.4734      0.0000
  1453.5000    808.5742    756.8110      7.1659     -7.4772    131.9760      0.0000
  1453.7500    809.0881    758.1859      7.2282     -7.4522    118.9711      0.0000
  1454.0000    811.1204    755.8566      7.3809     -7.3917    106.6157      0.0000
  1454.2500    813.5885    752.4094      7.6158     -7.3009     96.8739      0.0000
  1454.5000    815.4844    750.9484      7.8505     -7.2131     90.2494      0.0000
  1454.7500    816.4979    752.7423      7.9340     -7.1824     86.3280      0.0000
  1455.0000    816.8481    756.0560      7.7447     -7.2523     84.5240      0.0000
  1455.2500    816.8134    756.6188      7.3184     -7.4163     84.6086      0.0000
  1455.5000    816.4247    748.9387      6.8634     -7.6021     86.6900      0.0000
  1455.7500    815.5355    728.4355      6.6145     -7.7091     90.7551      0.0000
  1456.0000    814.2045    694.7242      6.6700     -7.6849     96.3733      0.0000
  1456.2500    812.9134    653.6564      6.9679     -7.5584    102.7840      0.0000
  1456.5000    812.2576    614.8925      7.3625     -7.3989    109.0440      0.0000
  1456.7500    812.4199    586.5907      7.6874     -7.2739    114.0950      0.0000
  1457.0000    813.0186    572.0331      7.7989     -7.2322    117.0943      0.0000
  1457.2500    813.4963    570.2449      7.6409     -7.2914    118.0343     -3.0000
  1457.5000    813.6194    578.3263      7.2884     -7.4282    117.8990      0.0000
  1457.7500    813.5264    592.2545      6.9085     -7.5831    117.9198      3.0000
  1458.0000    813.2538    605.7003      6.6645     -7.6873    118.6805      0.0000
  1458.2500    812.4899    610.5627      6.6301     -7.7022    119.9893      0.0000
  1458.5000    811.0367    601.5972      6.7602     -7.6460    121.3216      0.0000
  1458.7500    809.2812    580.6342      6.9351     -7.5720    122.1910      0.0000
  1459.0000    807.9868    555.0870      7.0583     -7.5210    122.2486      0.0000
  1459.2500    807.7746    532.8772      7.1203     -7.4957    121.3219      0.0000
  1459.5000    808.8289    518.9745      7.1703     -7.4755    119.4429      0.0000
  1459.7500    810.8474    514.6805      7.2492     -7.4438    116.6698      0.0000
  1460.0000    813.1978    518.1842      7.3550     -7.4018    112.8100      0.0000
  1460.2500    815.2567    525.7480      7.4484     -7.3653    107.4949      0.0000
  1460.5000    816.6546    533.4954      7.4819     -7.3523    100.7419      0.0000
  1460.7500    817.1766    539.0564      7.4417     -7.3679     93.3625      0.0000
  1461.0000    816.6351    542.0024      7.3630     -7.3987     86.7167      0.0000
  1461.2500    815.0900    543.1074      7.2963     -7.4250     82.1416      0.0000
  1461.5000    813.0650    543.3221      7.2640     -7.4379     80.6020      0.0000
  1461.7500    811.2360    543.2592      7.2561     -7.4410     82.5693      0.0000
  1462.0000    809.9543    543.1755      7.2544     -7.4417     87.9356      0.0000
  1462.2500    809.3506    543.1626      7.2525     -7.4424     95.9164      0.0000
  1462.5000    809.6393    543.4499      7.2529     -7.4423    104.9029      0.0000
  1462.7500    810.8206    544.8463      7.2565     -7.4408    112.5262      0.0000
  1463.0000    812.2623    549.2048      7.2633     -7.4382    116.3881      0.0000
  1463.2500    813.1367    559.1418      7.2791     -7.4319    115.3633      0.0000
  1463.5000    813.2667    575.9368      7.3126     -7.4185    110.4536      0.0000
  1463.7500    813.3028    596.6189      7.3645     -7.3981    104.3093      0.0000
  1464.0000    814.1385    614.6344      7.4219     -7.3756     99.6413      0.0000
  1464.2500    816.1077    626.1692      7.4667     -7.3582     97.7610      0.0000
