~Version Information
VERS.                      2.0: CWLS Log ASCII Standard - VERSION 2.0
WRAP.                       NO: One line per depth step
~Well Information Block
STRT.FT               580.0000: 
STOP.FT              1756.7500: 
STEP.FT                 0.2500: 
NULL.                -999.2500: 
COMP.          Pioneer Natural Resources: COMPANY
WELL.          Lookout Point 31-23 Tr: WELL
FLD.           Purgatoire River: FIELD
LOC.           541' FNL & 1786' FEL: LOCATION
PROV.                 Colorado: PROVINCE
CNTY.               Las Animas: COUNTRY
SRVC.                Patterson: SERVICE COMPANY
DATE.          Sun Jan 23 04:14:25 2005: LOG DATE
UWI.           05 071 08260 00: UNIQUE WELL ID
~Curve Information Block
DEPT.FT            0 000 00 00: Depth
DIR.Ohm-m                     : IEL Induction Resistivity
GR.GAPI                       : Gamma Ray
SN.Ohm-m                      : IEL Short Normal
SP.mV                         : IEL Spontaneous Potential
~Parameter Information Block
~A  Depth       DIR          GR          SN          SP     
# ...
  1484.5000     10.3567    162.7647      9.8888    226.9369
  1484.7500     10.0082    164.5153      9.5217    226.5303
  1485.0000      9.6726    163.4264      9.2096    226.1362
  1485.2500      9.3753    161.9529      8.9930    225.7739
  1485.5000      9.1354    162.4599      8.8670    225.4521
  1485.7500      8.9639    165.7014      8.8001    225.1642
  1486.0000      8.8624    172.6878      8.7687    224.8812
  1486.2500      8.8237    175.8319      8.7685    224.5461
  1486.5000      8.8351    174.6946      8.8004    224.0767
  1486.7500      8.8833    170.4176      8.8615    223.3830
  1487.0000      8.9588    162.5350      8.9499    222.3946
  1487.2500      9.0589    158.4166      9.0704    221.0868
  1487.5000      9.1863    154.9917      9.2293    219.4944
  1487.7500      9.3452    153.8831      9.4237    217.7061
  1488.0000      9.5366    152.4506      9.6336    215.8407
  1488.2500      9.7546    150.9745      9.8202    214.0159
  1488.5000      9.9842    146.7251      9.9363    212.3217
  1488.7500     10.2024    141.8301      9.9486    210.8081
  1489.0000     10.3819    131.9512      9.8605    209.4890
  1489.2500     10.5000    125.6306      9.7178    208.3575
  1489.5000     10.5492    121.0713      9.5908    207.4011
  1489.7500     10.5399    122.9817      9.5420    206.6089
  1490.0000     10.4913    132.7750      9.5960    205.9686
  1490.2500     10.4180    142.0310      9.7229    205.4611
  1490.5000     10.3220    155.8070      9.8448    205.0602
  1490.7500     10.1956    162.7027      9.8706    204.7390
  1491.0000     10.0304    167.0613      9.7486    204.4801
  1491.2500      9.8258    165.7504      9.4952    204.2774
  1491.5000      9.5926    160.1494      9.1742    204.1284
  1491.7500      9.3502    156.8987      8.8535    204.0179
  1492.0000      9.1212    156.9141      8.5799    203.9053
  1492.2500      8.9258    160.5578      8.3779    203.7238
  1492.5000      8.7800    168.6756      8.2585    203.3920
  1492.7500      8.6946    173.6302      8.2254    202.8351
  1493.0000      8.6752    177.7323      8.2780    202.0030
  1493.2500      8.7218    177.5513      8.4098    200.8801
  1493.5000      8.8300    172.7332      8.6039    199.4840
  1493.7500      8.9926    166.9993      8.8313    197.8611
  1494.0000      9.1988    156.4798      9.0573    196.0806
  1494.2500      9.4324    149.3694      9.2525    194.2312
  1494.5000      9.6700    139.7704      9.4000    192.4146
  1494.7500      9.8832    134.2896      9.4953    190.7337
  1495.0000     10.0477    127.5617      9.5449    189.2766
  1495.2500     10.1529    124.2184      9.5660    188.1010
  1495.5000     10.2046    121.3403      9.5778    187.2282
  1495.7500     10.2151    121.1005      9.5878    186.6470
  1496.0000     10.1898    123.5552      9.5823    186.3265
  1496.2500     10.1195    127.1652      9.5334    186.2268
  1496.5000      9.9878    135.4415      9.4156    186.3009
  1496.7500      9.7853    142.3560      9.2187    186.4885
  1497.0000      9.5190    152.8687      8.9508    186.7089
  1497.2500      9.2113    158.6523      8.6338    186.8678
  1497.5000      8.8907    164.2226      8.2975    186.8787
  1497.7500      8.5832    165.9421      7.9753    186.6915
  1498.0000      8.3071    166.5740      7.6985    186.3115
  1498.2500      8.0721    166.4743      7.4881    185.7952
  1498.5000      7.8804    166.6323      7.3477    185.2265
  1498.7500      7.7286    167.2201      7.2640    184.6841
  1499.0000      7.6109    168.6634      7.2146    184.2166
  1499.2500      7.5211    169.6593      7.1797    183.8335
  1499.5000      7.4538    170.3606      7.1494    183.5109
  1499.7500      7.4035    169.8291      7.1242    183.2056
  1500.0000      7.3649    167.5530      7.1085    182.8700
  1500.2500      7.3335    165.7906      7.1042    182.4652
  1500.5000      7.3075    164.2921      7.1085    181.9682
  1500.7500      7.2882    164.2217      7.1152    181.3748
  1501.0000      7.2793    164.6170      7.1159    180.6956
  1501.2500      7.2843    164.7895      7.1030    179.9489
  1501.5000      7.3042    164.9954      7.0755    179.1517
  1501.7500      7.3374    165.2458      7.0415    178.3155
  1502.0000      7.3802    165.5381      7.0146    177.4449
  1502.2500      7.4295    165.2264      7.0072    176.5421
  1502.5000      7.4842    163.1768      7.0262    175.6119
  1502.7500      7.5449    160.6322      7.0742    174.6676
  1503.0000      7.6124    155.8442      7.1507    173.7328
  1503.2500      7.6875    152.7892      7.2520    172.8378
  1503.5000      7.7708    149.5871      7.3706    172.0097
  1503.7500      7.8637    148.8271      7.4970    171.2619
  1504.0000      7.9665    149.8633      7.6225    170.5889
  1504.2500      8.0770    151.3609      7.7422    169.9700
  1504.5000      8.1896    152.7045      7.8554    169.3805
  1504.7500      8.2974    152.0570      7.9657    168.8033
  1505.0000      8.3947    149.1875      8.0772    168.2362
  1505.2500      8.4790    147.2458      8.1895    167.6931
  1505.5000      8.5489    146.2695      8.2911    167.2008
  1505.7500      8.6034    147.2937      8.3592    166.7958
  1506.0000      8.6408    150.9217      8.3668    166.5190
  1506.2500      8.6599    154.1909      8.2918    166.4097
  1506.5000      8.6590    159.0413      8.1214    166.4952
  1506.7500      8.6345    161.4467      7.8546    166.7807
  1507.0000      8.5811    163.2741      7.5041    167.2418
  1507.2500      8.4943    163.5499      7.0970    167.8239
  1507.5000      8.3732    163.1981      6.6756    168.4520
  1507.7500      8.2228    162.8248      6.3029    169.0460
  1508.0000      8.0540    163.0095      6.0612    169.5388
  1508.2500      7.8814    164.1097      6.0331    169.8878
  1508.5000      7.7203    166.7598      6.2630    170.0771
  1508.7500      7.5838    168.1446      6.7193    170.1105
  1509.0000      7.4820    167.9146      7.2906    170.0006
  1509.2500      7.4220    165.9266      7.8331    169.7599
  1509.5000      7.4091    160.9808      8.2440    169.3976
  1509.7500      7.4459    157.1517      8.5073    168.9223
  1510.0000      7.5303    151.4934      8.6801    168.3454
  1510.2500      7.6528    147.8367      8.8393    167.6830
  1510.5000      7.7962    142.4847      9.0328    166.9514
  1510.7500      7.9420    139.3551      9.2655    166.1573
  1511.0000      8.0818    136.4740      9.5174    165.2873
  1511.2500      8.2261    136.2406      9.7673    164.3017
  1511.5000      8.4012    137.9905     10.0046    163.1379
  1511.7500      8.6365    139.6190     10.2214    161.7223
  1512.0000      8.9505    140.9913     10.3990    159.9844
  1512.2500      9.3446    140.6402     10.5034    157.8664
  1512.5000      9.8036    138.2214     10.5022    155.3277
  1512.7500     10.3026    135.6172     10.4047    152.3470
  1513.0000     10.8184    130.8069     10.3055    148.9284
  1513.2500     11.3419    127.5130     10.3925    145.1133
  1513.5000     11.8819    123.8296     10.8817    140.9905
  1513.7500     12.4548    123.0802     11.8986    136.6984
  1514.0000     13.0668    125.2246     13.3858    132.4115
  1514.2500     13.6994    128.4361     15.1071    128.3137
  1514.5000     14.3074    133.9307     16.7561    124.5663
  1514.7500     14.8324    136.5046     18.0962    121.2814
  1515.0000     15.2261    136.5383     19.0413    118.5092
  1515.2500     15.4725    133.6209     19.6365    116.2391
  1515.5000     15.5934    126.1546     19.9782    114.4129
  1515.7500     15.6349    120.5503     20.1482    112.9445
  1516.0000     15.6452    113.2059     20.1969    111.7394
  1516.2500     15.6566    109.4402     20.1547    110.7130
  1516.5000     15.6804    105.2124     20.0448    109.8032
  1516.7500     15.7144    102.9855     19.8899    108.9759
  1517.0000     15.7545    100.1246     19.7133    108.2199
  1517.2500     15.8023     98.5144     19.5339    107.5343
  1517.5000     15.8602     96.7481     19.3610    106.9132
  1517.7500     15.9231     96.1795     19.1910    106.3363
