~Version Information
VERS.                      2.0: CWLS Log ASCII Standard - VERSION 2.0
WRAP.                       NO: One line per depth step
~Well Information Block
STRT.FT               -12.0000: 
STOP.FT              2137.5000: 
STEP.FT                 0.2500: 
NULL.                -999.2500: 
COMP.          Pioneer Natural Resources: COMPANY
WELL.           Ogallela 44-12: WELL
FLD.           Purgatorie River: FIELD
LOC.           610' FSL & 671' FEL------------: LOCATION
PROV.                       CO: PROVINCE
CNTY.               Las Animas: COUNTRY
SRVC.          Patterson Wireline: SERVICE COMPANY
DATE.          Thu Apr 07 14:25:46 2005: LOG DATE
UWI.           05 071 08283 00: UNIQUE WELL ID
~Curve Information Block
DEPT.FT            0 000 00 00: Depth
CCL.                          : Casing Collar Locator
TT3.usec                      : CBL 3' Travel Time
AMP3.mV                       : CBL 3' Amplitude
ATT3.db/ft                    : CBL 3' Attenuation
GR.GAPI                       : Gamma Ray
~Parameter Information Block
~A  Depth       CCL         TT3         AMP3        ATT3         GR     
# ...
   268.0000      0.0000    265.0891     65.2630     -1.0813     80.4176
   268.2500      0.0000    265.0649     65.3073     -1.0793     83.3218
   268.5000      0.0000    265.0425     65.3568     -1.0771     85.1220
   268.7500      0.0000    265.0259     65.4000     -1.0752     85.9164
   269.0000      0.0000    265.0169     65.4246     -1.0741     85.9372
   269.2500      0.0000    265.0154     65.4231     -1.0742     85.1230
   269.5000      0.0000    265.0189     65.3985     -1.0753     83.0306
   269.7500      0.0000    265.0236     65.3662     -1.0767     79.2836
   270.0000      0.0000    265.0271     65.3457     -1.0776     74.0920
   270.2500      0.0000    265.0304     65.3476     -1.0775     68.2906
   270.5000      0.0000    265.0363     65.3663     -1.0767     62.9455
   270.7500      0.0000    265.0451     65.3889     -1.0757     58.8831
   271.0000      0.0000    265.0529     65.4062     -1.0749     56.3545
   271.2500      0.0000    265.0569     65.4156     -1.0745     55.0492
   271.5000      0.0000    265.0578     65.4172     -1.0744     54.4401
   271.7500      0.0000    265.0581     65.4137     -1.0746     54.1031
   272.0000      0.0000    265.0582     65.4121     -1.0746     53.8192
   272.2500      0.0000    265.0555     65.4241     -1.0741     53.6305
   272.5000      0.0000    265.0479     65.4575     -1.0726     53.8354
   272.7500      0.0000    265.0361     65.5058     -1.0705     54.6793
   273.0000      0.0000    265.0233     65.5487     -1.0686     55.9692
   273.2500      0.0000    265.0118     65.5687     -1.0677     57.2026
   273.5000      0.0000    265.0015     65.5681     -1.0678     58.1631
   273.7500      0.0000    264.9913     65.5652     -1.0679     59.1615
   274.0000      0.0000    264.9822     65.5753     -1.0674     60.5034
   274.2500      0.0000    264.9762     65.5986     -1.0664     61.8664
   274.5000      0.0000    264.9745     65.6267     -1.0652     62.4366
   274.7500      0.0000    264.9771     65.6532     -1.0640     61.7034
   275.0000      0.0000    264.9833     65.6780     -1.0629     59.9843
   275.2500      0.0000    264.9908     65.7040     -1.0618     58.0640
   275.5000      0.0000    264.9950     65.7326     -1.0605     56.4234
   275.7500      0.0000    264.9912     65.7627     -1.0592     55.0876
   276.0000      0.0000    264.9793     65.7914     -1.0579     54.1332
   276.2500      0.0000    264.9644     65.8148     -1.0569     53.8402
   276.5000      0.0000    264.9546     65.8295     -1.0562     54.1824
   276.7500      0.0000    264.9551     65.8352     -1.0560     54.5485
   277.0000      0.0000    264.9653     65.8359     -1.0560     54.1839
   277.2500      0.0000    264.9796     65.8370     -1.0559     52.7877
   277.5000      0.0000    264.9911     65.8412     -1.0557     50.7699
   277.7500      0.0000    264.9942     65.8474     -1.0555     49.1116
   278.0000      0.0000    264.9863     65.8543     -1.0551     48.7724
   278.2500      0.0000    264.9686     65.8635     -1.0547     49.8470
   278.5000      0.0000    264.9466     65.8765     -1.0542     51.3207
   278.7500      0.0000    264.9285     65.8895     -1.0536     51.9747
   279.0000      0.0000    264.9206     65.8911     -1.0535     51.5868
   279.2500      0.0000    264.9235     65.8700     -1.0545     51.1210
   279.5000      0.0000    264.9331     65.8269     -1.0564     51.7583
   279.7500      0.0000    264.9436     65.7788     -1.0585     53.7579
   280.0000      0.0000    264.9499     65.7482     -1.0598     56.1898
   280.2500      0.0000    264.9489     65.7480     -1.0598     57.7821
   280.5000      0.0000    264.9400     65.7748     -1.0586     58.1524
   280.7500      0.0000    264.9272     65.8149     -1.0569     58.2663
   281.0000      0.0000    264.9171     65.8537     -1.0552     59.5615
   281.2500      0.0000    264.9156     65.8835     -1.0539     62.4415
   281.5000      0.0000    264.9254     65.9038     -1.0530     65.6493
   281.7500      0.0000    264.9453     65.9196     -1.0523     67.2917
   282.0000      0.0000    264.9723     65.9374     -1.0515     66.5472
   282.2500      0.0000    265.0022     65.9624     -1.0504     64.2387
   282.5000      0.0000    265.0317     65.9959     -1.0489     61.8384
   282.7500      0.0000    265.0601     66.0350     -1.0472     60.3068
   283.0000      0.0000    265.0882     66.0725     -1.0456     59.8336
   283.2500      0.0000    265.1148     66.1009     -1.0443     60.2098
   283.5000      0.0000    265.1354     66.1151     -1.0437     61.2147
   283.7500      0.0000    265.1459     66.1142     -1.0437     62.6058
   284.0000      0.0000    265.1476     66.0998     -1.0444     63.6995
   284.2500      0.0000    265.1455     66.0777     -1.0453     63.3964
   284.5000      0.0000    265.1440     66.0604     -1.0461     61.2353
   284.7500      0.0000    265.1426     66.0639     -1.0459     58.2138
   285.0000      0.0000    265.1395     66.0987     -1.0444     55.9835
   285.2500      0.0000    265.1340     66.1630     -1.0416     55.4427
   285.5000      0.0000    265.1266     66.2429     -1.0381     56.5312
   285.7500      0.0000    265.1173     66.3206     -1.0347     59.0291
   286.0000      0.0000    265.1049     66.3833     -1.0320     62.9654
   286.2500      0.0000    265.0893     66.4270     -1.0301     68.3943
   286.5000      0.0000    265.0726     66.4527     -1.0290     75.3174
   286.7500      0.0000    265.0576     66.4636     -1.0285     83.8626
   287.0000      0.0000    265.0441     66.4672     -1.0283     94.0260
   287.2500      0.0000    265.0294     66.4756     -1.0280    104.9129
   287.5000      0.0000    265.0122     66.4970     -1.0270    114.3684
   287.7500      0.0000    264.9965     66.5249     -1.0258    119.6227
   288.0000      0.0000    264.9887     66.5410     -1.0251    118.5699
   288.2500      0.0000    264.9916     66.5312     -1.0255    111.0666
   288.5000      0.0000    265.0007     66.4965     -1.0270     99.5085
   288.7500      0.0000    265.0088     66.4520     -1.0290     87.8866
   289.0000      0.0000    265.0110     66.4161     -1.0305     79.7038
   289.2500      0.0000    265.0083     66.4008     -1.0312     76.4117
   289.5000      0.0000    265.0049     66.4061     -1.0310     77.2491
   289.7500      0.0000    265.0041     66.4200     -1.0304     80.0520
   290.0000      0.0000    265.0072     66.4226     -1.0303     82.4552
   290.2500      0.0000    265.0131     66.3976     -1.0314     83.0616
   290.5000      0.0000    265.0173     66.3476     -1.0335     81.8691
   290.7500      0.0000    265.0130     66.2988     -1.0357     79.7465
   291.0000      0.0000    264.9953     66.2842     -1.0363     77.7068
   291.2500      0.0000    264.9665     66.3167     -1.0349     76.5064
   291.5000      0.0000    264.9351     66.3788     -1.0322     76.4793
   291.7500      0.0000    264.9113     66.4352     -1.0297     77.6530
   292.0000      0.0000    264.9037     66.4520     -1.0290     79.9669
   292.2500      0.0000    264.9166     66.4097     -1.0308     83.1238
   292.5000      0.0000    264.9466     66.3082     -1.0353     86.3437
   292.7500      0.0000    264.9824     66.1643     -1.0415     88.8251
   293.0000      0.0000    265.0121     66.0044     -1.0486     90.5127
   293.2500      0.0000    265.0311     65.8585     -1.0550     91.9341
   293.5000      0.0000    265.0431     65.7559     -1.0595     93.1235
   293.7500      0.0000    265.0540     65.7165     -1.0612     93.3264
   294.0000      0.0000    265.0648     65.7410     -1.0601     92.2031
   294.2500      0.0000    265.0706     65.8098     -1.0571     90.6956
   294.5000      0.0000    265.0667     65.8951     -1.0534     89.9396
   294.7500      0.0000    265.0589     65.9709     -1.0500     89.8313
   295.0000      0.0000    265.0754     66.0127     -1.0482     89.6187
   295.2500      0.0000    265.2124     65.9543     -1.0508     89.4736
   295.5000      0.0000    265.7421     65.6001     -1.0663     90.3263
   295.7500      0.0000    267.2588     64.5525     -1.1130     92.2139
