~Version Information
VERS.                      2.0: CWLS Log ASCII Standard - VERSION 2.0
WRAP.                       NO: One line per depth step
~Well Information Block
STRT.FT               -10.0000: 
STOP.FT              2184.0000: 
STEP.FT                 0.2500: 
NULL.                -999.2500: 
COMP.          Petrogulf Corporation: COMPANY
WELL.              Silva 1-43R: WELL
FLD.           Purgatorie River: FIELD
LOC.           1971' FSL & 526' FEL--: LOCATION
CNTY.               Las Animas: COUNTY
SRVC.          Patterson Wireline: SERVICE COMPANY
DATE.          Thu Jul 13 13:08:17 2006: LOG DATE
UWI.           05 072 08372 00: UNIQUE WELL ID
STAT.                       CO: STATE
~Curve Information Block
DEPT.FT            0 000 00 00: Depth
CCL.                          : Casing Collar Locator
TT3.usec                      : CBL 3' Travel Time
AMP3.mV                       : CBL 3' Amplitude
GR.GAPI                       : Gamma Ray
~Parameter Information Block
~A  Depth       CCL         TT3         AMP3         GR     
# ...
  2167.5000      0.0000    672.3215      1.4278     56.4132
  2167.7500      0.0000    674.7720      1.5556     53.1793
  2168.0000      0.0000    676.0077      1.7157     52.3125
  2168.2500      0.0000    677.4655      1.8953     53.4529
  2168.5000      0.0000    680.0952      2.0767     55.3009
  2168.7500      0.0000    683.8546      2.2412     56.9338
  2169.0000      0.0000    688.0358      2.3735     57.9988
  2169.2500      0.0000    690.6940      2.4647     57.8181
  2169.5000      0.0000    688.7628      2.5116     54.8944
  2169.7500      0.0000    680.7135      2.5142     47.8142
  2170.0000      0.0000    669.1898      2.4763     36.8169
  2170.2500      0.0000    659.9158      2.4090     24.2946
  2170.5000      0.0000    657.4844      2.3293     13.4108
  2170.7500      0.0000    661.8716      2.2537      6.0803
  2171.0000      0.0000    668.8394      2.1925      2.2339
  2171.2500      0.0000    673.7016      2.1493      0.6583
  2171.5000      0.0000    674.5282      2.1262      0.1541
  2171.7500      0.0000    671.9473      2.1279      0.0282
  2172.0000      0.0000    667.3956      2.1643      0.0036
  2172.2500      0.0000    662.8189      2.2487      0.0000
  2172.5000      0.0000    661.1122      2.3908   -999.2500
  2172.7500      0.0000    665.1229      2.5890   -999.2500
  2173.0000      0.0000    675.5487      2.8268   -999.2500
  2173.2500      0.0000    689.6301      3.0759   -999.2500
  2173.5000      0.0000    702.0792      3.3026   -999.2500
  2173.7500      0.0000    707.9444      3.4751   -999.2500
  2174.0000      0.0000    704.9745      3.5739   -999.2500
  2174.2500      0.0000    693.2632      3.6003   -999.2500
  2174.5000      0.0000    673.0370      3.5683   -999.2500
  2174.7500      0.0000    641.5882      3.4724   -999.2500
  2175.0000      0.0000    590.6677      3.2669   -999.2500
  2175.2500      0.0000    509.3665      2.8940   -999.2500
  2175.5000      0.0000    395.6696      2.3552   -999.2500
  2175.7500      0.0000    266.4684      1.7496   -999.2500
  2176.0000      0.0000    150.8174      1.2214   -999.2500
  2176.2500      0.0000     70.1199      0.8631   -999.2500
  2176.5000      0.0000     26.3580      0.6737   -999.2500
  2176.7500      0.0000      7.9218      0.5957   -999.2500
  2177.0000      0.0000      1.8872      0.5706   -999.2500
  2177.2500      0.0000      0.3514      0.5643   -999.2500
  2177.5000      0.0000      0.0474      0.5631   -999.2500
  2177.7500      0.0000   -999.2500   -999.2500   -999.2500
  2178.0000      0.0000   -999.2500   -999.2500   -999.2500
  2178.2500      0.0000   -999.2500   -999.2500   -999.2500
  2178.5000      0.0000   -999.2500   -999.2500   -999.2500
  2178.7500      0.0000   -999.2500   -999.2500   -999.2500
  2179.0000      0.0000   -999.2500   -999.2500   -999.2500
  2179.2500      0.0000   -999.2500   -999.2500   -999.2500
  2179.5000      0.0000   -999.2500   -999.2500   -999.2500
  2179.7500      0.0000   -999.2500   -999.2500   -999.2500
  2180.0000      0.0000   -999.2500   -999.2500   -999.2500
  2180.2500      0.0000   -999.2500   -999.2500   -999.2500
  2180.5000      0.0000   -999.2500   -999.2500   -999.2500
  2180.7500      0.0000   -999.2500   -999.2500   -999.2500
  2181.0000      0.0000   -999.2500   -999.2500   -999.2500
  2181.2500      0.0000   -999.2500   -999.2500   -999.2500
  2181.5000      0.0000   -999.2500   -999.2500   -999.2500
  2181.7500      0.0000   -999.2500   -999.2500   -999.2500
  2182.0000      0.0000   -999.2500   -999.2500   -999.2500
  2182.2500      0.0000   -999.2500   -999.2500   -999.2500
  2182.5000      0.0000   -999.2500   -999.2500   -999.2500
  2182.7500      0.0000   -999.2500   -999.2500   -999.2500
  2183.0000      0.0000   -999.2500   -999.2500   -999.2500
  2183.2500      2.0000   -999.2500   -999.2500   -999.2500
  2183.5000   -999.2500   -999.2500   -999.2500   -999.2500
  2183.7500   -999.2500   -999.2500   -999.2500   -999.2500
  2184.0000   -999.2500   -999.2500   -999.2500   -999.2500
