~Version Information
 VERS.                                  2.0 : CWLS LAS VERSION
 WRAP.                                   NO : WRAPING MODE
 SWARE .                 MController 2.5.0J : SOFTWARE VERSION
~Well Information
 WELL.                        Desoto 13-7TR : WELL
 COMP.        Pioneer Natural Resources Inc : COMPANY
 FLD.                      Purgatoire River : FIELD
 LOC.                 NW/SW Sec 7 T32S R66W : LOCATION
 DATE.                           1/13-14/05 : DATE(S) LOGGED
 SRVC.       Blanco Geological Services LLC : SERVICE COMPANY
 STAT.                                   CO : STATE
 CNTY.                           Las Animas : COUNTY
 CTRY.                                  USA : COUNTRY
 API.                          05-071-08216 : API NUMBER
 STRT.FT                             945.00 : START DEPTH
 STOP.FT                            2785.00 : STOP DEPTH
 STEP.FT                               1.00 : DEPTH INCREMENT
 NULL.                                -9999 : NULL VALUE
~Curve information
 DEPTH.FT                                   :
 ROP.MIN/FT                                 :
 GAS.UNITS                                  :
~ASCII Log data
# ...
      1545.0         0.27        997.7 
      1546.0         0.23       1023.6 
      1547.0         0.27       1074.8 
      1548.0         0.27       1054.0 
      1549.0         0.30       1054.3 
      1550.0         0.27       1062.9 
      1551.0         0.27       1063.9 
      1552.0         0.30       1016.9 
      1553.0         0.28        961.5 
      1554.0         0.33        882.9 
      1555.0         0.37        839.1 
      1556.0         0.38        815.7 
      1557.0         0.30        759.7 
      1558.0         0.33        693.5 
      1559.0         0.30        637.9 
      1560.0         0.33        635.0 
      1561.0         0.23        662.8 
      1562.0         0.23        675.9 
      1563.0         0.23        681.4 
      1564.0         0.17        681.4 
      1565.0         0.17        677.5 
      1566.0         0.17        672.7 
      1567.0         0.17        672.7 
      1568.0         0.17        663.8 
      1569.0         0.17        646.2 
      1570.0         0.18        635.3 
      1571.0         0.23        632.4 
      1572.0         0.27        623.5 
      1573.0         0.27       1238.8 
      1574.0         0.27       1199.8 
      1575.0         0.30       1197.3 
      1576.0         0.27       1146.7 
      1577.0         0.23       1035.4 
      1578.0         0.27        983.9 
      1579.0         0.27        885.4 
      1580.0         0.23        794.3 
      1581.0         0.23        716.6 
      1582.0         0.23        713.0 
      1583.0         0.25        686.2 
      1584.0         0.27        675.9 
      1585.0         0.27        651.6 
      1586.0         0.17        637.2 
      1587.0         0.30        626.7 
      1588.0         0.30        572.3 
      1589.0         0.33        570.4 
      1590.0         0.30        563.7 
      1591.0         0.23        561.8 
      1592.0         0.37        563.4 
      1593.0         0.23        555.7 
      1594.0         0.28        552.2 
      1595.0         0.27        550.3 
      1596.0         0.20        540.3 
      1597.0         0.27        521.8 
      1598.0         0.23        528.2 
      1599.0         0.27        526.9 
      1600.0         0.23        534.3 
      1601.0         0.27        553.4 
      1602.0         0.27        538.1 
      1603.0         0.23        526.6 
      1604.0         0.20        854.7 
      1605.0         0.23        854.7 
      1606.0         0.23        854.7 
      1607.0         0.30        916.1 
      1608.0         0.32        945.6 
      1609.0         0.27        935.6 
      1610.0         0.27        931.2 
      1611.0         0.30        881.9 
      1612.0         0.33        809.6 
      1613.0         0.27        675.3 
      1614.0         0.27        610.1 
      1615.0         0.50        607.2 
      1616.0         0.33        575.5 
      1617.0         0.33        532.0 
      1618.0         0.30        484.7 
      1619.0         0.30        460.4 
      1620.0         0.30        468.4 
      1621.0         0.27        467.7 
      1622.0         0.30        467.7 
      1623.0         0.32        467.1 
      1624.0         0.23        459.7 
      1625.0         0.23        448.5 
      1626.0         0.20        445.7 
      1627.0         0.27        441.8 
      1628.0         0.30        445.0 
      1629.0         0.27        442.5 
      1630.0         0.27        440.0 
      1631.0         0.30        256.1 
      1632.0         0.33        248.8 
      1633.0         0.27        245.0 
      1634.0         0.30        246.1 
      1635.0         0.35       1065.2 
      1636.0         0.37        929.9 
      1637.0         0.27        711.4 
      1638.0         0.30        565.9 
      1639.0         0.30         97.6 
      1640.0         0.33         73.9 
      1641.0         0.30         31.0 
      1642.0         0.30        123.5 
      1643.0         0.30        246.4 
      1644.0         0.27        256.4 
      1645.0         0.33        257.1 
      1646.0         0.37        261.3 
      1647.0         0.40        261.8 
      1648.0         0.38        258.8 
      1649.0         0.37        251.3 
      1650.0         0.30        236.5 
      1651.0         0.33        230.2 
      1652.0         0.33        223.0 
      1653.0         0.23        218.1 
      1654.0         0.27        189.6 
      1655.0         0.23        161.1 
      1656.0         0.23         14.7 
      1657.0         0.23         14.4 
      1658.0         0.23          9.7 
      1659.0         0.20          9.3 
      1660.0         0.22          7.3 
      1661.0         0.23          6.6 
      1662.0         0.20          6.3 
      1663.0         0.27          5.9 
      1664.0         0.20        365.4 
      1665.0         0.23        365.4 
      1666.0         0.27        427.2 
      1667.0         0.23        447.8 
      1668.0         0.30        448.4 
      1669.0         0.23        442.4 
      1670.0         0.30        434.8 
      1671.0         0.27        412.7 
      1672.0         0.33        379.5 
      1673.0         0.32        342.0 
      1674.0         0.33        293.5 
      1675.0         0.37        256.7 
      1676.0         0.38        245.6 
      1677.0         0.37        239.5 
      1678.0         0.30        227.7 
      1679.0         0.37        222.7 
      1680.0         0.30        218.4 
      1681.0         0.27        210.9 
      1682.0         0.20        208.1 
      1683.0         0.20        205.6 
      1684.0         0.23        204.6 
      1685.0         0.20        202.2 
      1686.0         0.23        199.1 
      1687.0         0.27        197.9 
      1688.0         0.25        185.0 
      1689.0         0.27        181.2 
      1690.0         0.20        193.8 
      1691.0         0.23        306.1 
      1692.0         0.23        306.1 
      1693.0         0.20        342.1 
      1694.0         0.20        356.3 
      1695.0         0.23        378.0 
      1696.0         0.20        378.0 
      1697.0         0.17        395.8 
      1698.0         0.20        393.7 
      1699.0         0.20        393.7 
      1700.0         0.20        377.6 
      1701.0         0.20        374.6 
      1702.0         0.27        338.5 
      1703.0         0.28        303.3 
      1704.0         0.27        272.2 
      1705.0         0.27        266.0 
      1706.0         0.23        244.2 
      1707.0         0.32        232.1 
      1708.0         0.27        229.0 
      1709.0         0.27        226.3 
      1710.0         0.27        219.2 
      1711.0         0.27        210.6 
      1712.0         0.30        207.8 
      1713.0         0.27        203.7 
      1714.0         0.23        199.6 
      1715.0         0.27        198.0 
      1716.0         0.23        196.4 
      1717.0         0.23        192.7 
      1718.0         0.27        191.7 
      1719.0         0.20        193.6 
      1720.0         0.32        200.9 
      1721.0         0.23        285.4 
      1722.0         0.20        285.4 
      1723.0         0.23        353.9 
      1724.0         0.23        402.6 
      1725.0         0.23        480.0 
      1726.0         0.23        831.7 
      1727.0         0.23        847.7 
      1728.0         0.23        850.9 
      1729.0         0.20        850.9 
      1730.0         0.20        846.4 
      1731.0         0.20        761.0 
      1732.0         0.17        748.9 
      1733.0         0.17        651.0 
      1734.0         0.27        537.8 
      1735.0         0.55        476.7 
      1736.0         0.27        243.7 
      1737.0         0.27        226.8 
      1738.0         0.27        222.4 
      1739.0         0.25        220.3 
      1740.0         0.23        217.5 
      1741.0         0.30        214.9 
      1742.0         0.37        204.5 
      1743.0         0.33        202.9 
      1744.0         0.30        187.8 
