~Version Information
VERS.                      2.0: CWLS Log ASCII Standard - VERSION 2.0
WRAP.                       NO: One line per depth step
~Well Information Block
STRT.FT               650.0000: 
STOP.FT              1999.0000: 
STEP.FT                 0.2500: 
NULL.                -999.2500: 
COMP.          Pioneer Natural Resources: COMPANY
WELL.           Firehawk 34-26: WELL
FLD.           Purgatoire River: FIELD
LOC.           1196' FSL & 1595' FEL--: LOCATION
STAT.                 Colorado: State
CNTY.               Las Animas: COUNTY
CTRY. USA : Country
SECT. 26 : Section
TOWN. 32S : Township
RANG. 66W : Range
SRVC.                Patterson: SERVICE COMPANY
DATE.          Sun Oct 16 16:57:28 2005: LOG DATE
API.           05 071 08389 00: UNIQUE WELL ID
~Curve Information Block
DEPT.FT            0 000 00 00: Depth
SN.Ohm-m                      : IEL Short Normal
SP.mV                         : IEL Spontaneous Potential
DIR.Ohm-m                     : IEL Induction Resistivity
GR.GAPI                       : Gamma Ray
~Parameter Information Block
~A  Depth        SN          SP         DIR          GR     
# ...
   985.0000      8.0369    -89.3089      8.5693    100.4026
   985.2500      8.2064    -89.2661      8.7458    100.0439
   985.5000      8.5219    -89.2312      8.9371     99.4218
   985.7500      8.8728    -89.1861      9.1344     99.3394
   986.0000      9.1533    -89.1093      9.3328     99.8277
   986.2500      9.3612    -88.9810      9.5327    100.1811
   986.5000      9.5712    -88.7873      9.7379     99.6347
   986.7500      9.8415    -88.5236      9.9510     98.0702
   987.0000     10.1822    -88.1990     10.1691     94.0723
   987.2500     10.5873    -87.8384     10.3815     90.7979
   987.5000     11.0581    -87.4764     10.5694     85.6572
   987.7500     11.5870    -87.1411     10.7068     82.3255
   988.0000     12.1189    -86.8358     10.7627     78.2898
   988.2500     12.5647    -86.5361     10.7082     76.9664
   988.5000     12.8697    -86.2122     10.5291     77.8038
   988.7500     13.0346    -85.8664     10.2399     80.0615
   989.0000     13.0952    -85.5502      9.8854     84.9557
   989.2500     13.1188    -85.3356      9.5250     88.5682
   989.5000     13.1479    -85.2565      9.2105     93.5199
   989.7500     13.1455    -85.2691      8.9715     96.0092
   990.0000     13.0615    -85.2731      8.8161     98.1362
   990.2500     12.9143    -85.1797      8.7417     98.7167
   990.5000     12.7814    -84.9714      8.7514     99.2107
   990.7500     12.7412    -84.7121      8.8680     99.6856
   991.0000     12.8112    -84.5054      9.1483    100.7428
   991.2500     12.9450    -84.4270      9.6984    101.5007
   991.5000     13.1073    -84.4746     10.7055    102.1310
   991.7500     13.3085    -84.5742     12.5228    101.7729
   992.0000     13.5508    -84.6401     15.9371     99.5857
   992.2500     13.8043    -84.6398     23.2538     97.2211
   992.5000     14.0526    -84.6051     45.7962     93.4755
   992.7500     14.3024    -84.5898   2238.3706     91.5643
   993.0000     14.5494    -84.6236 100000.0000     89.9831
   993.2500     14.7965    -84.7013 100000.0000     89.5182
   993.5000     15.0908    -84.8017 100000.0000     89.1433
   993.7500     15.4623    -84.9096 100000.0000     89.0293
   994.0000     15.8266    -85.0217 100000.0000     89.1920
   994.2500     16.0257    -85.1408 100000.0000     89.5390
   994.5000     15.9453    -85.2710 100000.0000     90.3386
   994.7500     15.5374    -85.4201 100000.0000     91.0676
   995.0000     14.7905    -85.6085 100000.0000     92.4682
   995.2500     13.7721    -85.8827 100000.0000     93.4855
   995.5000     12.6614    -86.3154 100000.0000     94.8422
   995.7500     11.6193    -86.9824 100000.0000     95.6022
   996.0000     10.6528    -87.9382 100000.0000     96.5809
   996.2500      9.7170    -89.2282 100000.0000     96.9691
   996.5000      8.8977    -90.9434 100000.0000     96.6423
   996.7500      8.3696    -93.2957 100000.0000     95.7843
   997.0000      8.2229    -96.6975 100000.0000     94.2024
   997.2500      8.3842   -101.8434 100000.0000     93.3018
   997.5000      8.6434   -109.7715 100000.0000     91.8871
   997.7500      8.7449   -121.8259 100000.0000     90.4878
   998.0000      8.5176   -139.3722 100000.0000     87.7610
   998.2500      7.9399   -163.0773    173.1904     86.0249
   998.5000      7.0742   -191.8494      4.3495     83.9142
   998.7500      5.9893   -222.2554      1.8784     82.3156
   999.0000      4.7756   -249.5009      1.1022     78.2411
   999.2500      3.5848   -269.7956      0.7355     74.0558
   999.5000      2.5962   -282.2000      0.5246     66.1213
   999.7500      1.9203   -288.3803      0.3906     60.3018
  1000.0000      1.5475   -290.8884      0.3035     51.5043
  1000.2500      1.3940   -291.7158      0.2502     45.8756
  1000.5000      1.3768   -291.9246      0.2240     38.3385
  1000.7500      1.4638   -291.9409      0.2218     34.3192
  1001.0000      1.7155   -291.9059      0.2442     30.4198
  1001.2500      2.2950   -291.8630      0.2964     29.4571
  1001.5000      3.3085   -291.8192      0.3892     30.7116
  1001.7500      4.4861   -291.7475      0.5433     33.5859
  1002.0000      5.1561   -291.5463      0.8053     41.3662
  1002.2500      4.8627   -290.9270      1.3037     48.5537
  1002.5000      3.9123   -289.2219      2.5164     59.9342
  1002.7500      3.0203   -285.2577      8.3394     65.8008
  1003.0000      2.6918   -277.6139 100000.0000     69.3111
  1003.2500      3.2682   -265.4158 100000.0000     67.9795
  1003.5000      5.3436   -249.1545 100000.0000     62.3746
  1003.7500      9.7059   -230.6913 100000.0000     57.7724
  1004.0000     16.5750   -212.2925 100000.0000     51.7260
  1004.2500     25.0093   -195.4929 100000.0000     49.0349
  1004.5000     33.4656   -180.6514 100000.0000     47.6063
  1004.7500     40.8521   -167.3540 100000.0000     48.4016
  1005.0000     46.5679   -155.1627 100000.0000     51.7381
  1005.2500     49.8867   -144.0410 100000.0000     54.9244
  1005.5000     50.2743   -134.2311 100000.0000     60.2893
  1005.7500     48.2802   -125.9177 100000.0000     63.8013
  1006.0000     45.3205   -119.0778 100000.0000     68.2968
  1006.2500     42.5640   -113.5602 100000.0000     70.4913
  1006.5000     40.4455   -109.1968 100000.0000     72.3495
  1006.7500     38.9634   -105.8214 100000.0000     72.6614
  1007.0000     37.9825   -103.2358 100000.0000     72.0284
  1007.2500     37.3337   -101.2154 100000.0000     71.1161
  1007.5000     36.8744    -99.5674 100000.0000     69.4604
  1007.7500     36.5444    -98.1747 100000.0000     68.4385
  1008.0000     36.3803    -96.9834 100000.0000     67.4521
  1008.2500     36.4545    -95.9645 100000.0000     67.2220
  1008.5000     36.7689    -95.0881 100000.0000     67.0637
  1008.7500     37.2347    -94.3158    285.0132     66.6231
  1009.0000     37.7950    -93.6084     41.6613     65.0441
  1009.2500     38.4888    -92.9407     24.1631     63.6582
  1009.5000     39.2943    -92.3108     18.0823     62.0960
  1009.7500     40.0070    -91.7332     15.2340     61.7227
  1010.0000     40.4362    -91.2183     13.7724     61.7150
  1010.2500     40.6375    -90.7573     13.0318     61.6313
  1010.5000     40.8439    -90.3299     12.7062     61.4098
  1010.7500     41.2251    -89.9214     12.6441     61.7039
  1011.0000     41.7237    -89.5245     12.7818     63.4831
  1011.2500     42.1141    -89.1287     13.1102     65.3625
  1011.5000     42.2344    -88.7197     13.6484     68.1267
  1011.7500     42.0924    -88.2947     14.4169     69.4412
  1012.0000     41.7648    -87.8674     15.4121     70.6768
  1012.2500     41.3117    -87.4432     16.5851     71.3520
  1012.5000     40.7846    -86.9883     17.8412     72.5414
  1012.7500     40.2769    -86.4382     19.0711     73.4416
  1013.0000     39.8910    -85.7526     20.1987     74.5819
  1013.2500     39.6367    -84.9617     21.2064     74.7702
  1013.5000     39.4755    -84.1550     22.1130     73.3062
  1013.7500     39.3947    -83.4184     22.9346     70.9974
  1014.0000     39.3543    -82.7798     23.6646     66.6045
  1014.2500     39.2567    -82.1988     24.2834     64.2844
  1014.5000     38.9708    -81.5951     24.7760     63.4043
  1014.7500     38.3248    -80.9033     25.1390     64.5679
  1015.0000     37.1424    -80.1289     25.3750     67.2894
  1015.2500     35.4065    -79.3568     25.4824     68.5122
  1015.5000     33.4050    -78.6915     25.4485     68.3306
  1015.7500     31.5835    -78.1853     25.2484     67.0928
  1016.0000     30.1721    -77.8205     24.8474     64.8728
  1016.2500     29.0258    -77.5387     24.2139     63.9071
  1016.5000     27.9131    -77.2778     23.3457     63.8794
  1016.7500     26.8226    -77.0027     22.2952     64.8207
  1017.0000     25.8507    -76.7320     21.1671     67.4157
  1017.2500     24.9629    -76.5410     20.0814     69.7025
  1017.5000     24.0166    -76.5170     19.1266     73.3577
  1017.7500     22.9222    -76.6897     18.3362     75.5459
  1018.0000     21.6902    -76.9995     17.6974     78.1500
  1018.2500     20.3873    -77.3423     17.1782     79.6290
