~Version Information
VERS.                      2.0: CWLS Log ASCII Standard - VERSION 2.0
WRAP.                       NO: One line per depth step
~Well Information Block
STRT.FT                -9.5000: 
STOP.FT              1862.5000: 
STEP.FT                 0.2500: 
NULL.                -999.2500: 
COMP.          Petrogulf Corporation: COMPANY
WELL.             State 16-34R: WELL
FLD.           Purgatoire River: FIELD
LOC.           1095' FSL & 1498' FEL--: LOCATION
CNTY.               Las Animas: COUNTY
SRVC.                         : SERVICE COMPANY
DATE.          Mon May 10 14:56:57 2004: LOG DATE
UWI.                          : UNIQUE WELL ID
STAT.                       CO: STATE
~Curve Information Block
DEPT.FT            0 000 00 00: Depth
GR.GAPI                       : Gamma Ray
CCL.                          : Casing Collar Locator
TT3.usec                      : CBL 3' Travel Time
AMP3.mV                       : CBL 3' Amplitude
~Parameter Information Block
~A  Depth        GR         CCL         TT3         AMP3    
# ...
  1598.5000     95.9552      0.0000    723.8281      2.9461
  1598.7500     93.5290      0.0000    727.7631      3.0343
  1599.0000     91.1094      0.0000    728.2278      3.1284
  1599.2500     89.5239      0.0000    719.6738      3.1707
  1599.5000     90.2532      0.0000    706.6614      3.1187
  1599.7500     94.4643      0.0000    702.9166      2.9613
  1600.0000    102.5850      0.0000    716.5696      2.7588
  1600.2500    113.9933      0.0000    742.3020      2.5952
  1600.5000    126.5320      0.0000    768.0842      2.4898
  1600.7500    136.5371      0.0000    784.9438      2.4114
  1601.0000    140.1523      0.0000    789.2404      2.3673
  1601.2500    135.5415      0.0000    782.4290      2.4533
  1601.5000    124.3884      0.0000    769.6950      2.7965
  1601.7500    111.1122      0.0000    753.2291      3.3393
  1602.0000    100.1828      0.0000    732.0504      3.6930
  1602.2500     93.9630      0.0000    710.7490      3.5352
  1602.5000     92.8155      0.0000    697.7301      3.0754
  1602.7500     96.3640      0.0000    696.6076      2.7351
  1603.0000    103.9744      0.0000    706.1201      2.6411
  1603.2500    114.2921      0.0000    723.1451      2.6762
  1603.5000    124.9903      0.0000    742.5101      2.7084
  1603.7500    133.3621      0.0000    757.6356      2.6660
  1604.0000    137.5576      0.0000    764.3627      2.5604
  1604.2500    137.8120      0.0000    763.7490      2.4830
  1604.5000    136.4145      0.0000    763.7170      2.5219
  1604.7500    135.8293      0.0000    777.8811      2.6463
  1605.0000    136.5322      0.0000    810.3112      2.7186
  1605.2500    136.8543      0.0000    841.9915      2.6392
  1605.5000    134.7719      0.0000    849.5854      2.4610
  1605.7500    129.5447      0.0000    835.7717      2.3542
  1606.0000    122.0535      0.0000    819.3856      2.4531
  1606.2500    114.3812      0.0000    803.5667      2.7124
  1606.5000    108.9483      0.0000    782.7930      2.9556
  1606.7500    107.0749      0.0000    764.7613      3.0679
  1607.0000    107.9225      0.0000    757.9007      3.0578
  1607.2500    109.1539      0.0000    757.1846      2.9850
  1607.5000    108.8251      0.0000    755.1744      2.9118
  1607.7500    106.5005      0.0000    752.0082      2.8892
  1608.0000    102.8518      0.0000    751.7714      2.9503
  1608.2500     98.9417      0.0000    757.3455      3.0842
  1608.5000     96.1272      0.0000    768.3282      3.1859
  1608.7500     95.9755      0.0000    780.2668      3.1312
  1609.0000     99.3714      0.0000    788.1409      2.9673
  1609.2500    105.6543      0.0000    789.3445      2.9058
  1609.5000    113.1239      0.0000    786.2513      3.0139
  1609.7500    120.3721      0.0000    793.3140      3.0329
  1610.0000    126.7364      0.0000    826.6394      2.7540
  1610.2500    131.8824      0.0000    871.3814      2.3708
  1610.5000    135.7557      0.0000    887.3521      2.1719
  1610.7500    138.8666      0.0000    868.7441      2.1872
  1611.0000    142.0127      0.0000    852.9724      2.2826
  1611.2500    145.4958      0.0000    851.6710      2.3797
  1611.5000    148.5886      0.0000    835.8444      2.4967
  1611.7500    149.7883      0.0000    795.5432      2.6552
  1612.0000    147.8791      0.0000    754.2593      2.8506
  1612.2500    142.9453      0.0000    729.6283      3.0807
  1612.5000    136.3873      0.0000    721.8759      3.3255
  1612.7500    130.1988      0.0000    734.2832      3.5884
  1613.0000    126.3597      0.0000    779.4569      3.9542
  1613.2500    126.3764      0.0000    858.5259      4.4111
  1613.5000    130.6099      0.0000    939.7737      4.6809
  1613.7500    137.8282      0.0000    974.1563      4.5494
  1614.0000    145.7256      0.0000    942.6255      4.1929
  1614.2500    152.2360      0.0000    878.2152      3.8805
  1614.5000    156.6600      0.0000    829.3723      3.6792
  1614.7500    159.8633      0.0000    811.3292      3.5509
  1615.0000    163.5006      0.0000    808.9354      3.4618
  1615.2500    168.7560      0.0000    808.0751      3.4119
  1615.5000    175.3090      0.0000    806.8758      3.3964
  1615.7500    181.2379      0.0000    809.6951      3.3163
  1616.0000    184.3585      0.0000    823.7847      3.0767
  1616.2500    184.1596      0.0000    856.5381      2.7643
  1616.5000    182.2758      0.0000    901.9872      2.5712
  1616.7500    180.8063      0.0000    941.4080      2.5710
  1617.0000    180.4347      0.0000    967.5385      2.6406
  1617.2500    180.2585      0.0000    976.4016      2.6463
  1617.5000    178.9670      0.0000    945.3784      2.6263
  1617.7500    176.0399      0.0000    868.8961      2.6391
  1618.0000    172.3706      0.0000    784.4644      2.5984
  1618.2500    170.0568      0.0000    727.8063      2.4373
  1618.5000    171.2243      0.0000    699.9352      2.2470
  1618.7500    176.3234      0.0000    687.2442      2.1675
  1619.0000    183.1096      0.0000    681.7746      2.2882
  1619.2500    187.5757      0.0000    681.1892      2.6045
  1619.5000    186.6138      0.0000    685.3162      2.9496
  1619.7500    180.0856      0.0000    693.5558      3.1184
  1620.0000    170.1595      0.0000    702.6553      3.0936
  1620.2500    158.8595      0.0000    711.6294      2.9645
  1620.5000    146.8778      0.0000    729.2280      2.7744
  1620.7500    134.5976      0.0000    764.7424      2.5764
  1621.0000    123.1430      0.0000    808.7653      2.4368
  1621.2500    113.9195      0.0000    836.8389      2.3661
  1621.5000    107.8652      0.0000    836.2952      2.3223
  1621.7500    105.6444      0.0000    819.7039      2.2744
  1622.0000    107.8157      0.0000    807.6238      2.2630
  1622.2500    114.0074      0.0000    808.6555      2.3271
  1622.5000    122.2495      0.0000    821.9276      2.4108
  1622.7500    129.7783      0.0000    844.6224      2.4642
  1623.0000    134.5100      0.0000    869.9290      2.5241
  1623.2500    135.5225      0.0000    881.5506      2.6270
  1623.5000    132.6026      0.0000    865.2687      2.7490
  1623.7500    126.2225      0.0000    835.4474      2.8534
  1624.0000    118.1249      0.0000    828.8311      2.9359
  1624.2500    111.0172      5.0000    865.3677      3.0067
  1624.5000    106.8038      0.0000    925.7881      3.0431
  1624.7500    105.3631      0.0000    965.5999      2.9889
  1625.0000    105.5357      0.0000    950.9068      2.8255
  1625.2500    106.7476      0.0000    886.3268      2.6249
  1625.5000    108.9665      0.0000    808.9484      2.4968
  1625.7500    111.7731      0.0000    755.6076      2.4701
  1626.0000    114.5407      0.0000    738.5961      2.4621
  1626.2500    117.1885      0.0000    744.1851      2.4106
  1626.5000    119.8252      0.0000    746.8498      2.3564
  1626.7500    121.9123      0.0000    737.1217      2.3405
  1627.0000    122.5515      0.0000    732.4042      2.3517
  1627.2500    121.6507      0.0000    748.3199      2.3763
  1627.5000    120.4818      0.0000    776.6432      2.3968
  1627.7500    121.0085      0.0000    800.0931      2.3928
  1628.0000    124.6823      0.0000    812.0926      2.3755
  1628.2500    131.6198      0.0000    816.0090      2.3567
  1628.5000    140.4735      0.0000    815.2952      2.3253
  1628.7500    149.1113      0.0000    809.9972      2.2842
  1629.0000    156.1841      0.0000    799.9927      2.2456
  1629.2500    162.1909      0.0000    789.0038      2.2015
  1629.5000    168.1352      0.0000    784.5858      2.1361
  1629.7500    173.1784      0.0000    796.2434      2.0604
  1630.0000    174.9034      0.0000    834.3986      2.0168
  1630.2500    171.9945      0.0000    900.0783      2.0325
  1630.5000    165.4408      0.0000    968.3661      2.0824
  1630.7500    157.1590      0.0000    997.5515      2.1415
  1631.0000    148.6408      0.0000    967.2922      2.2556
  1631.2500    140.9548      0.0000    900.9260      2.5048
  1631.5000    134.9357      0.0000    841.8011      2.8390
  1631.7500    130.9444      0.0000    811.2416      2.9943
