~Version Information
VERS.                      2.0: CWLS Log ASCII Standard - VERSION 2.0
WRAP.                       NO: One line per depth step
~Well Information Block
STRT.FT                 8.7500: 
STOP.FT              2723.0000: 
STEP.FT                 0.2500: 
NULL.                -999.2500: 
COMP.          Pioneer Natural Resources: COMPANY
WELL.           Desoto 13-7 Tr: WELL
FLD.           Purgatoire River: FIELD
LOC.           1404' FSL & 1115' FWL: LOCATION
PROV.                 Colorado: PROVINCE
CNTY.               Las Animas: COUNTRY
SRVC.                Patterson: SERVICE COMPANY
DATE.          Wed Mar 16 18:00:51 2005: LOG DATE
UWI.           05 071 08216 00: UNIQUE WELL ID
~Curve Information Block
DEPT.FT            0 000 00 00: Depth
GR.GAPI                       : Gamma Ray
CCL.                          : Casing Collar Locator
TT3.usec                      : CBL 3' Travel Time
AMP3.mV                       : CBL 3' Amplitude
AMP5.mV                       : CBL 5' Amplitude
~Parameter Information Block
~A  Depth        GR         CCL         TT3         AMP3        AMP5    
# ...
  1268.7500    123.0906      0.0000   1343.2450      8.3338      0.9353
  1269.0000    123.4494      0.0000   1327.3715      8.2808      0.9336
  1269.2500    125.2770      0.0000   1289.3260      8.2191      0.9335
  1269.5000    129.4596      0.0000   1218.3787      8.1683      0.9323
  1269.7500    134.4166      0.0000   1115.5190      8.1420      0.9289
  1270.0000    136.8448      0.0000    999.7021      8.1464      0.9234
  1270.2500    134.5763      0.0000    898.4846      8.1782      0.9160
  1270.5000    128.6288      0.0000    829.6052      8.2231      0.9072
  1270.7500    122.5317      0.0000    792.3969      8.2605      0.8987
  1271.0000    119.4731      0.0000    775.2916      8.2726      0.8933
  1271.2500    119.8679      0.0000    767.4327      8.2520      0.8935
  1271.5000    121.6902      0.0000    763.2548      8.2010      0.8996
  1271.7500    122.6938      0.0000    760.8372      8.1280      0.9091
  1272.0000    121.8302      0.0000    759.4963      8.0483      0.9186
  1272.2500    119.2811      0.0000    758.8362      7.9879      0.9256
  1272.5000    116.1432      0.0000    758.5914      7.9757      0.9291
  1272.7500    113.9270      0.0000    758.6219      8.0236      0.9309
  1273.0000    113.7733      0.0000    758.8641      8.1172      0.9344
  1273.2500    116.0503      0.0000    759.3222      8.2317      0.9416
  1273.5000    120.5212      0.0000    760.2967      8.3586      0.9516
  1273.7500    126.5397      0.0000    763.0334      8.5108      0.9611
  1274.0000    133.1382      0.0000    770.4764      8.6983      0.9689
  1274.2500    139.1954      0.0000    786.5894      8.9037      0.9768
  1274.5000    143.4386      0.0000    812.4777      9.0837      0.9865
  1274.7500    144.4134      0.0000    841.4697      9.1956      0.9977
  1275.0000    141.1722      0.0000    860.4142      9.2269      1.0101
  1275.2500    134.4122      0.0000    860.3252      9.1999      1.0235
  1275.5000    126.4449      0.0000    846.2166      9.1485      1.0378
  1275.7500    119.4319      0.0000    833.3772      9.0898      1.0523
  1276.0000    113.6854      0.0000    833.4464      9.0233      1.0664
  1276.2500    107.9345      0.0000    845.7089      8.9553      1.0795
  1276.5000    101.1192      0.0000    860.8670      8.9148      1.0899
  1276.7500     93.7265      0.0000    870.1632      8.9368      1.0952
  1277.0000     87.5674      0.0000    870.4922      9.0280      1.0939
  1277.2500     84.4474      0.0000    863.6722      9.1534      1.0884
  1277.5000     84.8371      0.0000    853.5421      9.2598      1.0837
  1277.7500     87.5321      0.0000    843.6848      9.3136      1.0835
  1278.0000     90.4444      0.0000    836.5239      9.3180      1.0867
  1278.2500     91.6248      0.0000    833.5397      9.2981      1.0892
  1278.5000     89.7991      0.0000    835.1872      9.2777      1.0870
  1278.7500     84.7124      0.0000    839.4590      9.2677      1.0807
  1279.0000     77.3722      0.0000    841.3183      9.2689      1.0744
  1279.2500     69.6136      0.0000    835.6868      9.2811      1.0709
  1279.5000     62.9993      0.0000    821.8007      9.3111      1.0683
  1279.7500     58.0832      0.0000    804.6045      9.3727      1.0618
  1280.0000     54.6990      0.0000    792.1559      9.4757      1.0500
  1280.2500     52.5867      0.0000    790.7586      9.6114      1.0363
  1280.5000     51.4711      0.0000    800.7732      9.7490      1.0262
  1280.7500     50.8728      0.0000    816.6084      9.8512      1.0232
  1281.0000     50.2907      0.0000    831.2299      9.8992      1.0273
  1281.2500     49.5051      0.0000    840.6124      9.8996      1.0364
  1281.5000     48.6349      0.0000    844.2609      9.8648      1.0477
  1281.7500     48.1126      0.0000    842.9152      9.7964      1.0608
  1282.0000     48.5156      0.0000    836.8166      9.6930      1.0776
  1282.2500     49.9697      0.0000    826.0219      9.5691      1.0995
  1282.5000     51.6442      0.0000    811.7482      9.4608      1.1239
  1282.7500     52.2953      0.0000    796.8336      9.4161      1.1452
  1283.0000     51.5546      0.0000    784.4013      9.4710      1.1571
  1283.2500     50.4956      0.0000    776.0349      9.6199      1.1560
  1283.5000     50.8016      0.0000    771.6068      9.8060      1.1443
  1283.7500     53.4795      0.0000    770.7625      9.9539      1.1301
  1284.0000     58.3768      0.0000    773.7859     10.0194      1.1216
  1284.2500     64.6158      0.0000    780.7291     10.0083      1.1203
  1284.5000     71.2177      0.0000    790.1863      9.9560      1.1219
  1284.7500     77.4715      0.0000    799.2302      9.8993      1.1225
  1285.0000     83.1825      0.0000    804.5344      9.8603      1.1234
  1285.2500     88.8221      0.0000    804.1385      9.8401      1.1280
  1285.5000     95.2536      0.0000    799.0761      9.8250      1.1371
  1285.7500    102.9143      0.0000    793.2052      9.8020      1.1480
  1286.0000    111.2022      0.0000    790.3763      9.7671      1.1564
  1286.2500    118.8920      0.0000    791.3170      9.7150      1.1601
  1286.5000    125.1719      0.0000    793.5159      9.6332      1.1601
  1286.7500    130.1181      0.0000    793.9166      9.5180      1.1592
  1287.0000    134.1268      0.0000    791.2531      9.3903      1.1591
  1287.2500    136.9085      0.0000    786.1202      9.2822      1.1588
  1287.5000    137.0693      0.0000    779.7744      9.2114      1.1562
  1287.7500    132.9626      0.0000    773.3698      9.1727      1.1506
  1288.0000    124.3747      0.0000    767.8647      9.1519      1.1437
  1288.2500    113.4400      0.0000    763.8795      9.1418      1.1378
  1288.5000    103.5809      0.0000    761.4390      9.1479      1.1337
  1288.7500     97.2646      0.0000    760.0822      9.1841      1.1300
  1289.0000     94.7579      0.0000    759.3083      9.2608      1.1246
  1289.2500     94.8463      0.0000    758.9141      9.3719      1.1164
  1289.5000     96.3812      0.0000    759.1571      9.4899      1.1061
  1289.7500     98.8743      0.0000    761.0110      9.5765      1.0961
  1290.0000    101.7500      0.0000    766.6016      9.6047      1.0881
  1290.2500    103.7310      0.0000    778.9299      9.5720      1.0820
  1290.5000    103.7292      0.0000    799.6589      9.4955      1.0772
  1290.7500    102.1084      0.0000    826.2873      9.3978      1.0743
  1291.0000    100.3988      0.0000    853.5894      9.2992      1.0751
  1291.2500     99.8634      0.0000    880.4087      9.2174      1.0802
  1291.5000    100.7840      0.0000    912.1888      9.1685      1.0871
  1291.7500    102.8162      0.0000    951.0624      9.1623      1.0921
  1292.0000    105.3766      0.0000    985.9480      9.1935      1.0926
  1292.2500    107.6389      0.0000   1000.9491      9.2365      1.0893
  1292.5000    108.7482      0.0000    992.8764      9.2568      1.0838
  1292.7500    108.5664      0.0000    972.6827      9.2353      1.0754
  1293.0000    108.1007      0.0000    952.4094      9.1792      1.0608
  1293.2500    108.7126      0.0000    940.1708      9.0992      1.0360
  1293.5000    110.8333      0.0000    942.8947      8.9719      0.9976
  1293.7500    113.7286      0.0000    960.9155      8.7248      0.9402
  1294.0000    116.4331      0.0000    980.9661      8.2851      0.8600
  1294.2500    118.5420      0.0000    985.3663      7.6739      0.7651
  1294.5000    119.9587      0.0000    971.7032      7.0367      0.6773
  1294.7500    120.3388      0.0000    959.3212      6.5351      0.6166
  1295.0000    119.4419      0.0000    974.0617      6.2135      0.5860
  1295.2500    117.8724      0.0000   1026.9011      6.0133      0.5738
  1295.5000    116.6774      0.0000   1106.4117      5.8850      0.5667
  1295.7500    115.9986      0.0000   1189.2120      5.8241      0.5578
  1296.0000    114.6652      0.0000   1255.5997      5.8254      0.5467
  1296.2500    111.3999     -3.0000   1296.2753      5.8678      0.5360
  1296.5000    106.2557     -2.1277   1309.5957      5.9439      0.5282
