~Version Information
VERS.                      2.0: CWLS Log ASCII Standard - VERSION 2.0
WRAP.                       NO: One line per depth step
~Well Information Block
STRT.FT               520.0000: 
STOP.FT              2183.5000: 
STEP.FT                 0.1000: 
NULL.                -999.2500: 
COMP.          Pioneer Natural Resources: COMPANY
WELL.             Enzo 43-8 Tr: WELL
FLD.           Purgatoire River: FIELD
LOC.           2303' FSL & 604' FEL: LOCATION
PROV.                 Colorado: PROVINCE
CNTY.               Las Animas: COUNTRY
SRVC.                Patterson: SERVICE COMPANY
DATE.          Sun Oct 31 15:10:54 2004: LOG DATE
UWI.           05 071 08213 00: UNIQUE WELL ID
~Curve Information Block
DEPT.FT            0 000 00 00: Depth
DCAL.in                       : CDL Caliper
RHOB.g/cc                     : CDL Bulk Density
RHOC.g/cc                     : CDL Density Correction
DPOR.pu                       : CDL Density Porosity
NPOR.pu                       : Neutron Porosity
GR.GAPI                       : Gamma Ray
~Parameter Information Block
~A  Depth       DCAL        RHOB        RHOC        DPOR        NPOR         GR     
# ...
   740.8000      8.0019      2.5756      0.0490      4.5071     24.2179     83.2435
   740.9000      8.0019      2.5788      0.0722      4.3124     24.0114     84.9278
   741.0000      8.0039      2.5871      0.0943      3.8140     24.1484     87.9262
   741.1000      8.0039      2.5868      0.0658      3.8317     24.6887     90.0957
   741.2000      8.0039      2.5773      0.0964      4.4066     25.0493     90.3871
   741.3000      8.0038      2.5570      0.0444      5.6351     24.8815     88.2790
   741.4000      8.0038      2.5233      0.0319      7.6809     24.4151     86.0139
   741.5000      8.0012      2.4940     -0.0310      9.4549     24.1899     84.5554
   741.6000      8.0012      2.4948      0.0045      9.4033     24.4530     82.2783
   741.7000      8.0012      2.5141      0.0598      8.2364     24.7266     81.4563
   741.8000      7.9993      2.5231      0.0397      7.6929     24.7232     84.4235
   741.9000      7.9993      2.5221      0.0754      7.7508     24.7324     88.7115
   742.0000      8.0007      2.5263      0.0687      7.4978     24.7601     91.5167
   742.1000      8.0007      2.5392      0.0592      6.7144     24.7530     91.9658
   742.2000      8.0007      2.5554      0.0615      5.7361     24.8357     89.0683
   742.3000      8.0071      2.5704      0.0868      4.8214     24.8736     83.7699
   742.4000      8.0071      2.5803      0.0830      4.2224     24.8419     80.6104
   742.5000      8.0106      2.5856      0.0598      3.9027     24.8269     81.7252
   742.6000      8.0106      2.5877      0.0913      3.7749     24.8054     83.3883
   742.7000      8.0106      2.5799      0.0742      4.2485     24.7872     83.3483
   742.8000      8.0049      2.5590      0.0729      5.5140     24.8131     83.6650
   742.9000      8.0049      2.5378     -0.0215      6.7993     24.8789     83.9712
   743.0000      8.0007      2.5345      0.0094      7.0004     24.8498     82.1420
   743.1000      8.0007      2.5412      0.0628      6.5954     24.5596     79.1742
   743.2000      8.0007      2.5399      0.0377      6.6754     24.0807     76.6139
   743.3000      8.0002      2.5336      0.0039      7.0550     23.6166     74.3504
   743.4000      8.0002      2.5295      0.0330      7.3025     23.3032     71.7164
   743.5000      8.0034      2.5261     -0.0054      7.5070     23.1493     68.6332
   743.6000      8.0034      2.5237      0.0105      7.6515     22.9231     68.3836
   743.7000      8.0034      2.5219      0.0282      7.7634     22.4679     73.8627
   743.8000      8.0087      2.5216      0.0328      7.7829     21.9272     82.3045
   743.9000      8.0087      2.5225      0.0669      7.7249     21.7358     87.8415
   744.0000      8.0047      2.5208      0.0335      7.8332     22.1785     85.6063
   744.1000      8.0047      2.5160      0.0580      8.1217     22.7875     78.8195
   744.2000      8.0047      2.5154     -0.0008      8.1553     22.9997     77.1189
   744.3000      7.9977      2.5281      0.0499      7.3879     22.9207     81.3325
   744.4000      7.9977      2.5475      0.0429      6.2139     22.8701     82.3348
   744.5000      7.9966      2.5620      0.0552      5.3313     22.7954     78.0724
   744.6000      7.9966      2.5685      0.0425      4.9414     22.5988     72.8894
   744.7000      7.9966      2.5596      0.1207      5.4801     22.4794     69.3125
   744.8000      7.9981      2.5332      0.0730      7.0770     22.4663     70.1498
   744.9000      7.9981      2.5055      0.0253      8.7563     22.3997     73.9625
   745.0000      8.0000      2.4881      0.0007      9.8105     22.1843     75.5428
   745.1000      8.0000      2.4814     -0.0123     10.2197     21.9715     73.2249
   745.2000      8.0000      2.4815      0.0612     10.2114     22.1333     69.6299
   745.3000      8.0007      2.4755      0.0516     10.5768     22.6728     67.2645
   745.4000      8.0007      2.4606      0.0132     11.4777     23.0881     68.1847
   745.5000      8.0011      2.4590      0.0080     11.5780     23.1127     71.9519
   745.6000      8.0011      2.4835      0.0233     10.0932     22.9681     75.5280
   745.7000      8.0011      2.5170      0.0963      8.0613     22.9370     76.4874
   745.8000      8.0012      2.5377      0.0530      6.8059     23.1825     74.3580
   745.9000      8.0012      2.5403      0.0807      6.6489     23.6042     72.4899
   746.0000      8.0010      2.5314      0.0646      7.1851     23.9028     74.3541
   746.1000      8.0010      2.5245      0.0716      7.6066     23.9052     76.5041
   746.2000      8.0010      2.5242      0.0530      7.6229     23.5600     74.5914
   746.3000      8.0009      2.5186      0.0704      7.9654     23.0115     71.2355
   746.4000      8.0009      2.5007      0.0324      9.0493     22.5818     69.8862
   746.5000      8.0029      2.4827      0.0389     10.1416     22.2816     70.4379
   746.6000      8.0029      2.4727      0.0249     10.7453     21.8878     73.1339
   746.7000      8.0029      2.4661      0.0534     11.1434     21.4623     77.1335
   746.8000      8.0052      2.4642      0.0300     11.2588     21.3017     77.3173
   746.9000      8.0052      2.4746      0.0358     10.6284     21.3740     71.5806
   747.0000      8.0021      2.4925      0.0792      9.5435     21.2939     66.4513
   747.1000      8.0021      2.5049      0.1001      8.7942     21.1091     66.0181
   747.2000      8.0021      2.5103      0.0715      8.4666     21.0676     68.3861
   747.3000      7.9982      2.5148      0.0832      8.1919     21.2123     72.2421
   747.4000      7.9982      2.5199      0.0952      7.8855     21.5436     77.2974
   747.5000      7.9988      2.5328      0.0260      7.1014     22.0585     81.2980
   747.6000      7.9988      2.5542      0.1084      5.8048     22.5887     81.1439
   747.7000      7.9988      2.5593      0.1115      5.4992     22.8492     78.1134
   747.8000      7.9942      2.5418      0.0274      6.5604     22.7339     76.6028
   747.9000      7.9942      2.5299      0.0123      7.2775     22.4631     76.7999
   748.0000      7.9886      2.5336      0.0499      7.0565     22.4845     77.3914
   748.1000      7.9886      2.5333      0.0445      7.0723     22.9474     77.8802
   748.2000      7.9886      2.5192     -0.0043      7.9264     23.5981     78.5104
   748.3000      7.9965      2.5031      0.0365      8.9017     24.4036     80.4868
   748.4000      7.9965      2.4988      0.0106      9.1639     25.2695     82.0732
   748.5000      8.0055      2.5088      0.0523      8.5582     25.7443     81.1607
   748.6000      8.0055      2.5239      0.0226      7.6421     25.7713     78.4849
   748.7000      8.0055      2.5439      0.0240      6.4306     25.6629     76.3783
   748.8000      8.0078      2.5737      0.0613      4.6252     25.5260     75.4545
   748.9000      8.0078      2.6029      0.0745      2.8530     25.3564     75.6495
   749.0000      8.0087      2.6150      0.0799      2.1221     25.2789     77.2354
   749.1000      8.0087      2.6022      0.0532      2.8972     25.2146     78.8227
   749.2000      8.0087      2.5743      0.0124      4.5886     24.8867     79.8266
   749.3000      8.0082      2.5520      0.0115      5.9424     24.5835     80.8345
   749.4000      8.0082      2.5486     -0.0102      6.1469     24.6795     80.6273
   749.5000      8.0047      2.5560      0.0695      5.6987     24.9086     78.9320
   749.6000      8.0047      2.5588      0.0270      5.5274     25.0231     78.3763
   749.7000      8.0047      2.5627      0.0064      5.2896     25.2083     80.4395
   749.8000      8.0052      2.5751      0.0260      4.5365     25.5338     82.3416
   749.9000      8.0052      2.5888      0.0510      3.7099     25.9708     79.6676
   750.0000      8.0138      2.5965      0.0612      3.2440     26.5008     74.7842
   750.1000      8.0138      2.5984      0.0453      3.1268     26.7794     75.1515
   750.2000      8.0138      2.6028      0.0311      2.8620     26.6584     82.2472
   750.3000      8.0210      2.6151      0.0900      2.1156     26.5857     90.4262
