~Version Information
VERS.                      2.0: CWLS Log ASCII Standard - VERSION 2.0
WRAP.                       NO: One line per depth step
~Well Information Block
STRT.FT                -7.0000: 
STOP.FT              1656.2500: 
STEP.FT                 0.2500: 
NULL.                -999.2500: 
COMP.          Pioneer Natural Resources: COMPANY
WELL.               Elmo 14-21: WELL
FLD.           Purgatorie River: FIELD
LOC.           623' FSL & 450' FWL--: LOCATION
PROV.                       CO: PROVINCE
CNTY.               Las Animas: COUNTRY
SRVC.          Patterson Wireline: SERVICE COMPANY
DATE.          Mon Jun 27 15:45:41 2005: LOG DATE
UWI.           05 071 08360 00: UNIQUE WELL ID
~Curve Information Block
DEPT.FT            0 000 00 00: Depth
CCL.                          : Casing Collar Locator
TT3.usec                      : CBL 3' Travel Time
AMP3.mV                       : CBL 3' Amplitude
GR.GAPI                       : Gamma Ray
~Parameter Information Block
~A  Depth       CCL         TT3         AMP3         GR     
# ...
    93.5000      0.0000    259.6259     56.0594     82.4001
    93.7500      0.0000    259.6742     55.8298     82.1361
    94.0000      0.0000    259.6877     55.6406     84.2984
    94.2500      0.0000    259.6662     55.5730     88.0612
    94.5000      0.0000    259.6255     55.6623     92.0590
    94.7500      0.0000    259.5868     55.8787     95.4421
    95.0000      0.0000    259.5640     56.1552     98.0411
    95.2500      0.0000    259.5562     56.4212     99.8164
    95.5000      0.0000    259.5501     56.6170    100.6858
    95.7500      0.0000    259.5328     56.7103    100.9495
    96.0000      0.0000    259.5035     56.7173    101.2765
    96.2500      0.0000    259.4755     56.6974    101.8704
    96.5000      0.0000    259.4664     56.7076    102.1489
    96.7500      0.0000    259.4846     56.7603    101.7581
    97.0000      0.0000    259.5235     56.8194    101.3343
    97.2500      0.0000    259.5646     56.8305    101.5731
    97.5000      0.0000    259.5876     56.7619    102.0142
    97.7500      0.0000    259.5820     56.6351    101.4171
    98.0000      0.0000    259.5545     56.5198     99.0421
    98.2500      0.0000    259.5225     56.4828     95.1834
    98.5000      0.0000    259.4981     56.5393     90.7861
    98.7500      0.0000    259.4766     56.6571     86.8472
    99.0000      0.0000    259.4435     56.7993     84.0044
    99.2500      0.0000    259.3935     56.9524     82.6732
    99.5000      0.0000    259.3409     57.1145     83.4893
    99.7500      0.0000    259.3093     57.2689     86.9711
   100.0000      0.0000    259.3118     57.3789     92.4538
   100.2500      0.0000    259.3394     57.4129     98.0014
   100.5000      0.0000    259.3698     57.3846    101.8950
   100.7500      0.0000    259.3873     57.3667    103.9449
   101.0000      0.0000    259.3942     57.4459    105.1872
   101.2500      0.0000    259.4005     57.6454    106.5185
   101.5000      0.0000    259.4079     57.9010    107.8003
   101.7500      0.0000    259.4090     58.1323    108.3009
   102.0000      0.0000    259.4012     58.3274    107.7652
   102.2500      0.0000    259.3958     58.5421    106.6689
   102.5000      0.0000    259.4086     58.8207    105.4526
   102.7500      0.0000    259.4444     59.1363    104.0180
   103.0000      0.0000    259.4907     59.4155    102.2323
   103.2500      0.0000    259.5274     59.6078    100.6194
   103.5000      0.0000    259.5419     59.7190    100.1237
   103.7500      0.0000    259.5358     59.7850    101.1448
   104.0000      0.0000    259.5167     59.8404    103.0326
   104.2500      0.0000    259.4848     59.9136    104.6322
   104.5000      0.0000    259.4347     60.0364    105.3186
   104.7500      0.0000    259.3719     60.2495    105.4975
   105.0000      0.0000    259.3194     60.5929    105.9974
   105.2500      0.0000    259.3027     61.0740    106.9079
   105.5000      0.0000    259.3273     61.6269    107.3476
   105.7500      0.0000    259.3716     62.1157    106.5884
   106.0000      0.0000    259.4042     62.4102    105.1632
   106.2500      0.0000    259.4098     62.4801    104.5508
   106.5000      0.0000    259.3994     62.4094    105.5967
   106.7500      0.0000    259.3962     62.3219    107.0378
   107.0000      0.0000    259.4155     62.2979    105.9053
   107.2500      0.0000    259.4566     62.3567    100.1739
   107.5000      0.0000    259.5111     62.4920     90.9908
   107.7500      0.0000    259.5710     62.7070     81.7286
   108.0000      0.0000    259.6276     63.0163     75.1138
   108.2500      0.0000    259.6690     63.4186     71.9223
   108.5000      0.0000    259.6836     63.8759     72.0851
   108.7500      0.0000    259.6681     64.3230     75.8658
   109.0000      0.0000    259.6276     64.6953     83.3036
   109.2500      0.0000    259.5686     64.9496     93.0416
   109.5000      0.0000    259.4965     65.0816    102.5568
   109.7500      0.0000    259.4184     65.1461    109.6955
   110.0000      0.0000    259.3454     65.2461    113.8388
   110.2500      0.0000    259.2878     65.4682    115.7116
   110.5000      0.0000    259.2505     65.8177    116.3260
   110.7500      0.0000    259.2322     66.2281    116.0738
   111.0000      0.0000    259.2287     66.6321    114.6748
   111.2500      0.0000    259.2345     67.0150    111.7671
   111.5000      0.0000    259.2411     67.4180    107.3241
   111.7500      0.0000    259.2382     67.9184    101.7283
   112.0000      0.0000    259.2210     68.5968     95.8438
   112.2500      0.0000    259.1989     69.4843     90.9402
   112.5000      0.0000    259.1913     70.5108     88.1620
   112.7500      0.0000    259.2167     71.5006     88.0078
   113.0000      0.0000    259.2833     72.1960     90.2538
   113.2500      0.0000    259.3972     72.2540     93.9391
   113.5000      0.0000    259.5899     71.2465     97.3850
   113.7500      0.0000    259.9488     68.8530     98.9145
   114.0000      0.0000    260.6063     65.2491     97.9673
   114.2500      0.0000    261.6579     61.2308     95.2935
   114.5000      0.0000    263.0518     57.6907     92.0112
   114.7500      0.0000    264.5568     54.9638     88.7551
   115.0000      0.0000    265.8697     52.8701     85.7533
   115.2500      0.0000    266.7869     51.2459     83.4035
   115.5000      0.0000    267.2931     50.1330     82.4557
   115.7500      0.0000    267.5062     49.5443     83.4693
   116.0000     -2.0000    267.5657     49.3451     86.0282
   116.2500      0.0000    267.5645     49.3911     88.7075
   116.5000      0.0000    267.5278     49.7057     90.1213
   116.7500      0.0000    267.3892     50.5176     90.0324
   117.0000      0.0000    266.9791     52.0897     89.3289
   117.2500      0.0000    266.1083     54.4556     89.0069
   117.5000      0.0000    264.7488     57.4115     89.2744
   117.7500      0.0000    263.1410     60.8349     89.5730
   118.0000      0.0000    261.6716     64.7393     89.4457
   118.2500      0.0000    260.6207     68.8634     89.2870
   118.5000      0.0000    260.0305     72.5243     89.9893
   118.7500      0.0000    259.7769     75.1118     91.8228
   119.0000      0.0000    259.7071     76.5522     93.9786
   119.2500      0.0000    259.7140     77.2097     95.3167
   119.5000      0.0000    259.7414     77.5077     95.3017
   119.7500      0.0000    259.7670     77.6985     94.0808
   120.0000      0.0000    259.7856     77.8661     91.8366
   120.2500      0.0000    259.7937     78.0171     88.3502
   120.5000      0.0000    259.7813     78.1646     83.4417
   120.7500      0.0000    259.7365     78.3528     77.7605
   121.0000      0.0000    259.6561     78.6311     72.7833
   121.2500      0.0000    259.5546     79.0019     69.7402
   121.5000      0.0000    259.4609     79.3887     68.5385
   121.7500      0.0000    259.4044     79.6696     68.0098
   122.0000      0.0000    259.3987     79.7663     67.5356
   122.2500      0.0000    259.4359     79.7107     68.3269
   122.5000      0.0000    259.4953     79.6121     72.6173
   122.7500      0.0000    259.5600     79.5564     81.3377
   123.0000      0.0000    259.6239     79.5466     92.7556
   123.2500      0.0000    259.6884     79.5264    103.5810
   123.5000      0.0000    259.7566     79.4317    111.2974
   123.7500      0.0000    259.8275     79.2371    115.4259
   124.0000      0.0000    259.8877     78.9980    117.0248
   124.2500      0.0000    259.9099     78.8505    117.4218
   124.5000      0.0000    259.8723     78.9171    117.2693
   124.7500      0.0000    259.7851     79.1905    116.2859
   125.0000      0.0000    259.6896     79.5352    113.7187
   125.2500      0.0000    259.6263     79.8151    109.1911
   125.5000      0.0000    259.6081     79.9966    103.3182
   125.7500      0.0000    259.6209     80.1275     97.6857
   126.0000      0.0000    259.6388     80.2460     94.3125
   126.2500      0.0000    259.6399     80.3332     94.8380
   126.5000      0.0000    259.6172     80.3502     99.5762
   126.7500      0.0000    259.5788     80.3018    106.9165
