~Version Information
VERS.                      2.0: CWLS Log ASCII Standard - VERSION 2.0
WRAP.                       NO: One line per depth step
~Well Information Block
STRT.FT                -7.0000: 
STOP.FT              1656.2500: 
STEP.FT                 0.2500: 
NULL.                -999.2500: 
COMP.          Pioneer Natural Resources: COMPANY
WELL.               Elmo 14-21: WELL
FLD.           Purgatorie River: FIELD
LOC.           623' FSL & 450' FWL--: LOCATION
PROV.                       CO: PROVINCE
CNTY.               Las Animas: COUNTRY
SRVC.          Patterson Wireline: SERVICE COMPANY
DATE.          Mon Jun 27 15:45:41 2005: LOG DATE
UWI.           05 071 08360 00: UNIQUE WELL ID
~Curve Information Block
DEPT.FT            0 000 00 00: Depth
CCL.                          : Casing Collar Locator
TT3.usec                      : CBL 3' Travel Time
AMP3.mV                       : CBL 3' Amplitude
GR.GAPI                       : Gamma Ray
~Parameter Information Block
~A  Depth       CCL         TT3         AMP3         GR     
# ...
   227.5000      0.0000    261.5408     85.3729    123.7532
   227.7500      0.0000    261.5493     85.4858    122.2336
   228.0000      0.0000    261.5240     85.5942    120.2606
   228.2500      0.0000    261.4671     85.6525    117.8148
   228.5000      0.0000    261.3981     85.6357    115.9699
   228.7500      0.0000    261.3401     85.5617    115.7914
   229.0000      0.0000    261.3068     85.4666    117.1119
   229.2500      0.0000    261.2988     85.3610    118.7927
   229.5000      0.0000    261.3109     85.2329    119.8037
   229.7500      0.0000    261.3374     85.0941    119.6540
   230.0000      0.0000    261.3712     84.9970    118.0292
   230.2500      0.0000    261.4012     84.9880    114.5194
   230.5000      0.0000    261.4178     85.0506    109.0539
   230.7500      0.0000    261.4217     85.1109    102.4775
   231.0000      0.0000    261.4250     85.1107     96.2341
   231.2500      0.0000    261.4400     85.0709     91.3387
   231.5000      0.0000    261.4668     85.0660     87.9555
   231.7500      0.0000    261.4952     85.1267     85.9564
   232.0000      0.0000    261.5151     85.1844     85.4775
   232.2500      0.0000    261.5236     85.1367     86.8453
   232.5000      0.0000    261.5266     84.9619     90.0702
   232.7500      0.0000    261.5345     84.7461     94.3438
   233.0000      0.0000    261.5517     84.6020     98.2311
   233.2500      0.0000    261.5667     84.5788    100.7108
   233.5000      0.0000    261.5556     84.6363    102.0301
   233.7500      0.0000    261.5042     84.6770    103.2985
   234.0000      0.0000    261.4226     84.6035    105.0742
   234.2500      0.0000    261.3361     84.3860    106.4224
   234.5000      0.0000    261.2640     84.1001    105.6742
   234.7500      0.0000    261.2120     83.8833    102.2159
   235.0000      0.0000    261.1759     83.8254     97.2923
   235.2500      0.0000    261.1481     83.8902     93.0348
   235.5000      0.0000    261.1216     83.9467     91.0353
   235.7500      0.0000    261.0945     83.8560     91.7604
   236.0000      0.0000    261.0765     83.5017     94.6314
   236.2500      0.0000    261.0910     82.7251     98.1799
   236.5000      0.0000    261.1790     81.2417    100.5789
   236.7500      0.0000    261.4133     78.7378    100.8063
   237.0000      0.0000    261.9060     75.1897     99.2879
   237.2500      0.0000    262.7671     71.0403     96.9645
   237.5000      0.0000    264.0027     66.8879     93.9334
   237.7500      0.0000    265.4360     63.0625     89.4382
   238.0000      0.0000    266.7711     59.6759     83.0115
   238.2500      0.0000    267.7752     56.9109     75.3240
   238.5000      0.0000    268.4038     54.9961     67.9177
   238.7500      0.0000    268.7635     53.9679     62.2027
   239.0000     -2.0000    268.9926     53.6447     58.7554
   239.2500      0.0000    269.1766     53.8047     57.4511
   239.5000      0.0000    269.3129     54.3876     57.8963
   239.7500      0.0000    269.2858     55.5839     59.5472
   240.0000      0.0000    268.8759     57.7058     61.7770
   240.2500      0.0000    267.8810     60.8679     64.2013
   240.5000      0.0000    266.3293     64.8125     66.9552
   240.7500      0.0000    264.5685     69.1075     70.5700
   241.0000      0.0000    263.0645     73.3525     75.4168
   241.2500      0.0000    262.0889     77.1264     81.0180
   241.5000      0.0000    261.6110     80.0031     85.9153
   241.7500      0.0000    261.4385     81.8112     88.5776
   242.0000      0.0000    261.3936     82.7513     88.7307
   242.2500      0.0000    261.3792     83.1825     87.7920
   242.5000      0.0000    261.3629     83.3722     87.6966
   242.7500      0.0000    261.3434     83.4492     89.0099
   243.0000      0.0000    261.3265     83.4896     90.2835
   243.2500      0.0000    261.3132     83.5552     89.6284
   243.5000      0.0000    261.2984     83.6708     86.9344
   243.7500      0.0000    261.2771     83.8113     84.0946
   244.0000      0.0000    261.2509     83.9417     82.9680
   244.2500      0.0000    261.2267     84.0499     83.6862
   244.5000      0.0000    261.2072     84.1374     85.1527
   244.7500      0.0000    261.1891     84.2036     86.6342
   245.0000      0.0000    261.1690     84.2561     88.4595
   245.2500      0.0000    261.1525     84.3186     91.3822
   245.5000      0.0000    261.1504     84.4070     95.4434
   245.7500      0.0000    261.1685     84.5000     99.5476
   246.0000      0.0000    261.1998     84.5542    102.4463
   246.2500      0.0000    261.2289     84.5527    104.0816
   246.5000      0.0000    261.2427     84.5196    105.3239
   246.7500      0.0000    261.2382     84.4865    106.3551
   247.0000      0.0000    261.2210     84.4624    106.1324
   247.2500      0.0000    261.1986     84.4425    103.7208
   247.5000      0.0000    261.1768     84.4300     99.4524
   247.7500      0.0000    261.1620     84.4290     94.5320
   248.0000      0.0000    261.1604     84.4213     90.2364
   248.2500      0.0000    261.1751     84.3761     87.8555
   248.5000      0.0000    261.2024     84.2948     88.6638
   248.7500      0.0000    261.2331     84.2329     93.1969
   249.0000      0.0000    261.2568     84.2436    100.5509
   249.2500      0.0000    261.2655     84.2974    108.6227
   249.5000      0.0000    261.2566     84.2844    115.1218
   249.7500      0.0000    261.2336     84.1154    118.5997
   250.0000      0.0000    261.2043     83.8065    119.0714
   250.2500      0.0000    261.1786     83.4574    117.9087
   250.5000      0.0000    261.1654     83.1641    116.8332
   250.7500      0.0000    261.1686     82.9737    116.6236
   251.0000      0.0000    261.1836     82.9145    116.4986
   251.2500      0.0000    261.2024     83.0139    114.6566
   251.5000      0.0000    261.2246     83.2534    109.8093
   251.7500      0.0000    261.2596     83.5356    102.6776
   252.0000      0.0000    261.3152     83.7420     96.0314
   252.2500      0.0000    261.3863     83.8270     93.0118
   252.5000      0.0000    261.4555     83.8378     95.1309
   252.7500      0.0000    261.5032     83.8440    101.5029
   253.0000      0.0000    261.5190     83.8646    109.5866
   253.2500      0.0000    261.5058     83.8714    116.6184
   253.5000      0.0000    261.4772     83.8466    120.7800
   253.7500      0.0000    261.4490     83.8086    121.6790
   254.0000      0.0000    261.4289     83.7764    120.1719
   254.2500      0.0000    261.4126     83.7397    117.5432
   254.5000      0.0000    261.3905     83.6878    114.5542
   254.7500      0.0000    261.3596     83.6565    111.2751
   255.0000      0.0000    261.3288     83.7139    107.7878
   255.2500      0.0000    261.3113     83.8783    104.7972
   255.5000      0.0000    261.3121     84.0751    103.3468
   255.7500      0.0000    261.3239     84.2023    103.9219
   256.0000      0.0000    261.3336     84.2259    105.9062
   256.2500      0.0000    261.3339     84.1867    107.9340
   256.5000      0.0000    261.3285     84.1351    108.7108
   256.7500      0.0000    261.3285     84.0944    107.6312
   257.0000      0.0000    261.3424     84.0747    104.9384
   257.2500      0.0000    261.3682     84.0874    101.4721
   257.5000      0.0000    261.3948     84.1313     98.2068
   257.7500      0.0000    261.4116     84.1811     95.8072
   258.0000      0.0000    261.4154     84.2055     94.2824
   258.2500      0.0000    261.4094     84.1981     93.1772
   258.5000      0.0000    261.3961     84.1836     92.5676
   258.7500      0.0000    261.3766     84.1966     93.5870
   259.0000      0.0000    261.3538     84.2577     97.3301
   259.2500      0.0000    261.3319     84.3602    103.4234
   259.5000      0.0000    261.3120     84.4644    110.2661
   259.7500      0.0000    261.2918     84.5081    116.4538
   260.0000      0.0000    261.2717     84.4416    121.3986
   260.2500      0.0000    261.2545     84.2703    124.7748
   260.5000      0.0000    261.2404     84.0642    126.0767
   260.7500      0.0000    261.2257     83.9136    124.9632
