~Version Information
VERS.                      2.0: CWLS Log ASCII Standard - VERSION 2.0
WRAP.                       NO: One line per depth step
~Well Information Block
STRT.FT               350.0000: 
STOP.FT              1390.0000: 
STEP.FT                 0.1000: 
NULL.                -999.2500: 
COMP.          Petrogulf Corporation: COMPANY
WELL.             Leier 17-42R: WELL
FLD.           Purgatorie River: FIELD
LOC.           2398' FNL & 1109' FEL: LOCATION
PROV.                 Colorado: PROVINCE
CNTY.               Las Animas: COUNTRY
SRVC.                Patterson: SERVICE COMPANY
DATE.          Tue Oct 18 07:06:44 2005: LOG DATE
UWI.                          : UNIQUE WELL ID
~Curve Information Block
DEPT.FT            0 000 00 00: Depth
DCAL.in                       : CDL Caliper
RHOB.g/cc                     : CDL Bulk Density
RHOC.g/cc                     : CDL Density Correction
DPOR.pu                       : CDL Density Porosity
GR.GAPI                       : Gamma Ray
NPOR.pu                       : Neutron Porosity
~Parameter Information Block
~A  Depth       DCAL        RHOB        RHOC        DPOR         GR         NPOR    
# ...
  1377.2000      7.7984      2.6035      0.1059      2.8211   -999.2500   -999.2500
  1377.3000      7.8159      2.6249      0.0919      1.5230   -999.2500   -999.2500
  1377.4000      7.8159      2.6323      0.1111      1.0753   -999.2500   -999.2500
  1377.5000      7.7927      2.6247      0.1214      1.5361   -999.2500   -999.2500
  1377.6000      7.7927      2.6108      0.0971      2.3784   -999.2500   -999.2500
  1377.7000      7.7927      2.6056      0.0785      2.6883   -999.2500   -999.2500
  1377.8000      7.7713      2.6174      0.0709      1.9737   -999.2500   -999.2500
  1377.9000      7.7713      2.6460      0.0714      0.2453   -999.2500   -999.2500
  1378.0000      7.7675      2.6805      0.1343     -1.8515   -999.2500   -999.2500
  1378.1000      7.7675      2.6981      0.1526     -2.9155   -999.2500   -999.2500
  1378.2000      7.7675      2.6878      0.1015     -2.2907   -999.2500   -999.2500
  1378.3000      7.7854      2.6623      0.0963     -0.7482   -999.2500   -999.2500
  1378.4000      7.7854      2.6362      0.0901      0.8393   -999.2500   -999.2500
  1378.5000      7.7767      2.6137      0.0322      2.1992   -999.2500   -999.2500
  1378.6000      7.7767      2.5908      0.0475      3.5877   -999.2500   -999.2500
  1378.7000      7.7767      2.5642     -0.0143      5.1974   -999.2500   -999.2500
  1378.8000      7.7595      2.5403      0.0367      6.6465   -999.2500   -999.2500
  1378.9000      7.7595      2.5280      0.0166      7.3910   -999.2500   -999.2500
  1379.0000      7.8067      2.5355      0.0395      6.9364   -999.2500   -999.2500
  1379.1000      7.8067      2.5550      0.0856      5.7603   -999.2500   -999.2500
  1379.2000      7.8067      2.5640      0.0585      5.2123   -999.2500   -999.2500
  1379.3000      7.8299      2.5559      0.0759      5.7042   -999.2500   -999.2500
  1379.4000      7.8299      2.5387      0.0390      6.7484   -999.2500   -999.2500
  1379.5000      7.8582      2.5174      0.0584      8.0375   -999.2500   -999.2500
  1379.6000      7.8582      2.5003     -0.0025      9.0697   -999.2500   -999.2500
  1379.7000      7.8582      2.5045      0.0190      8.8204   -999.2500   -999.2500
  1379.8000      7.8266      2.5312      0.0734      7.2029   -999.2500   -999.2500
  1379.9000      7.8266      2.5625      0.1057      5.3036   -999.2500   -999.2500
  1380.0000      7.7950      2.5794      0.1408      4.2817   -999.2500   -999.2500
  1380.1000      7.7950      2.5739      0.1211      4.6110   -999.2500   -999.2500
  1380.2000      7.7950      2.5619      0.0398      5.3394   -999.2500   -999.2500
  1380.3000      7.7950      2.5573      0.1169      5.6157   -999.2500   -999.2500
  1380.4000      7.7950      2.5482      0.0797      6.1713   -999.2500   -999.2500
  1380.5000      7.7884      2.5237      0.0845      7.6575   -999.2500   -999.2500
  1380.6000      7.7884      2.4898      0.0311      9.7084   -999.2500   -999.2500
  1380.7000      7.7884      2.4657     -0.0100     11.1684   -999.2500   -999.2500
  1380.8000      7.8093      2.4589      0.0539     11.5838   -999.2500   -999.2500
  1380.9000      7.8093      2.4559      0.0239     11.7662   -999.2500   -999.2500
  1381.0000      7.8137      2.4581      0.0249     11.6297   -999.2500   -999.2500
  1381.1000      7.8137      2.4739      0.0815     10.6757   -999.2500   -999.2500
  1381.2000      7.8137      2.4904      0.1052      9.6723   -999.2500   -999.2500
  1381.3000      7.8505      2.4957      0.1010      9.3534   -999.2500   -999.2500
  1381.4000      7.8505      2.4982      0.0992      9.2029   -999.2500   -999.2500
  1381.5000      7.8402      2.5078      0.1031      8.6181   -999.2500   -999.2500
  1381.6000      7.8402      2.5202      0.0908      7.8659   -999.2500   -999.2500
  1381.7000      7.8402      2.5274      0.1228      7.4316   -999.2500   -999.2500
  1381.8000      7.8671      2.5291      0.1096      7.3257   -999.2500   -999.2500
  1381.9000      7.8671      2.5339      0.1508      7.0349   -999.2500   -999.2500
  1382.0000      7.7594      2.5484      0.1577      6.1584   -999.2500   -999.2500
  1382.1000      7.7594      2.5711      0.1541      4.7804   -999.2500   -999.2500
  1382.2000      7.7594      2.5945      0.1720      3.3656   -999.2500   -999.2500
  1382.3000      7.7092      2.6079      0.1622      2.5501   -999.2500   -999.2500
  1382.4000      7.7092      2.6096      0.1470      2.4459   -999.2500   -999.2500
  1382.5000      7.7184      2.6072      0.1449      2.5965   -999.2500   -999.2500
  1382.6000      7.7184      2.6099      0.1163      2.4278   -999.2500   -999.2500
  1382.7000      7.7184      2.6186      0.1811      1.9032   -999.2500   -999.2500
  1382.8000      7.7336      2.6276      0.1436      1.3559   -999.2500   -999.2500
  1382.9000      7.7336      2.6386      0.1401      0.6898   -999.2500   -999.2500
  1383.0000      7.7389      2.6469      0.1256      0.1891   -999.2500   -999.2500
  1383.1000      7.7389      2.6431      0.0993      0.4184   -999.2500   -999.2500
  1383.2000      7.7389      2.6322      0.0493      1.0782   -999.2500   -999.2500
  1383.3000      7.7564      2.6264      0.0608      1.4280   -999.2500   -999.2500
  1383.4000      7.7564      2.6314      0.0819      1.1284   -999.2500   -999.2500
  1383.5000      7.7564      2.6444      0.0979      0.3418   -999.2500   -999.2500
  1383.6000      7.7564      2.6545      0.0800     -0.2743   -999.2500   -999.2500
  1383.7000      7.7564      2.6489      0.0887      0.0666   -999.2500   -999.2500
  1383.8000      7.7442      2.6299      0.0468      1.2160   -999.2500   -999.2500
  1383.9000      7.7442      2.6169      0.0224      2.0079   -999.2500   -999.2500
  1384.0000      7.7367      2.6188      0.0535      1.8920   -999.2500   -999.2500
  1384.1000      7.7367      2.6234      0.0717      1.6112   -999.2500   -999.2500
  1384.2000      7.7367      2.6248      0.0383      1.5284   -999.2500   -999.2500
  1384.3000      7.7798      2.6257      0.0676      1.4721   -999.2500   -999.2500
  1384.4000      7.7798      2.6232      0.0675      1.6227   -999.2500   -999.2500
  1384.5000      7.7702      2.6202      0.0397      1.8083   -999.2500   -999.2500
  1384.6000      7.7702      2.6195      0.0484      1.8501   -999.2500   -999.2500
  1384.7000      7.7702      2.6163      0.0522      2.0401   -999.2500   -999.2500
  1384.8000      7.7535      2.6363      0.0037      0.8330   -999.2500   -999.2500
  1384.9000      7.7535      2.7314      0.0716     -4.9333   -999.2500   -999.2500
  1385.0000      7.7641      2.7729      0.1051     -7.4508   -999.2500   -999.2500
  1385.1000      7.7641      2.3200      0.5480     19.9982   -999.2500   -999.2500
  1385.2000      7.7641      1.3154      0.0000     80.8863   -999.2500   -999.2500
  1385.3000      7.1975      0.4454      0.0000    133.6105   -999.2500   -999.2500
  1385.4000      7.1975      0.0845   -999.2500    155.4843   -999.2500   -999.2500
  1385.5000      3.2758      0.0087   -999.2500    160.0784   -999.2500   -999.2500
  1385.6000      3.2758      0.0005   -999.2500    160.5774   -999.2500   -999.2500
  1385.7000      3.2758      0.0000   -999.2500    160.6061   -999.2500   -999.2500
  1385.8000      2.7457      0.0000   -999.2500    160.6061   -999.2500   -999.2500
  1385.9000      2.7457   -999.2500   -999.2500   -999.2500   -999.2500   -999.2500
  1386.0000   -999.2500   -999.2500   -999.2500   -999.2500   -999.2500   -999.2500
  1386.1000   -999.2500   -999.2500   -999.2500   -999.2500   -999.2500   -999.2500
  1386.2000   -999.2500   -999.2500   -999.2500   -999.2500   -999.2500   -999.2500
  1386.3000   -999.2500   -999.2500   -999.2500   -999.2500   -999.2500   -999.2500
  1386.4000   -999.2500   -999.2500   -999.2500   -999.2500   -999.2500   -999.2500
  1386.5000   -999.2500   -999.2500   -999.2500   -999.2500   -999.2500   -999.2500
  1386.6000   -999.2500   -999.2500   -999.2500   -999.2500   -999.2500   -999.2500
  1386.7000   -999.2500   -999.2500   -999.2500   -999.2500   -999.2500   -999.2500
