~Version Information
VERS.                      2.0: CWLS Log ASCII Standard - VERSION 2.0
WRAP.                       NO: One line per depth step
~Well Information Block
STRT.FT               840.0000: 
STOP.FT              2019.0000: 
STEP.FT                 0.2500: 
NULL.                -999.2500: 
COMP.          Petrogulf Corporation: COMPANY
WELL.           Lavedure 7-44R: WELL
FLD.           Purgatorie River: FIELD
LOC.           946' FSL & 521' FEL: LOCATION
PROV.                 Colorado: PROVINCE
CNTY.               Las Animas: COUNTRY
SRVC.                Patterson: SERVICE COMPANY
DATE.          Mon Sep 26 08:35:42 2005: LOG DATE
UWI.                          : UNIQUE WELL ID
~Curve Information Block
DEPT.FT            0 000 00 00: Depth
SP.mV                         : DIL Spontaneous Potential
RILD.Ohm-m                    : DIL Deep Resistivity
RILM.Ohm-m                    : DIL Medium Resistivity
RLL3.Ohm-m                    : DIL Shallow Resistivity
GR.GAPI                       : Gamma Ray
~Parameter Information Block
~A  Depth        SP         RILD        RILM        RLL3         GR     
# ...
  1456.0000    167.7270     11.9542     12.5538     14.0270    160.1182
  1456.2500    167.7300     12.2113     12.8195     13.4967    143.3406
  1456.5000    167.7188     12.4217     13.0742     14.0862    118.1567
  1456.7500    167.6440     12.9100     13.4567     15.0838    134.0032
  1457.0000    167.4429     13.0619     14.0017     15.5317    150.1244
  1457.2500    167.2493     13.2808     14.4918     15.7743    138.0825
  1457.5000    167.1277     13.5927     14.9358     16.2555    131.3937
  1457.7500    166.9985     13.8419     15.2718     17.2773    140.7057
  1458.0000    166.8429     13.7354     15.5487     18.3830    123.7262
  1458.2500    166.6745     13.8825     15.7982     18.6815    116.4964
  1458.5000    166.5915     14.1366     15.7970     18.3197    153.6486
  1458.7500    166.5503     14.3558     15.8965     18.7563    121.9607
  1459.0000    166.6428     14.3845     15.7477     18.6779    111.2327
  1459.2500    166.8773     14.4930     15.8211     17.4935    106.3655
  1459.5000    167.1777     14.7411     15.6236     16.5468    104.5196
  1459.7500    167.6411     14.7364     15.6147     16.5484    100.3294
  1460.0000    168.1816     14.7152     15.4369     17.0443    113.3005
  1460.2500    168.7491     14.7849     15.6012     16.7924    111.1027
  1460.5000    169.5159     14.7733     15.4129     16.9827    110.3422
  1460.7500    170.3473     14.5948     15.3872     17.6754    101.2865
  1461.0000    171.1154     14.8618     15.3112     18.3159    113.1132
  1461.2500    171.6113     14.9170     14.9962     19.2304    123.7787
  1461.5000    171.8782     15.1423     14.8476     17.8869    109.5842
  1461.7500    171.8828     15.6196     14.9083     14.4623    122.3686
  1462.0000    171.7229     15.6733     15.1607     14.1839    138.2788
  1462.2500    171.4473     15.8930     15.4473     16.6344    136.9185
  1462.5000    171.0713     16.5451     16.1382     17.7773    117.4230
  1462.7500    170.7225     17.2216     17.1560     17.2392    109.9640
  1463.0000    170.4151     17.6980     18.2948     20.4503    126.8148
  1463.2500    170.1702     18.0043     19.6675     28.0455    123.4987
  1463.5000    169.9521     18.3530     20.6333     32.2788    116.0676
  1463.7500    169.8321     18.8747     21.2577     33.5591     99.9172
  1464.0000    169.8069     19.3542     22.1324     33.2911     99.4576
  1464.2500    169.8301     20.2906     22.6141     32.2780     66.5314
  1464.5000    169.9142     20.9081     23.3891     31.4361     71.2698
  1464.7500    169.9583     21.5446     24.0534     31.1792     66.4868
  1465.0000    170.0633     22.2853     24.5068     31.5741     59.7869
  1465.2500    170.2146     22.6283     25.0554     31.0573     57.7256
  1465.5000    170.4386     23.4972     25.5803     30.7116     65.8247
  1465.7500    170.6864     23.3736     26.3985     31.1191     62.4593
  1466.0000    170.8110     23.5503     25.9152     30.5409     52.4184
  1466.2500    170.7158     24.0730     26.9396     30.1993     55.0886
  1466.5000    170.5001     24.3036     27.0560     30.1770     75.4216
  1466.7500    170.2169     24.4868     26.7402     29.6432     66.1650
  1467.0000    169.9305     23.9232     26.3980     28.9611     65.0108
  1467.2500    169.5672     23.5520     26.8724     28.8394     64.1396
  1467.5000    169.1448     23.8031     26.7801     28.8183     48.5533
  1467.7500    168.7501     24.0626     26.3208     28.6563     57.1724
  1468.0000    168.5834     24.1534     26.5167     28.3162     62.5376
  1468.2500    168.6165     24.0546     26.2216     28.5583     73.3218
  1468.5000    168.5680     24.1303     26.0972     29.6608    100.7053
  1468.7500    168.5346     24.2120     25.4345     30.4103     87.5954
  1469.0000    168.6796     24.3792     25.7530     30.4210     68.0377
  1469.2500    168.9440     24.6802     26.0844     29.8994     69.3584
  1469.5000    169.3005     24.6796     26.3115     30.0302     62.5573
  1469.7500    169.6787     24.5229     26.7217     30.7243     60.0189
  1470.0000    170.0907     24.2674     26.6123     30.9110     61.1089
  1470.2500    170.5177     24.6440     26.4591     30.1576     52.7890
  1470.5000    170.7966     24.9399     27.2000     29.4321     64.6862
  1470.7500    170.8904     24.3239     26.9970     29.5648     61.5506
  1471.0000    170.9347     24.7935     26.5687     30.1369     67.2160
  1471.2500    170.8911     24.7004     26.6167     30.6613     75.1174
  1471.5000    170.8866     25.2323     26.2710     31.2405     63.8188
  1471.7500    170.8525     24.8356     26.2824     31.1584     59.3152
  1472.0000    170.8559     24.7086     25.9763     30.4733     68.2474
  1472.2500    170.8640     25.1665     26.2660     29.6394     64.8727
  1472.5000    170.8660     25.1570     26.1560     29.2862     65.1498
  1472.7500    170.8849     25.3375     26.7531     28.8407     72.0316
  1473.0000    170.9742     25.0888     26.7848     29.1168     69.0498
  1473.2500    171.0052     25.7363     26.4074     29.4355     66.5746
  1473.5000    171.0559     25.9427     26.5453     29.8335     55.6275
  1473.7500    171.1701     25.5043     26.9768     30.1280     71.1047
  1474.0000    171.3195     25.6090     27.2668     31.0222     76.0109
  1474.2500    171.5307     25.6621     27.1255     32.4859     67.1912
  1474.5000    171.8717     25.8108     27.6835     32.7871     55.8988
  1474.7500    172.2814     25.8313     27.0615     32.1978     57.5932
  1475.0000    172.5930     25.8897     27.7361     31.5335     61.0141
  1475.2500    172.7280     26.0420     27.4037     31.3509     69.8205
  1475.5000    172.7241     26.1449     27.4628     31.5786     62.8592
  1475.7500    172.5672     26.0105     28.2347     32.9581     58.0573
  1476.0000    172.3305     26.4216     28.6424     34.0569     70.0514
  1476.2500    172.1579     26.6764     27.7738     33.2215     66.8603
  1476.5000    172.0045     27.0539     27.2472     31.5086     60.9864
  1476.7500    171.8230     26.6990     27.4275     30.6847     77.7396
  1477.0000    171.6799     26.8273     28.0778     29.9886     69.9362
  1477.2500    171.5561     27.5222     27.6833     29.6013     54.9072
  1477.5000    171.5128     27.4551     27.9746     29.8908     69.6684
  1477.7500    171.3485     27.4399     26.8384     30.4368     73.0308
  1478.0000    171.2970     27.6094     27.7927     30.6177     56.9909
  1478.2500    171.3431     27.0296     28.2012     30.9128     64.8599
  1478.5000    171.4300     27.0463     28.2340     31.0959     57.4440
  1478.7500    171.6371     27.3310     29.2508     31.4621     59.0680
  1479.0000    171.9087     27.4227     29.1820     32.5801     66.9944
  1479.2500    172.3907     27.0954     29.7744     34.4740     83.5294
  1479.5000    172.9461     26.8855     29.8046     37.1027     64.3538
  1479.7500    173.4929     27.0035     29.2688     40.3568     57.1967
  1480.0000    173.7665     26.5362     29.0029     41.0079     70.8555
  1480.2500    173.9280     27.0555     29.4821     37.1203     52.1153
  1480.5000    174.0265     27.1806     28.8344     32.5065     50.6963
  1480.7500    173.9293     27.4339     28.0458     30.2698     57.8240
  1481.0000    173.7067     27.6199     28.1344     29.9821     67.6318
  1481.2500    173.3673     27.6660     28.4570     30.5136     64.0778
  1481.5000    173.0260     27.1232     28.5925     31.6796     66.0698
  1481.7500    172.6169     27.1168     28.2988     33.1820     79.9107
  1482.0000    172.1598     27.2188     28.1634     33.3569     76.1176
  1482.2500    171.7237     27.4895     28.4234     33.5129     81.9482
  1482.5000    171.2858     26.6472     28.3186     33.2616     92.6164
  1482.7500    170.9187     26.9188     27.2135     32.8483     87.2613
  1483.0000    170.6315     27.1151     27.5337     32.4962     85.9867
  1483.2500    170.4531     27.2355     27.9035     32.1961     88.7780
  1483.5000    170.3039     27.2581     28.2170     32.2139     94.9503
  1483.7500    170.2709     27.9702     29.1801     32.4278    102.6048
