~Version Information
VERS.                      2.0: CWLS Log ASCII Standard - VERSION 2.0
WRAP.                       NO: One line per depth step
~Well Information Block
STRT.FT               825.0000: 
STOP.FT              2446.5000: 
STEP.FT                 0.2500: 
NULL.                -999.2500: 
COMP.          Petrogulf Corporation: COMPANY
WELL.            Kraft 17-23 V: WELL
FLD.           Purgatorie River: FIELD
LOC.           1500' FSL & 1773' FWL: LOCATION
CNTY.               Las Animas: COUNTY
SRVC.                         : SERVICE COMPANY
DATE.          Thu Nov 20 06:35:41 2003: LOG DATE
UWI.                          : UNIQUE WELL ID
STAT.                 Colorado: STATE
~Curve Information Block
DEPT.FT            0 000 00 00: Depth
SN.Ohm-m                      : IEL Short Normal
SP.mV                         : IEL Spontaneous Potential
DIR.Ohm-m                     : IEL Induction Resistivity
GR.GAPI                       : Gamma Ray
~Parameter Information Block
~A  Depth        SN          SP         DIR          GR     
# ...
  2098.0000     22.8093     -7.0170     18.9712     65.6452
  2098.2500     22.9756     -5.5238     18.5314     69.2025
  2098.5000     23.1979     -4.3529     17.8417     75.2120
  2098.7500     23.2501     -3.9234     17.0858     79.5644
  2099.0000     23.1283     -4.1135     16.3960     85.4515
  2099.2500     23.0758     -4.5061     15.8397     87.9972
  2099.5000     23.3303     -4.7777     15.4441     88.9235
  2099.7500     23.8551     -4.8340     15.2249     88.0585
  2100.0000     24.2522     -4.7277     15.1968     86.4398
  2100.2500     24.1466     -4.6031     15.3672     86.1645
  2100.5000     23.7005     -4.7022     15.7215     87.3722
  2100.7500     23.4008     -5.2752     16.2104     88.6397
  2101.0000     23.4628     -6.3757     16.7509     89.5537
  2101.2500     23.7635     -7.7691     17.2471     88.9043
  2101.5000     24.1448     -9.0911     17.6232     86.6028
  2101.7500     24.5189    -10.0930     17.8528     85.2024
  2102.0000     24.8161    -10.7550     17.9588     84.7368
  2102.2500     25.0172    -11.2469     17.9926     85.5032
  2102.5000     25.1533    -11.7981     18.0030     86.7401
  2102.7500     25.1640    -12.5412     18.0153     86.4270
  2103.0000     24.9138    -13.4271     18.0248     83.2385
  2103.2500     24.4479    -14.2625     18.0024     79.8592
  2103.5000     23.9878    -14.8199     17.9086     75.3916
  2103.7500     23.6370    -14.9375     17.7067     74.2824
  2104.0000     23.3170    -14.5681     17.3799     76.4812
  2104.2500     22.9080    -13.7723     16.9414     80.0142
  2104.5000     22.3245    -12.7020     16.4416     86.3087
  2104.7500     21.6366    -11.6060     15.9624     89.9571
  2105.0000     21.1371    -10.7860     15.5988     93.6122
  2105.2500     21.0811    -10.4393     15.4361     94.9973
  2105.5000     21.3979    -10.5105     15.5274     96.5489
  2105.7500     21.7577    -10.7355     15.8754     97.8911
  2106.0000     21.9020    -10.8314     16.4051    100.8751
  2106.2500     21.8702    -10.6330     16.9414    103.2591
  2106.5000     21.8177    -10.1218     17.2222    106.1389
  2106.7500     21.7968     -9.4311     17.0029    106.6693
  2107.0000     21.8605     -8.8190     16.2187    104.6215
  2107.2500     22.0871     -8.5333     15.0411    101.8089
  2107.5000     22.3797     -8.6412     13.7529     97.2449
  2107.7500     22.4633     -9.0106     12.5847     94.9325
  2108.0000     22.1610     -9.4658     11.6492     93.0063
  2108.2500     21.5868     -9.9366     10.9643     92.4127
  2108.5000     20.9903    -10.4725     10.4980     92.1013
  2108.7500     20.4407    -11.1720     10.2064     92.5488
  2109.0000     19.7941    -12.1036     10.0581     95.0761
  2109.2500     18.8888    -13.2604     10.0519     98.0512
  2109.5000     17.6288    -14.5651     10.2271    103.2638
  2109.7500     16.2253    -15.9094     10.6729    106.3187
  2110.0000     15.3732    -17.1634     11.5504    109.8139
  2110.2500     15.5286    -18.1553     13.1491    111.9963
  2110.5000     16.2611    -18.7063     16.0408    115.9976
  2110.7500     16.9022    -18.7805     21.5265    118.8766
  2111.0000     17.2507    -18.6287     33.2161    122.0252
  2111.2500     17.4561    -18.6941     65.2889    122.7074
  2111.5000     17.6635    -19.2691    262.7492    121.4420
  2111.7500     17.7920    -20.2434 100000.0000    119.2571
  2112.0000     17.5491    -21.2333 100000.0000    114.5862
  2112.2500     16.5571    -21.9149 100000.0000    111.2588
  2112.5000     14.8588    -22.1906 100000.0000    107.5957
  2112.7500     13.5275    -22.1158 100000.0000    106.6783
  2113.0000     13.6548    -21.7996 100000.0000    107.2323
  2113.2500     14.7556    -21.3997 100000.0000    107.9231
  2113.5000     15.5365    -21.1444 100000.0000    107.4468
  2113.7500     15.5202    -21.2965 100000.0000    105.4025
  2114.0000     15.0247    -22.0533 100000.0000    100.3961
  2114.2500     14.4804    -23.4614 100000.0000     97.3078
  2114.5000     14.1197    -25.4303 100000.0000     95.9516
  2114.7500     13.8978    -27.8499 100000.0000     97.7132
  2115.0000     13.6869    -30.7116 100000.0000    102.2068
  2115.2500     13.5280    -34.1447 100000.0000    104.3750
  2115.5000     13.5006    -38.3682 100000.0000    104.2830
  2115.7500     13.4622    -43.6285 100000.0000    102.3476
  2116.0000     13.1281    -50.1764 100000.0000     98.9691
  2116.2500     12.4161    -58.2517 100000.0000     97.7002
  2116.5000     11.6352    -68.0309 100000.0000     98.2250
  2116.7500     11.0623    -79.5785 100000.0000     99.9263
  2117.0000     10.5087    -92.8570    297.1422    103.0625
  2117.2500      9.7025   -107.6987      4.0063    104.6106
  2117.5000      8.5291   -123.6092      1.8335    104.9650
  2117.7500      6.7805   -139.5446      1.1994    103.3693
  2118.0000      4.5778   -154.0174      0.9534     97.6511
  2118.2500      2.7481   -165.6221      0.8796     91.9575
  2118.5000      1.9928   -173.6450      0.9244     82.3936
  2118.7500      2.1392   -178.3650      1.0954     76.2558
  2119.0000      2.3165   -180.9217      1.4630     67.8041
  2119.2500      1.7438   -182.8462      2.2500     62.8406
  2119.5000      0.7444   -185.4804      4.3296     57.7252
  2119.7500      0.4470   -189.5821     16.0171     56.6360
  2120.0000      1.2434   -195.3226 100000.0000     57.8574
  2120.2500      2.4917   -202.5948 100000.0000     59.2615
  2120.5000      3.5607   -211.3043 100000.0000     60.7477
  2120.7500      4.4250   -221.4136 100000.0000     61.6443
  2121.0000      5.2534   -232.8153 100000.0000     64.3071
  2121.2500      5.7920   -245.2422 100000.0000     67.2881
  2121.5000      5.6020   -258.2756 100000.0000     72.5603
  2121.7500      4.7680   -271.3451 100000.0000     75.5507
  2122.0000      3.7363   -283.6012      6.8274     77.8407
  2122.2500      2.6602   -293.7010      2.3508     77.6892
  2122.5000      1.6022   -299.7527      1.2003     75.6606
  2122.7500      0.8957   -299.7106      0.7193     73.9819
  2123.0000      0.6987   -292.2251      0.4720     72.4945
  2123.2500      0.7180   -277.4715      0.3315     72.4605
  2123.5000      0.7295   -257.3229      0.2509     72.8474
  2123.7500      1.0115   -234.6502      0.2097     72.6064
  2124.0000      2.0870   -212.2162      0.1984     71.3406
  2124.2500      4.3420   -191.8984      0.2154     70.5430
  2124.5000      7.9024   -174.5421      0.2669     70.6057
  2124.7500     12.3414   -160.1694      0.3697     71.7486
  2125.0000     16.5996   -148.2363      0.5619     75.0217
  2125.2500     19.5797   -137.9371      0.9475     78.1517
  2125.5000     20.8349   -128.5901      1.9116     84.0284
  2125.7500     20.8300   -119.9004      6.2879     88.2926
  2126.0000     20.3685   -111.9069 100000.0000     93.8952
  2126.2500     19.7617   -104.7639 100000.0000     96.3463
  2126.5000     18.9777    -98.6462 100000.0000     97.5691
  2126.7500     18.3051    -93.8055 100000.0000     97.1649
  2127.0000     18.0572    -90.5403 100000.0000     96.6881
  2127.2500     17.8666    -88.9593 100000.0000     97.7772
  2127.5000     17.0260    -88.7532 100000.0000    102.3553
  2127.7500     15.4530    -89.2601 100000.0000    106.5268
  2128.0000     14.0069    -89.7928 100000.0000    111.6475
  2128.2500     13.4807    -89.9313 100000.0000    112.9593
  2128.5000     13.6164    -89.5852 100000.0000    111.4244
  2128.7500     13.7745    -88.8783 100000.0000    108.8968
  2129.0000     13.8281    -87.9934 100000.0000    104.7665
  2129.2500     13.8647    -87.0670 100000.0000    102.6893
  2129.5000     13.7298    -86.1761 100000.0000    101.5421
  2129.7500     13.4367    -85.3957 100000.0000    102.1962
  2130.0000     13.5780    -84.8537 100000.0000    104.4537
  2130.2500     14.5053    -84.6902 100000.0000    105.9711
  2130.5000     15.4750    -84.8901 100000.0000    107.2926
  2130.7500     15.4169    -85.1424 100000.0000    107.5402
  2131.0000     14.3207    -84.9931 100000.0000    107.6156
  2131.2500     13.3339    -84.2612 100000.0000    107.8813
