~Version Information
VERS.                      2.0: CWLS Log ASCII Standard - VERSION 2.0
WRAP.                       NO: One line per depth step
~Well Information Block
STRT.FT               250.0000: 
STOP.FT              1573.7500: 
STEP.FT                 0.2500: 
NULL.                -999.2500: 
COMP.          Pioneer Natural Resources: COMPANY
WELL.          Big Cat Federal 44-1: WELL
FLD.           Purgatoire River: FIELD
LOC.           197' FSL & 973' FEL--: LOCATION
CNTY.               Las Animas: COUNTY
SRVC.                Patterson: SERVICE COMPANY
DATE.          Sun Apr 23 14:54:11 2006: LOG DATE
UWI.           05 071 08042 00: UNIQUE WELL ID
STAT.                 Colorado: STATE
~Curve Information Block
DEPT.FT            0 000 00 00: Depth
DIR.Ohm-m                     : IEL Induction Resistivity
GR.GAPI                       : Gamma Ray
~Parameter Information Block
~A  Depth       DIR          GR     
# ...
  1030.5000      9.0183    133.4254
  1030.7500      8.7594    136.0101
  1031.0000      8.5154    139.6025
  1031.2500      8.2846    141.6402
  1031.5000      8.0655    144.4786
  1031.7500      7.8553    146.3941
  1032.0000      7.6487    149.0966
  1032.2500      7.4410    150.5838
  1032.5000      7.2325    152.3107
  1032.7500      7.0326    153.1597
  1033.0000      6.8591    153.8023
  1033.2500      6.7342    153.7066
  1033.5000      6.6795    152.9097
  1033.7500      6.7117    152.0194
  1034.0000      6.8403    149.7605
  1034.2500      7.0666    147.1032
  1034.5000      7.3830    140.3698
  1034.7500      7.7740    133.7239
  1035.0000      8.2184    121.2346
  1035.2500      8.6922    112.6487
  1035.5000      9.1709    102.6757
  1035.7500      9.6303     99.3018
  1036.0000     10.0490     99.2600
  1036.2500     10.4110    101.8578
  1036.5000     10.7073    108.6001
  1036.7500     10.9357    114.4708
  1037.0000     11.0983    123.7686
  1037.2500     11.2008    128.9657
  1037.5000     11.2544    133.2884
  1037.7500     11.2764    133.3408
  1038.0000     11.2895    129.4956
  1038.2500     11.3201    125.0457
  1038.5000     11.3982    117.2602
  1038.7500     11.5573    112.3423
  1039.0000     11.8334    106.7162
  1039.2500     12.2614    104.4607
  1039.5000     12.8677    102.7379
  1039.7500     13.6605    101.7383
  1040.0000     14.6183     98.6253
  1040.2500     15.6834     94.9303
  1040.5000     16.7700     87.5631
  1040.7500     17.7906     82.4363
  1041.0000     18.6867     76.1078
  1041.2500     19.4391     73.2614
  1041.5000     20.0440     70.7588
  1041.7500     20.4729     69.6621
  1042.0000     20.6460     67.8299
  1042.2500     20.4451     66.3626
  1042.5000     19.7759     64.9779
  1042.7500     18.6473     65.8926
  1043.0000     17.1970     72.0885
  1043.2500     15.6289     79.8473
  1043.5000     14.1204     95.5493
  1043.7500     12.7724    106.8443
  1044.0000     11.6146    121.4006
  1044.2500     10.6352    128.2623
  1044.5000      9.8094    134.6894
  1044.7500      9.1155    137.5975
  1045.0000      8.5399    141.4620
  1045.2500      8.0754    143.6515
  1045.5000      7.7152    145.3673
  1045.7500      7.4491    145.1961
  1046.0000      7.2618    143.3765
  1046.2500      7.1349    141.4860
  1046.5000      7.0487    138.1784
  1046.7500      6.9850    136.1273
  1047.0000      6.9288    134.3599
  1047.2500      6.8697    134.4995
  1047.5000      6.8034    136.5982
  1047.7500      6.7317    138.8742
  1048.0000      6.6607    143.0812
  1048.2500      6.5977    146.1689
  1048.5000      6.5488    150.1503
  1048.7500      6.5165    151.4173
  1049.0000      6.5003    150.4212
  1049.2500      6.4976    148.3106
  1049.5000      6.5052    144.4708
  1049.7500      6.5210    141.9382
  1050.0000      6.5437    138.3460
  1050.2500      6.5734    136.3428
  1050.5000      6.6104    134.7704
  1050.7500      6.6563    134.9471
  1051.0000      6.7122    136.5632
  1051.2500      6.7788    137.8803
  1051.5000      6.8545    139.1478
  1051.7500      6.9351    139.1977
  1052.0000      7.0151    138.2337
  1052.2500      7.0902    137.3536
  1052.5000      7.1591    136.6504
  1052.7500      7.2242    136.8862
  1053.0000      7.2889    138.0367
  1053.2500      7.3554    139.0180
  1053.5000      7.4234    140.6325
  1053.7500      7.4911    141.8853
  1054.0000      7.5572    143.8923
  1054.2500      7.6231    144.9695
  1054.5000      7.6930    145.6175
  1054.7500      7.7734    145.3719
  1055.0000      7.8713    144.4899
  1055.2500      7.9934    143.9467
  1055.5000      8.1450    143.4323
  1055.7500      8.3297    142.9845
  1056.0000      8.5482    141.1905
  1056.2500      8.7975    138.9077
  1056.5000      9.0721    134.2250
  1056.7500      9.3654    130.9175
  1057.0000      9.6715    126.9176
  1057.2500      9.9868    125.3520
  1057.5000     10.3112    124.5988
  1057.7500     10.6488    124.7524
  1058.0000     11.0080    125.4273
  1058.2500     11.3999    126.1214
  1058.5000     11.8353    127.1235
  1058.7500     12.3215    126.9571
  1059.0000     12.8617    123.7690
  1059.2500     13.4560    119.3013
  1059.5000     14.1052    110.0013
  1059.7500     14.8141    103.1358
  1060.0000     15.5937     93.6634
  1060.2500     16.4587     88.7287
  1060.5000     17.4220     84.2072
  1060.7500     18.4881     83.0529
  1061.0000     19.6471     83.0645
  1061.2500     20.8697     83.4720
  1061.5000     22.1028     84.0468
  1061.7500     23.2695     84.5179
  1062.0000     24.2827     85.7071
  1062.2500     25.0721     86.7813
  1062.5000     25.6128     88.2592
  1062.7500     25.9358     88.6977
  1063.0000     26.1102     87.7847
  1063.2500     26.2146     85.8913
  1063.5000     26.3174     81.5271
  1063.7500     26.4674     78.3959
  1064.0000     26.6868     75.0071
  1064.2500     26.9573     74.1515
  1064.5000     27.2027     74.6419
  1064.7500     27.2827     75.4920
  1065.0000     27.0199     76.6486
  1065.2500     26.2718     77.3846
  1065.5000     25.0168     79.4436
  1065.7500     23.3850     82.0711
  1066.0000     21.6036     88.0012
  1066.2500     19.9007     92.7672
  1066.5000     18.4364    100.0884
  1066.7500     17.2829    104.6123
  1067.0000     16.4370    109.8612
  1067.2500     15.8450    111.5036
  1067.5000     15.4318    110.0551
  1067.7500     15.1305    106.4995
  1068.0000     14.9068     98.6861
  1068.2500     14.7672     93.1963
  1068.5000     14.7470     86.9393
  1068.7500     14.8882     84.8341
  1069.0000     15.2203     84.2792
  1069.2500     15.7502     84.7500
  1069.5000     16.4592     85.5336
  1069.7500     17.3033     85.7900
  1070.0000     18.2143     85.2320
  1070.2500     19.1045     83.8422
  1070.5000     19.8830     80.1398
  1070.7500     20.4841     77.1055
  1071.0000     20.8959     73.0123
  1071.2500     21.1658     71.1305
  1071.5000     21.3724     69.7651
  1071.7500     21.5815     69.6155
  1072.0000     21.8116     69.8931
  1072.2500     22.0274     69.9798
  1072.5000     22.1590     69.3883
  1072.7500     22.1337     68.4821
  1073.0000     21.8981     67.0265
  1073.2500     21.4236     66.6687
  1073.5000     20.7035     67.9914
  1073.7500     19.7530     70.1835
  1074.0000     18.6112     74.7990
  1074.2500     17.3394     78.3726
  1074.5000     16.0106     84.5259
  1074.7500     14.6950     89.5675
  1075.0000     13.4476     99.0801
  1075.2500     12.3032    106.4395
  1075.5000     11.2785    117.2525
  1075.7500     10.3785    123.0285
  1076.0000      9.6028    128.4821
  1076.2500      8.9495    130.4048
  1076.5000      8.4169    132.2081
  1076.7500      8.0030    133.1594
  1077.0000      7.7039    134.0287
  1077.2500      7.5135    133.9795
  1077.5000      7.4220    132.8803
  1077.7500      7.4172    131.5754
  1078.0000      7.4851    128.7789
  1078.2500      7.6117    126.1560
  1078.5000      7.7843    120.9064
  1078.7500      7.9944    117.0117
  1079.0000      8.2368    112.3389
  1079.2500      8.5085    110.7544
  1079.5000      8.8036    110.1551
  1079.7500      9.1099    109.9045
  1080.0000      9.4097    108.5228
  1080.2500      9.6868    107.0799
  1080.5000      9.9362    105.3546
  1080.7500     10.1695    105.1591
  1081.0000     10.4120    106.5673
  1081.2500     10.6948    108.2084
  1081.5000     11.0463    110.3324
  1081.7500     11.4862    110.6787
  1082.0000     12.0245    108.7281
  1082.2500     12.6648    105.7520
  1082.5000     13.4098     99.3436
  1082.7500     14.2657     94.3283
  1083.0000     15.2400     86.8957
  1083.2500     16.3336     82.7084
  1083.5000     17.5323     78.3202
  1083.7500     18.8009     76.6706
  1084.0000     20.0852     75.5105
  1084.2500     21.3204     75.0732
  1084.5000     22.4482     74.1328
  1084.7500     23.4318     73.1789
  1085.0000     24.2608     71.5864
  1085.2500     24.9426     70.6244
  1085.5000     25.4924     69.0313
  1085.7500     25.9354     67.3447
  1086.0000     26.3146     63.2541
