~Version Information
VERS.                      2.0: CWLS Log ASCII Standard - VERSION 2.0
WRAP.                       NO: One line per depth step
~Well Information Block
STRT.FT                17.7500: 
STOP.FT              1139.0000: 
STEP.FT                 0.2500: 
NULL.                -999.2500: 
COMP.          El Paso E&P Company L.P.: COMPANY
WELL.              VPR "ST" 38: WELL
FLD.           Purgatorie River: FIELD
LOC.           687' FNL & 2121' FEL: LOCATION
CNTY.               Las Animas: COUNTY
SRVC.          Superior Well Services: SERVICE COMPANY
DATE.          Sat Oct 13 22-40-21 2007: LOG DATE
UWI.           05-071-08357-00: UNIQUE WELL ID
STAT.                       CO: STATE
~Curve Information Block
DEPT.FT            0 000 00 00: Depth
CCL.                          : Casing Collar Locator
TT3.usec                      : CBL 3' Travel Time
AMP3.mV                       : CBL 3' Amplitude
GR.GAPI                       : Gamma Ray
~Parameter Information Block
~A  Depth       CCL         TT3         AMP3         GR     
# ...
   218.7500      0.0000    953.7272      3.3345     96.4434
   219.0000      0.0000    955.2147      3.3520     95.2284
   219.2500      0.0000    950.8030      3.3698     94.5518
   219.5000      0.0000    944.2256      3.3791     95.4936
   219.7500      0.0000    936.4251      3.3779     99.2636
   220.0000      0.0000    925.4838      3.3817    102.7255
   220.2500      0.0000    910.1914      3.4130    107.5026
   220.5000      0.0000    894.4046      3.4763    109.4431
   220.7500      0.0000    887.0535      3.5455    109.5874
   221.0000      0.0000    895.5056      3.5834    107.8290
   221.2500      0.0000    918.3233      3.5733    103.0609
   221.5000      0.0000    945.1467      3.5319     98.9391
   221.7500      0.0000    962.8814      3.4907     92.2432
   222.0000      0.0000    962.3923      3.4699     88.2168
   222.2500      0.0000    943.0841      3.4673     84.1780
   222.5000      0.0000    912.7162      3.4697     82.9936
   222.7500      0.0000    880.8864      3.4693     82.6483
   223.0000      0.0000    852.4289      3.4699     82.8352
   223.2500      0.0000    827.6635      3.4807     83.1978
   223.5000      0.0000    806.8940      3.5062     83.2238
   223.7500      0.0000    792.2949      3.5413     82.5582
   224.0000      0.0000    785.5573      3.5767     81.5709
   224.2500      0.0000    785.4810      3.6061     79.2131
   224.5000      0.0000    789.1649      3.6248     77.0070
   224.7500      0.0000    795.1592      3.6271     72.8782
   225.0000      0.0000    803.8892      3.6132     69.8112
   225.2500      0.0000    814.6685      3.5973     65.3701
   225.5000      0.0000    823.8382      3.6019     63.0812
   225.7500      0.0000    826.9496      3.6406     61.6840
   226.0000      0.0000    822.4570      3.7071     62.2438
   226.2500      0.0000    812.8480      3.7821     64.0565
   226.5000      0.0000    801.8008      3.8471     64.5687
   226.7500      0.0000    790.6995      3.8907     62.5370
   227.0000      0.0000    778.7639      3.9052     59.3657
   227.2500      0.0000    765.9380      3.8871     53.6473
   227.5000      0.0000    754.3622      3.8435     50.3333
   227.7500      0.0000    747.0664      3.7907     46.9430
   228.0000      0.0000    745.6759      3.7447     45.5958
   228.2500      0.0000    749.1547      3.7127     44.5754
   228.5000      0.0000    754.5345      3.6932     44.5929
   228.7500      0.0000    759.0131      3.6794     45.8438
   229.0000      0.0000    761.4285      3.6639     47.2928
   229.2500      0.0000    762.0712      3.6409     49.3147
   229.5000      0.0000    761.6393      3.6071     49.8960
   229.7500      0.0000    760.4905      3.5637     49.3694
   230.0000      0.0000    758.5909      3.5189     48.6385
   230.2500      0.0000    756.0600      3.4863     48.5283
   230.5000      0.0000    753.7280      3.4731     49.8836
   230.7500      0.0000    752.8458      3.4733     54.6380
   231.0000      0.0000    753.9637      3.4746     59.4704
   231.2500      0.0000    756.3251      3.4693     67.9563
   231.5000      0.0000    758.6216      3.4548     73.1677
   231.7500      0.0000    760.1210      3.4313     78.3628
   232.0000      0.0000    760.9053      3.4052     79.9683
   232.2500      0.0000    761.4322      3.3916     81.2775
   232.5000      0.0000    762.2599      3.4082     82.4993
   232.7500      0.0000    764.1312      3.4618     84.9050
   233.0000      0.0000    767.8154      3.5413     85.7304
   233.2500      0.0000    773.2284      3.6225     83.5716
   233.5000      0.0000    778.5504      3.6807     79.7139
   233.7500      0.0000    780.9600      3.7021     72.5690
   234.0000      0.0000    779.1504      3.6850     68.6479
   234.2500      0.0000    774.9534      3.6353     65.6226
   234.5000      0.0000    772.0815      3.5627     65.4696
   234.7500      0.0000    773.3723      3.4798     67.1224
   235.0000      0.0000    778.7966      3.3998     68.8016
   235.2500      0.0000    785.1083      3.3336     71.3819
   235.5000      0.0000    787.7524      3.2877     73.2200
   235.7500      0.0000    784.4619      3.2652     76.9721
   236.0000      0.0000    777.1367      3.2680     80.3121
   236.2500      0.0000    769.6869      3.2980     85.4988
   236.5000      0.0000    764.5203      3.3544     88.1609
   236.7500      0.0000    761.4818      3.4304     90.8353
   237.0000      0.0000    759.2761      3.5149     92.6988
   237.2500      0.0000    757.2388      3.5959     96.8523
   237.5000      0.0000    756.0249      3.6622     99.8425
   237.7500      0.0000    756.7840      3.7045    101.8123
   238.0000      0.0000    759.5493      3.7198    100.3420
   238.2500      0.0000    762.7618      3.7152     94.7746
   238.5000      0.0000    764.7859      3.7053     90.3795
   238.7500      0.0000    765.5277      3.7048     85.1147
   239.0000      0.0000    766.2149      3.7173     83.0619
   239.2500      0.0000    768.0128      3.7285     82.4056
   239.5000      0.0000    771.3351      3.7128     83.7229
   239.7500      0.0000    776.8487      3.6530     88.1101
   240.0000      0.0000    786.9934      3.5558     91.7593
   240.2500      0.0000    804.9843      3.4465     95.9671
   240.5000      0.0000    830.1129      3.3508     96.9296
   240.7500      0.0000    854.2299      3.2840     95.5591
   241.0000      0.0000    866.0978      3.2496     93.4835
   241.2500      0.0000    861.6452      3.2444     90.0244
   241.5000      0.0000    849.1084      3.2609     87.9893
   241.7500      0.0000    841.9615      3.2878     85.5889
   242.0000      0.0000    846.3999      3.3120     84.4821
   242.2500      0.0000    856.6835      3.3238     83.9689
   242.5000      0.0000    861.9630      3.3198     84.7177
   242.7500      0.0000    856.1967      3.3042     87.4428
   243.0000      0.0000    842.6862      3.2869     89.7648
   243.2500      0.0000    830.7687      3.2779     92.4688
   243.5000      0.0000    826.7125      3.2799     92.9199
   243.7500      0.0000    826.7844      3.2857     90.8689
   244.0000      0.0000    821.4799      3.2861     87.9187
   244.2500      0.0000    807.2876      3.2780     82.5273
   244.5000      0.0000    791.2361      3.2660     79.2557
   244.7500      0.0000    782.7736      3.2568     75.7039
   245.0000      0.0000    783.7711      3.2537     74.1628
   245.2500      0.0000    787.5610      3.2565     72.7393
   245.5000      0.0000    786.0276      3.2664     72.4074
   245.7500      0.0000    776.5790      3.2989     72.8471
   246.0000      0.0000    763.0087      3.3892     73.4543
   246.2500      0.0000    751.6019      3.5707     74.1386
   246.5000      0.0000    748.0092      3.8331     74.2799
   246.7500      0.0000    755.9351      4.1099     74.1145
   247.0000      0.0000    774.6802      4.3283     73.8140
   247.2500      0.0000    797.2725      4.4667     73.1163
   247.5000      0.0000    814.7647      4.5529     72.5670
   247.7500     -2.0000    824.2983      4.6199     72.0588
   248.0000      0.0000    830.1941      4.6838     72.4076
   248.2500      2.0000    835.4573      4.7505     74.7194
   248.5000      0.0000    836.7096      4.8234     77.3362
   248.7500      0.0000    830.6920      4.9015     81.1987
   249.0000      0.0000    820.9492      4.9677     82.4723
   249.2500      0.0000    813.5877      4.9791     81.6396
   249.5000      0.0000    810.1996      4.8886     79.8151
   249.7500      0.0000    808.7490      4.6975     76.6554
   250.0000      0.0000    808.3952      4.4728     74.9986
   250.2500      0.0000    810.3875      4.2901     74.3939
   250.5000      0.0000    815.2794      4.1667     75.6889
   250.7500      0.0000    821.2254      4.0670     79.2407
   251.0000      0.0000    826.4542      3.9572     81.0400
   251.2500      0.0000    832.9639      3.8410     80.1725
   251.5000      0.0000    844.9142      3.7493     77.0387
   251.7500      0.0000    861.8303      3.7145     70.9386
   252.0000      0.0000    875.9931      3.7570     67.7982
