~Version Information
 VERS.                      2.0: CWLS Log ASCII Standard - VERSION 2.0
 WRAP.                       NO: One line per depth step
 ~Well Information Block
 STRT.FT               115.0000: 
 STOP.FT              1768.2500: 
 STEP.FT                 0.2500: 
 NULL.                -999.2500: 
 COMP.          Petrogulf Corporation: COMPANY
 WELL.           Parsons 23-15V: WELL
 FLD.           Purgatorie River: FIELD
 LOC.           2095' FSL & 1817' FWL--API 05 071 07556 00----: LOCATION
 CNTY.               Las Animas: COUNTY
 SRVC.                         : SERVICE COMPANY
 DATE.          Fri Apr 19 16:58:41 2002: LOG DATE
 UWI.                          : UNIQUE WELL ID
 STAT.                       CO: STATE
 PROV.                         :Province
 ~Curve Information Block
 DEPT.FT            0 000 00 00: Depth
 SP.mV                         : DIL Spontaneous Potential
 RILD.Ohm-m                    : DIL Deep Resistivity
 RILM.Ohm-m                    : DIL Medium Resistivity
 RLL3.Ohm-m                    : DIL Shallow Resistivity
 GR.GAPI                       : Gamma Ray
 ~Parameter Information Block
 ~A  Depth        SP         RILD        RILM        RLL3         GR     
# ...
  1431.0000   -143.6603     26.1257     29.2494     94.3343     55.5442
  1431.2500   -144.2723     25.6240     30.3796    141.4064     45.1431
  1431.5000   -144.8377     25.0444     31.3580    194.8943     36.7357
  1431.7500   -145.3167     24.4333     31.9578    242.7737     32.2932
  1432.0000   -145.6875     23.8452     32.0116    271.6661     32.9235
  1432.2500   -145.9411     23.3289     31.4383    272.7042     38.4404
  1432.5000   -146.0760     22.9119     30.2648    245.4304     47.4985
  1432.7500   -146.0968     22.5891     28.6331    197.8154     58.0716
  1433.0000   -146.0153     22.3220     26.7672    142.7747     68.2674
  1433.2500   -145.8528     22.0479     24.9042     92.8878     77.0685
  1433.5000   -145.6407     21.6996     23.2270     55.9046     84.2944
  1433.7500   -145.4155     21.2256     21.8331     33.3171     89.8910
  1434.0000   -145.2092     20.6028     20.7392     22.1619     93.5117
  1434.2500   -145.0361     19.8397     19.9018     18.0651     94.8984
  1434.5000   -144.8884     18.9718     19.2410     17.4123     94.5543
  1434.7500   -144.7459     18.0547     18.6640     18.0005     93.8972
  1435.0000   -144.5896     17.1527     18.0878     18.7463     94.5954
  1435.2500   -144.4062     16.3240     17.4590     19.2046     97.5093
  1435.5000   -144.1874     15.6092     16.7632     19.2443    102.2513
  1435.7500   -143.9329     15.0254     16.0219     18.8868    107.8570
  1436.0000   -143.6564     14.5692     15.2787     18.2167    113.5905
  1436.2500   -143.3848     14.2228     14.5817     17.3268    118.7531
  1436.5000   -143.1502     13.9605     13.9692     16.3060    122.1058
  1436.7500   -142.9802     13.7546     13.4634     15.2606    122.3247
  1437.0000   -142.8880     13.5771     13.0698     14.3348    119.3048
  1437.2500   -142.8637     13.4018     12.7814     13.6904    114.5853
  1437.5000   -142.8752     13.2061     12.5834     13.4425    110.2096
  1437.7500   -142.8798     12.9758     12.4553     13.5914    107.3222
  1438.0000   -142.8403     12.7085     12.3708     14.0233    105.9400
  1438.2500   -142.7369     12.4154     12.2991     14.5886    105.7178
  1438.5000   -142.5690     12.1170     12.2072     15.1772    106.4449
  1438.7500   -142.3519     11.8378     12.0675     15.7021    107.7113
  1439.0000   -142.1079     11.6002     11.8652     16.0309    108.6227
  1439.2500   -141.8589     11.4211     11.6038     15.9913    108.4541
  1439.5000   -141.6198     11.3103     11.3043     15.4924    107.4689
  1439.7500   -141.3999     11.2699     11.0001     14.6348    106.4729
  1440.0000   -141.2079     11.2954     10.7275     13.6684    105.5998
  1440.2500   -141.0577     11.3783     10.5188     12.8337    104.2108
  1440.5000   -140.9660     11.5077     10.3975     12.2513    102.0077
  1440.7500   -140.9409     11.6723     10.3771     11.9384     99.5969
  1441.0000   -140.9710     11.8616     10.4630     11.8763     97.7430
  1441.2500   -141.0277     12.0673     10.6546     12.0460     96.4365
  1441.5000   -141.0754     12.2847     10.9481     12.4386     94.8888
  1441.7500   -141.0853     12.5138     11.3384     13.0811     92.1853
  1442.0000   -141.0426     12.7598     11.8195     14.0563     87.8353
  1442.2500   -140.9487     13.0315     12.3836     15.4550     82.0978
  1442.5000   -140.8170     13.3388     13.0191     17.2479     76.1082
  1442.7500   -140.6665     13.6902     13.7106     19.1853     71.3705
  1443.0000   -140.5166     14.0907     14.4407     20.8782     68.7289
  1443.2500   -140.3842     14.5422     15.1942     22.0867     67.8023
  1443.5000   -140.2825     15.0459     15.9588     22.9922     67.3666
  1443.7500   -140.2190     15.6042     16.7221     24.1199     66.2363
  1444.0000   -140.1949     16.2189     17.4658     25.8252     64.1311
  1444.2500   -140.2092     16.8843     18.1667     27.7686     62.0042
  1444.5000   -140.2664     17.5769     18.8068     29.0192     61.1198
  1444.7500   -140.3798     18.2475     19.3889     28.9673     61.4357
  1445.0000   -140.5654     18.8252     19.9414     28.4363     61.2926
  1445.2500   -140.8318     19.2349     20.5046     30.0688     58.9357
  1445.5000   -141.1702     19.4217     21.0982     37.4084     53.9108
  1445.7500   -141.5526     19.3679     21.6857     52.7357     47.0458
  1446.0000   -141.9387     19.0946     22.1535     74.5535     40.0080
  1446.2500   -142.2855     18.6507     22.3306     96.5728     35.1935
  1446.5000   -142.5554     18.0990     22.0611    109.9855     35.1619
  1446.7500   -142.7238     17.5040     21.2983    108.5143     41.3182
  1447.0000   -142.7874     16.9205     20.1428     92.6186     52.9287
  1447.2500   -142.7676     16.3839     18.7891     69.0946     67.3977
  1447.5000   -142.7022     15.9045     17.4333     46.3591     81.5741
  1447.7500   -142.6282     15.4701     16.2128     29.6823     93.2401
  1448.0000   -142.5663     15.0557     15.1945     19.9034    101.8197
  1448.2500   -142.5195     14.6379     14.3899     15.2196    107.8919
  1448.5000   -142.4856     14.2039     13.7760     13.4354    112.3265
  1448.7500   -142.4709     13.7548     13.3126     13.0408    116.0476
  1449.0000   -142.4909     13.3019     12.9566     13.2375    120.1404
  1449.2500   -142.5577     12.8614     12.6715     13.6397    125.3998
  1449.5000   -142.6658     12.4501     12.4321     14.0606    131.5144
  1449.7500   -142.7903     12.0820     12.2229     14.4198    136.9580
  1450.0000   -142.9008     11.7659     12.0334     14.6849    139.8931
  1450.2500   -142.9749     11.5027     11.8539     14.8243    139.2698
  1450.5000   -143.0016     11.2848     11.6736     14.7987    135.4485
  1450.7500   -142.9783     11.0973     11.4823     14.5979    130.1486
  1451.0000   -142.9086     10.9216     11.2716     14.2759    125.5344
  1451.2500   -142.7990     10.7394     11.0353     13.9316    122.8551
  1451.5000   -142.6551     10.5383     10.7684     13.6407    121.9782
  1451.7500   -142.4818     10.3142     10.4673     13.4028    122.3103
  1452.0000   -142.2904     10.0720     10.1317     13.1556    123.5716
  1452.2500   -142.1005      9.8239      9.7673     12.8401    125.2526
  1452.5000   -141.9325      9.5870      9.3860     12.4506    126.0727
  1452.7500   -141.8005      9.3802      9.0040     12.0256    124.7830
  1453.0000   -141.7130      9.2216      8.6392     11.5973    121.2200
  1453.2500   -141.6791      9.1246      8.3105     11.1551    116.1781
  1453.5000   -141.7121      9.0966      8.0384     10.6634    110.6499
  1453.7500   -141.8241      9.1383      7.8452     10.1223    105.5028
  1454.0000   -142.0188      9.2455      7.7540      9.6357    101.4910
  1454.2500   -142.2905      9.4098      7.7871      9.4657     98.9802
  1454.5000   -142.6298      9.6209      7.9640     10.0540     97.4061
  1454.7500   -143.0279      9.8672      8.2994     11.9327     95.2335
  1455.0000   -143.4751     10.1376      8.8008     15.4335     90.9853
  1455.2500   -143.9568     10.4229      9.4662     20.3846     84.5728
  1455.5000   -144.4529     10.7167     10.2803     26.3751     77.4072
  1455.7500   -144.9420     11.0148     11.2147     33.7843     71.0854
  1456.0000   -145.4030     11.3129     12.2297     44.4210     66.2017
  1456.2500   -145.8110     11.6047     13.2755     60.1302     62.4816
  1456.5000   -146.1334     11.8800     14.2858     79.7979     59.7032
  1456.7500   -146.3366     12.1244     15.1621     97.8409     58.2163
  1457.0000   -146.4040     12.3201     15.7673    106.6800     58.7678
  1457.2500   -146.3499     12.4488     15.9582    101.7642     62.1089
  1457.5000   -146.2204     12.4984     15.6598     84.8137     68.6436
  1457.7500   -146.0780     12.4679     14.9283     62.4876     78.0289
  1458.0000   -145.9774     12.3699     13.9320     41.9387     88.9263
  1458.2500   -145.9462     12.2256     12.8670     27.1426     99.3231
  1458.5000   -145.9817     12.0586     11.8845     18.3344    107.2776
  1458.7500   -146.0661     11.8894     11.0696     13.7517    111.4958
