~Version Information
VERS.                      2.0: CWLS Log ASCII Standard - VERSION 2.0
WRAP.                       NO: One line per depth step
~Well Information Block
STRT.FT               846.6000: 
STOP.FT              2609.1000: 
STEP.FT                 0.1000: 
NULL.                -999.2500: 
COMP.          Petrogulf Corporation: COMPANY
WELL.            Lavedure 7-44: WELL
FLD.           Purgatoire River: FIELD
LOC.           969' FSL & 501' FEL: LOCATION
PROV.                 Colorado: PROVINCE
CNTY.               Las Animas: COUNTRY
SRVC.                Patterson: SERVICE COMPANY
DATE.          Sun Dec 07 14:55:17 2003: LOG DATE
UWI.                          : UNIQUE WELL ID
~Curve Information Block
DEPT.FT            0 000 00 00: Depth
DCAL.in                       : CDL Caliper
RHOB.g/cc                     : CDL Bulk Density
RHOC.g/cc                     : CDL Density Correction
DPOR.pu                       : CDL Density Porosity
GR.GAPI                       : Gamma Ray
NPOR.pu                       : Neutron Porosity
~Parameter Information Block
~A  Depth       DCAL        RHOB        RHOC        DPOR         GR         NPOR    
# ...
  1211.4000      8.3935      2.5538      0.0692      5.8314    124.4910     27.0273
  1211.5000      8.4319      2.5525      0.0649      5.9104    124.4135     27.1790
  1211.6000      8.4319      2.5504      0.0610      6.0347    124.3436     27.3303
  1211.7000      8.4319      2.5477      0.0577      6.1989    124.2476     27.4702
  1211.8000      8.4489      2.5444      0.0551      6.3986    124.1027     27.5902
  1211.9000      8.4489      2.5406      0.0533      6.6315    123.8975     27.6854
  1212.0000      8.4534      2.5362      0.0522      6.8982    123.6321     27.7554
  1212.1000      8.4534      2.5312      0.0520      7.2028    123.3201     27.8039
  1212.2000      8.4534      2.5254      0.0525      7.5535    122.9878     27.8381
  1212.3000      8.4619      2.5186      0.0535      7.9627    122.6687     27.8679
  1212.4000      8.4619      2.5106      0.0547      8.4476    122.4035     27.9041
  1212.5000      8.4735      2.5010      0.0559      9.0290    122.2318     27.9581
  1212.6000      8.4735      2.4894      0.0565      9.7311    122.1903     28.0399
  1212.7000      8.4735      2.4754      0.0562     10.5800    122.3028     28.1581
  1212.8000      8.4838      2.4586      0.0545     11.6022    122.5811     28.3191
  1212.9000      8.4838      2.4384      0.0511     12.8222    123.0213     28.5264
  1213.0000      8.4913      2.4147      0.0456     14.2608    123.6015     28.7811
  1213.1000      8.4913      2.3871      0.0379     15.9323    124.2815     29.0815
  1213.2000      8.4913      2.3556      0.0280     17.8427    125.0078     29.4238
  1213.3000      8.4904      2.3202      0.0162     19.9879    125.7110     29.8014
  1213.4000      8.4904      2.2812      0.0029     22.3530    126.3134     30.2064
  1213.5000      8.4936      2.2390     -0.0111     24.9118    126.7286     30.6292
  1213.6000      8.4936      2.1941     -0.0247     27.6277    126.8664     31.0588
  1213.7000      8.4936      2.1475     -0.0369     30.4559    126.6376     31.4833
  1213.8000      8.4847      2.0998     -0.0465     33.3460    125.9591     31.8901
  1213.9000      8.4847      2.0520     -0.0527     36.2451    124.7589     32.2662
  1214.0000      8.4562      2.0048     -0.0549     39.1018    122.9846     32.5998
  1214.1000      8.4562      1.9591     -0.0529     41.8698    120.6068     32.8800
  1214.2000      8.4562      1.9156     -0.0469     44.5110    117.6283     33.0994
  1214.3000      8.4407      1.8745     -0.0377     46.9980    114.0826     33.2542
  1214.4000      8.4407      1.8363     -0.0261     49.3156    110.0339     33.3458
  1214.5000      8.4509      1.8009     -0.0133     51.4609    105.5708     33.3812
  1214.6000      8.4509      1.7682     -0.0006     53.4424    100.8027     33.3721
  1214.7000      8.4509      1.7379      0.0109     55.2782     95.8469     33.3343
  1214.8000      8.4963      1.7096      0.0201     56.9932     90.8215     33.2852
  1214.9000      8.4963      1.6828      0.0262     58.6156     85.8333     33.2419
  1215.0000      8.5791      1.6571      0.0288     60.1740     80.9684     33.2190
  1215.1000      8.5791      1.6320      0.0277     61.6941     76.2872     33.2266
  1215.2000      8.5791      1.6073      0.0233     63.1961     71.8223     33.2695
  1215.3000      8.6846      1.5826      0.0163     64.6932     67.5779     33.3469
  1215.4000      8.6846      1.5579      0.0075     66.1903     63.5361     33.4535
  1215.5000      8.7649      1.5332     -0.0019     67.6848     59.6675     33.5810
  1215.6000      8.7649      1.5087     -0.0111     69.1673     55.9374     33.7195
  1215.7000      8.7649      1.4847     -0.0190     70.6232     52.3166     33.8593
  1215.8000      8.7819      1.4614     -0.0252     72.0349     48.7878     33.9924
  1215.9000      8.7819      1.4392     -0.0294     73.3841     45.3504     34.1130
  1216.0000      8.7897      1.4182     -0.0318     74.6535     42.0168     34.2183
  1216.1000      8.7897      1.3988     -0.0325     75.8288     38.8143     34.3077
  1216.2000      8.7897      1.3812     -0.0321     76.8994     35.7755     34.3828
  1216.3000      8.7896      1.3653     -0.0310     77.8593     32.9336     34.4469
  1216.4000      8.7896      1.3513     -0.0296     78.7067     30.3195     34.5040
  1216.5000      8.7398      1.3392     -0.0280     79.4436     27.9545     34.5587
  1216.6000      8.7398      1.3288     -0.0266     80.0747     25.8515     34.6155
  1216.7000      8.7398      1.3200     -0.0253     80.6063     24.0119     34.6781
  1216.8000      8.6430      1.3128     -0.0241     81.0449     22.4274     34.7493
  1216.9000      8.6430      1.3070     -0.0231     81.3964     21.0802     34.8300
  1217.0000      8.5436      1.3025     -0.0221     81.6648     19.9440     34.9197
  1217.1000      8.5436      1.2994     -0.0212     81.8516     18.9885     35.0160
  1217.2000      8.5436      1.2977     -0.0203     81.9552     18.1835     35.1146
  1217.3000      8.4671      1.2975     -0.0194     81.9714     17.5006     35.2103
  1217.4000      8.4671      1.2988     -0.0186     81.8930     16.9192     35.2974
  1217.5000      8.4602      1.3018     -0.0177     81.7107     16.4277     35.3700
  1217.6000      8.4602      1.3067     -0.0166     81.4144     16.0291     35.4232
  1217.7000      8.4602      1.3136     -0.0151     80.9939     15.7377     35.4528
  1217.8000      8.5429      1.3227     -0.0130     80.4410     15.5767     35.4555
  1217.9000      8.5429      1.3341     -0.0101     79.7509     15.5765     35.4289
  1218.0000      8.6559      1.3478     -0.0062     78.9240     15.7693     35.3716
  1218.1000      8.6559      1.3635     -0.0012     77.9677     16.1797     35.2829
  1218.2000      8.6559      1.3812      0.0047     76.8974     16.8239     35.1637
  1218.3000      8.7322      1.4003      0.0114     75.7372     17.7016     35.0169
  1218.4000      8.7322      1.4204      0.0185     74.5202     18.7966     34.8478
  1218.5000      8.8446      1.4408      0.0254     73.2878     20.0762     34.6646
  1218.6000      8.8446      1.4606      0.0314     72.0871     21.4959     34.4777
  1218.7000      8.8446      1.4790      0.0358     70.9694     23.0003     34.2992
  1218.8000      8.9947      1.4952      0.0379     69.9857     24.5320     34.1413
  1218.9000      8.9947      1.5085      0.0371     69.1839     26.0323     34.0154
  1219.0000      9.0897      1.5180      0.0330     68.6044     27.4472     33.9296
  1219.1000      9.0897      1.5234      0.0256     68.2767     28.7271     33.8888
  1219.2000      9.0897      1.5244      0.0154     68.2169     29.8273     33.8941
  1219.3000      9.1017      1.5210      0.0034     68.4265     30.7068     33.9426
  1219.4000      9.1017      1.5133     -0.0092     68.8921     31.3286     34.0294
  1219.5000      9.0135      1.5018     -0.0211     69.5863     31.6580     34.1473
  1219.6000      9.0135      1.4872     -0.0310     70.4713     31.6652     34.2892
  1219.7000      9.0135      1.4702     -0.0383     71.5013     31.3279     34.4481
  1219.8000      8.8388      1.4517     -0.0427     72.6268     30.6362     34.6181
  1219.9000      8.8388      1.4323     -0.0445     73.7986     29.5960     34.7940
  1220.0000      8.6929      1.4130     -0.0442     74.9713     28.2326     34.9717
  1220.1000      8.6929      1.3943     -0.0423     76.1056     26.5928     35.1476
  1220.2000      8.6929      1.3767     -0.0396     77.1707     24.7449     35.3191
  1220.3000      8.6568      1.3606     -0.0364     78.1446     22.7746     35.4839
  1220.4000      8.6568      1.3463     -0.0332     79.0147     20.7794     35.6405
  1220.5000      8.6854      1.3337     -0.0300     79.7762     18.8615     35.7885
  1220.6000      8.6854      1.3229     -0.0269     80.4315     17.1175     35.9281
  1220.7000      8.6854      1.3137     -0.0237     80.9887     15.6307     36.0605
  1220.8000      8.7093      1.3059     -0.0204     81.4594     14.4627     36.1868
  1220.9000      8.7093      1.2993     -0.0169     81.8580     13.6486     36.3076
