~Version Information
VERS.                      2.0: CWLS Log ASCII Standard - VERSION 2.0
WRAP.                       NO: One line per depth step
~Well Information Block
STRT.FT               706.1000: 
STOP.FT              2370.0000: 
STEP.FT                 0.1000: 
NULL.                -999.2500: 
COMP.          Petrogulf Corporation: COMPANY
WELL.             State 16-12V: WELL
FLD.           Purgatorie River: FIELD
LOC.           1992' FNL & 1237' FWL: LOCATION
CNTY.               Las Animas: COUNTY
SRVC.                         : SERVICE COMPANY
DATE.          Thu Aug 04 09:34:25 2005: LOG DATE
UWI.           05-071-08016-00: UNIQUE WELL ID
STAT.                 Colorado: STATE
~Curve Information Block
DEPT.FT            0 000 00 00: Depth
DCAL.in                       : CDL Caliper
DPOR.pu                       : CDL Density Porosity
GR.GAPI                       : Gamma Ray
NPOR.pu                       : Neutron Porosity
RHOB.g/cc                     : CDL Bulk Density
RHOC.g/cc                     : CDL Density Correction
~Parameter Information Block
~A  Depth       DCAL        DPOR         GR         NPOR        RHOB        RHOC    
# ...
  1042.1000      8.1525     -7.4532    141.6467     28.2440      2.7730      0.2297
  1042.2000      8.1525    -10.2800    145.9740     28.4408      2.8196      0.2498
  1042.3000      8.1521    -12.5028    151.2165     28.2141      2.8563      0.2493
  1042.4000      8.1521    -13.8323    152.3935     27.7733      2.8782      0.3175
  1042.5000      8.1864    -13.2138    147.7417     27.7315      2.8680      0.2085
  1042.6000      8.1864    -10.4737    140.6447     28.0926      2.8228      0.2093
  1042.7000      8.1864     -6.5682    135.8787     28.3293      2.7584      0.1271
  1042.8000      8.1962     -2.7089    136.4509     28.4018      2.6947      0.1223
  1042.9000      8.1962      0.6038    141.6518     28.5583      2.6400      0.1027
  1043.0000      8.1987      3.3279    146.5970     28.8302      2.5951      0.0739
  1043.1000      8.1987      5.3055    145.8172     28.9955      2.5625      0.0972
  1043.2000      8.1987      6.4598    139.6380     28.9912      2.5434      0.1377
  1043.3000      8.2126      6.6570    134.5619     28.9964      2.5402      0.1050
  1043.4000      8.2126      5.4752    135.5437     28.9785      2.5597      0.1082
  1043.5000      8.2205      3.2019    140.4393     28.8566      2.5972      0.1231
  1043.6000      8.2205      1.3361    145.2327     28.6758      2.6280      0.1828
  1043.7000      8.2205      1.0457    150.0366     28.3915      2.6327      0.1697
  1043.8000      8.2295      1.9048    154.0373     27.9777      2.6186      0.1227
  1043.9000      8.2295      2.7907    153.8926     27.6719      2.6040      0.1167
  1044.0000      8.2464      3.0498    150.2540     27.6737      2.5997      0.0383
  1044.1000      8.2464      2.4875    147.4789     28.0150      2.6090      0.0401
  1044.2000      8.2464      1.1918    146.6955     28.5371      2.6303      0.0435
  1044.3000      8.2706     -0.5577    144.8578     28.8693      2.6592      0.0805
  1044.4000      8.2706     -2.6461    141.1154     28.9523      2.6937      0.0391
  1044.5000      8.2839     -4.9260    138.6800     28.8513      2.7313      0.1069
  1044.6000      8.2839     -6.1524    137.9859     28.6669      2.7515      0.1710
  1044.7000      8.2839     -5.6900    137.5899     28.7977      2.7439      0.0678
  1044.8000      8.2853     -4.7455    137.4837     29.1876      2.7283      0.0764
  1044.9000      8.2853     -3.7752    138.2935     29.2311      2.7123      0.0649
  1045.0000      8.2855     -2.3063    141.0210     28.7296      2.6881      0.0258
  1045.1000      8.2855     -0.7277    143.3847     28.0383      2.6620      0.0356
  1045.2000      8.2855      0.0114    143.2047     27.7288      2.6498     -0.0169
  1045.3000      8.2868     -0.2044    142.5538     27.9476      2.6534      0.0418
  1045.4000      8.2868     -0.1512    141.6807     28.2236      2.6525      0.0914
  1045.5000      8.2868      0.8924    139.0054     28.2861      2.6353      0.0412
  1045.6000      8.2868      2.3333    135.8959     28.2941      2.6115      0.0777
  1045.7000      8.2868      3.4904    135.1897     28.4905      2.5924      0.0645
  1045.8000      8.2859      3.4530    137.5167     28.8442      2.5930      0.0795
  1045.9000      8.2859      1.7673    141.2590     28.9515      2.6208      0.1284
  1046.0000      8.2881     -0.5351    142.9655     28.7401      2.6588      0.1301
  1046.1000      8.2881     -1.7983    140.0942     28.6965      2.6797      0.1561
  1046.2000      8.2881     -1.3081    135.3066     29.0815      2.6716      0.0941
  1046.3000      8.2847      0.2506    131.6906     29.4981      2.6459      0.1190
  1046.4000      8.2847      1.8630    129.1632     29.7086      2.6193      0.0863
  1046.5000      8.2663      2.4724    128.1574     29.9219      2.6092      0.0710
  1046.6000      8.2663      1.1276    129.7888     30.0544      2.6314      0.0685
  1046.7000      8.2663     -2.8497    133.1996     30.0309      2.6970      0.0762
  1046.8000      8.2657     -9.5535    137.2923     30.1040      2.8076      0.1316
  1046.9000      8.2657    -17.4777    142.2318     30.3288      2.9384      0.2392
  1047.0000      8.2669    -24.3766    146.6079     30.6679      3.0522      0.2957
  1047.1000      8.2669    -28.7349    148.4238     31.0618      3.1241      0.3560
  1047.2000      8.2669    -29.7925    147.8789     31.1217      3.1416      0.3549
  1047.3000      8.2388    -28.2791    144.7663     30.6434      3.1166      0.2727
  1047.4000      8.2388    -26.0379    139.8329     30.0293      3.0796      0.1758
  1047.5000      8.1809    -23.8281    137.2260     29.7239      3.0432      0.1612
  1047.6000      8.1809    -20.8952    140.2959     29.6729      2.9948      0.1245
  1047.7000      8.1809    -17.0967    144.7299     29.6224      2.9321      0.0277
  1047.8000      8.1822    -13.5740    143.9155     29.5013      2.8740     -0.0177
  1047.9000      8.1822    -10.6474    141.2421     29.2714      2.8257     -0.0253
  1048.0000      8.1844     -7.8273    142.6394     28.9562      2.7792     -0.0276
  1048.1000      8.1844     -5.1591    145.4898     28.7073      2.7351      0.0167
  1048.2000      8.1844     -2.0716    146.3787     28.5256      2.6842      0.0832
  1048.3000      8.2004      1.9422    147.2983     28.2973      2.6180      0.0168
  1048.4000      8.2004      5.3780    150.1156     28.0153      2.5613      0.0294
  1048.5000      8.1944      6.8553    152.2011     27.8580      2.5369      0.0699
  1048.6000      8.1944      7.2340    151.5589     27.9811      2.5306      0.1037
  1048.7000      8.1944      7.4514    150.5073     28.4019      2.5271      0.0683
  1048.8000      8.1772      6.9048    151.5926     29.0842      2.5361      0.0759
  1048.9000      8.1772      5.3373    154.0259     29.8071      2.5619      0.1506
  1049.0000      8.1395      3.2528    155.6763     30.5204      2.5963      0.1197
  1049.1000      8.1395      0.9048    155.7639     31.2919      2.6351      0.1244
  1049.2000      8.1395     -0.8931    154.5041     31.9113      2.6647      0.1505
  1049.3000      8.0452     -1.2972    151.5431     32.1936      2.6714      0.1550
  1049.4000      8.0452     -0.8602    148.1407     32.3430      2.6642      0.1050
  1049.5000      8.0277     -0.8456    146.8669     32.5930      2.6640      0.1067
  1049.6000      8.0277     -1.8482    145.7837     32.6879      2.6805      0.0833
  1049.7000      8.0277     -3.5407    140.5521     32.4255      2.7084      0.0786
  1049.8000      8.0258     -5.0598    133.5971     32.0391      2.7335      0.0535
  1049.9000      8.0258     -5.6103    130.9565     31.8246      2.7426      0.0546
  1050.0000      8.0146     -5.4030    132.5344     31.7259      2.7391      0.0189
  1050.1000      8.0146     -5.4626    135.8169     31.4882      2.7401      0.0402
  1050.2000      8.0146     -6.1942    140.7808     31.0629      2.7522      0.0226
  1050.3000      7.9902     -7.6508    145.1189     30.5891      2.7762     -0.0033
  1050.4000      7.9902     -9.9654    144.9691     30.2878      2.8144      0.0026
  1050.5000      8.0008    -12.1098    141.9996     30.3464      2.8498      0.0951
  1050.6000      8.0008    -12.1210    140.3814     30.4910      2.8500      0.0869
  1050.7000      8.0008     -9.6928    140.3021     30.3507      2.8099      0.0504
  1050.8000      8.0231     -6.0365    140.1534     30.0618      2.7496      0.0486
  1050.9000      8.0231     -2.0142    140.4483     29.8712      2.6832      0.0121
  1051.0000      8.0633      1.1914    141.9544     29.6976      2.6303     -0.1088
  1051.1000      8.0633      2.3743    144.4309     29.4620      2.6108     -0.1211
  1051.2000      8.0633      2.2035    147.0908     29.4480      2.6136     -0.0551
  1051.3000      8.0710      2.0771    149.2492     29.7213      2.6157      0.0170
  1051.4000      8.0710      2.3731    149.7724     29.8508      2.6108      0.0749
  1051.5000      8.0179      3.2223    146.7517     29.6970      2.5968      0.0987
  1051.6000      8.0179      4.6353    143.0309     29.5382      2.5735      0.0515
