~Version Information
VERS.                      2.0: CWLS Log ASCII Standard - VERSION 2.0
WRAP.                       NO: One line per depth step
~Well Information Block
STRT.FT                -7.0000: 
STOP.FT              2736.0000: 
STEP.FT                 0.2500: 
NULL.                -999.2500: 
COMP.          Pioneer Natural Resources: COMPANY
WELL.              Getem 21-23: WELL
FLD.           Purgatorie River: FIELD
LOC.           2623' FWL & 790' FNL----: LOCATION
PROV.                       CO: PROVINCE
CNTY.               Las Animas: COUNTRY
SRVC.          Patterson Wireline: SERVICE COMPANY
DATE.          Mon Jun 27 09:57:55 2005: LOG DATE
UWI.           05 071 08411 00: UNIQUE WELL ID
~Curve Information Block
DEPT.FT            0 000 00 00: Depth
CCL.                          : Casing Collar Locator
TT3.usec                      : CBL 3' Travel Time
AMP3.mV                       : CBL 3' Amplitude
GR.GAPI                       : Gamma Ray
~Parameter Information Block
~A  Depth       CCL         TT3         AMP3         GR     
# ...
   361.5000      0.0000    797.4570      6.3094     56.9016
   361.7500      0.0000    799.6174      6.3447     57.4876
   362.0000      0.0000    806.9918      6.3416     59.3072
   362.2500      0.0000    817.4677      6.3297     61.1914
   362.5000      0.0000    829.0186      6.3413     61.4152
   362.7500      2.0000    840.8748      6.3611     59.1168
   363.0000      2.0000    853.9691      6.3613     55.0009
   363.2500      0.0000    869.7880      6.3564     50.8626
   363.5000      0.0000    887.6651      6.4138     48.3285
   363.7500      0.0000    903.6364      6.5923     47.8031
   364.0000      0.0000    913.4717      6.8559     48.5419
   364.2500      0.0000    916.1921      7.0895     49.6375
   364.5000      0.0000    912.7037      7.2368     50.7347
   364.7500      0.0000    902.3824      7.3701     51.8070
   365.0000      0.0000    884.0106      7.5787     52.6922
   365.2500      0.0000    859.1021      7.8478     53.2511
   365.5000      0.0000    831.5859      8.0935     53.7722
   365.7500      0.0000    805.0201      8.2677     54.7130
   366.0000      0.0000    781.8368      8.3854     56.0125
   366.2500      0.0000    763.9689      8.4768     57.0213
   366.5000      0.0000    752.3651      8.5500     57.1240
   366.7500      0.0000    746.2521      8.5946     56.1632
   367.0000      0.0000    743.7086      8.6017     54.4025
   367.2500      0.0000    742.9736      8.5714     52.3806
   367.5000      0.0000    743.2822      8.5066     50.6764
   367.7500      0.0000    745.1612      8.4111     49.5673
   368.0000      0.0000    750.4265      8.2972     49.0809
   368.2500      0.0000    761.6288      8.1865     49.3969
   368.5000      0.0000    780.3834      8.0980     50.7274
   368.7500      0.0000    805.2038      8.0369     52.6189
   369.0000      0.0000    830.9799      7.9998     53.9073
   369.2500      0.0000    851.2992      7.9867     53.7297
   369.5000      0.0000    861.6388      8.0016     52.3808
   369.7500      0.0000    860.7580      8.0384     50.9820
   370.0000      0.0000    850.3992      8.0741     50.4817
   370.2500      0.0000    834.8258      8.0830     51.0795
   370.5000      0.0000    819.9045      8.0555     52.4950
   370.7500      0.0000    810.7043      8.0044     54.5963
   371.0000      0.0000    808.7588      7.9553     57.4337
   371.2500      0.0000    811.6262      7.9332     60.5762
   371.5000      0.0000    815.4645      7.9535     62.8650
   371.7500      0.0000    818.2029      8.0206     63.1614
   372.0000      0.0000    820.3513      8.1316     61.2771
   372.2500      0.0000    823.2463      8.2776     58.2469
   372.5000      0.0000    827.3401      8.4461     55.7758
   372.7500      0.0000    832.2674      8.6253     55.1038
   373.0000      0.0000    837.6533      8.8087     56.1195
   373.2500      0.0000    843.1204      8.9904     57.5865
   373.5000      0.0000    847.6507      9.1585     58.2168
   373.7500      0.0000    849.2401      9.2953     57.5457
   374.0000      0.0000    845.3666      9.3889     55.9624
   374.2500      0.0000    834.7189      9.4428     54.0807
   374.5000      0.0000    819.2476      9.4712     52.2200
   374.7500      0.0000    803.6210      9.4820     50.4840
   375.0000      0.0000    791.3581      9.4682     49.1068
   375.2500      0.0000    782.2537      9.4174     48.7068
   375.5000      0.0000    774.6799      9.3302     50.4022
   375.7500      0.0000    768.9294      9.2279     55.4057
   376.0000      0.0000    766.3920      9.1394     63.8520
   376.2500      0.0000    766.4336      9.0811     73.8710
   376.5000      0.0000    766.1329      9.0497     82.2968
   376.7500      0.0000    763.1698      9.0296     86.7079
   377.0000      0.0000    757.9940      9.0010     86.8628
   377.2500      0.0000    753.1093      8.9431     84.3492
   377.5000      0.0000    750.8403      8.8419     81.3276
   377.7500      0.0000    751.8090      8.7004     79.6636
   378.0000      0.0000    754.8274      8.5399     80.4426
   378.2500      0.0000    757.7692      8.3918     83.5745
   378.5000      0.0000    758.7695      8.2843     87.9650
   378.7500      0.0000    757.1581      8.2356     92.4105
   379.0000      0.0000    753.5938      8.2510     96.3372
   379.2500      0.0000    749.1928      8.3229     99.8617
   379.5000      0.0000    743.9841      8.4293    103.5005
   379.7500      0.0000    735.6820      8.5387    107.6766
   380.0000      0.0000    720.2628      8.6239    112.1394
   380.2500      0.0000    695.6600      8.6738    115.9518
   380.5000      0.0000    666.9584      8.6934    118.2896
   380.7500      0.0000    646.8604      8.6944    119.1870
   381.0000      0.0000    647.1437      8.6888    119.3634
   381.2500      0.0000    668.2544      8.6873    119.4117
   381.5000      0.0000    699.1932      8.6982    119.1970
   381.7500      0.0000    727.4658      8.7234    117.9767
   382.0000      0.0000    746.8899      8.7583    115.1698
   382.2500      0.0000    757.1243      8.7965    111.2396
   382.5000      0.0000    760.1729      8.8322    107.7735
   382.7500      0.0000    759.0208      8.8592    106.3206
   383.0000      0.0000    757.3597      8.8710    106.8291
   383.2500      0.0000    758.2177      8.8638    107.4737
   383.5000      0.0000    762.2429      8.8398    106.3302
   383.7500      0.0000    767.3235      8.8040    103.0959
   384.0000      0.0000    770.0573      8.7545     99.0951
   384.2500      0.0000    768.2362      8.6773     96.0608
   384.5000      0.0000    762.7832      8.5567     95.1457
   384.7500      0.0000    757.6256      8.3953     96.5037
   385.0000      0.0000    757.4412      8.2169     98.9844
   385.2500      0.0000    765.2129      8.0451    100.2793
   385.5000      0.0000    781.3217      7.8853     98.2387
   385.7500      0.0000    803.6340      7.7347     92.5313
   386.0000      0.0000    827.7916      7.6071     84.7414
   386.2500      0.0000    848.6298      7.5364     76.8908
   386.5000      0.0000    862.8001      7.5519     70.2286
   386.7500      0.0000    870.2437      7.6499     65.0855
   387.0000      0.0000    873.0697      7.7897     61.1766
   387.2500      0.0000    873.3530      7.9177     58.1382
   387.5000      0.0000    871.7903      8.0003     56.1775
   387.7500      0.0000    867.5149      8.0411     56.1303
   388.0000      0.0000    858.7700      8.0677     58.6905
   388.2500      0.0000    844.2770      8.1040     63.6240
   388.5000      0.0000    824.6413      8.1549     69.6055
   388.7500      0.0000    802.5226      8.2120     74.7744
   389.0000      0.0000    781.2744      8.2663     77.7210
   389.2500      0.0000    763.3694      8.3134     78.1810
   389.5000      0.0000    749.9295      8.3484     76.8021
   389.7500      0.0000    741.1637      8.3625     74.3072
   390.0000      0.0000    736.6348      8.3497     70.9095
   390.2500      0.0000    735.0942      8.3175     66.4793
   390.5000      0.0000    734.7856      8.2856     61.1867
   390.7500      0.0000    734.5488      8.2691     55.8911
   391.0000      0.0000    734.3680      8.2656     51.9061
   391.2500      0.0000    734.5264      8.2650     50.3507
   391.5000      0.0000    734.8015      8.2651     51.5401
   391.7500      0.0000    734.9896      8.2745     54.6643
   392.0000      0.0000    735.5661      8.3003     57.9345
   392.2500      0.0000    737.0574      8.3379     59.5146
   392.5000      0.0000    739.1449      8.3770     58.8875
   392.7500      0.0000    741.2163      8.4102     57.2619
   393.0000      0.0000    744.1097      8.4323     56.2668
   393.2500      0.0000    751.0695      8.4343     56.3986
   393.5000      0.0000    766.0584      8.4046     56.9876
   393.7500      0.0000    789.9169      8.3366     57.2954
   394.0000      0.0000    818.1047      8.2320     57.1211
   394.2500      0.0000    843.2761      8.0956     56.5679
   394.5000      0.0000    860.4266      7.9328     55.7429
   394.7500      0.0000    869.2744      7.7538     54.7616
