~Version Information
VERS.                      2.0: CWLS Log ASCII Standard - VERSION 2.0
WRAP.                       NO: One line per depth step
~Well Information Block
STRT.FT                -9.5000: 
STOP.FT              1862.5000: 
STEP.FT                 0.2500: 
NULL.                -999.2500: 
COMP.          Petrogulf Corporation: COMPANY
WELL.             State 16-34R: WELL
FLD.           Purgatoire River: FIELD
LOC.           1095' FSL & 1498' FEL--: LOCATION
CNTY.               Las Animas: COUNTY
SRVC.                         : SERVICE COMPANY
DATE.          Mon May 10 14:56:57 2004: LOG DATE
UWI.                          : UNIQUE WELL ID
STAT.                       CO: STATE
~Curve Information Block
DEPT.FT            0 000 00 00: Depth
GR.GAPI                       : Gamma Ray
CCL.                          : Casing Collar Locator
TT3.usec                      : CBL 3' Travel Time
AMP3.mV                       : CBL 3' Amplitude
~Parameter Information Block
~A  Depth        GR         CCL         TT3         AMP3    
    -9.5000   -999.2500   -999.2500   -999.2500   -999.2500
    -9.2500   -999.2500   -999.2500   -999.2500   -999.2500
    -9.0000   -999.2500   -999.2500   -999.2500   -999.2500
    -8.7500   -999.2500   -999.2500   -999.2500   -999.2500
    -8.5000   -999.2500   -999.2500   -999.2500   -999.2500
    -8.2500   -999.2500   -999.2500   1452.0000      1.9739
    -8.0000   -999.2500   -999.2500   1452.0000      1.9569
    -7.7500   -999.2500   -999.2500   1452.0000      1.9646
    -7.5000   -999.2500   -999.2500   1452.0000      1.9846
    -7.2500   -999.2500   -999.2500   1452.0000      2.0099
    -7.0000   -999.2500   -999.2500   1452.0000      2.0445
    -6.7500   -999.2500   -999.2500   1452.0000      2.0855
    -6.5000   -999.2500   -999.2500   1452.0000      2.1250
    -6.2500   -999.2500   -999.2500   1452.0000      2.1716
    -6.0000   -999.2500   -999.2500   1452.0000      2.2283
    -5.7500   -999.2500   -999.2500   1452.0000      2.2766
    -5.5000   -999.2500   -999.2500   1452.0000      2.3061
    -5.2500   -999.2500   -999.2500   1452.0000      2.2987
    -5.0000   -999.2500   -999.2500   1452.0000      2.2234
    -4.7500   -999.2500   -999.2500   1452.0000      2.1121
    -4.5000   -999.2500   -999.2500   1452.0000      2.1346
    -4.2500   -999.2500   -999.2500   1452.0000      2.5313
    -4.0000   -999.2500   -999.2500   1452.0000      3.2409
    -3.7500   -999.2500   -999.2500   1452.0000      3.6882
    -3.5000   -999.2500   -999.2500   1452.0000      3.4404
    -3.2500   -999.2500   -999.2500   1452.0000      2.8123
    -3.0000   -999.2500   -999.2500   1452.0000      2.3359
    -2.7500   -999.2500   -999.2500   1452.0000      2.1436
    -2.5000   -999.2500      0.0000   1452.0000      2.1061
    -2.2500   -999.2500      0.0000   1452.0000      2.1106
    -2.0000   -999.2500      0.0000   1452.0000      2.1058
    -1.7500   -999.2500      0.0000   1452.0000      2.0900
    -1.5000   -999.2500      0.0000   1452.0000      2.0920
    -1.2500   -999.2500      0.0000   1452.0000      2.1293
    -1.0000   -999.2500      0.0000   1452.0000      2.1974
    -0.7500   -999.2500      0.0000   1452.0000      2.2913
    -0.5000   -999.2500      0.0000   1452.0000      2.4923
    -0.2500   -999.2500      0.0000   1451.8970      3.0418
     0.0000   -999.2500      0.0000   1450.7074      4.2271
     0.2500   -999.2500      0.0000   1441.9043      6.4482
     0.5000   -999.2500      0.0000   1400.1049     10.7782
     0.7500   -999.2500      0.0000   1272.6886     18.6637
     1.0000   -999.2500      0.0000   1023.1716     29.9579
     1.2500   -999.2500      0.0000    708.9283     41.8611
     1.5000   -999.2500      0.0000    453.9727     50.9955
     1.7500   -999.2500      0.0000    320.3475     56.1962
     2.0000   -999.2500      0.0000    274.9056     58.4687
     2.2500     69.9963      0.0000    264.8249     59.1507
     2.5000     69.8408      0.0000    263.3733     59.1445
     2.7500     67.9819      0.0000    263.2043     59.1227
     3.0000     64.1591      0.0000    263.0823     59.4309
     3.2500     59.2723      0.0000    262.9168     59.9415
     3.5000     54.5446      0.0000    262.7775     60.3550
     3.7500     50.4592      0.0000    262.7195     60.5482
     4.0000     46.7060      0.0000    262.7180     60.7034
     4.2500     43.1643      0.0000    262.6703     61.0737
     4.5000     40.4633      0.0000    262.5787     61.5113
     4.7500     39.3745      0.0000    262.5609     61.6759
     5.0000     40.0742      0.0000    262.6436     61.6716
     5.2500     42.1703      0.0000    262.8805     61.7990
     5.5000     45.0517      0.0000    263.8216     61.8571
     5.7500     47.9480      0.0000    266.3909     61.2810
     6.0000     49.9056      0.0000    270.1252     60.1068
     6.2500     50.1544      0.0000    272.0858     59.3144
     6.5000     48.7379      0.0000    270.2198     59.6658
     6.7500     46.6976      0.0000    266.4652     60.7836
     7.0000     45.3838      0.0000    263.7298     61.8897
     7.2500     45.4385      0.0000    262.5833     62.6682
     7.5000     46.4870      0.0000    262.2122     63.1729
     7.7500     47.7388      0.0000    262.0353     63.5178
     8.0000     48.6651      0.0000    261.9117     63.7548
     8.2500     49.0973      0.0000    261.8757     63.8179
     8.5000     48.9634      0.0000    261.9611     63.6259
     8.7500     48.1620      0.0000    262.0930     63.3327
     9.0000     46.7901      0.0000    262.1434     63.2267
     9.2500     45.3860      0.0000    262.1096     63.3007
     9.5000     44.6167      0.0000    262.1160     63.2579
     9.7500     44.5978      0.0000    262.2347     62.9365
    10.0000     44.8490      0.0000    262.3740     62.5434
    10.2500     45.0144      0.0000    262.3945     62.4262
    10.5000     45.2568      0.0000    262.2844     62.6771
    10.7500     45.8534      0.0000    262.1079     63.1272
    11.0000     46.7619      0.0000    261.9112     63.5716
    11.2500     47.7093      0.0000    261.7831     63.8519
    11.5000     48.5504      0.0000    261.8267     63.9081
    11.7500     49.5117      0.0000    262.0365     63.7404
    12.0000     51.0394      0.0000    262.2917     63.3702
    12.2500     53.1905      0.0000    262.4382     63.0090
    12.5000     55.2504      0.0000    262.3888     62.9773
    12.7500     56.2429      0.0000    262.2025     63.3018
    13.0000     55.8399      0.0000    262.0339     63.6934
    13.2500     54.6336      0.0000    261.9856     63.9094
    13.5000     53.6305      0.0000    262.0359     63.9220
    13.7500     53.4945      0.0000    262.0726     63.8607
    14.0000     54.0651      0.0000    261.9813     63.9067
    14.2500     54.5060      0.0000    261.7610     64.1326
    14.5000     54.1040      0.0000    261.5688     64.4213
    14.7500     53.0903      0.0000    261.5468     64.5959
    15.0000     52.5838      0.0000    261.6347     64.6071
    15.2500     53.5550      0.0000    261.6818     64.5690
    15.5000     55.8560      0.0000    261.6396     64.6487
    15.7500     58.3526      0.0000    261.5366     64.9670
    16.0000     60.0089      0.0000    261.4178     65.4261
    16.2500     60.8180      0.0000    261.3689     65.6340
    16.5000     61.8212      0.0000    261.4738     65.3176
    16.7500     64.3560      0.0000    261.7271     64.6772
    17.0000     69.1035      0.0000    261.9869     64.1381
    17.2500     75.5432      0.0000    262.0601     63.9614
    17.5000     82.2062      0.0000    261.9337     64.0390
    17.7500     87.4956      0.0000    261.7954     64.0791
    18.0000     90.5239      0.0000    261.7438     64.1026
    18.2500     91.6135      0.0000    261.7048     64.3275
    18.5000     92.1876      0.0000    261.6526     64.6455
    18.7500     93.9361      0.0000    261.6417     64.8510
    19.0000     97.6627      0.0000    261.6637     65.0272
    19.2500    102.6294      0.0000    261.6807     65.2586
    19.5000    106.8939      0.0000    261.7090     65.4146
    19.7500    108.3753      0.0000    261.7783     65.3570
    20.0000    105.9429      0.0000    261.8859     65.0839
    20.2500    100.1228      0.0000    262.0105     64.6689
    20.5000     93.1460      0.0000    262.1123     64.2470
    20.7500     87.8740      0.0000    262.1351     63.9756
    21.0000     86.0141      0.0000    262.1198     63.7207
    21.2500     87.1606      0.0000    262.2639     63.0267
    21.5000     89.4109      0.0000    262.8188     61.7695
    21.7500     90.7440      0.0000    264.3661     60.3893
    22.0000     90.3353      0.0000    268.3121     59.1435
    22.2500     89.2909      0.0000    275.7494     57.7939
    22.5000     89.7237      0.0000    285.0827     56.2253
    22.7500     92.2800      0.0000    293.1574     54.5807
    23.0000     94.9176      0.0000    301.2422     52.7830
    23.2500     94.8650      0.0000    321.0594     50.4828
    23.5000     91.3931      0.0000    371.3962     47.2856
    23.7500     86.1065      0.0000    451.6775     43.0164
