~Version Information
VERS.                      2.0: CWLS Log ASCII Standard - VERSION 2.0
WRAP.                       NO: One line per depth step
~Well Information Block
STRT.FT               866.0000: 
STOP.FT              2027.5000: 
STEP.FT                 0.1000: 
NULL.                -999.2500: 
COMP.          Petrogulf Corporation: COMPANY
WELL.             State 16-21R: WELL
FLD.           Purgatorie River: FIELD
LOC.           203' FNL & 1560' FWL: LOCATION
PROV.                 Colorado: PROVINCE
CNTY.               Las Animas: COUNTRY
SRVC.                Patterson: SERVICE COMPANY
DATE.          Tue Aug 16 13:32:09 2005: LOG DATE
UWI.                071 08313 : UNIQUE WELL ID
~Curve Information Block
DEPT.FT            0 000 00 00: Depth
DCAL.in                       : CDL Caliper
RHOB.g/cc                     : CDL Bulk Density
RHOC.g/cc                     : CDL Density Correction
DPOR.pu                       : CDL Density Porosity
GR.GAPI                       : Gamma Ray
NPOR.pu                       : Neutron Porosity
~Parameter Information Block
~A  Depth       DCAL        RHOB        RHOC        DPOR         GR         NPOR    
# ...
  1326.8000      8.0443      1.4434      0.0135     73.1296     87.9840     33.3204
  1326.9000      8.0443      1.5197      0.0688     68.5035     83.9384     33.7617
  1327.0000      8.2475      1.6080      0.1335     63.1493     80.7473     33.8585
  1327.1000      8.2475      1.6987      0.1318     57.6575     81.9901     33.8560
  1327.2000      8.2475      1.7942      0.1762     51.8647     87.8750     33.8075
  1327.3000      8.6554      1.8841      0.2074     46.4201     95.4277     33.7590
  1327.4000      8.6554      1.9508      0.1724     42.3765    100.8789     33.8273
  1327.5000      8.6801      1.9999      0.1543     39.3984    104.6114     33.9244
  1327.6000      8.6801      2.0464      0.1613     36.5827    109.2676     33.7427
  1327.7000      8.6801      2.0917      0.1363     33.8336    114.8449     33.3489
  1327.8000      8.5498      2.1329      0.1379     31.3386    119.2390     33.1120
  1327.9000      8.5498      2.1719      0.1031     28.9743    121.5927     32.9605
  1328.0000      8.2477      2.2066      0.1009     26.8713    121.6378     32.7944
  1328.1000      8.2477      2.2291      0.0930     25.5067    120.2504     32.7265
  1328.2000      8.2477      2.2433      0.0790     24.6473    119.6498     32.5200
  1328.3000      8.1246      2.2510      0.1648     24.1831    118.6454     32.0389
  1328.4000      8.1246      2.2308      0.1607     25.4035    114.5696     31.7411
  1328.5000      8.0644      2.1689      0.0823     29.1602    108.8095     31.8866
  1328.6000      8.0644      2.0705      0.1046     35.1182    104.9264     32.1579
  1328.7000      8.0644      1.9452      0.0359     42.7144    102.5577     32.2841
  1328.8000      8.1257      1.8145     -0.0229     50.6362     99.1220     32.2108
  1328.9000      8.1257      1.7035     -0.0598     57.3609     92.8469     31.8939
  1329.0000      8.1293      1.6139     -0.0610     62.7922     83.7090     31.6136
  1329.1000      8.1293      1.5288     -0.0525     67.9491     74.4291     31.9449
  1329.2000      8.1293      1.4462     -0.0783     72.9557     68.6770     32.5818
  1329.3000      8.0959      1.3883     -0.0911     76.4680     67.5760     32.6586
  1329.4000      8.0959      1.3689     -0.0569     77.6427     68.1343     32.3360
  1329.5000      8.0898      1.3732      0.0443     77.3794     66.4266     32.3774
  1329.6000      8.0898      1.3822      0.0426     76.8351     63.0596     32.8574
  1329.7000      8.0898      1.3921      0.0658     76.2377     61.2176     33.3926
  1329.8000      8.1116      1.4007      0.0869     75.7122     60.9767     33.8683
  1329.9000      8.1116      1.4077      0.0403     75.2929     61.1424     34.1593
  1330.0000      8.1550      1.4129      0.0843     74.9756     62.3982     34.0073
  1330.1000      8.1550      1.4086      0.0536     75.2393     63.8048     33.6245
  1330.2000      8.1550      1.3994      0.0197     75.7940     63.6294     33.6024
  1330.3000      8.1698      1.4132     -0.0127     74.9550     63.7875     34.0689
  1330.4000      8.1698      1.4711      0.0148     71.4478     66.8562     34.5639
  1330.5000      8.1524      1.5605      0.0923     66.0309     72.3272     34.8393
  1330.6000      8.1524      1.6583      0.0988     60.1031     77.4053     34.9922
  1330.7000      8.1524      1.7611      0.1497     53.8744     80.3658     35.0072
  1330.8000      8.2280      1.8650      0.2270     47.5754     82.9459     34.7694
  1330.9000      8.2280      1.9543      0.2537     42.1629     85.4645     34.3728
  1331.0000      8.4146      2.0306      0.2200     37.5399     85.6316     33.9277
  1331.1000      8.4146      2.1095      0.2194     32.7552     85.5223     33.3613
  1331.2000      8.4146      2.1788      0.2462     28.5550     89.7479     32.8580
  1331.3000      8.7766      2.2071      0.1771     26.8437     96.4406     32.6767
  1331.4000      8.7766      2.1928      0.1192     27.7118    100.4478     32.7019
  1331.5000      8.6766      2.1676      0.0503     29.2389    101.2191     32.7760
  1331.6000      8.6766      2.1586      0.0367     29.7845    101.8859     32.8967
  1331.7000      8.6766      2.1574      0.1434     29.8559    104.9063     32.9298
  1331.8000      8.2926      2.1419      0.0727     30.7965    109.1820     32.6550
  1331.9000      8.2926      2.1176      0.0281     32.2643    112.6820     32.2270
  1332.0000      8.1641      2.0971      0.0474     33.5080    114.3872     31.9414
  1332.1000      8.1641      2.0711      0.0427     35.0839    112.7440     31.7171
  1332.2000      8.1641      2.0170      0.0717     38.3646    107.6992     31.5737
  1332.3000      8.1075      1.9210      0.0418     44.1801    101.4060     31.6397
  1332.4000      8.1075      1.8026     -0.0256     51.3563     95.7544     31.7502
  1332.5000      8.0917      1.6918     -0.0547     58.0724     90.0519     31.7159
  1332.6000      8.0917      1.5869     -0.0567     64.4333     83.6901     31.6388
  1332.7000      8.0917      1.4737     -0.0862     71.2884     76.1172     31.7124
  1332.8000      8.0606      1.3708     -0.0874     77.5247     65.5134     31.9987
  1332.9000      8.0606      1.3102     -0.0903     81.1971     53.6328     32.4601
  1333.0000      8.0669      1.2872      0.0009     82.5915     44.6444     32.8257
  1333.1000      8.0669      1.2719      0.0024     83.5208     38.3001     32.8889
  1333.2000      8.0669      1.2550      0.0183     84.5475     32.3585     32.9802
  1333.3000      8.1117      1.2452      0.0085     85.1409     28.3317     33.3907
  1333.4000      8.1117      1.2497      0.0111     84.8679     27.2057     33.9303
  1333.5000      8.3135      1.2675      0.0474     83.7852     26.6544     34.3678
  1333.6000      8.3135      1.2869      0.0799     82.6145     25.9733     34.5811
  1333.7000      8.3135      1.2964      0.0799     82.0345     26.9672     34.5240
  1333.8000      8.4900      1.3022      0.0464     81.6830     29.6682     34.2044
  1333.9000      8.4900      1.3201      0.0557     80.5983     32.5821     33.7090
  1334.0000      8.4033      1.3643      0.0571     77.9241     35.4730     33.4874
  1334.1000      8.4033      1.4514      0.0714     72.6403     38.2901     33.8462
  1334.2000      8.4033      1.5883      0.1385     64.3461     40.9340     34.3411
  1334.3000      8.1993      1.7492      0.1765     54.5939     45.3824     34.4398
  1334.4000      8.1993      1.8978      0.2176     45.5875     52.6492     34.2220
  1334.5000      8.1220      2.0297      0.2491     37.5924     60.0626     33.9369
  1334.6000      8.1220      2.1646      0.2686     29.4198     65.8848     33.6087
  1334.7000      8.1220      2.2939      0.3166     21.5812     70.6985     33.1605
  1334.8000      8.1693      2.3789      0.3059     16.4305     76.2827     32.4374
  1334.9000      8.1693      2.4105      0.1643     14.5132     83.3227     31.3215
  1335.0000      8.2639      2.4193      0.1094     13.9803     89.4878     30.0099
  1335.1000      8.2639      2.4308      0.0424     13.2871     93.1719     28.8828
  1335.2000      8.2639      2.4507      0.0492     12.0815     96.1309     28.0642
  1335.3000      8.1301      2.4706      0.0906     10.8729     99.7235     27.3366
  1335.4000      8.1301      2.4823      0.0686     10.1640    102.9475     26.4810
  1335.5000      8.0185      2.4932      0.0673      9.5029    104.2946     25.5694
  1335.6000      8.0185      2.5117      0.0919      8.3841    103.9614     24.9653
  1335.7000      8.0185      2.5316      0.1165      7.1729    104.5972     24.7632
  1335.8000      7.9605      2.5489      0.1183      6.1295    106.5722     24.7163
  1335.9000      7.9605      2.5640      0.1142      5.2122    107.0126     24.7567
  1336.0000      7.9096      2.5730      0.1232      4.6639    104.6585     24.7810
  1336.1000      7.9096      2.5730      0.1246      4.6660    100.2761     24.4382
  1336.2000      7.9096      2.5650      0.0888      5.1536     96.3541     23.8032
  1336.3000      7.9340      2.5484      0.0818      6.1559     94.9298     23.3170
