~Version Information
 VERS.                                  2.0 : CWLS LAS VERSION
 WRAP.                                   NO : WRAPING MODE
 SWARE .                 MController 2.5.0I : SOFTWARE VERSION
~Well Information
 WELL.                       Montoya 12-41v : WELL
 COMP.                       Petrogulf Corp : COMPANY
 FLD.                      Purgatoire River : FIELD
 LOC.                NE/NE Sec 12 T33S R68W : LOCATION
 DATE.                              8/10/04 : DATE(S) LOGGED
 SRVC.       Blanco Geological Services LLc : SERVICE COMPANY
 STAT.                                   CO : STATE
 CNTY.                           Las Animas : COUNTY
 CTRY.                                  USA : COUNTRY
 API.                       05-071-08139-00 : API NUMBER
 STRT.FT                            698.00 : START DEPTH
 STOP.FT                            2660.00 : STOP DEPTH
 STEP.FT                               1.00 : DEPTH INCREMENT
 NULL.                                 9999 : NULL VALUE
~Curve information
 DEPTH.FT                                   :
 ROP.MIN/FT                                 :
 GAS.UNITS                                  :
~ASCII Log data
# ...
      2490.0          0.4         12.6 
      2491.0          0.4         13.9 
      2492.0          0.4         12.0 
      2493.0          0.4          9.3 
      2494.0          0.3         10.3 
      2495.0          6.3        194.1 
      2496.0          0.3        185.5 
      2497.0          0.1         49.2 
      2498.0          0.1         23.1 
      2499.0          0.1         12.2 
      2500.0          0.1          8.3 
      2501.0          0.2          5.9 
      2502.0          0.4          3.5 
      2503.0          0.4          1.8 
      2504.0          0.3          1.7 
      2505.0          0.4          1.5 
      2506.0          0.2          1.5 
      2507.0          0.3          2.1 
      2508.0          0.5          4.7 
      2509.0          0.5         14.4 
      2510.0          0.4         16.6 
      2512.0          0.3         15.4 
      2512.0          0.2         12.5 
      2513.0          0.3         12.8 
      2514.0          0.4          9.8 
      2515.0          0.4         10.1 
      2516.0          0.4         17.0 
      2517.0          0.4         17.2 
      2518.0          0.4         12.8 
      2519.0          0.5         12.8 
      2520.0          0.4         13.1 
      2521.0          0.5         14.1 
      2522.0          0.4         12.2 
      2523.0          0.4          9.7 
      2524.0          0.4         12.5 
      2525.0          0.3         12.1 
      2526.0          0.4         12.0 
      2527.0          8.2        167.4 
      2528.0          0.3          3.1 
      2529.0          0.4          3.0 
      2530.0          0.4          3.4 
      2531.0          0.4          3.9 
      2532.0          0.4          6.0 
      2533.0          0.4          9.2 
      2534.0          0.5          8.5 
      2535.0          0.5          9.2 
      2536.0          0.5          9.8 
      2537.0          0.5         10.9 
      2538.0          0.4         12.9 
      2539.0          0.5         13.7 
      2540.0          0.4         13.1 
      2541.0          0.4         12.7 
      2542.0          0.4         12.5 
      2543.0          0.4         12.3 
      2544.0          0.4         13.6 
      2545.0          0.4         12.7 
      2546.0          0.5         12.8 
      2547.0          0.5         10.9 
      2548.0          0.5         13.7 
      2549.0          0.4         12.4 
      2550.0          0.4         12.7 
      2551.0          0.4         12.4 
      2552.0          0.4         10.4 
      2553.0          0.4         10.4 
      2554.0          0.4          9.8 
      2555.0          0.4         12.9 
      2556.0          0.4         13.5 
      2557.0          6.0         84.4 
      2558.0          0.6         64.3 
      2559.0          0.5         13.3 
      2560.0          0.5          8.5 
      2561.0          0.5          8.3 
      2562.0          0.5         12.7 
      2563.0          0.5         10.7 
      2564.0          0.5         12.8 
      2565.0          0.5         10.5 
      2566.0          0.6         10.1 
      2567.0          0.6         12.2 
      2568.0          0.5         12.2 
      2569.0          0.6         13.5 
      2570.0          0.5         12.4 
      2571.0          0.5         13.7 
      2572.0          0.5         13.4 
      2573.0          0.6         14.7 
      2574.0          0.5         13.0 
      2575.0          0.5         13.1 
      2576.0          0.5         12.8 
      2577.0          0.6         13.7 
      2578.0          0.5         13.6 
      2579.0          0.5         12.7 
      2580.0          0.6         12.2 
      2581.0          0.5         12.2 
      2582.0          0.5         14.3 
      2583.0          0.5         12.6 
      2584.0          0.5         13.2 
      2585.0          0.5         14.2 
      2586.0          0.5         12.7 
      2587.0          6.4         74.7 
      2588.0          0.7        108.1 
      2589.0          0.5         24.9 
      2590.0          0.5          6.8 
      2591.0          0.5          4.2 
      2592.0          0.6          5.0 
      2593.0          0.5          7.0 
      2594.0          0.6          9.0 
      2595.0          0.5          9.8 
      2596.0          0.5         12.7 
      2597.0          0.5          9.7 
      2598.0          0.5         10.3 
      2599.0          0.5         12.3 
      2600.0          0.6         13.4 
      2601.0          0.5         12.5 
      2602.0          0.5         12.8 
      2603.0          0.6         12.0 
      2604.0          0.4         14.0 
      2605.0          0.6         13.0 
      2606.0          0.6         12.2 
      2607.0          0.5         12.8 
      2608.0          0.6         14.1 
      2609.0          0.5         12.9 
      2610.0          0.6         12.9 
      2612.0          0.6         14.9 
      2612.0          0.6         13.4 
      2613.0          0.6         15.8 
      2614.0          0.7         15.2 
      2615.0          0.6         12.3 
      2616.0          0.5         13.3 
      2617.0          5.7         71.1 
      2618.0          0.4         73.2 
      2619.0          0.4         26.7 
      2620.0          0.4          8.8 
      2621.0          0.5          8.1 
      2622.0          0.5          7.1 
      2623.0          0.6          7.5 
      2624.0          0.5          9.7 
      2625.0          0.6         12.0 
      2626.0          0.5          9.7 
      2627.0          0.6         12.7 
      2628.0          0.6         12.2 
      2629.0          0.5         10.9 
      2630.0          0.5         15.2 
      2631.0          0.5         15.3 
      2632.0          0.6         15.5 
      2633.0          0.7         16.7 
      2634.0          0.6         10.1 
      2635.0          0.9         15.7 
      2636.0          0.6         12.9 
      2637.0          0.6         19.3 
      2638.0          0.6         17.4 
      2639.0          0.6         14.0 
      2640.0          0.8         15.2 
      2641.0          0.7         12.8 
      2642.0          0.7         14.0 
      2643.0          0.5         15.5 
      2644.0          0.6         19.9 
      2645.0          0.5         15.1 
      2646.0          0.4         12.9 
      2647.0          5.3         86.9 
      2648.0          0.4        109.3 
      2649.0          0.4         89.5 
      2650.0          0.5         24.3 
      2651.0          0.4         12.3 
      2652.0          0.4          7.0 
      2653.0          0.4          9.8 
      2654.0          0.4          9.5 
      2655.0          0.4         10.5 
      2656.0          0.6         14.6 
      2657.0          0.4         15.7 
      2658.0          0.5         14.2 
      2659.0          0.5         12.1 
      2660.0          0.5         11.1 
