~Version Information
VERS.                      2.0: CWLS Log ASCII Standard - VERSION 2.0
WRAP.                       NO: One line per depth step
~Well Information Block
STRT.FT               987.5000: 
STOP.FT              2426.0000: 
STEP.FT                 0.5000: 
NULL.                -999.2500: 
COMP.          Evergreen Operating Corporation: COMPANY
WELL.          McCullough 34-32: WELL
FLD.           Purgatorie River: FIELD
LOC.           261' FSL & 2098' FEL--: LOCATION
PROV.                 Colorado: PROVINCE
CNTY.               Las Animas: COUNTRY
SRVC.          Patterson Wireline: SERVICE COMPANY
DATE.          Mon May 17 13:38:56 2004: LOG DATE
UWI.           05-071-07953-00: UNIQUE WELL ID
~Curve Information Block
DEPT.FT            0 000 00 00: Depth
CCL.                          : Casing Collar Locator
TT3.usec                      : CBL 3' Travel Time
AMP3.mV                       : CBL 3' Amplitude
GR.GAPI                       : Gamma Ray
~Parameter Information Block
~A  Depth       CCL         TT3         AMP3         GR     
# ...
  1858.5000      0.0000    672.5378      8.1389     53.0750
  1859.0000      0.0000    668.1642      8.0077     55.3915
  1859.5000      0.0000    659.4705      8.0431     65.0093
  1860.0000      0.0000    661.5571      8.0098     70.3333
  1860.5000      0.0000    673.2998      8.0082     65.3198
  1861.0000      0.0000    682.1763      8.1990     58.4354
  1861.5000      0.0000    688.6410      8.3696     51.2408
  1862.0000      0.0000    691.7509      8.3509     43.2292
  1862.5000      0.0000    683.7993      8.3385     38.2828
  1863.0000      0.0000    649.0936      8.4186     36.6018
  1863.5000      0.0000    593.0995      8.4948     36.0370
  1864.0000      0.0000    520.2946      8.6101     35.5153
  1864.5000      0.0000    421.6462      8.8945     36.6671
  1865.0000      0.0000    356.8130      9.2339     37.7408
  1865.5000      0.0000    336.2804      9.4701     33.7373
  1866.0000      0.0000    329.7356      9.5711     28.1303
  1866.5000      0.0000    332.5984      9.5064     28.3033
  1867.0000      0.0000    347.1779      9.3520     36.7960
  1867.5000      0.0000    371.3062      9.1905     54.7998
  1868.0000      0.0000    436.5603      9.0226     75.6730
  1868.5000      0.0000    562.5131      8.8574     95.6556
  1869.0000      0.0000    672.0073      8.6627    115.9015
  1869.5000      0.0000    711.9385      8.4594    136.2358
  1870.0000      0.0000    712.8238      8.2762    151.7053
  1870.5000      0.0000    710.9499      8.2532    153.7901
  1871.0000      0.0000    722.5839      8.2409    147.0908
  1871.5000      0.0000    735.8010      8.0545    137.3522
  1872.0000      0.0000    733.3472      7.8886    129.4198
  1872.5000      0.0000    724.6505      7.8506    131.4483
  1873.0000      0.0000    726.9611      7.8012    140.9508
  1873.5000      0.0000    735.3776      7.7070    145.1734
  1874.0000      0.0000    734.6287      7.5946    143.6866
  1874.5000      0.0000    715.8209      7.4910    145.6220
  1875.0000      0.0000    695.9306      7.4399    149.2380
  1875.5000      0.0000    693.7653      7.5249    144.1743
  1876.0000      0.0000    697.2460      7.6602    135.3597
  1876.5000      0.0000    698.0953      7.8459    131.3103
  1877.0000      0.0000    698.2134      8.0093    129.3533
  1877.5000      0.0000    698.7153      8.1120    129.0154
  1878.0000      0.0000    699.2280      8.2802    131.0689
  1878.5000      0.0000    699.3776      8.4855    131.9528
  1879.0000      0.0000    700.2019      8.4397    133.9673
  1879.5000      0.0000    704.0845      8.1029    137.8300
  1880.0000      0.0000    707.6251      7.8754    134.3015
  1880.5000      0.0000    705.2765      7.9559    128.5700
  1881.0000      0.0000    704.0414      8.0295    133.8864
  1881.5000      0.0000    707.8763      7.8116    140.0271
  1882.0000      0.0000    710.6237      7.4962    142.3925
  1882.5000      0.0000    714.0254      7.4026    144.5054
  1883.0000      0.0000    715.0283      7.4753    136.4791
  1883.5000      0.0000    706.9990      7.4663    124.5613
  1884.0000      0.0000    700.0536      7.4870    116.4179
  1884.5000      0.0000    697.9331      7.5078    114.0791
  1885.0000      0.0000    698.1644      7.2994    122.6991
  1885.5000      0.0000    701.7562      6.9598    132.8844
  1886.0000      0.0000    711.2490      6.6961    131.6660
  1886.5000      0.0000    723.7285      6.6190    119.6046
  1887.0000      0.0000    740.3060      6.5479    107.0158
  1887.5000      0.0000    745.7892      6.2043     96.5666
  1888.0000      0.0000    730.2641      5.4317     90.7608
  1888.5000      0.0000    719.1094      4.4236     94.3595
  1889.0000      0.0000    712.8691      3.6278    101.2616
  1889.5000      0.0000    710.6338      3.3003     95.4253
  1890.0000      0.0000    711.4116      3.4634     81.2279
  1890.5000      0.0000    712.6571      3.7947     73.9662
  1891.0000      0.0000    717.9873      3.9508     72.2247
  1891.5000      0.0000    711.6095      4.5778     72.9337
  1892.0000      0.0000    671.8656      5.7806     82.5267
  1892.5000      0.0000    655.1328      6.8325     97.9895
  1893.0000      0.0000    688.5646      7.3034    108.7675
  1893.5000      0.0000    715.5831      7.2466    108.9117
  1894.0000      0.0000    724.9100      7.0702     97.9666
  1894.5000      0.0000    728.1275      6.9829     91.0679
  1895.0000      0.0000    730.7327      6.9309     97.9213
  1895.5000      0.0000    725.4097      7.0534    107.8968
  1896.0000      0.0000    718.7070      6.9183    118.6627
  1896.5000      0.0000    718.8746      6.2591    128.0240
  1897.0000      0.0000    733.2977      5.4830    128.9407
  1897.5000     -1.6992    755.9066      5.5239    121.6854
  1898.0000     -2.9919    767.7928      5.7930    123.7836
  1898.5000      0.0000    743.0661      6.0271    142.4653
  1899.0000      0.0000    675.1885      6.5350    156.5491
  1899.5000      0.0000    646.6724      7.4314    158.0748
  1900.0000      0.0000    676.8792      8.1242    156.5010
  1900.5000      0.0000    693.0486      8.2632    154.6719
  1901.0000      0.0000    675.9828      8.0569    153.6753
  1901.5000      0.0000    648.5664      7.9487    151.5402
  1902.0000      0.0000    656.0903      7.8931    144.0671
  1902.5000      0.0000    683.6330      7.8641    136.3663
  1903.0000      0.0000    695.4316      7.8607    127.7451
  1903.5000      0.0000    697.1251      7.7753    118.2080
  1904.0000      0.0000    697.3525      7.7371    112.7338
  1904.5000      0.0000    697.3098      7.5633    110.2251
  1905.0000      0.0000    697.2264      7.3322    108.1375
  1905.5000      0.0000    697.4273      7.4556    107.9637
  1906.0000      0.0000    699.5099      7.6439    113.1834
  1906.5000      0.0000    707.6340      7.7855    123.3596
  1907.0000      0.0000    722.1400      7.7265    127.8762
  1907.5000      0.0000    726.9777      7.8514    131.8420
  1908.0000      0.0000    715.1483      7.6687    138.1363
  1908.5000      0.0000    703.3391      7.5382    136.8563
  1909.0000      0.0000    701.3091      7.6029    132.8292
  1909.5000      0.0000    705.0117      7.5309    137.5270
  1910.0000      0.0000    704.7977      7.8034    143.1465
  1910.5000      0.0000    699.8525      7.9586    138.5796
  1911.0000      0.0000    697.1226      8.2523    127.7092
  1911.5000      0.0000    696.5761      8.4885    127.6595
  1912.0000      0.0000    695.9930      8.4505    133.9881
  1912.5000      0.0000    693.1693      8.4562    130.2018
  1913.0000      0.0000    687.4910      8.0464    123.1183
  1913.5000      0.0000    676.1346      8.0006    117.0783
  1914.0000      0.0000    620.2124      8.2436    101.5258
  1914.5000      0.0000    507.7908      8.2593     88.1510
  1915.0000      0.0000    467.0437      8.9120     86.9562
  1915.5000      0.0000    560.8173      9.4442     90.8098
  1916.0000      0.0000    656.6316      8.8846    100.3590
  1916.5000      0.0000    689.9819      8.4708    114.7351
  1917.0000      0.0000    703.4539      8.4328    129.0498
  1917.5000      0.0000    710.4168      7.6878    140.4980
  1918.0000      0.0000    714.7232      7.3132    142.0589
  1918.5000      0.0000    716.8095      8.0347    130.4679
  1919.0000      0.0000    709.7985      8.3632    122.0762
  1919.5000      0.0000    700.1118      7.5627    132.6418
  1920.0000      0.0000    697.1632      6.6938    145.9848
  1920.5000      0.0000    698.5325      6.9100    147.1085
  1921.0000      0.0000    702.8386      7.6283    143.3101
  1921.5000      0.0000    708.5715      7.7358    139.6519
  1922.0000      0.0000    713.2379      7.4173    134.8855
  1922.5000      0.0000    712.7661      7.3936    127.0215
  1923.0000      0.0000    702.2527      7.3307    112.4262
  1923.5000      0.0000    673.7469      6.8087     87.7026
  1924.0000      0.0000    587.6843      6.3768     64.8419
  1924.5000      0.0000    465.3600      6.7990     56.3221
  1925.0000      0.0000    443.4929      7.8683     62.4306
