~Version Information
VERS.                      2.0: CWLS Log ASCII Standard - VERSION 2.0
WRAP.                       NO: One line per depth step
~Well Information Block
STRT.FT               825.0000: 
STOP.FT              2446.5000: 
STEP.FT                 0.2500: 
NULL.                -999.2500: 
COMP.          Petrogulf Corporation: COMPANY
WELL.            Kraft 17-23 V: WELL
FLD.           Purgatorie River: FIELD
LOC.           1500' FSL & 1773' FWL: LOCATION
CNTY.               Las Animas: COUNTY
SRVC.                         : SERVICE COMPANY
DATE.          Thu Nov 20 06:35:41 2003: LOG DATE
UWI.                          : UNIQUE WELL ID
STAT.                 Colorado: STATE
~Curve Information Block
DEPT.FT            0 000 00 00: Depth
SN.Ohm-m                      : IEL Short Normal
SP.mV                         : IEL Spontaneous Potential
DIR.Ohm-m                     : IEL Induction Resistivity
GR.GAPI                       : Gamma Ray
~Parameter Information Block
~A  Depth        SN          SP         DIR          GR     
# ...
  1361.0000      6.4924    -47.3125      5.9392    129.1282
  1361.2500      6.2098    -46.0143      5.9046    131.5873
  1361.5000      6.2101    -44.4570      5.8781    135.4127
  1361.7500      6.4370    -42.8860      5.8570    138.0237
  1362.0000      6.7104    -41.4733      5.8387    140.7675
  1362.2500      6.8340    -40.4181      5.8196    140.8783
  1362.5000      6.8168    -39.9127      5.7952    138.0481
  1362.7500      6.8403    -39.9748      5.7616    134.8259
  1363.0000      6.9126    -40.3912      5.7182    129.7176
  1363.2500      6.9084    -40.8400      5.6699    126.8902
  1363.5000      6.8215    -41.0136      5.6270    124.0897
  1363.7500      6.7120    -40.6788      5.6021    123.2260
  1364.0000      6.5696    -39.7766      5.6061    123.1031
  1364.2500      6.3309    -38.5042      5.6447    123.3341
  1364.5000      6.0109    -37.2101      5.7167    123.3045
  1364.7500      5.7994    -36.1585      5.8148    122.9557
  1365.0000      5.9012    -35.4189      5.9275    122.5537
  1365.2500      6.2651    -34.9624      6.0411    122.6412
  1365.5000      6.6739    -34.7739      6.1429    123.1563
  1365.7500      6.9882    -34.8306      6.2230    123.6486
  1366.0000      7.1284    -35.0406      6.2769    124.7609
  1366.2500      6.9863    -35.2879      6.3049    125.6078
  1366.5000      6.4065    -35.5185      6.3106    125.8728
  1366.7500      5.4616    -35.7252      6.2982    124.6826
  1367.0000      4.7628    -35.8591      6.2712    120.9065
  1367.2500      4.8972    -35.8122      6.2329    117.8289
  1367.5000      5.7806    -35.4979      6.1892    113.8674
  1367.7500      6.9156    -34.9372      6.1496    112.1576
  1368.0000      7.7421    -34.2600      6.1246    111.0433
  1368.2500      7.9508    -33.6249      6.1225    111.0357
  1368.5000      7.7188    -33.1260      6.1465    111.7823
  1368.7500      7.4237    -32.7482      6.1962    112.8252
  1369.0000      7.2967    -32.3863      6.2710    115.5417
  1369.2500      7.3780    -31.9036      6.3748    118.0593
  1369.5000      7.5680    -31.2073      6.5149    121.9028
  1369.7500      7.6782    -30.3039      6.6982    123.7946
  1370.0000      7.5499    -29.2869      6.9243    125.1717
  1370.2500      7.2972    -28.2520      7.1837    125.2776
  1370.5000      7.4196    -27.2285      7.4592    124.4669
  1370.7500      8.2605    -26.2119      7.7320    123.2197
  1371.0000      9.4987    -25.2522      7.9864    120.1584
  1371.2500     10.6336    -24.4628      8.2148    117.4984
  1371.5000     11.5311    -23.9183      8.4200    113.5412
  1371.7500     12.2675    -23.5809      8.6170    111.6571
  1372.0000     12.8310    -23.3593      8.8329    110.3830
  1372.2500     13.0939    -23.2180      9.0996    109.8114
  1372.5000     13.1115    -23.1876      9.4450    106.9859
  1372.7500     13.3704    -23.2681      9.8846    103.0051
  1373.0000     14.3234    -23.3509     10.4221     95.3725
  1373.2500     15.7411    -23.2736     11.0626     91.3472
  1373.5000     17.0234    -22.9683     11.8304     90.3524
  1373.7500     17.9376    -22.5373     12.7775     93.6636
  1374.0000     18.6845    -22.1707     13.9657    102.6089
  1374.2500     19.5238    -22.0170     15.4170    109.0104
  1374.5000     20.5599    -22.1423     17.0407    116.0163
  1374.7500     21.7328    -22.5767     18.5858    118.2368
  1375.0000     22.8717    -23.3409     19.7146    118.1651
  1375.2500     23.8740    -24.3948     20.2190    116.0374
  1375.5000     24.9059    -25.5698     20.1717    109.6517
  1375.7500     26.2587    -26.6064     19.8255    103.5164
  1376.0000     28.0408    -27.2978     19.4137     93.1808
  1376.2500     30.0975    -27.5839     19.0564     86.9471
  1376.5000     32.0763    -27.5292     18.7872     80.6426
  1376.7500     33.5325    -27.2867     18.6149     79.0641
  1377.0000     34.1232    -27.0934     18.5541     80.1553
  1377.2500     33.7652    -27.1835     18.6107     82.0016
  1377.5000     32.7050    -27.6215     18.7446     83.8310
  1377.7500     31.7964    -28.2456     18.8506     83.4884
  1378.0000     32.3931    -28.8295     18.7830     80.9035
  1378.2500     34.6074    -29.2885     18.4340     78.6282
  1378.5000     36.1795    -29.7045     17.7994     75.5796
  1378.7500     35.0202    -30.1604     16.9692     73.9566
  1379.0000     31.6698    -30.5705     16.0537     71.7376
  1379.2500     27.8426    -30.7192     15.1135     70.2665
  1379.5000     24.3857    -30.5166     14.1462     69.0710
  1379.7500     21.4048    -30.1678     13.1247     70.2504
  1380.0000     18.9433    -29.9835     12.0505     76.7309
  1380.2500     16.9901    -30.0031     10.9789     83.8426
  1380.5000     15.4184    -29.9163      9.9968     95.8602
  1380.7500     14.1422    -29.4535      9.1798    103.0785
  1381.0000     13.1628    -28.7901      8.5651    111.7606
  1381.2500     12.4643    -28.4259      8.1500    116.5322
  1381.5000     11.9501    -28.6618      7.9043    122.8346
  1381.7500     11.5320    -29.3258      7.7844    126.3665
  1382.0000     11.2153    -30.0356      7.7450    130.2726
  1382.2500     11.0578    -30.5763      7.7498    132.0289
  1382.5000     11.1541    -30.9700      7.7783    133.8159
  1382.7500     11.6045    -31.3048      7.8263    134.3963
  1383.0000     12.2225    -31.5978      7.8997    133.7360
  1383.2500     12.4006    -31.8010      8.0049    132.2326
  1383.5000     11.8254    -31.9154      8.1425    129.5983
  1383.7500     11.0278    -32.0734      8.3040    128.5376
  1384.0000     10.6129    -32.4572      8.4754    128.4245
  1384.2500     10.5237    -33.1021      8.6435    128.6895
  1384.5000     10.3451    -33.8155      8.8023    128.1862
  1384.7500      9.9286    -34.3066      8.9566    127.1004
  1385.0000      9.5966    -34.3855      9.1192    125.5994
  1385.2500      9.6916    -34.0607      9.3031    125.5727
  1385.5000     10.2445    -33.5184      9.5132    127.0587
  1385.7500     11.1187    -33.0524      9.7418    128.0933
  1386.0000     12.0189    -32.9500      9.9735    127.8607
  1386.2500     12.6239    -33.3263     10.1993    126.3039
  1386.5000     12.9232    -34.0248     10.4299    123.1308
  1386.7500     13.1657    -34.7265     10.6967    121.3214
  1387.0000     13.4954    -35.1826     11.0388    119.4880
  1387.2500     13.8211    -35.3516     11.4877    118.5803
  1387.5000     14.0979    -35.3526     12.0532    117.2478
  1387.7500     14.5341    -35.3216     12.7178    116.3737
  1388.0000     15.2125    -35.3131     13.4348    115.3331
  1388.2500     15.6937    -35.3051     14.1302    114.8380
  1388.5000     15.5762    -35.2732     14.7127    113.7590
  1388.7500     15.2163    -35.2696     15.0971    112.1916
  1389.0000     15.4601    -35.4501     15.2402    108.1827
  1389.2500     16.9778    -36.0075     15.1727    105.0234
  1389.5000     19.6523    -37.0167     14.9974    101.3460
  1389.7500     22.5733    -38.2808     14.8495    100.1963
  1390.0000     24.9945    -39.3643     14.8434     99.8199
  1390.2500     26.8111    -39.9008     15.0270     99.4963
  1390.5000     28.1304    -39.9109     15.3549     97.4444
  1390.7500     29.0368    -39.7478     15.6828     94.7882
  1391.0000     29.6266    -39.7264     15.8149     89.5020
  1391.2500     29.9054    -39.8884     15.6189     85.8027
  1391.5000     29.6545    -40.1085     15.1294     81.1623
  1391.7500     28.5882    -40.3090     14.5281     79.1169
  1392.0000     26.7588    -40.5332     14.0208     77.8915
  1392.2500     24.7380    -40.8700     13.7383     78.4241
  1392.5000     23.1609    -41.3372     13.7101     81.8221
  1392.7500     22.0906    -41.8345     13.8757     86.2083
  1393.0000     21.1919    -42.2272     14.1097     95.8688
  1393.2500     20.2526    -42.4594     14.2592    103.5140
  1393.5000     19.1634    -42.5431     14.1971    114.2108
  1393.7500     17.8101    -42.4616     13.8683    119.3622
  1394.0000     16.3291    -42.1478     13.3044    123.2510
  1394.2500     15.2748    -41.5673     12.6038    124.0005
