~Version Information
 VERS.                                  2.0 : CWLS LAS VERSION
 WRAP.                                   NO : WRAPING MODE
 SWARE .                 MController 2.5.0N : SOFTWARE VERSION
~Well Information
 WELL.                      EASTON 12-30 TR : WELL
 COMP.    PIONEER NATURAL RESOURCES USA INC : COMPANY
 FLD.                      PURGATOIRE RIVER : FIELD
 LOC.                SW/NW SEC 30 T32S R66W : LOCATION
 DATE.                             06/01/05 : DATE(S) LOGGED
 SRVC.       BLANCO GEOLOGICAL SERVICES LLC : SERVICE COMPANY
 STAT.                             COLORADO : STATE
 CNTY.                           LAS ANIMAS : COUNTY
 CTRY.                                  USA : COUNTRY
 API.                       05-071-08379-00 : API NUMBER
 STRT.FT                             307.00 : START DEPTH
 STOP.FT                            2000.00 : STOP DEPTH
 STEP.FT                               1.00 : DEPTH INCREMENT
 NULL.                                -9999 : NULL VALUE
~Curve information
 DEPTH.FT                                   :
 ROP.MIN/FT                                 :
 GAS.UNITS                                  :
~ASCII Log data
# ...
       507.0         0.20          4.8 
       508.0         0.23          4.9 
       509.0         0.17          4.7 
       510.0         0.17          4.7 
       511.0         0.20          4.4 
       512.0         0.17          4.1 
       513.0         0.20          3.8 
       514.0         0.17          4.4 
       515.0         0.25          4.5 
       516.0         0.17          4.6 
       517.0         0.17          4.0 
       518.0         0.20          4.5 
       519.0         0.13          4.3 
       520.0         0.17          4.1 
       521.0         0.17          4.2 
       522.0         0.20          3.4 
       523.0         0.17          4.2 
       524.0         0.20          3.3 
       525.0         0.20          3.2 
       526.0         0.13          3.2 
       527.0         0.17          3.4 
       528.0         0.13          3.0 
       529.0         0.13          3.4 
       530.0         0.17          3.5 
       531.0         0.13          3.7 
       532.0         0.17          3.6 
       533.0         0.13          3.6 
       534.0         0.13          3.7 
       535.0         0.17          3.6 
       536.0         4.40          4.4 
       537.0         0.27          3.4 
       538.0         0.20          3.1 
       539.0         0.20          2.9 
       540.0         0.20          3.5 
       541.0         0.17          3.0 
       542.0         0.20          3.2 
       543.0         0.17          3.4 
       544.0         0.17          2.8 
       545.0         0.17          3.2 
       546.0         0.17          3.0 
       547.0         0.17          3.0 
       548.0         0.17          3.4 
       549.0         0.32          3.4 
       550.0         0.20          3.7 
       551.0         0.17          3.5 
       552.0         0.20          4.4 
       553.0         0.13          4.1 
       554.0         0.17          4.2 
       555.0         0.13          4.2 
       556.0         0.17          4.2 
       557.0         0.17          4.0 
       558.0         0.17          4.1 
       559.0         0.13          4.1 
       560.0         0.17          4.0 
       561.0         0.17          3.9 
       562.0         0.13          4.3 
       563.0         0.17          4.3 
       564.0         0.17          4.4 
       565.0         0.27          4.5 
       566.0         4.83          5.4 
       567.0         0.17          5.4 
       568.0         0.20          4.9 
       569.0         0.20          4.7 
       570.0         0.17          4.6 
       571.0         0.17          4.6 
       572.0         0.20          4.8 
       573.0         0.17          4.5 
       574.0         0.17          4.5 
       575.0         0.17          5.5 
       576.0         0.17          4.6 
       577.0         0.33          4.7 
       578.0         0.18          5.3 
       579.0         0.13          4.7 
       580.0         0.17          4.7 
       581.0         0.13          4.8 
       582.0         0.17          4.7 
       583.0         0.23          5.1 
       584.0         0.20          4.7 
       585.0         0.13          4.6 
       586.0         0.17          4.6 
       587.0         0.17          4.6 
       588.0         0.17          4.8 
       589.0         0.13          4.4 
       590.0         0.17          4.7 
       591.0         0.17          4.7 
       592.0         0.10          5.4 
       593.0         0.13          4.9 
       594.0         0.20          4.8 
       595.0         0.23          5.1 
       596.0         3.12          5.6 
       597.0         0.30          4.7 
       598.0         0.23          4.9 
       599.0         0.18          4.7 
       600.0         0.17          4.9 
       601.0         0.20          4.7 
       602.0         0.20          5.0 
       603.0         0.20          4.7 
       604.0         0.30          5.0 
       605.0         0.17          4.9 
       606.0         0.20          4.7 
       607.0         0.23          4.7 
       608.0         0.20          4.9 
       609.0         0.20          5.3 
       610.0         0.23          5.2 
       611.0         0.20          4.7 
       612.0         0.17          5.0 
       613.0         0.17          5.1 
       614.0         0.17          4.5 
       615.0         0.13          4.6 
       616.0         0.18          5.1 
       617.0         0.17          5.2 
       618.0         0.20          5.4 
       619.0         0.17          4.7 
       620.0         0.30          5.6 
       621.0         0.23          4.9 
       622.0         0.17          5.1 
       623.0         0.20          4.7 
       624.0         0.13          4.7 
       625.0         0.17          5.2 
       626.0         5.97          6.0 
       627.0         0.27          5.6 
       628.0         0.27          5.7 
       629.0         0.20          5.2 
       630.0         0.23          5.5 
       631.0         0.23          5.7 
       632.0         0.17          5.3 
       633.0         0.17          5.4 
       634.0         0.17          5.6 
       635.0         0.13          6.0 
       636.0         0.20          5.8 
       637.0         0.18          5.8 
       638.0         0.17          5.4 
       639.0         0.17          5.8 
       640.0         0.13          5.9 
       641.0         0.13          5.7 
       642.0         0.13          5.6 
       643.0         0.17          5.5 
       644.0         0.13          5.4 
       645.0         0.13          5.7 
       646.0         0.17          5.1 
       647.0         0.17          5.3 
       648.0         0.17          5.2 
       649.0         0.20          5.1 
       650.0         0.20          5.2 
       651.0         0.13          5.6 
       652.0         0.17          5.5 
       653.0         0.13          5.8 
       654.0         0.13          4.9 
       655.0         0.20          5.6 
       656.0         4.03          6.2 
       657.0         0.30          5.8 
       658.0         0.20          5.7 
       659.0         0.20          5.3 
       660.0         0.17          5.1 
       661.0         0.13          5.8 
       662.0         0.13          5.6 
       663.0         0.13          5.7 
       664.0         0.17          5.6 
       665.0         0.17          6.4 
       666.0         0.20          5.8 
       667.0         0.23          6.3 
       668.0         0.40          6.0 
       669.0         0.27          5.7 
       670.0         0.23          6.1 
       671.0         0.20          6.0 
       672.0         0.22          5.5 
       673.0         0.20          6.0 
       674.0         0.20          5.8 
       675.0         0.17          5.4 
       676.0         0.20          6.0 
       677.0         0.17          5.9 
       678.0         0.20          5.7 
       679.0         0.20          5.5 
       680.0         0.20          5.1 
       681.0         0.20          5.7 
       682.0         0.20          5.6 
       683.0         0.20          5.3 
       684.0         0.17          5.3 
       685.0         0.30          5.6 
       686.0         4.03          5.7 
       687.0         0.20          4.9 
       688.0         0.20          5.4 
       689.0         0.17          4.9 
       690.0         0.20          4.8 
       691.0         0.23          5.4 
       692.0         0.23          6.0 
       693.0         0.27          5.7 
       694.0         0.23          5.4 
       695.0         0.17          5.3 
       696.0         0.20          5.4 
       697.0         0.27          5.6 
       698.0         0.17          5.1 
       699.0         0.17          5.5 
       700.0         0.17          5.1 
       701.0         0.13          5.3 
       702.0         0.13          5.6 
       703.0         0.15          5.6 
       704.0         0.10          5.3 
       705.0         0.20          5.6 
       706.0         0.17          5.9 
