~Version Information
VERS.                      2.0: CWLS Log ASCII Standard - VERSION 2.0
WRAP.                       NO: One line per depth step
~Well Information Block
STRT.FT               554.1000: 
STOP.FT              2173.5000: 
STEP.FT                 0.1000: 
NULL.                -999.2500: 
COMP.          Petrogulf Corporation: COMPANY
WELL.            Montoya 6-14R: WELL
FLD.           Purgatorie River: FIELD
LOC.           867' FSL & 751' FWL: LOCATION
CNTY.               Las Animas: COUNTY
SRVC.                         : SERVICE COMPANY
DATE.          Mon Nov 15 06:14:10 2004: LOG DATE
UWI.           05 071 08242 00: UNIQUE WELL ID
STAT.                 Colorado: STATE
~Curve Information Block
DEPT.FT            0 000 00 00: Depth
DCAL.in                       : CDL Caliper
RHOB.g/cc                     : CDL Bulk Density
RHOC.g/cc                     : CDL Density Correction
DPOR.pu                       : CDL Density Porosity
GR.GAPI                       : Gamma Ray
NPOR.pu                       : Neutron Porosity
~Parameter Information Block
~A  Depth       DCAL        RHOB        RHOC        DPOR         GR         NPOR    
# ...
   995.7000      8.3096      2.1192      0.1145     32.1723     84.7169     33.6362
   995.8000      8.2642      2.2339      0.1862     25.2156     90.3154     33.6720
   995.9000      8.2642      2.3605      0.2073     17.5430     94.2714     32.5286
   996.0000      8.1222      2.4673      0.1934     11.0756     94.6135     30.4838
   996.1000      8.1222      2.5360      0.1711      6.9090     94.3004     28.7157
   996.2000      8.1222      2.5701      0.0859      4.8439     95.0553     27.6267
   996.3000      8.0126      2.5859      0.0530      3.8861     99.1422     27.0656
   996.4000      8.0126      2.5924      0.0334      3.4919    104.8767     26.5844
   996.5000      7.9797      2.5951      0.0158      3.3253    107.8445     26.1789
   996.6000      7.9797      2.6013      0.0574      2.9517    108.2739     26.5164
   996.7000      7.9797      2.6022      0.0715      2.8970    107.1495     27.1900
   996.8000      7.9744      2.5857      0.0375      3.8982    104.5899     27.1101
   996.9000      7.9744      2.5652      0.0065      5.1409    104.5146     26.5271
   997.0000      7.9737      2.5576      0.0226      5.5976    107.8426     26.4116
   997.1000      7.9737      2.5628     -0.0016      5.2848    108.6323     26.7716
   997.2000      7.9737      2.5737      0.0205      4.6230    105.2198     26.8300
   997.3000      7.9738      2.5771      0.0416      4.4156    102.0378     26.1836
   997.4000      7.9738      2.5758      0.0294      4.4948    102.5315     25.0584
   997.5000      7.9737      2.5933      0.0390      3.4375    105.0346     23.7092
   997.6000      7.9737      2.6264      0.1151      1.4283    105.0992     22.7411
   997.7000      7.9737      2.6452      0.1174      0.2916    101.9359     23.0588
   997.8000      7.9736      2.6350      0.1057      0.9089     98.3778     24.6781
   997.9000      7.9736      2.6081      0.0705      2.5397     95.2145     26.1551
   998.0000      7.9738      2.5836      0.0630      4.0225     93.3265     26.1515
   998.1000      7.9738      2.5712      0.0664      4.7771     96.5884     25.6389
   998.2000      7.9738      2.5723      0.0463      4.7066    104.9945     26.0135
   998.3000      7.9741      2.5796      0.0974      4.2649    112.7471     26.8197
   998.4000      7.9741      2.5837      0.0470      4.0160    115.2892     27.3464
   998.5000      7.9740      2.5914      0.0508      3.5533    113.1741     27.4994
   998.6000      7.9740      2.6066      0.0588      2.6307    111.3729     27.3810
   998.7000      7.9740      2.6189      0.0840      1.8856    112.7067     27.5270
   998.8000      7.9740      2.6229      0.1082      1.6451    114.2249     28.2769
   998.9000      7.9740      2.6195      0.1311      1.8466    112.2524     29.0046
   999.0000      7.9740      2.6067      0.1037      2.6242    107.3475     28.8279
   999.1000      7.9740      2.5921      0.0866      3.5115    101.4891     27.9536
   999.2000      7.9740      2.5890      0.0875      3.6974     95.3413     27.1542
   999.3000      7.9733      2.5933      0.0893      3.4387     90.8304     26.7170
   999.4000      7.9733      2.5956      0.0565      3.2977     89.5310     26.5412
   999.5000      7.9723      2.5999      0.0771      3.0359     91.4995     26.4443
   999.6000      7.9723      2.6090      0.0363      2.4824     94.4037     26.1007
   999.7000      7.9723      2.6143      0.0550      2.1648     93.9993     25.3427
   999.8000      7.9716      2.6072      0.0606      2.5946     91.9397     24.4455
   999.9000      7.9716      2.5965      0.0563      3.2441     91.7144     23.8623
  1000.0000      7.9714      2.5946      0.0788      3.3559     91.9869     23.6368
  1000.1000      7.9714      2.5972      0.0653      3.1993     93.2791     23.5827
  1000.2000      7.9714      2.5935      0.0404      3.4267     96.1749     23.6484
  1000.3000      7.9718      2.5807      0.0535      4.2001     98.1941     23.4860
  1000.4000      7.9718      2.5650      0.0183      5.1491     97.6759     23.0461
  1000.5000      7.9721      2.5528      0.0378      5.8886     94.2098     23.1211
  1000.6000      7.9721      2.5487      0.0020      6.1380     89.6892     24.0219
  1000.7000      7.9721      2.5553      0.0624      5.7379     89.4793     25.2356
  1000.8000      7.9724      2.5604      0.0136      5.4281     96.4154     25.8902
  1000.9000      7.9724      2.5583      0.0358      5.5598    105.5846     25.7084
  1001.0000      7.9724      2.5656     -0.0086      5.1141    109.9841     25.7323
  1001.1000      7.9724      2.5869      0.0825      3.8212    109.0923     26.3896
  1001.2000      7.9724      2.5962      0.0670      3.2635    105.2397     27.0771
  1001.3000      7.9719      2.5832      0.0056      4.0501    100.7954     27.6670
  1001.4000      7.9719      2.5673      0.0392      5.0102    100.1639     28.0851
  1001.5000      7.9714      2.5619      0.0437      5.3386    103.7596     27.7861
  1001.6000      7.9714      2.5749      0.0423      4.5540    106.9348     26.8472
  1001.7000      7.9714      2.6075      0.0756      2.5738    105.8736     26.1454
  1001.8000      7.9718      2.6405      0.0984      0.5756    101.2583     26.2156
  1001.9000      7.9718      2.6518      0.0947     -0.1121     97.6479     26.6938
  1002.0000      7.9729      2.6356      0.0882      0.8703     97.3658     26.4880
  1002.1000      7.9729      2.5989      0.0509      3.0988     99.2651     25.6288
  1002.2000      7.9729      2.5624      0.0205      5.3068    103.7037     25.4008
  1002.3000      7.9744      2.5513     -0.0244      5.9836    109.2267     25.6880
  1002.4000      7.9744      2.5622      0.0351      5.3213    110.7086     25.4884
  1002.5000      7.9749      2.5688      0.0459      4.9231    108.0533     24.8984
  1002.6000      7.9749      2.5699      0.0323      4.8538    105.8092     24.5366
  1002.7000      7.9749      2.5910      0.0236      3.5779    105.6045     25.1714
  1002.8000      7.9734      2.6431      0.0472      0.4205    106.2279     26.8715
  1002.9000      7.9734      2.7014      0.1310     -3.1156    107.6129     28.1999
  1003.0000      7.9715      2.7284      0.1097     -4.7520    108.9301     28.0908
  1003.1000      7.9715      2.7222      0.0714     -4.3763    108.3135     27.3215
  1003.2000      7.9715      2.7083      0.0657     -3.5356    106.1173     27.0706
  1003.3000      7.9704      2.6939      0.0617     -2.6612    104.1837     27.3139
  1003.4000      7.9704      2.6683      0.0461     -1.1100    105.7720     27.5527
  1003.5000      7.9705      2.6308     -0.0081      1.1642    112.1781     27.8894
  1003.6000      7.9705      2.5920     -0.0309      3.5173    117.6157     28.2608
  1003.7000      7.9705      2.5615     -0.0259      5.3647    117.5907     28.2400
  1003.8000      7.9715      2.5430      0.0069      6.4820    113.8568     27.8783
  1003.9000      7.9715      2.5334      0.0320      7.0688    111.5684     27.7748
  1004.0000      7.9722      2.5272      0.0247      7.4399    115.0415     28.1502
  1004.1000      7.9722      2.5229      0.0278      7.7054    120.1891     28.5692
  1004.2000      7.9722      2.5178      0.0232      8.0102    118.8770     29.1155
  1004.3000      7.9714      2.5099      0.0387      8.4887    109.3572     30.0698
  1004.4000      7.9714      2.5017      0.0361      8.9863     98.7279     30.4225
  1004.5000      7.9709      2.5004      0.0335      9.0692     96.5417     29.4136
  1004.6000      7.9709      2.5117      0.0115      8.3814    102.5048     27.7664
  1004.7000      7.9709      2.5335      0.0128      7.0619    105.4439     26.4451
  1004.8000      7.9713      2.5538      0.0412      5.8278    101.2219     26.0417
  1004.9000      7.9713      2.5629      0.0219      5.2810     97.2715     26.5562
  1005.0000      7.9716      2.5615      0.0683      5.3648     97.6918     27.1730
  1005.1000      7.9716      2.5518      0.0037      5.9491    100.6337     27.3172
  1005.2000      7.9716      2.5376     -0.0099      6.8147    103.3106     27.0498
