~Version Information
VERS.                      2.0: CWLS Log ASCII Standard - VERSION 2.0
WRAP.                       NO: One line per depth step
~Well Information Block
STRT.FT               806.0000: 
STOP.FT              1812.2000: 
STEP.FT                 0.1000: 
NULL.                -999.2500: 
COMP.          Pioneer Natural Resources: COMPANY
WELL.            Hill 33-22 Tr: WELL
FLD.           Purgatoire River: FIELD
LOC.           1573' FSL & 1585' FEL: LOCATION
PROV.                 Colorado: PROVINCE
CNTY.               Las Animas: COUNTRY
SRVC.                Patterson: SERVICE COMPANY
DATE.          Thu Apr 14 12:25:33 2005: LOG DATE
UWI.           05 071 08316 00: UNIQUE WELL ID
~Curve Information Block
DEPT.FT            0 000 00 00: Depth
DCAL.in                       : CDL Caliper
RHOB.g/cc                     : CDL Bulk Density
RHOC.g/cc                     : CDL Density Correction
DPOR.pu                       : CDL Density Porosity
GR.GAPI                       : Gamma Ray
NPOR.pu                       : Neutron Porosity
~Parameter Information Block
~A  Depth       DCAL        RHOB        RHOC        DPOR         GR         NPOR    
# ...
  1593.2000      7.9276      2.6903      0.0361     -2.4399     92.1794     25.8846
  1593.3000      7.8822      2.7005      0.0781     -3.0613     87.7977     25.8538
  1593.4000      7.8822      2.6864      0.0490     -2.2085     86.0610     25.0941
  1593.5000      7.8743      2.6631      0.0124     -0.7962     88.9557     23.9327
  1593.6000      7.8743      2.6521      0.0307     -0.1297     93.7048     23.2758
  1593.7000      7.8743      2.6494      0.0277      0.0385     96.7588     23.0561
  1593.8000      7.8734      2.6349      0.0179      0.9128     96.1108     22.3518
  1593.9000      7.8734      2.6103     -0.0170      2.4033     91.6677     21.6145
  1594.0000      7.8906      2.5978     -0.0307      3.1611     87.8235     22.2361
  1594.1000      7.8906      2.6083     -0.0010      2.5283     90.1736     23.7467
  1594.2000      7.8906      2.6203      0.0557      1.7990     96.6027     24.5362
  1594.3000      7.9049      2.6051      0.0430      2.7214    101.8213     24.6033
  1594.4000      7.9049      2.5651      0.0507      5.1448    106.6222     24.7785
  1594.5000      7.9100      2.5286     -0.0232      7.3546    111.8374     25.5851
  1594.6000      7.9100      2.5176     -0.0631      8.0232    115.7042     27.0267
  1594.7000      7.9100      2.5217      0.0555      7.7730    119.1763     28.0739
  1594.8000      7.9148      2.5217     -0.0065      7.7785    124.4144     27.9312
  1594.9000      7.9148      2.5237      0.0575      7.6520    129.3662     27.4054
  1595.0000      7.9280      2.5384      0.0540      6.7648    132.0533     27.7834
  1595.1000      7.9280      2.5690      0.0844      4.9102    135.0493     28.9541
  1595.2000      7.9280      2.6121      0.0899      2.2958    137.5524     29.5857
  1595.3000      7.8631      2.6484      0.1494      0.0983    137.6353     28.8862
  1595.4000      7.8631      2.6573      0.1653     -0.4400    139.5001     27.6350
  1595.5000      7.8493      2.6435      0.0906      0.3920    144.9277     27.2901
  1595.6000      7.8493      2.6252      0.1122      1.5048    149.8457     27.9915
  1595.7000      7.8493      2.6053      0.1230      2.7107    153.0555     28.3645
  1595.8000      7.8583      2.5850      0.0178      3.9399    153.4838     27.9316
  1595.9000      7.8583      2.5715      0.0493      4.7568    149.2077     27.6990
  1596.0000      7.8847      2.5632      0.0380      5.2581    146.2581     28.2235
  1596.1000      7.8847      2.5613      0.0284      5.3733    148.7026     28.9951
  1596.2000      7.8847      2.5699     -0.0043      4.8561    150.6992     29.0938
  1596.3000      7.9036      2.5860      0.0564      3.8788    150.1506     27.9675
  1596.4000      7.9036      2.6068      0.0359      2.6173    145.3137     26.0004
  1596.5000      7.9081      2.6280      0.0698      1.3328    131.9630     24.2350
  1596.6000      7.9081      2.6388      0.0581      0.6804    116.5328     23.4076
  1596.7000      7.9081      2.6354      0.0750      0.8865    108.6263     23.0059
  1596.8000      7.9141      2.6347      0.0221      0.9250    105.5591     22.2530
  1596.9000      7.9141      2.6492      0.1016      0.0462     99.6689     21.5914
  1597.0000      7.8970      2.6592      0.0800     -0.5589     90.3708     21.4803
  1597.1000      7.8970      2.6577     -0.0312     -0.4645     81.5060     21.4038
  1597.2000      7.8970      2.6622      0.0665     -0.7398     76.4075     21.1750
  1597.3000      7.8559      2.6739      0.0264     -1.4487     76.6698     21.0935
  1597.4000      7.8559      2.6856      0.0775     -2.1558     77.6360     20.8208
  1597.5000      7.8517      2.6907      0.0928     -2.4640     74.7169     20.1836
  1597.6000      7.8517      2.6849      0.0894     -2.1136     70.3945     19.8729
  1597.7000      7.8517      2.6750      0.0599     -1.5146     67.9960     20.1165
  1597.8000      7.8404      2.6693      0.0712     -1.1718     66.6829     20.2898
  1597.9000      7.8404      2.6583      0.0731     -0.5024     64.9493     20.0138
  1598.0000      7.8669      2.6369      0.0017      0.7968     64.9067     19.7632
  1598.1000      7.8669      2.6273     -0.0055      1.3760     68.3074     19.6679
  1598.2000      7.8669      2.6358      0.0194      0.8636     72.3771     19.2128
  1598.3000      7.9038      2.6398      0.0364      0.6167     74.9301     18.9698
  1598.4000      7.9038      2.6281      0.0330      1.3250     77.8522     19.9294
  1598.5000      7.9084      2.6056      0.0116      2.6916     82.7567     21.4913
  1598.6000      7.9084      2.5814     -0.0078      4.1549     87.8426     22.5288
  1598.7000      7.9084      2.5640      0.0709      5.2145     91.3890     22.9793
  1598.8000      7.9151      2.5548      0.0004      5.7722     93.4021     23.2690
  1598.9000      7.9151      2.5534      0.0118      5.8562     94.2908     23.3753
  1599.0000      7.9140      2.5526      0.0369      5.9003     96.4254     23.2598
  1599.1000      7.9140      2.5486      0.0260      6.1478    102.4944     23.5288
  1599.2000      7.9140      2.5577      0.0076      5.5938    108.9200     24.4918
  1599.3000      7.9038      2.6006      0.0565      2.9926    108.6273     25.2768
  1599.4000      7.9038      2.6692      0.0913     -1.1624    103.6533     25.5300
  1599.5000      7.8939      2.7225      0.1919     -4.3963    102.0042     25.9074
  1599.6000      7.8939      2.7274      0.1560     -4.6898    104.7023     26.4485
  1599.7000      7.8939      2.6965      0.1462     -2.8164    105.4237     26.7900
  1599.8000      7.8900      2.6678      0.0978     -1.0802    100.9777     26.6591
  1599.9000      7.8900      2.6537      0.1376     -0.2244     95.8595     26.1443
  1600.0000      7.8853      2.6388      0.0904      0.6795     89.8729     25.7037
  1600.1000      7.8853      2.6208      0.0479      1.7693     78.4095     25.3157
  1600.2000      7.8853      2.6011      0.0164      2.9647     67.2289     24.5121
  1600.3000      7.8967      2.5736     -0.0021      4.6326     62.4642     23.5621
  1600.4000      7.8967      2.5559     -0.0601      5.7002     60.2166     23.1556
  1600.5000      7.8997      2.5675     -0.0133      4.9981     57.4292     23.1778
  1600.6000      7.8997      2.5851      0.0738      3.9349     54.7961     22.6802
  1600.7000      7.8997      2.5845      0.0260      3.9673     50.9420     21.2774
  1600.8000      7.8789      2.5803      0.0458      4.2265     46.2535     19.7985
  1600.9000      7.8789      2.5880      0.0628      3.7601     42.9868     19.3575
  1601.0000      7.8717      2.6008      0.0465      2.9810     40.2001     19.8509
  1601.1000      7.8717      2.6073      0.0400      2.5849     37.8884     20.2036
  1601.2000      7.8717      2.6060      0.0406      2.6648     36.8106     19.9842
  1601.3000      7.8799      2.5959      0.0298      3.2805     36.4839     19.3676
  1601.4000      7.8799      2.5795      0.0175      4.2727     37.2123     18.6013
  1601.5000      7.8794      2.5716     -0.0039      4.7497     38.7090     18.2567
  1601.6000      7.8794      2.5798      0.0568      4.2545     39.6755     18.7546
  1601.7000      7.8794      2.5954      0.0437      3.3118     40.8055     19.0756
  1601.8000      7.8933      2.6093      0.0244      2.4676     43.5264     18.0822
  1601.9000      7.8933      2.6109      0.0579      2.3702     45.3062     16.6107
  1602.0000      7.9225      2.5876      0.0805      3.7832     42.4716     15.7385
  1602.1000      7.9225      2.5547     -0.0256      5.7735     37.3014     15.5638
  1602.2000      7.9225      2.5463      0.0074      6.2830     36.0437     16.1123
  1602.3000      7.9355      2.5689      0.0143      4.9171     40.3144     17.4050
  1602.4000      7.9355      2.6040      0.0256      2.7860     46.6311     18.4731
  1602.5000      7.9231      2.6279      0.0861      1.3395     50.4854     18.4362
  1602.6000      7.9231      2.6243      0.0658      1.5593     49.7515     18.0079
  1602.7000      7.9231      2.6019      0.0303      2.9131     49.6046     17.9235
