~Version Information
 VERS.                                  2.0 : CWLS LAS VERSION
 WRAP.                                   NO : WRAPING MODE
 SWARE .                 MController 2.5.0E : SOFTWARE VERSION
~Well Information
 WELL.                         Burson 8-31r : WELL
 COMP.                      Petrogulf CORP. : COMPANY
 FLD.                       Purgatory River : FIELD
 LOC.                        NWNE 8 33S 67W : LOCATION
 DATE.                         4/28-4/29/04 : DATE(S) LOGGED
 SRVC.                                  BGS : SERVICE COMPANY
 STAT.                             Colorado : STATE
 CNTY.                           Las Animas : COUNTY
 CTRY.                        United States : COUNTRY
 API.                       05-071-08039-00 : API NUMBER
 STRT.FT                              41.00 : START DEPTH
 STOP.FT                            2225.00 : STOP DEPTH
 STEP.FT                               1.00 : DEPTH INCREMENT
 NULL.                                -9999 : NULL VALUE
~Curve information
 DEPTH.FT                                   :
 ROP.MIN/FT                                 :
 GAS.UNITS                                  :
~ASCII Log data
# ...
     1641.00        0.200        129.3 
     1642.00        0.267        132.5 
     1643.00        0.267        128.2 
     1644.00        0.300        104.9 
     1645.00        0.300         73.8 
     1646.00        3.567        339.2 
     1647.00        0.100        306.3 
     1648.00        0.400        291.5 
     1649.00        0.400        231.1 
     1650.00        0.300        181.8 
     1651.00        0.300        167.9 
     1652.00        0.233        167.0 
     1653.00        0.167        169.7 
     1654.00        0.200        174.8 
     1655.00        0.233        176.7 
     1656.00        0.433        175.4 
     1657.00        0.367        157.8 
     1658.00        0.317        136.8 
     1659.00        0.333        132.8 
     1660.00        0.300        120.7 
     1661.00        0.267        112.1 
     1662.00        0.333        110.6 
     1663.00        0.233        105.7 
     1664.00        0.267        105.8 
     1665.00        0.233        105.8 
     1666.00        0.233        105.4 
     1667.00        0.233        103.5 
     1668.00        0.233        101.1 
     1669.00        0.200        104.4 
     1670.00        0.233        107.1 
     1671.00        0.283        108.3 
     1672.00        0.233        107.0 
     1673.00        0.267        104.3 
     1674.00        0.233         89.9 
     1675.00        0.267         64.5 
     1676.00        3.550        315.0 
     1677.00        0.100        271.3 
     1678.00        0.567        256.2 
     1679.00        0.433        175.8 
     1680.00        0.367        140.8 
     1681.00        0.367        117.3 
     1682.00        0.350        115.3 
     1683.00        0.267        126.0 
     1684.00        0.267        130.5 
     1685.00        0.267        129.2 
     1686.00        0.300        121.9 
     1687.00        0.333        109.3 
     1688.00        0.300         95.9 
     1689.00        0.267         91.8 
     1690.00        0.267         86.5 
     1691.00        0.267         83.2 
     1692.00        0.233         78.1 
     1693.00        0.283         74.3 
     1694.00        0.267         71.1 
     1695.00        0.233         69.1 
     1696.00        0.267         68.8 
     1697.00        0.300         68.3 
     1698.00        0.267         65.2 
     1699.00        0.267         61.3 
     1700.00        0.300         61.6 
     1701.00        0.267         65.4 
     1702.00        0.267         66.4 
     1703.00        0.267         64.3 
     1704.00        0.300         54.9 
     1705.00        0.267         38.8 
     1706.00        5.567        820.1 
     1707.00        0.267        125.4 
     1708.00        0.267        113.8 
     1709.00        0.200         94.9 
     1710.00        0.333         89.2 
     1711.00        0.317         82.8 
     1712.00        0.267         93.5 
     1713.00        0.300        100.5 
     1714.00        0.233        100.3 
     1715.00        0.267         97.8 
     1716.00        0.333         88.6 
     1717.00        0.300         76.5 
     1718.00        0.300         69.1 
     1719.00        0.367         60.9 
     1720.00        0.267         56.5 
     1721.00        0.300         54.2 
     1722.00        0.200         52.2 
     1723.00        0.283         53.2 
     1724.00        0.267         55.7 
     1725.00        0.200         56.6 
     1726.00        0.333         55.5 
     1727.00        0.300         50.8 
     1728.00        0.267         50.4 
     1729.00        0.167         52.7 
     1730.00        0.200         54.9 
     1731.00        0.267         55.6 
     1732.00        0.233         54.9 
     1733.00        0.300         45.6 
     1734.00        0.300         28.4 
     1735.00        0.233         31.8 
     1736.00        5.400        437.0 
     1737.00        0.100         69.3 
     1738.00        0.133         68.4 
     1739.00        0.567         72.7 
     1740.00        0.300         85.9 
     1741.00        0.283         88.0 
     1742.00        0.300         82.3 
     1743.00        0.333         70.4 
     1744.00        0.333         65.3 
     1745.00        0.333         64.4 
     1746.00        0.267         61.8 
     1747.00        0.167         61.4 
     1748.00        0.233         60.9 
     1749.00        0.300         60.8 
     1750.00        0.300         60.7 
     1751.00        0.233         61.3 
     1752.00        0.267         62.1 
     1753.00        0.283         60.9 
     1754.00        0.233         60.0 
     1755.00        0.133         56.3 
     1756.00        0.267         55.3 
     1757.00        0.267         49.1 
     1758.00        0.300         56.4 
     1759.00        0.367         63.0 
     1760.00        0.200         62.6 
     1761.00        0.333         60.9 
     1762.00        0.300         54.3 
     1763.00        0.233         33.3 
     1764.00        0.200         29.3 
     1765.00        0.267         39.1 
     1766.00        5.433        315.3 
     1767.00        0.533         90.1 
     1768.00        0.200         77.5 
     1769.00        0.533         73.5 
     1770.00        0.167         60.7 
     1771.00        0.383         56.1 
     1772.00        0.367         50.2 
     1773.00        0.367         45.8 
     1774.00        0.200         41.2 
     1775.00        0.367         40.9 
     1776.00        0.300         37.5 
     1777.00        0.267         34.5 
     1778.00        0.300         33.2 
     1779.00        0.233         32.9 
     1780.00        0.367         31.5 
     1781.00        0.383         26.5 
     1782.00        0.400         28.8 
     1783.00        0.333         28.8 
     1784.00        0.333         27.9 
     1785.00        0.400         29.0 
     1786.00        0.333         29.6 
     1787.00        0.367         29.6 
     1788.00        0.333         30.6 
     1789.00        0.367         30.9 
     1790.00        0.383         38.7 
     1791.00        0.400         42.7 
     1792.00        0.367         41.9 
     1793.00        0.367         33.3 
     1794.00        0.400         19.5 
     1795.00        0.267          8.3 
     1796.00        5.033        296.1 
     1797.00        0.333         86.9 
     1798.00        0.200         54.3 
     1799.00        0.367         50.8 
     1800.00        0.500         63.4 
     1801.00        0.433         70.1 
     1802.00        0.433         59.9 
     1803.00        0.367         36.1 
     1804.00        0.333         33.7 
     1805.00        0.250         34.6 
     1806.00        0.267         35.6 
     1807.00        0.233         40.8 
     1808.00        0.267         46.2 
     1809.00        0.267         46.5 
     1810.00        0.233         44.3 
     1811.00        0.233         39.2 
     1812.00        0.300         34.9 
     1813.00        0.200         31.1 
     1814.00        0.267         28.8 
     1815.00        0.200         25.3 
     1816.00        0.233         22.4 
     1817.00        0.233         20.1 
     1818.00        0.283         17.2 
     1819.00        0.233         17.7 
     1820.00        0.267         17.2 
     1821.00        0.200         15.9 
     1822.00        0.233         14.3 
     1823.00        0.233         11.6 
     1824.00        0.267          6.9 
     1825.00        0.233          3.4 
     1826.00        5.267        120.0 
     1827.00        0.167         85.4 
     1828.00        0.433         52.8 
     1829.00        0.300         16.1 
     1830.00        0.300          4.8 
     1831.00        0.400         18.5 
     1832.00        0.467         28.2 
     1833.00        0.367         30.8 
     1834.00        0.300         31.7 
     1835.00        0.317         30.8 
     1836.00        0.333         27.8 
     1837.00        0.300         26.9 
     1838.00        0.267         24.4 
     1839.00        0.300         21.7 
     1840.00        0.267         20.2 
