~Version Information
 VERS.                                  2.0 : CWLS LAS VERSION
 WRAP.                                   NO : WRAPING MODE
 SWARE .                 MController 2.5.0J : SOFTWARE VERSION
~Well Information
 WELL.                           Ywam 7-23V : WELL
 COMP.                       Petrogulf Corp : COMPANY
 FLD.                      Purgatorie River : FIELD
 LOC.                 NE/SW Sec 7 T33S R67W : LOCATION
 DATE.                          10/29-30/04 : DATE(S) LOGGED
 SRVC.       Blanco Geological Services LLC : SERVICE COMPANY
 STAT.                                   CO : STATE
 CNTY.                           Las Animas : COUNTY
 CTRY.                                  USA : COUNTRY
 API.                       05-071-08227-00 : API NUMBER
 STRT.FT                             634.00 : START DEPTH
 STOP.FT                            2611.00 : STOP DEPTH
 STEP.FT                               1.00 : DEPTH INCREMENT
 NULL.                                -9999 : NULL VALUE
~Curve information
 DEPTH.FT                                   :
 ROP.MIN/FT                                 :
 GAS.UNITS                                  :
~ASCII Log data
# ...
      2034.0         0.32         26.6 
      2035.0         0.30         26.7 
      2036.0         0.27         27.0 
      2037.0         0.27         26.4 
      2038.0         0.30         53.0 
      2039.0         0.27         50.3 
      2040.0         0.27         44.0 
      2041.0         0.47         43.2 
      2042.0         0.40         69.3 
      2043.0         0.33         87.5 
      2044.0         0.35        130.5 
      2045.0         0.37        131.0 
      2046.0         0.47        123.0 
      2047.0         0.43        104.7 
      2048.0         0.40         93.9 
      2049.0         0.37         87.1 
      2050.0         0.37         77.4 
      2051.0         0.37         74.9 
      2052.0         0.30         70.1 
      2053.0         0.32         67.2 
      2054.0         0.43         64.1 
      2055.0         0.50         55.9 
      2056.0         0.43         49.2 
      2057.0         0.37         49.2 
      2058.0         0.40         49.6 
      2059.0         0.30         51.4 
      2060.0         0.30         52.2 
      2061.0         0.28         52.4 
      2062.0         0.27         55.3 
      2063.0         0.23         58.3 
      2064.0         0.27         60.1 
      2065.0         0.27         60.9 
      2066.0         0.33         64.1 
      2067.0         0.27         64.8 
      2068.0         0.40        402.6 
      2069.0         0.37         91.9 
      2070.0         0.27         86.8 
      2071.0         0.40         85.9 
      2072.0         0.53         79.7 
      2073.0         0.40         74.5 
      2074.0         0.43         73.1 
      2075.0         0.27         74.2 
      2076.0         0.30         72.9 
      2077.0         0.30         70.3 
      2078.0         0.28         69.0 
      2079.0         0.20         65.7 
      2080.0         0.27         63.4 
      2081.0         0.23         63.2 
      2082.0         0.27         58.8 
      2083.0         0.33         61.7 
      2084.0         0.33         65.3 
      2085.0         0.33         66.1 
      2086.0         0.33         66.4 
      2087.0         0.40         66.5 
      2088.0         0.37         66.9 
      2089.0         0.35         67.2 
      2090.0         0.30         66.3 
      2091.0         0.37         66.1 
      2092.0         0.37         68.2 
      2093.0         0.43         70.6 
      2094.0         0.50         74.4 
      2095.0         0.43         79.5 
      2096.0         0.30         84.0 
      2097.0         0.30         89.7 
      2098.0         0.52        236.7 
      2099.0         0.53        207.8 
      2100.0         0.10        167.6 
      2101.0         0.47        138.7 
      2102.0         0.43        141.3 
      2103.0         0.43        150.6 
      2104.0         0.43        148.9 
      2105.0         0.43        131.0 
      2106.0         0.45        104.5 
      2107.0         0.53         88.4 
      2108.0         0.43         85.5 
      2109.0         0.37         84.8 
      2110.0         0.47         84.5 
      2111.0         0.30         69.4 
      2112.0         0.37         70.6 
      2113.0         0.30         69.5 
      2114.0         0.35         66.4 
      2115.0         0.37         60.3 
      2116.0         0.33         62.1 
      2117.0         0.33         63.6 
      2118.0         0.30         62.8 
      2119.0         0.37         63.7 
      2120.0         0.30         63.9 
      2121.0         0.30         63.7 
      2122.0         0.33         63.3 
      2123.0         0.27         60.6 
      2124.0         0.37         60.1 
      2125.0         0.35         55.6 
      2126.0         0.30         55.3 
      2127.0         0.30         55.3 
      2128.0         0.27        190.3 
      2129.0         0.27        109.0 
      2130.0         0.27        104.6 
      2131.0         0.47         85.4 
      2132.0         0.57        130.4 
      2133.0         0.57        122.1 
      2134.0         0.63         96.1 
      2135.0         0.50         94.5 
      2136.0         0.47         86.1 
      2137.0         0.28         56.6 
      2138.0         0.37         56.4 
      2139.0         0.50         52.3 
      2140.0         0.40         68.9 
      2141.0         0.40         69.7 
      2142.0         0.47         66.0 
      2143.0         0.40         57.3 
      2144.0         0.43         57.1 
      2145.0         0.42         56.5 
      2146.0         0.40         50.7 
      2147.0         0.43         48.5 
      2148.0         0.40         46.0 
      2149.0         0.43         51.8 
      2150.0         0.40         57.5 
      2151.0         0.40         58.4 
      2152.0         0.37         56.7 
      2153.0         0.42         61.7 
      2154.0         0.33         64.4 
      2155.0         0.27         68.2 
      2156.0         0.33         68.5 
      2157.0         0.30         60.6 
      2158.0         0.30        201.6 
      2159.0         0.30         92.2 
      2160.0         0.30         90.0 
      2161.0         0.48        121.3 
      2162.0         0.50        134.9 
      2163.0         0.47        122.9 
      2164.0         0.50         95.9 
      2165.0         0.40         71.3 
      2166.0         0.43         81.3 
      2167.0         0.47         77.6 
      2168.0         0.45         66.1 
      2169.0         0.43         49.5 
      2170.0         0.50         45.8 
      2171.0         0.43         48.0 
      2172.0         0.43         57.2 
      2173.0         0.33         56.4 
      2174.0         0.33         47.0 
      2175.0         0.30         46.9 
      2176.0         0.42         49.1 
      2177.0         0.37         46.8 
      2178.0         0.40         52.6 
      2179.0         0.40         57.4 
      2180.0         0.40         61.4 
      2181.0         0.43         61.2 
      2182.0         0.33         59.4 
      2183.0         0.33         57.3 
      2184.0         0.33         52.7 
      2185.0         0.38         46.8 
      2186.0         0.37         48.0 
      2187.0         0.40         49.4 
      2188.0         0.23        237.0 
      2189.0         0.27        234.9 
      2190.0         0.27        199.4 
      2191.0         0.43        175.2 
      2192.0         0.40        110.6 
      2193.0         0.47        121.5 
      2194.0         0.50        119.4 
      2195.0         0.43         99.1 
      2196.0         0.43         65.0 
      2197.0         0.45         45.1 
      2198.0         0.40         45.0 
      2199.0         0.43         65.1 
      2200.0         0.40         64.4 
      2201.0         0.43         53.8 
      2202.0         0.33         36.1 
      2203.0         0.30         41.1 
      2204.0         0.30         49.2 
      2205.0         0.27         55.4 
      2206.0         0.35         64.3 
      2207.0         0.37         67.2 
      2208.0         0.37         69.5 
      2209.0         0.40         71.4 
      2210.0         0.40         74.5 
      2211.0         0.40         72.7 
      2212.0         0.40         72.9 
      2213.0         0.43         77.5 
      2214.0         0.40         77.4 
      2215.0         0.48         70.3 
      2216.0         0.47         73.9 
      2217.0         0.50         75.8 
      2218.0         0.50         75.6 
      2219.0         0.50        197.0 
      2220.0         0.37         64.7 
      2221.0         0.52         65.9 
      2222.0         0.27         71.1 
      2223.0         0.20         77.4 
      2224.0         0.27         79.7 
      2225.0         0.20         79.7 
      2226.0         0.47         75.2 
      2227.0         0.50         71.4 
      2228.0         0.37         67.8 
      2229.0         0.40         69.6 
      2230.0         0.38         62.6 
      2231.0         0.37         58.8 
      2232.0         0.37         57.3 
      2233.0         0.33         49.6 
