~Version Information
VERS.                      2.0: CWLS Log ASCII Standard - VERSION 2.0
WRAP.                       NO: One line per depth step
~Well Information Block
STRT.FT               664.0000: 
STOP.FT              1615.5000: 
STEP.FT                 0.2500: 
NULL.                -999.2500: 
COMP.          Petrogulf Corporation: COMPANY
WELL.          Great Plains 22-21R: WELL
FLD.           Purgatorie River: FIELD
LOC.           73' FNL & 1992' FWL: LOCATION
PROV.                 Colorado: PROVINCE
CNTY.               Las Animas: COUNTRY
SRVC.                Patterson: SERVICE COMPANY
DATE.          Thu Sep 08 08:05:26 2005: LOG DATE
UWI.                          : UNIQUE WELL ID
~Curve Information Block
DEPT.FT            0 000 00 00: Depth
SP.mV                         : DIL Spontaneous Potential
RILD.Ohm-m                    : DIL Deep Resistivity
RILM.Ohm-m                    : DIL Medium Resistivity
RLL3.Ohm-m                    : DIL Shallow Resistivity
GR.GAPI                       : Gamma Ray
~Parameter Information Block
~A  Depth        SP         RILD        RILM        RLL3         GR     
# ...
  1280.0000    148.6670     16.3265     17.7896     19.1815   -999.2500
  1280.2500    148.6713     15.8584     16.3473     15.2859   -999.2500
  1280.5000    148.5856     15.4144     14.9032     14.3012   -999.2500
  1280.7500    148.4650     15.0537     13.7721     13.3532   -999.2500
  1281.0000    148.4006     14.7448     13.0774     11.5739   -999.2500
  1281.2500    148.2946     14.5205     12.6092     10.4422   -999.2500
  1281.5000    148.1701     14.2241     12.1399     10.4306   -999.2500
  1281.7500    148.0912     13.8539     12.2851     10.7936   -999.2500
  1282.0000    147.9781     13.7577     12.4140     11.3292   -999.2500
  1282.2500    147.8165     13.5949     12.7859     12.1738   -999.2500
  1282.5000    147.7486     13.4601     13.1585     13.6300   -999.2500
  1282.7500    147.7030     13.4479     13.5976     15.5930   -999.2500
  1283.0000    147.6863     13.4684     14.2048     17.5019   -999.2500
  1283.2500    147.6868     13.5607     14.7048     19.0524   -999.2500
  1283.5000    147.8238     13.9303     15.1131     20.0243   -999.2500
  1283.7500    148.0008     14.1390     15.6779     19.7083   -999.2500
  1284.0000    148.1976     14.6932     16.2123     19.3123   -999.2500
  1284.2500    148.3696     15.1318     17.0404     19.9555   -999.2500
  1284.5000    148.4267     15.3539     17.7198     19.7032   -999.2500
  1284.7500    148.3441     15.6474     18.1341     19.3447   -999.2500
  1285.0000    148.2379     15.6104     18.3475     20.0093   -999.2500
  1285.2500    148.1795     15.2080     18.5132     20.4971   -999.2500
  1285.5000    148.0675     14.9721     18.3471     20.7336   -999.2500
  1285.7500    147.9207     14.6885     17.5744     20.7082   -999.2500
  1286.0000    147.7780     14.4099     16.4480     20.2093   -999.2500
  1286.2500    147.5938     14.0554     15.0695     18.8152   -999.2500
  1286.5000    147.4268     13.9629     14.0452     15.3512   -999.2500
  1286.7500    147.1859     14.0325     13.0175     12.8069   -999.2500
  1287.0000    146.8893     14.0177     12.2751     12.3683   -999.2500
  1287.2500    146.6168     14.2700     11.8946     11.5375   -999.2500
  1287.5000    146.4727     14.2727     11.9858      9.4826   -999.2500
  1287.7500    146.3838     14.2642     12.4754      9.2000   -999.2500
  1288.0000    146.2505     14.2723     13.2879     12.3149   -999.2500
  1288.2500    146.2295     14.3204     14.3466     20.1347   -999.2500
  1288.5000    146.2283     14.2920     15.6928     30.5235   -999.2500
  1288.7500    146.1716     14.5773     16.5633     35.3695   -999.2500
  1289.0000    145.9933     14.5851     17.0384     33.0426   -999.2500
  1289.2500    145.6897     14.7457     17.2102     28.4710   -999.2500
  1289.5000    145.3569     15.0841     17.5806     24.6697   -999.2500
  1289.7500    144.9911     15.2633     18.1669     22.9255   -999.2500
  1290.0000    144.6514     15.9111     18.4012     21.3589   -999.2500
  1290.2500    144.4312     16.4315     19.1571     19.7267   -999.2500
  1290.5000    144.2157     16.2565     19.5356     18.4938   -999.2500
  1290.7500    144.0638     15.8812     20.1167     17.3944   -999.2500
  1291.0000    143.9945     15.3217     19.9095     16.8551   -999.2500
  1291.2500    144.0261     14.5561     18.8821     18.4534   -999.2500
  1291.5000    144.0882     14.0939     16.9649     21.1109   -999.2500
  1291.7500    144.2206     13.2518     15.6504     18.4583   -999.2500
  1292.0000    144.4204     12.5280     13.8128     12.2318   -999.2500
  1292.2500    144.7189     11.9270     12.3950      9.2586   -999.2500
  1292.5000    145.1214     11.2382     11.4046      9.1942   -999.2500
  1292.7500    145.6557     10.6785     10.5877      9.9035   -999.2500
  1293.0000    146.2055     10.2730      9.9404     10.1629   -999.2500
  1293.2500    146.6719     10.0314      9.4776     10.2513   -999.2500
  1293.5000    147.0547      9.8222      8.8975      9.5703   -999.2500
  1293.7500    147.2890      9.5950      8.5023      8.6630   -999.2500
  1294.0000    147.3114      9.5240      8.2588      8.1769   -999.2500
  1294.2500    147.2393      9.4291      8.1648      7.7865   -999.2500
  1294.5000    147.1456      9.4992      8.2270      7.7324   -999.2500
  1294.7500    147.0715      9.4553      8.5542      8.3071   -999.2500
  1295.0000    147.0482      9.3880      9.0995      9.3190   -999.2500
  1295.2500    146.9895      9.3501      9.6800     11.2870   -999.2500
  1295.5000    146.8184      9.2515     10.3516     14.7695   -999.2500
  1295.7500    146.5714      9.0332     10.9604     19.5186   -999.2500
  1296.0000    146.2837      8.8813     11.3015     26.2796   -999.2500
  1296.2500    146.0001      8.6857     11.2194     31.4024   -999.2500
  1296.5000    145.7565      8.6448     10.8074     27.6234   -999.2500
  1296.7500    145.6091      8.5731     10.1564     19.6413   -999.2500
  1297.0000    145.5958      8.5817      9.3248     13.9922   -999.2500
  1297.2500    145.6638      8.5810      8.7626     10.5019   -999.2500
  1297.5000    145.7623      8.5350      8.3063      8.0894   -999.2500
  1297.7500    145.8523      8.4124      7.9803      6.7087   -999.2500
  1298.0000    145.9537      8.1392      7.8633      6.8612   -999.2500
  1298.2500    146.0053      7.9859      7.8074      7.6699   -999.2500
  1298.5000    145.9794      7.6631      7.7304      8.9804   -999.2500
  1298.7500    145.9153      7.3374      7.5590     10.1349   -999.2500
  1299.0000    145.8770      7.0546      7.3101      9.6746   -999.2500
  1299.2500    145.8218      6.8309      6.9830      8.8964   -999.2500
  1299.5000    145.7826      6.6688      6.7207      8.2424   -999.2500
  1299.7500    145.7531      6.5625      6.5628      8.0467   -999.2500
  1300.0000    145.7804      6.5012      6.4233      7.6413   -999.2500
  1300.2500    145.8351      6.4570      6.3950      7.1750   -999.2500
  1300.5000    145.8295      6.4502      6.4401      7.4467   -999.2500
  1300.7500    145.8113      6.4701      6.4714      8.6210   -999.2500
  1301.0000    145.8648      6.5301      6.4478      9.1971   -999.2500
  1301.2500    145.9249      6.5660      6.4019      8.5326   -999.2500
  1301.5000    146.1253      6.6961      6.3780      7.8778   -999.2500
  1301.7500    146.3016      6.7234      6.4477      7.1868   -999.2500
  1302.0000    146.4321      6.8242      6.6502      6.9538   -999.2500
  1302.2500    146.5682      6.9097      6.8915      7.6465   -999.2500
  1302.5000    146.6362      6.9720      7.1977      9.5324   -999.2500
  1302.7500    146.5893      7.0727      7.5023     12.1169   -999.2500
  1303.0000    146.4341      7.1079      7.6923     12.0581   -999.2500
  1303.2500    146.1716      7.1320      7.8186     10.9876   -999.2500
  1303.5000    145.9343      7.2310      7.8019     10.0199   -999.2500
  1303.7500    145.7392      7.2559      7.8188      9.4775   -999.2500
  1304.0000    145.5498      7.3556      7.8451      9.5012   -999.2500
  1304.2500    145.3961      7.4350      7.8765      9.5703   -999.2500
  1304.5000    145.2339      7.5602      7.8831      9.4285   -999.2500
  1304.7500    145.0870      7.6573      7.8703      9.0904   -999.2500
  1305.0000    145.0286      7.6402      7.8707      8.8137   -999.2500
  1305.2500    144.9723      7.6980      7.8228      8.3861   -999.2500
  1305.5000    145.0201      7.6968      7.7217      8.1025   -999.2500
  1305.7500    145.1263      7.6749      7.6760      8.0532   -999.2500
  1306.0000    145.2254      7.7049      7.7466      8.4826   -999.2500
  1306.2500    145.3994      7.7509      7.7729      8.7764   -999.2500
  1306.5000    145.5914      7.7397      7.9019      8.9536   -999.2500
  1306.7500    145.7514      7.7651      7.9399      9.2292   -999.2500
  1307.0000    145.7559      7.8028      8.0063      9.2696   -999.2500
  1307.2500    145.6236      7.9862      8.1941      9.3119   -999.2500
  1307.5000    145.3806      8.1737      8.3517      9.3593   -999.2500
  1307.7500    145.0796      8.4240      8.5770      9.4420   -999.2500
