~Version Information
VERS.                      2.0: CWLS Log ASCII Standard - VERSION 2.0
WRAP.                       NO: One line per depth step
~Well Information Block
STRT.FT               546.2500: 
STOP.FT              2496.7500: 
STEP.FT                 0.2500: 
NULL.                -999.2500: 
COMP.          Petrogulf Corporation: COMPANY
WELL.               Egan 9-11V: WELL
FLD.           Purgatorie River: FIELD
LOC.           724' FNL & 1379' FWL: LOCATION
PROV.                 Colorado: PROVINCE
CNTY.               Las Animas: COUNTRY
SRVC.          Patterson Wireline: SERVICE COMPANY
DATE.          Fri Jul 11 23:32:41 2003: LOG DATE
UWI.           05 071 07875 00: UNIQUE WELL ID
~Curve Information Block
DEPT.FT            0 000 00 00: Depth
SP.mV                         : DIL Spontaneous Potential
RILD.Ohm-m                    : DIL Deep Resistivity
RILM.Ohm-m                    : DIL Medium Resistivity
RLL3.Ohm-m                    : DIL Shallow Resistivity
GR.GAPI                       : Gamma Ray
~Parameter Information Block
~A  Depth        SP         RILD        RILM        RLL3         GR     
# ...
   714.2500   2000.0000     20.0967     21.1247   2000.0000    116.0353
   714.5000   2000.0000     19.3330     20.4280   2000.0000    116.1768
   714.7500   2000.0000     18.4463     19.5846   2000.0000    116.6008
   715.0000   2000.0000     17.5336     18.6641   2000.0000    119.5415
   715.2500   2000.0000     16.6598     17.7256   2000.0000    123.0177
   715.5000   2000.0000     15.8565     16.8134   2000.0000    128.9949
   715.7500   2000.0000     15.1299     15.9566   2000.0000    132.4969
   716.0000   2000.0000     14.4730     15.1719   2000.0000    136.1156
   716.2500   2000.0000     13.8759     14.4659   2000.0000    137.5027
   716.5000   2000.0000     13.3333     13.8392   2000.0000    138.8518
   716.7500   2000.0000     12.8449     13.2881   2000.0000    139.6673
   717.0000   2000.0000     12.4137     12.8075   2000.0000    140.5338
   717.2500   2000.0000     12.0412     12.3913   2000.0000    140.3264
   717.5000   2000.0000     11.7258     12.0336   2000.0000    138.4333
   717.7500   2000.0000     11.4627     11.7293   2000.0000    136.6381
   718.0000   2000.0000     11.2470     11.4742   2000.0000    134.7204
   718.2500   2000.0000     11.0759     11.2652   2000.0000    134.6020
   718.5000   2000.0000     10.9506     11.1001   2000.0000    136.3606
   718.7500   2000.0000     10.8748     10.9783   2000.0000    138.6047
   719.0000   2000.0000     10.8530     10.9001   2000.0000    142.8503
   719.2500   2000.0000     10.8883     10.8673   2000.0000    145.6363
   719.5000   2000.0000     10.9815     10.8831   2000.0000    148.7743
   719.7500   2000.0000     11.1327     10.9519   2000.0000    150.0842
   720.0000   2000.0000     11.3427     11.0798   2000.0000    151.5790
   720.2500   2000.0000     11.6143     11.2740   2000.0000    152.6124
   720.5000   2000.0000     11.9508     11.5433   2000.0000    153.9300
   720.7500   2000.0000     12.3547     11.8980   2000.0000    154.3423
   721.0000   2000.0000     12.8281     12.3501   2000.0000    154.5269
   721.2500   2000.0000     13.3743     12.9130   2000.0000    154.7433
   721.5000   2000.0000     14.0003     13.6024   2000.0000    154.9492
   721.7500   2000.0000     14.7167     14.4356   2000.0000    154.2867
   722.0000   2000.0000     15.5367     15.4316   2000.0000    151.1063
   722.2500   2000.0000     16.4749     16.6107   2000.0000    147.5007
   722.5000   2000.0000     17.5476     17.9938   2000.0000    140.3910
   722.7500   2000.0000     18.7730     19.6002   2000.0000    134.9081
   723.0000   2000.0000     20.1672     21.4447   2000.0000    126.4439
   723.2500   2000.0000     21.7324     23.5326   2000.0000    121.3292
   723.5000   2000.0000     23.4407     25.8527   2000.0000    115.4342
   723.7500   2000.0000     25.2223     28.3664   2000.0000    112.7575
   724.0000   2000.0000     26.9697     30.9968   2000.0000    109.8054
   724.2500   2000.0000     28.5554     33.6169   2000.0000    107.8983
   724.5000   2000.0000     29.8495     36.0471   2000.0000    104.4131
   724.7500   2000.0000     30.7285     38.0682   2000.0000    101.6027
   725.0000   2000.0000     31.0896     39.4580   2000.0000     96.9911
   725.2500   2000.0000     30.8838     40.0457   2000.0000     93.9728
   725.5000   2000.0000     30.1524     39.7656   2000.0000     90.1808
   725.7500   2000.0000     29.0283     38.6805   2000.0000     88.6660
   726.0000   2000.0000     27.6928     36.9611   2000.0000     89.1185
   726.2500   2000.0000     26.3165     34.8334   2000.0000     91.9251
   726.5000   2000.0000     25.0178     32.5215   2000.0000    100.5121
   726.7500   2000.0000     23.8540     30.2085   2000.0000    108.9056
   727.0000   2000.0000     22.8348     28.0221   2000.0000    123.5875
   727.2500   2000.0000     21.9457     26.0382   2000.0000    132.9326
   727.5000   2000.0000     21.1655     24.2925   2000.0000    143.3401
   727.7500   2000.0000     20.4746     22.7935   2000.0000    147.1503
   728.0000   2000.0000     19.8546     21.5337   2000.0000    148.8827
   728.2500   2000.0000     19.2899     20.4973   2000.0000    148.3208
   728.5000   2000.0000     18.7742     19.6646   2000.0000    146.2026
   728.7500   2000.0000     18.3163     19.0155   2000.0000    144.2714
   729.0000   2000.0000     17.9360     18.5307   2000.0000    140.6256
   729.2500   2000.0000     17.6516     18.1918   2000.0000    137.6721
   729.5000   2000.0000     17.4700     17.9820   2000.0000    132.7917
   729.7500   2000.0000     17.3853     17.8848   2000.0000    129.6686
   730.0000   2000.0000     17.3859     17.8844   2000.0000    125.9876
   730.2500   2000.0000     17.4580     17.9639   2000.0000    124.4357
   730.5000   2000.0000     17.5837     18.1053   2000.0000    123.1077
   730.7500   2000.0000     17.7356     18.2884   2000.0000    122.4033
   731.0000   2000.0000     17.8779     18.4905   2000.0000    121.1819
   731.2500   2000.0000     17.9751     18.6868   2000.0000    120.4855
   731.5000   2000.0000     18.0024     18.8505   2000.0000    120.2647
   731.7500   2000.0000     17.9499     18.9552   2000.0000    120.6928
   732.0000   2000.0000     17.8183     18.9764   2000.0000    121.4591
   732.2500   2000.0000     17.6121     18.8949   2000.0000    121.6705
   732.5000   2000.0000     17.3359     18.6990   2000.0000    122.0360
   732.7500   2000.0000     16.9940     18.3862   2000.0000    123.1101
   733.0000   2000.0000     16.5915     17.9646   2000.0000    126.5457
   733.2500   2000.0000     16.1357     17.4510   2000.0000    129.3671
   733.5000   2000.0000     15.6395     16.8691   2000.0000    132.3953
   733.7500   2000.0000     15.1234     16.2464   2000.0000    132.9492
   734.0000   2000.0000     14.6134     15.6114   2000.0000    132.1284
   734.2500   2000.0000     14.1356     14.9902   2000.0000    131.4840
   734.5000   2000.0000     13.7116     14.4058   2000.0000    132.1951
   734.7500   2000.0000     13.3551     13.8763   2000.0000    134.3501
   735.0000   2000.0000     13.0723     13.4155   2000.0000    139.4028
   735.2500   2000.0000     12.8624     13.0328   2000.0000    142.6527
   735.5000   2000.0000     12.7204     12.7348   2000.0000    145.0008
   735.7500   2000.0000     12.6387     12.5252   2000.0000    144.4504
   736.0000   2000.0000     12.6101     12.4063   2000.0000    141.7179
   736.2500   2000.0000     12.6300     12.3793   2000.0000    139.8593
   736.5000   2000.0000     12.6978     12.4447   2000.0000    138.3636
   736.7500   2000.0000     12.8160     12.6023   2000.0000    138.1462
   737.0000   2000.0000     12.9889     12.8514   2000.0000    137.8596
   737.2500   2000.0000     13.2206     13.1901   2000.0000    137.0468
   737.5000   2000.0000     13.5146     13.6149   2000.0000    134.2664
   737.7500   2000.0000     13.8716     14.1199   2000.0000    131.0999
   738.0000   2000.0000     14.2883     14.6960   2000.0000    124.0701
   738.2500   2000.0000     14.7562     15.3296   2000.0000    118.2537
   738.5000   2000.0000     15.2635     16.0026   2000.0000    109.9157
   738.7500   2000.0000     15.7956     16.6919   2000.0000    106.0133
   739.0000   2000.0000     16.3347     17.3696   2000.0000    103.6486
   739.2500   2000.0000     16.8564     18.0045   2000.0000    103.9876
   739.5000   2000.0000     17.3274     18.5636   2000.0000    106.0049
   739.7500   2000.0000     17.7083     19.0154   2000.0000    107.7481
   740.0000   2000.0000     17.9613     19.3332   2000.0000    110.5088
   740.2500   2000.0000     18.0605     19.4988   2000.0000    112.3917
   740.5000   2000.0000     18.0001     19.5057   2000.0000    115.3856
   740.7500   2000.0000     17.7958     19.3606   2000.0000    117.7098
   741.0000   2000.0000     17.4794     19.0830   2000.0000    122.1613
   741.2500   2000.0000     17.0922     18.7026   2000.0000    125.7721
   741.5000   2000.0000     16.6795     18.2553   2000.0000    131.2709
   741.7500   2000.0000     16.2870     17.7788   2000.0000    134.2086
   742.0000   2000.0000     15.9546     17.3087   2000.0000    136.6254
