~Version Information
 VERS.                                  2.0 : CWLS LAS VERSION
 WRAP.                                   NO : WRAPING MODE
 SWARE .                 MController 2.5.0J : SOFTWARE VERSION
~Well Information
 WELL.                         Squeal 11-26 : WELL
 COMP.    Pioneer Natural Resources USA Inc : COMPANY
 FLD.                      Purgatoire River : FIELD
 LOC.                NW/NW Sec 26 T32S R67W : LOCATION
 DATE.                         6/13-14/2005 : DATE(S) LOGGED
 SRVC.       Blanco Geological Services LLC : SERVICE COMPANY
 STAT.                                   CO : STATE
 CNTY.                           Las Animas : COUNTY
 CTRY.                                  USA : COUNTRY
 API.                       05-071-08404-00 : API NUMBER
 STRT.FT                             285.00 : START DEPTH
 STOP.FT                            2760.00 : STOP DEPTH
 STEP.FT                               1.00 : DEPTH INCREMENT
 NULL.                                -9999 : NULL VALUE
~Curve information
 DEPTH.FT                                   :
 ROP.MIN/FT                                 :
 GAS.UNITS                                  :
~ASCII Log data
# ...
      1685.0         0.43       3024.0 
      1686.0         0.50       3174.9 
      1687.0         0.23       3265.9 
      1688.0         1.18       3662.1 
      1689.0         0.77       3826.8 
      1690.0         0.50       3884.8 
      1691.0         0.60       3878.7 
      1692.0         0.63       3840.3 
      1693.0         0.92       3988.2 
      1694.0         1.00       1060.8 
      1695.0         0.77        474.9 
      1696.0         0.63        157.5 
      1697.0         0.57        236.9 
      1698.0         0.52        285.7 
      1699.0         0.73        318.3 
      1700.0         0.93        319.4 
      1701.0         0.37        314.6 
      1702.0         0.43        318.7 
      1703.0         0.37        326.1 
      1704.0         0.38        327.9 
      1705.0         0.37        329.7 
      1706.0         0.33        330.0 
      1707.0         0.57        329.8 
      1708.0         0.57        324.2 
      1709.0         0.50        319.8 
      1710.0         0.33        323.2 
      1711.0         6.73       1308.4 
      1712.0         3.42       2232.6 
      1713.0         0.27       2234.2 
      1714.0         0.35       2179.7 
      1715.0         0.30       2003.5 
      1716.0         0.53       1870.0 
      1717.0         0.23       1691.8 
      1718.0         0.40       1648.3 
      1719.0         0.20       1587.0 
      1720.0         0.13       1613.0 
      1721.0         0.23       1675.0 
      1722.0         0.37       1626.4 
      1723.0         0.63       1072.6 
      1724.0         0.72        647.4 
      1725.0         0.40        441.2 
      1726.0         0.33         34.4 
      1727.0         0.27         32.3 
      1728.0         0.23         52.5 
      1729.0         0.17         80.9 
      1730.0         0.43        166.1 
      1731.0         0.92        194.1 
      1732.0         0.97        222.1 
      1733.0         1.13        324.1 
      1734.0         0.77        352.5 
      1735.0         0.45        289.6 
      1736.0         0.53        217.6 
      1737.0         0.80        331.2 
      1738.0         0.83        399.7 
      1739.0         1.03        412.5 
      1740.0         1.08        387.4 
      1741.0         8.70       2955.2 
      1742.0         0.07       2962.6 
      1743.0         0.48       2965.0 
      1744.0         0.63       2949.2 
      1745.0         0.70       2903.4 
      1746.0         0.70       2731.9 
      1747.0         0.53       2167.2 
      1748.0         0.50       2146.6 
      1749.0         0.55       1290.9 
      1750.0         0.40        634.9 
      1751.0         0.67        523.1 
      1752.0         0.53        557.1 
      1753.0         0.23        624.1 
      1754.0         0.23        686.5 
      1755.0         0.17        719.8 
      1756.0         0.60        832.0 
      1757.0         1.32       1097.2 
      1758.0         0.83       1087.0 
      1759.0         0.57       1039.2 
      1760.0         0.47       1037.2 
      1761.0         0.62       1008.9 
      1762.0         0.90        768.3 
      1763.0         0.63        511.9 
      1764.0         0.30          0.0 
      1765.0         0.10          0.0 
      1766.0         0.17          0.0 
      1767.0         0.33          0.0 
      1768.0         0.33          0.0 
      1769.0        14.60       1503.5 
      1770.0         1.02        494.8 
      1771.0         0.80        662.9 
      1772.0         0.93        778.8 
      1773.0         0.47        818.2 
      1774.0         0.72        861.3 
      1775.0         0.83        880.5 
      1776.0         0.70        911.2 
      1777.0         0.92        920.3 
      1778.0         0.50        915.9 
      1779.0         0.83        920.9 
      1780.0         0.93        918.9 
      1781.0         0.58        942.2 
      1782.0         0.73        967.4 
      1783.0         0.47        971.8 
      1784.0         0.57        981.3 
      1785.0         0.60        977.2 
      1786.0         0.55        956.7 
      1787.0         0.60        957.0 
      1788.0         0.67       1080.6 
      1789.0         0.63       1168.9 
      1790.0         0.50       1232.3 
      1791.0         0.43       1230.9 
      1792.0         0.45       1126.5 
      1793.0         0.47        896.7 
      1794.0         0.50        760.6 
      1795.0         0.60        823.9 
      1796.0         0.57        921.6 
      1797.0         0.67        939.8 
      1798.0         1.88        923.3 
      1799.0         3.25       2610.6 
      1800.0         0.07       2663.1 
      1801.0         0.13       2770.6 
      1802.0         0.63       3160.4 
      1803.0         0.92       3233.9 
      1804.0         0.80       3226.1 
      1805.0         0.97       3091.3 
      1806.0         1.27       2770.9 
      1807.0         0.62       2846.7 
      1808.0         0.43       3090.0 
      1809.0         0.37       2586.3 
      1810.0         0.33       1413.2 
      1811.0         0.50        865.0 
      1812.0         0.43        499.1 
      1813.0         0.30        440.0 
      1814.0         0.45         23.1 
      1815.0         0.27         36.8 
      1816.0         1.10        159.9 
      1817.0         1.50        234.1 
      1818.0         0.68        262.1 
      1819.0         0.70        302.2 
      1820.0         0.27        314.9 
      1821.0         0.17        322.8 
      1822.0         0.27        327.1 
      1823.0         0.27        326.6 
      1824.0         0.17        324.8 
      1825.0         0.20        326.3 
      1826.0         0.23        329.5 
      1827.0         0.10        334.5 
      1828.0         0.33        340.8 
      1829.0         0.40        334.3 
      1830.0         0.68        382.6 
      1831.0         5.78        454.0 
      1832.0         0.42        236.9 
      1833.0         0.10        253.7 
      1834.0         0.10        269.7 
      1835.0         0.17        295.1 
      1836.0         0.73        390.7 
      1837.0         1.53       1504.1 
      1838.0         1.12       1816.5 
      1839.0         0.87       1805.7 
      1840.0         1.63       1326.6 
      1841.0         1.05        796.0 
      1842.0         0.57        440.0 
      1843.0         0.47         31.7 
      1844.0         0.50        100.8 
      1845.0         0.47        151.5 
      1846.0         0.40        180.3 
      1847.0         0.45        217.0 
      1848.0         0.47        246.2 
      1849.0         0.53        255.2 
      1850.0         0.40        254.3 
      1851.0         0.67        251.4 
      1852.0         0.57        243.7 
      1853.0         0.95        328.2 
      1854.0         0.60        332.2 
      1855.0         0.60        326.9 
      1856.0         0.60        320.3 
      1857.0         0.63        209.4 
      1858.0         0.65        169.5 
      1859.0         0.60        266.8 
      1860.0         0.63        318.7 
      1861.0         5.60        396.8 
      1862.0         3.32       2806.7 
      1863.0         0.97       3099.8 
      1864.0         0.77       3116.3 
      1865.0         1.92       3180.3 
      1866.0         1.93       2814.4 
      1867.0         1.52        984.3 
      1868.0         0.87        586.7 
      1869.0         0.73        712.7 
      1870.0         0.70        808.1 
      1871.0         0.75        870.1 
      1872.0         0.67        869.7 
      1873.0         0.53        882.5 
      1874.0         1.00       1239.0 
      1875.0         0.65       1450.6 
      1876.0         0.63       1450.2 
      1877.0         0.40       1204.0 
      1878.0         0.33       1121.7 
      1879.0         0.87       1108.3 
      1880.0         0.60        810.1 
      1881.0         0.92        626.5 
      1882.0         0.93        534.2 
      1883.0         1.03        656.8 
      1884.0         0.70        841.8 
