~Version Information
 VERS.                2.0:  CWLS LOG ASCII STANDARD -VERSION 2.0
 WRAP.                 NO:  ONE LINE PER DEPTH STEP
~WELL INFORMATION BLOCK
#MNEM.UNIT       DATA		            DESCRIPTION OF MNEMONIC
#---------    -------------            ------------------------
 STRT.FT  0.500                          :START DEPTH
 STOP.FT  1808.700                       :STOP DEPTH
 STEP.FT  0.100                          :STEP    UP_HOLE  
 NULL.    -999.25                        :NULL VALUE
 COMP.              EL PASO PRODUCTIONS  :COMPANY
 WELL.                     COREHOLE #38  :WELL
 FLD .                 PURGATOIRE RIVER  :FIELD
 LOC .      15   35S   65W               :LOCATION
 CNTY.                           COLFAX  :COUNTY
 STAT.                     NM            :STATE
 CTRY.                                   :
 SRVC.     O'DRISCOLL                    :SERVICE COMPANY
 DATE.   04/28/05                        :LOG DATE
 API .                                   :API NUMBER
 LIC .                                   :LICENSE NUMBER
~Curve Information Block
#MNEM.UNIT      API CODE     Curve Description
#---------    -------------  ------------------------
 DEPT     .FT        00 001 00 00          :  1  DEPTH   
 GAMMA    .API-GR    00 310 00 00          :  2                GAMMA
 VOLTAGE  .MV        00 000 00 00          :  3              VOLTAGE
 CALIPER  .INCH      00 280 00 00          :  4              CALIPER
 DEN(LS)  .G/CC      00 350 00 00          :  5              DEN(LS)
 DEN(SS)  .G/CC      00 350 00 00          :  6              DEN(SS)
 CURRENT  .UA        00 000 00 00          :  7              CURRENT
 RES(SG)  .OHM-M     00 220 00 00          :  8              RES(SG)
 POR(DEN) .PERCENT   00 890 00 00          :  9             POR(DEN)
 DEN(LS)  .CPS       00 350 00 00          : 10              DEN(LS)
 DEN(SS)  .CPS       00 350 00 00          : 11              DEN(SS)
 COMP     .G/CC      00 356 00 00          : 12                 COMP
 DEN(CDL) .G/CC      00 350 00 00          : 13             DEN(CDL)
 TEMP     .DEG F     00 660 00 00          : 14                 TEMP
 DEL_TEMP .DEG F     00 000 00 00          : 15             DEL_TEMP
 TIME     .MINUTES   00 000 00 00          : 16                 TIME
~Parameter Information Block
#MNEM.UNIT   Information     Description
#---------- ---------------  ------------------------
 FILE.      ORIGINAL           :File Type
 FIID.      9139A              :File Type Identifier
 VERS.      3.58G              :System Version
 SER .      1                  :System Serial Number
 TRUK.      .498775            :Truck Calibration Number
 TOOL.        1245             :Tool Serial Number
 TIME.      1507               :Time    HrHrMinMin
 LAT .       36 59'            :Latitude
 LON .       104 39'           :Longitude
 LMF .            GL           :Log Measured From
 DMF .            GL           :Driller Measured From
 PD  .            GL           :Permanent Data
 PDEV.                         :Elevation Permanent Data
 EKB .M                        :Elevation Kelly Bushing
 ELEV.DF                       :Elevation DF
 EGL .M        7777            :Elevation Ground Level
 DRDP.          1825           :Driller's Depth
 CASD.       10.               :Casing Diameter
 CASB.           300           :Casing Bottom
 CASX.         STEEL           :Casing Type
 CAST.                         :Casing Thickness
 TNOC.                         :Time Circulation Stopped
 LOGU.        108              :Logging Unit
 RECB.           R.SIPES       :Recorded By
 OSR1.          9057           :Other Services
 OSR2.                         :Other Services
 OSR3.                         :Other Services
 BS  .MM         3.5           :Bit Size
 MST .                         :Mean Surface Temperature
 TGRD.                         :Temperature Gradiant
 MAGN.            12           :Magnetic Declination
 MDEN.       2.7               :Density Matrix
 MATR.      SANDSTONE          :Neutron Matrix
 DTMT.            54           :Delta T Matrix
 DTFL.                         :Delta T Fluid
 MUDS.                         :Mud Sample Source
 MRS .                         :Mud Resistivity
 MTP .                         :Mud Temperature
 MFRS.                         :Resistivity Mud Filtrate
 MFTP.                         :Temperature Mud Filtrate
 MCRS.                         :Resistivity Mud Cake
 MCTP.                         :Temperature Mud Cake
 FTYP.                         :Fluid Type
 FD  .K/M3                     :Fluid Density
 DFV .S                        :Fluid Viscosity
 FPH .                         :Fuild PH
 ELCO.       50000             :Electron Cutoff
~Other Information
#MNEM.UNIT  Information      Description
#---------- ---------------  ------------------------
# -------------------------- 
~A DEPTH  GAMMA    VOLTAGE  CALIPER DEN(LS) DEN(SS) CURRENT  RES(SG)  POR(DEN) DEN(LS) DEN(SS) COMP  DEN(CDL) TEMP  DEL_TEMP TIME    
# ...
1321.000     73.7     -6.1   3.0  2.84 3.10   116.9     -3.7  23.2  350.37 3220.85 -0.532 2.21 33.3  0.00 0.20000 
1321.100     71.8     -5.8   3.0  2.85 3.15    63.8     -6.4  28.5  340.35 3078.17 -0.633 2.22 33.3  0.00 0.20100 
1321.200     71.8     -5.8   3.0  2.76 3.11    10.7    -39.1  43.6  415.52 3180.15 -0.796 2.22 33.3  0.00 0.20000 
1321.300     73.7     -5.5   3.0  2.94 3.13    37.1    -10.6   7.6  285.25 3113.82 -0.370 2.23 33.3  0.00 0.19900 
1321.400     76.6     -5.8   3.0  2.83 3.19   119.0     -3.5  39.0  355.38 2971.48 -0.794 2.23 33.3  0.00 0.20000 
1321.500     92.6     -6.0   3.0  2.88 3.14   121.1     -3.5  20.2  320.31 3098.65 -0.526 2.28 33.3  0.00 0.20000 
1321.600     89.8     -5.9   3.0  2.84 3.13   122.6     -3.4  27.8  345.36 3113.82 -0.615 2.25 33.3  0.00 0.20000 
1321.700     84.1     -6.2   3.0  2.86 3.15   120.0     -3.7  27.8  335.34 3057.85 -0.630 2.36 33.3  0.00 0.20100 
1321.800     84.1     -5.9   3.0  2.92 3.18   110.8     -3.8  16.9  295.26 2996.73 -0.512 2.36 33.3  0.00 0.19900 
1321.900     80.3     -6.1   3.0  2.88 3.05    16.5    -26.5   7.4  320.31 3363.66 -0.309 2.32 33.3  0.00 0.20000 
1322.000     66.2     -6.0   3.0  2.88 3.14    10.6    -40.5  20.4  320.31 3093.60 -0.530 2.21 33.3  0.00 0.20000 
1322.100     75.6     -7.1   3.0  2.80 3.15     9.6    -53.1  40.6  380.43 3063.00 -0.790 2.06 33.3  0.00 0.20000 
1322.200     90.7     -6.3   3.0  2.76 3.19    10.8    -41.6  57.2  415.52 2971.26 -1.028 1.94 33.3  0.00 0.20000 
1322.300     86.9     -6.2   3.0  2.80 3.27    42.4    -10.4  62.2  380.44 2757.67 -1.157 1.97 33.3  0.00 0.20000 
1322.400    100.2     -5.3   3.0  2.82 3.19    94.6     -4.0  42.3  365.40 2966.18 -0.838 1.96 33.3  0.00 0.20000 
1322.500    110.6     -5.0   3.0  2.91 3.13    89.7     -4.0  13.2  305.28 3134.20 -0.432 2.10 33.3  0.00 0.20000 
1322.600     99.2     -5.1   3.0  2.80 3.16   121.4     -3.0  42.2  380.43 3037.43 -0.818 2.26 33.3  0.00 0.20000 
1322.700     85.1     -5.6   3.0  2.88 3.12   120.8     -3.3  17.2  320.31 3154.58 -0.475 2.34 33.3  0.00 0.20000 
1322.800     86.0     -5.3   3.0  2.92 3.17   120.2     -3.1  15.3  295.26 3027.30 -0.484 2.36 33.3  0.00 0.20000 
1322.900     80.3     -5.7   3.0  2.87 3.11    64.6     -6.3  18.8  330.33 3190.29 -0.485 2.41 33.3  0.00 0.20000 
1323.000     73.7     -6.5   3.0  2.91 3.08    38.2    -12.1   7.1  305.28 3261.72 -0.329 2.38 33.3  0.00 0.20000 
1323.100     76.6     -5.3   3.0  2.82 3.11   104.3     -3.6  27.5  360.39 3190.33 -0.592 2.38 33.3  0.00 0.20000 
1323.200     77.5     -5.9   3.0  2.87 3.16   111.7     -3.7  24.7  325.32 3047.89 -0.595 2.40 33.3  0.00 0.20000 
1323.300     78.4     -5.4   3.0  2.87 3.09   112.0     -3.4  15.3  325.32 3225.98 -0.434 2.26 33.3  0.00 0.20000 
1323.400     72.8     -4.8   3.0  2.87 3.07    63.9     -5.4  13.1  330.33 3307.50 -0.390 2.27 33.3  0.00 0.20000 
1323.500     62.4     -2.2   3.0  2.74 3.11    88.4     -1.8  48.0  430.56 3169.86 -0.856 2.31 33.3  0.00 0.20000 
1323.600     60.5      0.3   3.0  2.79 3.04    93.4      0.3  25.8  390.47 3378.96 -0.525 2.26 33.3  0.00 0.20000 
1323.700     62.4      0.1   3.0  2.92 3.13   136.9      0.0  11.8  300.28 3129.21 -0.416 2.27 33.3  0.00 0.20000 
1323.800     69.9      0.4   3.0  2.79 3.08   136.6      0.2  31.9  390.48 3261.62 -0.628 2.32 33.3  0.00 0.20000 
1323.900     86.0      0.2   3.0  2.87 3.04   136.9      0.1   9.0  330.33 3399.34 -0.320 2.42 33.3  0.00 0.20000 
1324.000    101.1      0.6   3.0  2.82 3.13   136.9      0.3  32.4  365.40 3129.10 -0.669 2.36 33.3  0.00 0.20000 
1324.100    121.9      0.1   3.0  2.95 3.06   116.0      0.0  -3.6  280.24 3338.10 -0.188 2.44 33.3  0.00 0.20000 
1324.200    137.9      0.2   3.0  2.80 3.09    46.5      0.3  31.0  380.44 3225.94 -0.627 2.47 33.3  0.00 0.20000 
1324.300    137.0      0.2   3.0  2.92 3.10    53.2      0.3   8.0  300.27 3205.59 -0.353 2.54 33.3  0.00 0.10000 
1324.400    115.3      0.5   3.0  3.09 3.30    40.7      0.9   0.5  205.13 2686.48 -0.400 2.37 33.3  0.00 0.20000 
1324.500    101.1      0.4   3.0  2.98 3.21    31.5      1.0  10.4  260.21 2894.93 -0.459 2.30 33.3  0.00 0.20000 
1324.600     75.6      0.3   3.0  2.91 3.32    62.4      0.4  45.8  305.28 2620.50 -0.987 2.30 33.3  0.00 0.20000 
1324.700     57.7      0.3   3.0  2.94 3.41    67.0      0.3  53.6  285.24 2422.53 -1.152 2.29 33.3  0.00 0.20000 
1324.800     51.1      0.2   3.0  3.07 3.33    56.5      0.2   8.2  215.14 2615.37 -0.513 2.27 33.3  0.00 0.20000 
1324.900     63.3      0.9   3.0  3.02 3.23   118.0      0.5   4.0  240.17 2859.33 -0.392 2.42 33.3  0.00 0.20000 
1325.000     69.9      0.5   3.0  2.99 3.25   119.6      0.3  13.8  255.20 2803.38 -0.526 2.65 33.3  0.00 0.20000 
1325.100     88.8      0.3   3.0  2.93 3.08    52.4      0.4   2.2  290.25 3266.81 -0.271 2.64 33.3  0.00 0.20000 
1325.200    101.1      0.5   3.0  2.97 3.02    58.7      0.6  -12.1 265.21 3460.67 -0.068 2.63 33.3  0.00 0.20000 
1325.300    103.0      0.4   3.0  2.84 3.00    48.4      0.7   8.7  345.37 3506.73 -0.292 2.56 33.3  0.00 0.20000 
1325.400    106.8      0.2   3.0  2.84 2.99    44.5      0.4   7.7  345.36 3532.09 -0.274 2.43 33.3  0.00 0.20000 
1325.500    109.6      0.3   3.0  2.79 3.10    32.8      0.6  33.2  385.45 3210.71 -0.658 2.33 33.3  0.00 0.20000 
1325.600    115.3      0.3   3.0  2.77 3.12    40.9      0.5  41.1  400.48 3149.48 -0.773 2.24 33.3  0.00 0.20000 
1325.700    119.1      0.5   3.0  2.84 3.06    64.7      0.6  18.0  350.37 3327.91 -0.443 2.15 33.3  0.00 0.20000 
1325.800    134.2      0.1   3.0  2.80 3.12    33.0      0.2  34.5  380.44 3164.84 -0.686 2.14 33.3  0.00 0.20000 
1325.900    134.2      0.8   3.0  2.78 3.09   119.8      0.5  34.3  395.50 3241.22 -0.664 2.09 33.3  0.00 0.20000 
1326.000    141.7      0.8   3.0  2.81 3.15   136.0      0.4  36.8  370.41 3078.19 -0.738 2.00 33.3  0.00 0.20000 
1326.100    133.2      0.6   3.0  2.80 3.24   136.6      0.3  56.9  380.48 2823.85 -1.067 1.90 33.3  0.00 0.20000 
1326.200    133.2      0.6   3.0  2.73 3.07   111.9      0.4  43.1  440.59 3292.20 -0.762 1.85 33.3  0.00 0.20000 
1326.300    137.9      0.3   3.0  2.72 3.17    93.8      0.3  63.6  450.61 3012.05 -1.100 1.87 33.3  0.00 0.20000 
1326.400    143.6      0.3   3.0  2.73 3.12    53.0      0.4  50.2  435.57 3154.65 -0.888 1.91 33.3  0.00 0.20000 
1326.500    145.5      0.4   3.0  2.79 3.07    71.5      0.4  30.5  390.46 3287.14 -0.605 1.94 33.3  0.00 0.20000 
1326.600    141.7      0.4   3.0  2.74 3.09    91.1      0.3  44.0  430.56 3236.22 -0.787 2.09 33.3  0.00 0.20000 
1326.700    141.7      0.3   3.0  2.74 3.03   108.6      0.2  34.3  430.56 3409.58 -0.623 2.17 33.3  0.00 0.20000 
1326.800    132.3      0.3   3.0  2.88 3.13    26.9      0.9  19.4  320.32 3113.82 -0.512 2.08 33.3  0.00 0.20000 
1326.900    137.9      0.1   3.0  2.80 3.08    14.9      0.7  28.1  380.45 3282.16 -0.576 2.09 33.3  0.00 0.20000 
1327.000    129.4      0.1   3.0  2.79 3.23    17.0      0.4  56.2  385.45 2854.23 -1.049 2.00 33.3  0.00 0.20000 
1327.100    136.1      0.4   3.0  2.80 3.16    19.5      1.4  41.3  380.46 3052.73 -0.801 1.95 33.3  0.00 0.20000 
1327.200    133.2      0.7   3.0  2.71 3.15    19.7      2.4  60.9  455.63 3067.98 -1.050 1.94 33.3  0.00 0.20000 
1327.300    130.4      0.7   3.0  2.85 3.18   125.9      0.4  33.5  340.35 2991.70 -0.719 2.08 33.3  0.00 0.19900 
1327.400    120.9      0.6   3.0  2.79 3.08   146.5      0.3  31.3  390.48 3271.85 -0.619 2.06 33.3  0.00 0.20100 
1327.500    129.4      0.6   3.0  2.86 3.07   143.2      0.3  15.0  335.34 3302.53 -0.413 2.13 33.3  0.00 0.20000 
1327.600    129.4      0.5   3.0  2.74 3.11   140.1      0.2  47.7  430.56 3175.24 -0.850 2.11 33.3  0.00 0.20000 
1327.700    131.3      0.6   3.0  2.74 3.07   139.9      0.3  40.2  430.56 3302.40 -0.723 2.02 33.3  0.00 0.20000 
1327.800    128.5      0.6   3.0  2.78 3.13   138.8      0.3  40.6  395.47 3134.29 -0.771 2.02 33.3  0.00 0.19900 
1327.900    131.3      0.4   3.0  2.71 3.12   136.6      0.2  55.4  455.62 3149.57 -0.956 2.06 33.3  0.00 0.20000 
