~Version Information
VERS.                      2.0: CWLS Log ASCII Standard - VERSION 2.0
WRAP.                       NO: One line per depth step
~Well Information Block
STRT.FT               964.0000: 
STOP.FT              2440.0000: 
STEP.FT                 0.2500: 
NULL.                -999.2500: 
COMP.          Petrogulf Corporation: COMPANY
WELL.              Hand 8-44 V: WELL
FLD.           Purgatorie River: FIELD
LOC.           1076' FEL & 820' FSL: LOCATION
CNTY.               Las Animas: COUNTY
SRVC.                         : SERVICE COMPANY
DATE.          Fri Nov 21 11:54:17 2003: LOG DATE
UWI.                          : UNIQUE WELL ID
STAT.                 Colorado: STATE
~Curve Information Block
DEPT.FT            0 000 00 00: Depth
SP.mV                         : IEL Spontaneous Potential
DIR.Ohm-m                     : IEL Induction Resistivity
GR.GAPI                       : Gamma Ray
~Parameter Information Block
~A  Depth        SP         DIR          GR     
# ...
  2300.0000    -42.8640     27.1964     66.4844
  2300.2500    -42.3002     28.1415     68.5482
  2300.5000    -41.1636     28.9517     69.3646
  2300.7500    -39.2541     29.6332     68.2122
  2301.0000    -36.5413     30.1909     64.8954
  2301.2500    -33.2899     30.6033     62.5966
  2301.5000    -30.0202     30.8059     60.2370
  2301.7500    -27.2765     30.7020     59.4494
  2302.0000    -25.3713     30.2118     58.6248
  2302.2500    -24.3029     29.3308     57.6395
  2302.5000    -23.8633     28.1481     54.5521
  2302.7500    -23.7764     26.8040     51.2294
  2303.0000    -23.7534     25.4293     44.9922
  2303.2500    -23.4949     24.1126     40.8616
  2303.5000    -22.7227     22.8977     36.3300
  2303.7500    -21.2668     21.7947     35.1058
  2304.0000    -19.1671     20.7903     36.5527
  2304.2500    -16.7084     19.8576     39.7894
  2304.5000    -14.3184     18.9670     47.7997
  2304.7500    -12.3562     18.0993     54.7503
  2305.0000    -10.9480     17.2536     66.0766
  2305.2500    -10.0031     16.4469     73.1997
  2305.5000     -9.3655     15.7038     82.0354
  2305.7500     -8.9442     15.0454     86.5526
  2306.0000     -8.7347     14.4838     91.6626
  2306.2500     -8.7607     14.0229     94.0751
  2306.5000     -9.0082     13.6626     95.6687
  2306.7500     -9.3952     13.4006     94.9415
  2307.0000     -9.7942     13.2317     91.4027
  2307.2500    -10.0872     13.1463     88.3201
  2307.5000    -10.2137     13.1298     84.4922
  2307.7500    -10.1761     13.1635     83.0917
  2308.0000    -10.0076     13.2276     82.7327
  2308.2500     -9.7416     13.3049     83.3129
  2308.5000     -9.4108     13.3809     84.5008
  2308.7500     -9.0591     13.4425     84.8695
  2309.0000     -8.7222     13.4751     84.1888
  2309.2500     -8.3811     13.4647     83.2359
  2309.5000     -7.9501     13.4028     82.3872
  2309.7500     -7.3339     13.2908     82.7549
  2310.0000     -6.4972     13.1381     84.5270
  2310.2500     -5.4837     12.9560     85.9973
  2310.5000     -4.3841     12.7523     87.7976
  2310.7500     -3.2971     12.5326     88.4385
  2311.0000     -2.3032     12.3054     88.3853
  2311.2500     -1.4474     12.0874     87.8790
  2311.5000     -0.7296     11.9015     87.4312
  2311.7500     -0.1134     11.7719     87.9552
  2312.0000      0.4435     11.7196     90.0564
  2312.2500      0.9555     11.7599     91.8138
  2312.5000      1.3962     11.9004     94.2276
  2312.7500      1.7167     12.1377     95.7774
  2313.0000      1.8781     12.4542     98.6779
  2313.2500      1.8729     12.8164    101.0389
  2313.5000      1.7249     13.1793    103.9648
  2313.7500      1.4770     13.4963    104.2487
  2314.0000      1.1721     13.7342    100.4435
  2314.2500      0.8308     13.8817     94.9053
  2314.5000      0.4347     13.9482     83.2909
  2314.7500     -0.0576     13.9500     74.5187
  2315.0000     -0.6664     13.8956     61.7744
  2315.2500     -1.3531     13.7774     54.3927
  2315.5000     -2.0209     13.5733     45.8223
  2315.7500     -2.5527     13.2580     41.9530
  2316.0000     -2.8569     12.8174     38.8312
  2316.2500     -2.9023     12.2598     38.3721
  2316.5000     -2.7278     11.6177     39.8043
  2316.7500     -2.4277     10.9391     42.0112
  2317.0000     -2.1177     10.2732     46.9357
  2317.2500     -1.8966      9.6574     51.1022
  2317.5000     -1.8197      9.1113     58.1152
  2317.7500     -1.8817      8.6390     62.8354
  2318.0000     -2.0093      8.2360     69.2792
  2318.2500     -2.0745      7.8946     73.0279
  2318.5000     -1.9499      7.6088     78.1241
  2318.7500     -1.5784      7.3760     81.3693
  2319.0000     -1.0000      7.1989     86.0310
  2319.2500     -0.3131      7.0848     88.9066
  2319.5000      0.3821      7.0426     92.8131
  2319.7500      1.0068      7.0787     95.1512
  2320.0000      1.5043      7.1948     98.1274
  2320.2500      1.8519      7.3868     99.5671
  2320.5000      2.0817      7.6465    100.5760
  2320.7500      2.2702      7.9641    100.4234
  2321.0000      2.4877      8.3291     99.0998
  2321.2500      2.7509      8.7302     97.5147
  2321.5000      3.0190      9.1536     93.7136
  2321.7500      3.2258      9.5862     89.8101
  2322.0000      3.3178     10.0219     81.3178
  2322.2500      3.2772     10.4681     74.0669
  2322.5000      3.1270     10.9439     62.5809
  2322.7500      2.9192     11.4690     56.2361
  2323.0000      2.7075     12.0476     51.3889
  2323.2500      2.5143     12.6564     51.8925
  2323.5000      2.3056     13.2459     57.3119
  2323.7500      2.0060     13.7576     62.8487
  2324.0000      1.5563     14.1491     72.2421
  2324.2500      0.9732     14.4109     78.5337
  2324.5000      0.3540     14.5644     86.8424
  2324.7500     -0.1732     14.6462     90.8449
  2325.0000     -0.5156     14.6908     93.9369
  2325.2500     -0.6584     14.7209     94.5682
  2325.5000     -0.6706     14.7440     95.0391
  2325.7500     -0.6659     14.7571     95.6406
  2326.0000     -0.7333     14.7574     96.7161
  2326.2500     -0.8812     14.7522     97.0120
  2326.5000     -1.0330     14.7627     96.2727
  2326.7500     -1.0681     14.8146     95.1547
  2327.0000     -0.8718     14.9226     93.4066
  2327.2500     -0.3731     15.0734     92.6557
  2327.5000      0.4308     15.2159     92.3095
  2327.7500      1.4616     15.2633     92.4881
  2328.0000      2.5747     15.1186     93.4178
  2328.2500      3.6091     14.7189     94.4937
  2328.5000      4.4439     14.0694     96.0028
  2328.7500      5.0295     13.2369     96.1939
  2329.0000      5.3843     12.3114     94.9657
  2329.2500      5.5696     11.3782     93.8176
  2329.5000      5.6538     10.5124     92.9730
  2329.7500      5.6805      9.7840     93.1961
  2330.0000      5.6581      9.2577     94.0710
  2330.2500      5.5748      8.9914     94.4649
  2330.5000      5.4232      9.0390     94.0198
  2330.7500      5.2137      9.4544     92.8029
  2331.0000      4.9657     10.2869     89.6433
  2331.2500      4.6847     11.5509     86.9539
  2331.5000      4.3443     13.1528     83.2813
  2331.7500      3.8867     14.7911     82.1081
  2332.0000      3.2470     15.9326     83.5106
  2332.2500      2.3915     16.0252     86.3812
  2332.5000      1.3418     14.8892     91.8556
  2332.7500      0.1701     12.8761     94.9885
  2333.0000     -1.0296     10.5813     97.1648
  2333.2500     -2.1754      8.4679     96.5239
  2333.5000     -3.2326      6.7477     93.1035
  2333.7500     -4.2445      5.4591     90.2678
  2334.0000     -5.3355      4.5673     87.2097
  2334.2500     -6.6775      4.0259     86.5245
  2334.5000     -8.4440      3.8107     86.8665
  2334.7500    -10.7848      3.9571     87.1797
  2335.0000    -13.8325      4.6545     87.0097
  2335.2500    -17.7330      6.6794     86.6328
  2335.5000    -22.6825     15.8470     86.3209
  2335.7500    -28.9461 100000.0000     86.5509
  2336.0000    -36.8486 100000.0000     87.7466
  2336.2500    -46.7643 100000.0000     88.9689
  2336.5000    -59.1329 100000.0000     90.5612
  2336.7500    -74.4550 100000.0000     90.8836
  2337.0000    -93.1690 100000.0000     90.1462
  2337.2500   -115.3690 100000.0000     89.3840
  2337.5000   -140.4347     39.9679     88.9133
  2337.7500   -166.7266      3.3381     89.2218
  2338.0000   -191.5557      1.6392     89.9465
  2338.2500   -211.6288      1.1363     90.0075
  2338.5000   -223.9970      0.9602     88.7319
  2338.7500   -227.1571      0.9482     86.6656
  2339.0000   -221.6745      1.0866     81.0915
  2339.2500   -209.8771      1.4800     75.4510
  2339.5000   -194.7692      2.6259     64.5875
  2339.7500   -178.8370      9.6949     56.6940
  2340.0000   -163.4171 100000.0000     45.7974
  2340.2500   -148.8055 100000.0000     39.8105
  2340.5000   -134.7731 100000.0000     32.7157
  2340.7500   -121.0261 100000.0000     28.9889
  2341.0000   -107.4022 100000.0000     24.9581
  2341.2500    -93.8830 100000.0000     23.6450
  2341.5000    -80.5737 100000.0000     24.2103
