~Version Information
VERS.                      2.0: CWLS Log ASCII Standard - VERSION 2.0
WRAP.                       NO: One line per depth step
~Well Information Block
STRT.FT               860.0000: 
STOP.FT              2733.7500: 
STEP.FT                 0.2500: 
NULL.                -999.2500: 
COMP.          Pioneer Natural Resources: COMPANY
WELL.          Beacon 11-18 Tr: WELL
FLD.           Purgatoire River: FIELD
LOC.           409' FNL & 203' FWL: LOCATION
PROV.                 Colorado: PROVINCE
CNTY.               Las Animas: COUNTRY
SRVC.                Patterson: SERVICE COMPANY
DATE.          Sun Jan 16 19:36:19 2005: LOG DATE
UWI.           05 071 08251 00: UNIQUE WELL ID
~Curve Information Block
DEPT.FT            0 000 00 00: Depth
SN.Ohm-m                      : IEL Short Normal
SP.mV                         : IEL Spontaneous Potential
DIR.Ohm-m                     : IEL Induction Resistivity
GR.GAPI                       : Gamma Ray
~Parameter Information Block
~A  Depth        SN          SP         DIR          GR     
# ...
  1463.0000   2000.0000   2000.0000     10.4132    126.9639
  1463.2500   2000.0000   2000.0000     10.3969    127.8142
  1463.5000   2000.0000   2000.0000     10.4412    126.6883
  1463.7500   2000.0000   2000.0000     10.5593    124.8579
  1464.0000   2000.0000   2000.0000     10.7652    121.8701
  1464.2500   2000.0000   2000.0000     11.0691    119.8994
  1464.5000   2000.0000   2000.0000     11.4735    115.6758
  1464.7500   2000.0000   2000.0000     11.9710    110.9749
  1465.0000   2000.0000   2000.0000     12.5466    100.7215
  1465.2500   2000.0000   2000.0000     13.1815     92.8222
  1465.5000   2000.0000   2000.0000     13.8573     82.5514
  1465.7500   2000.0000   2000.0000     14.5588     78.4508
  1466.0000   2000.0000   2000.0000     15.2750     77.8029
  1466.2500   2000.0000   2000.0000     15.9965     80.8657
  1466.5000   2000.0000   2000.0000     16.7099     89.1454
  1466.7500   2000.0000   2000.0000     17.3913     95.8056
  1467.0000   2000.0000   2000.0000     18.0078    105.2535
  1467.2500   2000.0000   2000.0000     18.5282    110.2490
  1467.5000   2000.0000   2000.0000     18.9380    115.1122
  1467.7500   2000.0000   2000.0000     19.2449    116.6409
  1468.0000   2000.0000   2000.0000     19.4718    116.6754
  1468.2500   2000.0000   2000.0000     19.6453    115.3310
  1468.5000   2000.0000   2000.0000     19.7881    111.6342
  1468.7500   2000.0000   2000.0000     19.9158    108.6171
  1469.0000   2000.0000   2000.0000     20.0343    104.8557
  1469.2500   2000.0000   2000.0000     20.1361    103.8138
  1469.5000   2000.0000   2000.0000     20.1995    105.3759
  1469.7500   2000.0000   2000.0000     20.1962    108.3851
  1470.0000   2000.0000   2000.0000     20.1051    114.6685
  1470.2500   2000.0000   2000.0000     19.9243    119.1789
  1470.5000   2000.0000   2000.0000     19.6721    125.3038
  1470.7500   2000.0000   2000.0000     19.3779    128.4319
  1471.0000   2000.0000   2000.0000     19.0693    130.6665
  1471.2500   2000.0000   2000.0000     18.7663    130.0029
  1471.5000   2000.0000   2000.0000     18.4855    125.6869
  1471.7500   2000.0000   2000.0000     18.2528    121.1325
  1472.0000   2000.0000   2000.0000     18.1158    113.3213
  1472.2500   2000.0000   2000.0000     18.1427    108.2980
  1472.5000   2000.0000   2000.0000     18.4038    101.6655
  1472.7500   2000.0000   2000.0000     18.9480     97.6328
  1473.0000   2000.0000   2000.0000     19.7864     91.2271
  1473.2500   2000.0000   2000.0000     20.8922     86.2167
  1473.5000   2000.0000   2000.0000     22.2096     77.4414
  1473.7500   2000.0000   2000.0000     23.6600     71.1124
  1474.0000   2000.0000   2000.0000     25.1397     61.7418
  1474.2500   2000.0000   2000.0000     26.5223     55.9491
  1474.5000   2000.0000   2000.0000     27.6847     48.4316
  1474.7500   2000.0000   2000.0000     28.5475     44.4442
  1475.0000   2000.0000   2000.0000     29.0950     40.1182
  1475.2500   2000.0000   2000.0000     29.3546     38.2224
  1475.5000   2000.0000   2000.0000     29.3621     36.8289
  1475.7500   2000.0000   2000.0000     29.1432     37.1725
  1476.0000   2000.0000   2000.0000     28.7105     40.4895
  1476.2500   2000.0000   2000.0000     28.0690     44.9553
  1476.5000   2000.0000   2000.0000     27.2236     54.8383
  1476.7500   2000.0000   2000.0000     26.1912     62.8452
  1477.0000   2000.0000   2000.0000     25.0178     75.2255
  1477.2500   2000.0000   2000.0000     23.7867     82.8309
  1477.5000   2000.0000   2000.0000     22.6056     92.5407
  1477.7500   2000.0000   2000.0000     21.5756     97.9322
  1478.0000   2000.0000   2000.0000     20.7560    104.9787
  1478.2500   2000.0000   2000.0000     20.1480    109.3616
  1478.5000   2000.0000   2000.0000     19.7031    115.5426
  1478.7500   2000.0000   2000.0000     19.3510    118.9704
  1479.0000   2000.0000   2000.0000     19.0304    122.3480
  1479.2500   2000.0000   2000.0000     18.7056    123.5967
  1479.5000   2000.0000   2000.0000     18.3646    125.0386
  1479.7500   2000.0000   2000.0000     18.0085    126.1220
  1480.0000   2000.0000   2000.0000     17.6465    127.7372
  1480.2500   2000.0000   2000.0000     17.2977    128.4593
  1480.5000   2000.0000   2000.0000     16.9899    128.6081
  1480.7500   2000.0000   2000.0000     16.7467    128.0632
  1481.0000   2000.0000   2000.0000     16.5710    126.5701
  1481.2500   2000.0000   2000.0000     16.4399    125.4025
  1481.5000   2000.0000   2000.0000     16.3165    123.9434
  1481.7500   2000.0000   2000.0000     16.1698    123.5734
  1482.0000   2000.0000   2000.0000     15.9891    124.7189
  1482.2500   2000.0000   2000.0000     15.7861    126.8544
  1482.5000   2000.0000   2000.0000     15.5869    131.5887
  1482.7500   2000.0000   2000.0000     15.4223    134.9792
  1483.0000   2000.0000   2000.0000     15.3208    139.1306
  1483.2500   2000.0000   2000.0000     15.3056    141.0428
  1483.5000   2000.0000   2000.0000     15.3926    142.9791
  1483.7500   2000.0000   2000.0000     15.5891    143.6455
  1484.0000   2000.0000   2000.0000     15.8929    142.4996
  1484.2500   2000.0000   2000.0000     16.2951    139.2632
  1484.5000   2000.0000   2000.0000     16.7861    129.9521
  1484.7500   2000.0000   2000.0000     17.3587    121.4149
  1485.0000   2000.0000   2000.0000     18.0043    107.4145
  1485.2500   2000.0000   2000.0000     18.7043     98.6728
  1485.5000   2000.0000   2000.0000     19.4248     88.4170
  1485.7500   2000.0000   2000.0000     20.1221     84.3997
  1486.0000   2000.0000   2000.0000     20.7566     83.4046
  1486.2500   2000.0000   2000.0000     21.3019     85.8855
  1486.5000   2000.0000   2000.0000     21.7399     92.9470
  1486.7500   2000.0000   2000.0000     22.0467     98.7739
  1487.0000   2000.0000   2000.0000     22.1918    107.1911
  1487.2500   2000.0000   2000.0000     22.1577    111.6368
  1487.5000   2000.0000   2000.0000     21.9640    115.8223
  1487.7500   2000.0000   2000.0000     21.6688    117.0218
  1488.0000   2000.0000   2000.0000     21.3485    116.8545
  1488.2500   2000.0000   2000.0000     21.0751    115.7339
  1488.5000   2000.0000   2000.0000     20.9016    113.4197
  1488.7500   2000.0000   2000.0000     20.8572    112.1692
  1489.0000   2000.0000   2000.0000     20.9460    111.7042
  1489.2500   2000.0000   2000.0000     21.1501    112.4299
  1489.5000   2000.0000   2000.0000     21.4349    114.3128
  1489.7500   2000.0000   2000.0000     21.7521    115.2472
  1490.0000   2000.0000   2000.0000     22.0461    114.4897
  1490.2500   2000.0000   2000.0000     22.2698    111.8704
  1490.5000   2000.0000   2000.0000     22.4056    104.9760
  1490.7500   2000.0000   2000.0000     22.4746     99.3873
  1491.0000   2000.0000   2000.0000     22.5201     91.7435
  1491.2500   2000.0000   2000.0000     22.5765     88.0576
  1491.5000   2000.0000   2000.0000     22.6453     85.0995
  1491.7500   2000.0000   2000.0000     22.6931     84.7430
  1492.0000   2000.0000   2000.0000     22.6680     86.4752
  1492.2500   2000.0000   2000.0000     22.5223     89.1542
  1492.5000   2000.0000   2000.0000     22.2277     95.5868
  1492.7500   2000.0000   2000.0000     21.7791    101.4514
  1493.0000   2000.0000   2000.0000     21.1909    111.8092
  1493.2500   2000.0000   2000.0000     20.4942    118.7983
  1493.5000   2000.0000   2000.0000     19.7343    127.8967
  1493.7500   2000.0000   2000.0000     18.9694    132.7765
  1494.0000   2000.0000   2000.0000     18.2660    138.5713
  1494.2500   2000.0000   2000.0000     17.6859    141.3561
  1494.5000   2000.0000   2000.0000     17.2671    143.2204
  1494.7500   2000.0000   2000.0000     17.0123    142.6116
  1495.0000   2000.0000   2000.0000     16.8983    139.0983
  1495.2500   2000.0000   2000.0000     16.9022    135.3972
  1495.5000   2000.0000   2000.0000     17.0230    128.5567
  1495.7500   2000.0000   2000.0000     17.2783    123.6157
  1496.0000   2000.0000   2000.0000     17.6802    116.5371
  1496.2500   2000.0000   2000.0000     18.2129    112.5761
