~Version Information
 VERS.                                  2.0 : CWLS LAS VERSION
 WRAP.                                   NO : WRAPING MODE
 SWARE .                 MController 2.5.0E : SOFTWARE VERSION
~Well Information
 WELL.                                  N/A : WELL
 COMP.                                  N/A : COMPANY
 FLD.                                   N/A : FIELD
 LOC.                                   N/A : LOCATION
 DATE.                                  N/A : DATE(S) LOGGED
 SRVC.                                  N/A : SERVICE COMPANY
 STAT.                                  N/A : STATE
 CNTY.                                  N/A : COUNTY
 CTRY.                                  N/A : COUNTRY
 API.                                   N/A : API NUMBER
 STRT.FT                             951.00 : START DEPTH
 STOP.FT                            2600.00 : STOP DEPTH
 STEP.FT                               1.00 : DEPTH INCREMENT
 NULL.                                -9999 : NULL VALUE
~Curve information
 DEPTH.FT                                   :
 ROP.MIN/FT                                 :
 GAS.UNITS                                  :
~ASCII Log data
# ...
     1151.00        0.167         24.5 
     1152.00        0.200         24.5 
     1153.00        0.200         24.3 
     1154.00        0.167         24.2 
     1155.00        0.133         24.4 
     1156.00        0.167         24.0 
     1157.00        0.133         24.6 
     1158.00        0.100         24.2 
     1159.00        0.117         24.9 
     1160.00        0.100         25.0 
     1161.00        0.100         24.3 
     1162.00        0.167         24.1 
     1163.00        0.200         25.4 
     1164.00        0.200         25.7 
     1165.00        0.200         25.6 
     1166.00        1.667         26.1 
     1167.00        0.367         26.1 
     1168.00        0.317         24.8 
     1169.00        0.333         25.5 
     1170.00        0.267         25.1 
     1171.00        0.200         25.1 
     1172.00        0.233         25.3 
     1173.00        0.200         24.8 
     1174.00        0.200         24.4 
     1175.00        0.167         23.9 
     1176.00        0.200         24.8 
     1177.00        0.167         24.7 
     1178.00        0.167         24.5 
     1179.00        0.167         24.0 
     1180.00        0.200         24.6 
     1181.00        0.200         25.0 
     1182.00        0.200         24.1 
     1183.00        0.133         24.7 
     1184.00        0.133         24.6 
     1185.00        0.183         24.6 
     1186.00        0.200         24.6 
     1187.00        0.167         24.1 
     1188.00        0.200         24.8 
     1189.00        0.200         24.2 
     1190.00        0.200         24.4 
     1191.00        0.233         24.8 
     1192.00        0.167         24.4 
     1193.00        0.167         25.5 
     1194.00        0.200         25.4 
     1195.00        0.167         24.8 
     1196.00        3.083         25.8 
     1197.00        0.333         25.4 
     1198.00        0.267         25.5 
     1199.00        0.200         24.5 
     1200.00        0.200         25.2 
     1201.00        0.200         24.8 
     1202.00        0.300         22.6 
     1203.00        0.317         22.1 
     1204.00        0.233         22.1 
     1205.00        0.200         22.9 
     1206.00        0.200         22.7 
     1207.00        0.233         22.4 
     1208.00        0.167         22.7 
     1209.00        0.167         22.2 
     1210.00        0.200         22.9 
     1211.00        0.167         23.0 
     1212.00        0.200         22.3 
     1213.00        0.167         23.0 
     1214.00        0.133         22.6 
     1215.00        0.167         22.9 
     1216.00        0.167         22.3 
     1217.00        0.200         23.2 
     1218.00        0.200         23.2 
     1219.00        0.167         23.2 
     1220.00        0.283         23.6 
     1221.00        0.233         23.6 
     1222.00        0.167         23.9 
     1223.00        0.133         23.5 
     1224.00        0.300         23.2 
     1225.00        0.300         24.1 
     1226.00        1.533         24.5 
     1227.00        0.683         24.6 
     1228.00        0.367         25.0 
     1229.00        0.267         24.6 
     1230.00        0.200         24.2 
     1231.00        0.133         24.0 
     1232.00        0.200         24.4 
     1233.00        0.200         26.3 
     1234.00        0.200         24.4 
     1235.00        0.200         24.7 
     1236.00        0.233         23.7 
     1237.00        0.233         24.1 
     1238.00        0.233         23.9 
     1239.00        0.200         23.8 
     1240.00        0.233         23.0 
     1241.00        0.233         23.6 
     1242.00        0.250         23.4 
     1243.00        0.233         22.9 
     1244.00        0.300         23.3 
     1245.00        0.267         23.5 
     1246.00        0.233         23.5 
     1247.00        0.233         23.4 
     1248.00        0.233         23.0 
     1249.00        0.233         23.9 
     1250.00        0.233         24.2 
     1251.00        0.267         24.2 
     1252.00        0.167         24.1 
     1253.00        0.100         23.5 
     1254.00        0.133         23.6 
     1255.00        0.167         23.8 
     1256.00        7.383         25.2 
     1257.00        0.267          8.8 
     1258.00        0.233          9.1 
     1259.00        0.300          9.0 
     1260.00        0.233          9.1 
     1261.00        0.233          8.9 
     1262.00        0.267          8.8 
     1263.00        0.200          8.8 
     1264.00        0.200          8.7 
     1265.00        0.200          8.6 
     1266.00        0.167          8.6 
     1267.00        0.200          8.8 
     1268.00        0.200          8.6 
     1269.00        0.167          8.7 
     1270.00        0.217          8.4 
     1271.00        0.133          8.5 
     1272.00        0.200          8.5 
     1273.00        0.167          8.5 
     1274.00        0.267          8.2 
     1275.00        0.267          8.2 
     1276.00        0.333          8.4 
     1277.00        0.433          8.5 
     1278.00        0.533          8.3 
     1279.00        0.367          8.3 
     1280.00        0.200          8.1 
     1281.00        0.167          8.1 
     1282.00        0.317          8.2 
     1283.00        0.200          8.4 
     1284.00        0.400          8.3 
     1285.00        0.500          8.3 
     1286.00        1.633          8.7 
     1287.00        0.267          8.5 
     1288.00        0.200          8.4 
     1289.00        0.283          8.3 
     1290.00        0.267          8.4 
     1291.00        0.233          8.1 
     1292.00        0.200          8.1 
     1293.00        0.233          8.0 
     1294.00        0.200          8.4 
     1295.00        0.200          8.4 
     1296.00        0.167          8.2 
     1297.00        0.233          8.2 
     1298.00        0.200          8.2 
     1299.00        0.167          8.2 
     1300.00        0.200          8.0 
     1301.00        0.233          2.9 
     1302.00        0.267          3.0 
     1303.00        0.233          3.2 
     1304.00        0.217          3.2 
     1305.00        0.200          3.2 
     1306.00        0.267          3.3 
     1307.00        0.233          3.2 
     1308.00        0.267          3.3 
     1309.00        0.200          3.0 
     1310.00        0.400          3.2 
     1311.00        0.433          2.9 
     1312.00        0.400          3.1 
     1313.00        0.300          3.2 
     1314.00        0.233          3.3 
     1315.00        0.617          3.4 
     1316.00        6.467          3.6 
     1317.00        0.867          3.6 
     1318.00        0.333          3.3 
     1319.00        0.333          3.3 
     1320.00        0.233          3.7 
     1321.00        0.300          3.8 
     1322.00        0.267          3.7 
     1323.00        0.300          3.4 
     1324.00        0.233          3.7 
     1325.00        0.267          3.7 
     1326.00        0.283          3.6 
     1327.00        0.233          3.6 
     1328.00        0.200          3.4 
     1329.00        0.233          3.7 
     1330.00        0.200          3.5 
     1331.00        0.267          3.7 
     1332.00        0.167          3.4 
     1333.00        0.133          3.7 
     1334.00        0.167          3.8 
     1335.00        0.133          3.6 
     1336.00        0.233          3.5 
     1337.00        0.233          3.5 
     1338.00        0.233          3.5 
     1339.00        0.167          3.4 
     1340.00        0.200          3.5 
     1341.00        0.267          3.2 
     1342.00        0.350          3.1 
     1343.00        0.267          2.9 
     1344.00        0.267          2.9 
     1345.00        0.233          3.1 
     1346.00        3.517          3.3 
     1347.00        0.333          3.5 
     1348.00        0.300          3.2 
     1349.00        0.300          3.2 
     1350.00        0.267          3.1 
