~Version Information
VERS.                      2.0: CWLS Log ASCII Standard - VERSION 2.0
WRAP.                       NO: One line per depth step
~Well Information Block
STRT.FT               620.0000: 
STOP.FT              2660.0000: 
STEP.FT                 0.1000: 
NULL.                -999.2500: 
COMP.          Evergreen Operating Corporation: COMPANY
WELL.             Carbon 34-21: WELL
FLD.           Purgatoire River: FIELD
LOC.           56' FSL & 2304' FEL: LOCATION
PROV.                 Colorado: PROVINCE
CNTY.               Las Animas: COUNTRY
SRVC.                Patterson: SERVICE COMPANY
DATE.          Mon Sep 13 14:13:15 2004: LOG DATE
UWI.           05 071 08117 00: UNIQUE WELL ID
~Curve Information Block
DEPT.FT            0 000 00 00: Depth
DCAL.in                       : CDL Caliper
DPOR.pu                       : CDL Density Porosity
NPOR.pu                       : Neutron Porosity
RHOB.g/cc                     : CDL Bulk Density
RHOC.g/cc                     : CDL Density Correction
GR.GAPI                       : Gamma Ray
~Parameter Information Block
~A  Depth       DCAL        DPOR        NPOR        RHOB        RHOC         GR     
# ...
  2252.0000      8.0953      3.6964     17.9271      2.5890      0.1366    113.1333
  2252.1000      8.0953      4.0250     17.6798      2.5836      0.0476    111.7540
  2252.2000      8.0953      3.5483     17.5721      2.5915      0.0865    102.3257
  2252.3000      8.0742      2.3837     16.6407      2.6107      0.1030     90.2704
  2252.4000      8.0742      1.9879     15.2764      2.6172      0.0477     80.2921
  2252.5000      8.0659      2.1170     14.9084      2.6151      0.0484     71.2370
  2252.6000      8.0659      2.3367     15.9259      2.6114      0.0581     66.0689
  2252.7000      8.0659      3.1500     17.3288      2.5980      0.0431     69.7620
  2252.8000      8.0640      4.5800     18.2787      2.5744      0.0544     73.8288
  2252.9000      8.0640      6.0771     18.8038      2.5497      0.0283     72.6098
  2253.0000      8.0668      6.9220     18.9166      2.5358     -0.0017     75.3497
  2253.1000      8.0668      6.6327     18.6148      2.5406      0.0178     85.8860
  2253.2000      8.0668      5.7711     18.6094      2.5548      0.0205     98.4639
  2253.3000      8.0693      5.5780     19.2925      2.5580      0.0529    110.0233
  2253.4000      8.0693      6.1775     20.0491      2.5481     -0.0111    122.6856
  2253.5000      8.0721      6.2085     20.3482      2.5476     -0.0029    130.6354
  2253.6000      8.0721      5.2394     20.4423      2.5635      0.0859    126.0313
  2253.7000      8.0721      4.7555     20.6956      2.5715      0.0650    117.7600
  2253.8000      8.0733      5.9610     20.9290      2.5516      0.0687    114.3669
  2253.9000      8.0733      7.9892     21.1016      2.5182      0.0115    109.6282
  2254.0000      8.0734      8.7802     21.3490      2.5051      0.0152    100.4072
  2254.1000      8.0734      8.0452     22.0468      2.5173      0.0684     94.3186
  2254.2000      8.0734      7.3829     23.3305      2.5282      0.0346     95.5041
  2254.3000      8.0734      7.3690     24.1884      2.5284      0.0400     97.6153
  2254.4000      8.0734      7.5099     23.9673      2.5261      0.0521     96.0297
  2254.5000      8.0730      7.2791     23.5493      2.5299      0.0337     96.4591
  2254.6000      8.0730      6.7060     23.3999      2.5394      0.0681    109.3799
  2254.7000      8.0730      6.5708     23.2269      2.5416      0.0723    133.8845
  2254.8000      8.0709      6.8262     23.1651      2.5374      0.0344    149.1843
  2254.9000      8.0709      6.7403     23.3859      2.5388      0.0469    141.3015
  2255.0000      8.0651      6.5255     23.3157      2.5423      0.1047    120.6649
  2255.1000      8.0651      6.9266     22.5773      2.5357      0.0812    108.6200
  2255.2000      8.0651      7.9013     22.0221      2.5196      0.0496    114.0836
  2255.3000      8.0560      8.7610     22.1825      2.5054      0.0189    122.9835
  2255.4000      8.0560      9.3531     22.0143      2.4957      0.0621    124.2252
  2255.5000      8.0534      9.8979     21.1042      2.4867      0.0320    125.1975
  2255.6000      8.0534      9.6845     20.3742      2.4902     -0.0062    128.6023
  2255.7000      8.0534      8.3020     19.9764      2.5130      0.0266    127.0515
  2255.8000      8.0617      6.8974     19.6913      2.5362      0.0545    121.6726
  2255.9000      8.0617      6.6379     19.9605      2.5405      0.0743    119.6624
  2256.0000      8.0741      7.3826     20.7739      2.5282      0.0363    120.4272
  2256.1000      8.0741      8.2873     21.3738      2.5133      0.0204    121.1894
  2256.2000      8.0741      9.1016     21.1920      2.4998      0.0369    122.5945
  2256.3000      8.0830      9.6441     20.3173      2.4909      0.0019    121.4609
  2256.4000      8.0830      9.2374     19.5174      2.4976      0.0345    115.6471
  2256.5000      8.0814      8.1679     19.5832      2.5152      0.0633    112.7572
  2256.6000      8.0814      7.7821     20.4398      2.5216      0.0611    111.3921
  2256.7000      8.0814      8.7169     21.5005      2.5062      0.0385    101.3548
  2256.8000      8.0769     10.0942     22.6128      2.4834      0.0102     93.2922
  2256.9000      8.0769     10.6368     23.4989      2.4745      0.0037     97.1939
  2257.0000      8.0755     10.2136     23.6827      2.4815      0.0487    104.7052
  2257.1000      8.0755      9.6309     23.0809      2.4911      0.0224    112.0517
  2257.2000      8.0755      9.7472     22.1294      2.4892      0.0586    115.9092
  2257.3000      8.0750     11.0413     21.6138      2.4678      0.0338    114.0587
  2257.4000      8.0750     13.1274     21.8008      2.4334      0.0209    114.8299
  2257.5000      8.0744     15.3351     22.2111      2.3970      0.0197    117.6508
  2257.6000      8.0744     16.8754     22.1418      2.3716     -0.0176    113.9099
  2257.7000      8.0744     16.8663     21.3305      2.3717     -0.0142    107.8556
  2257.8000      8.0739     15.5279     20.4098      2.3938     -0.0083    106.2343
  2257.9000      8.0739     14.2176     20.1372      2.4154      0.0460    105.8975
  2258.0000      8.0735     13.7093     20.6029      2.4238      0.0803    108.4083
  2258.1000      8.0735     13.4258     21.4136      2.4285      0.0601    112.2001
  2258.2000      8.0735     12.7079     21.9906      2.4403      0.0489    108.6337
  2258.3000      8.0730     11.6256     22.1131      2.4582      0.0473    101.3345
  2258.4000      8.0730     10.4548     22.1120      2.4775      0.0488     98.4660
  2258.5000      8.0727      9.6487     22.2068      2.4908      0.0848     99.1319
  2258.6000      8.0727      9.4301     22.4054      2.4944      0.0558     99.4622
  2258.7000      8.0727      9.1684     22.7519      2.4987      0.0343    100.1604
  2258.8000      8.0733      8.5314     23.0921      2.5092      0.0333    103.9405
  2258.9000      8.0733      8.0817     23.2841      2.5167      0.0406    106.6868
  2259.0000      8.0747      8.0870     23.4241      2.5166      0.0506    104.3826
  2259.1000      8.0747      7.7608     23.4444      2.5219      0.0150    105.9595
  2259.2000      8.0747      6.4252     23.1255      2.5440      0.0264    116.2453
  2259.3000      8.0775      5.0031     22.3869      2.5674      0.0620    123.0377
  2259.4000      8.0775      4.8637     21.3437      2.5697      0.0635    120.1351
  2259.5000      8.0803      6.1289     20.8116      2.5489      0.0754    119.2077
  2259.6000      8.0803      7.7915     21.7044      2.5214      0.0261    123.0918
  2259.7000      8.0803      8.6066     23.1352      2.5080      0.0054    121.4515
  2259.8000      8.0795      8.1310     23.5717      2.5158      0.0154    117.9657
  2259.9000      8.0795      7.2874     23.1182      2.5298      0.0657    120.4749
  2260.0000      8.0771      7.2649     22.5963      2.5301      0.0429    121.7448
  2260.1000      8.0771      7.7538     22.2402      2.5221     -0.0031    118.8753
  2260.2000      8.0771      7.6042     21.9656      2.5245      0.0306    119.5686
  2260.3000      8.0749      6.4957     21.7987      2.5428      0.0210    121.8777
  2260.4000      8.0749      5.1507     21.9619      2.5650      0.0734    118.7001
  2260.5000      8.0744      4.5662     22.3717      2.5747      0.0608    115.0926
  2260.6000      8.0744      4.9103     22.6596      2.5690      0.0783    119.6161
  2260.7000      8.0744      5.1506     22.5306      2.5650      0.0020    126.5283
  2260.8000      8.0747      4.4178     22.1635      2.5771      0.0582    125.5271
  2260.9000      8.0747      3.6141     22.1675      2.5904      0.0704    123.0875
  2261.0000      8.0758      3.9272     22.5742      2.5852      0.0851    123.7081
  2261.1000      8.0758      4.9294     22.7395      2.5687      0.0302    122.0503
  2261.2000      8.0758      5.4693     22.7597      2.5598      0.0241    119.1492
  2261.3000      8.0764      5.4238     22.9829      2.5605      0.0325    115.4587
  2261.4000      8.0764      5.2758     22.9911      2.5629      0.0487    111.3713
  2261.5000      8.0754      5.0945     22.4374      2.5659      0.0393    112.3818
