~Version Information
VERS.                      2.0: CWLS Log ASCII Standard - VERSION 2.0
WRAP.                       NO: One line per depth step
~Well Information Block
STRT.FT                12.0000: 
STOP.FT              1671.7500: 
STEP.FT                 0.2500: 
NULL.                -999.2500: 
COMP.          Pioneer Natural Resources: COMPANY
WELL.          Scott Canyon 11-18 Tr: WELL
FLD.           Purgatoire River: FIELD
LOC.           411' FNL & 580' FWL: LOCATION
PROV.                 Colorado: PROVINCE
CNTY.               Las Animas: COUNTRY
SRVC.                Patterson: SERVICE COMPANY
DATE.          Tue Feb 22 09:52:18 2005: LOG DATE
UWI.           05 071 08286 00: UNIQUE WELL ID
~Curve Information Block
DEPT.FT            0 000 00 00: Depth
GR.GAPI                       : Gamma Ray
CCL.                          : Casing Collar Locator
TT3.usec                      : CBL 3' Travel Time
AMP3.mV                       : CBL 3' Amplitude
~Parameter Information Block
~A  Depth        GR         CCL         TT3         AMP3    
# ...
   782.5000     94.7607      0.0000   1288.7074     16.6767
   782.7500     95.4475      0.0000   1279.1384     16.6255
   783.0000     95.3573      0.0000   1280.0635     16.5765
   783.2500     94.3096      0.0000   1303.5437     16.5600
   783.5000     92.7719      0.0000   1343.2576     16.5948
   783.7500     92.1697      0.0000   1377.8037     16.6904
   784.0000     93.8693      0.0000   1384.9225     16.8578
   784.2500     97.8107      0.0000   1353.1012     17.1138
   784.5000    102.5095      0.0000   1286.2744     17.4762
   784.7500    106.2957      0.0000   1202.3436     17.9536
   785.0000    108.2327      0.0000   1124.5847     18.5328
   785.2500    108.1137      0.0000   1069.4507     19.1675
   785.5000    106.2919      0.0000   1040.2140     19.7869
   785.7500    103.6357      0.0000   1030.4369     20.3279
   786.0000    101.0200      0.0000   1031.4143     20.7650
   786.2500     98.7003      0.0000   1036.6184     21.1082
   786.5000     96.7313      0.0000   1042.2343     21.3751
   786.7500     95.9450      0.0000   1046.3433     21.5692
   787.0000     97.8699      0.0000   1048.2781     21.6828
   787.2500    103.4711      0.0000   1047.9796     21.7154
   787.5000    112.1165      0.0000   1045.4663     21.6811
   787.7500    121.6097      0.0000   1040.9779     21.5943
   788.0000    129.3507      0.0000   1035.8503     21.4503
   788.2500    134.1142      0.0000   1032.8184     21.2236
   788.5000    136.9874      0.0000   1034.6987     20.8903
   788.7500    140.1553      0.0000   1042.3151     20.4567
   789.0000    144.4825      0.0000   1053.5962     19.9729
   789.2500    148.3537      0.0000   1064.7107     19.5222
   789.5000    148.9698      0.0000   1072.8218     19.1885
   789.7500    144.7794      0.0000   1079.0679     19.0199
   790.0000    136.5469      0.0000   1089.0322     19.0096
   790.2500    126.1745      0.0000   1109.7107     19.1040
   790.5000    115.1362      0.0000   1145.6971     19.2260
   790.7500    104.5351      0.0000   1196.9192     19.3009
   791.0000     95.9691      0.0000   1256.8457     19.2763
   791.2500     91.2450      0.0000   1312.6384     19.1317
   791.5000     91.2930      0.0000   1351.9232     18.8767
   791.7500     95.7355      0.0000   1372.9509     18.5458
   792.0000    103.0792      0.0000   1385.7782     18.1983
   792.2500    110.7682      0.0000   1401.1406     17.9070
   792.5000    115.5643      0.0000   1420.4996     17.7237
   792.7500    115.0485      0.0000   1438.2172     17.6371
   793.0000    109.3414      0.0000   1449.7968     17.5574
   793.2500    101.0657      0.0000   1455.3434     17.3358
   793.5000     93.3934      0.0000   1457.3282     16.7979
   793.7500     88.2077      0.0000   1457.8677     15.7867
   794.0000     85.7732      0.0000   1457.9797     14.2635
   794.2500     85.3005      0.0000   1458.0000     12.4497
   794.5000     85.6423      0.0000   1458.0000     10.8153
   794.7500     86.1292      0.0000   1458.0000      9.7688
   795.0000     87.1570      0.0000   1458.0000      9.3304
   795.2500     89.8130      0.0000   1458.0000      9.1998
   795.5000     94.7168      0.0000   1458.0000      9.1087
   795.7500    101.1707      0.0000   1458.0000      8.9951
   796.0000    107.4952      0.0000   1458.0000      8.9042
   796.2500    112.2131      0.0000   1458.0000      8.8800
   796.5000    114.8884     -3.0000   1458.0000      8.9760
   796.7500    116.0088      0.0000   1458.0000      9.3116
   797.0000    116.3972      0.0000   1458.0000     10.0660
   797.2500    116.8063      0.0000   1458.0000     11.3405
   797.5000    117.5649      0.0000   1458.0000     12.9598
   797.7500    118.1078      0.0000   1458.0000     14.4714
   798.0000    117.0128      0.0000   1458.0000     15.4576
   798.2500    113.0123      0.0000   1458.0000     15.8341
   798.5000    106.1086      0.0000   1458.0000     15.8071
   798.7500     97.6703      0.0000   1458.0000     15.6216
   799.0000     89.6737      0.0000   1457.9563     15.4148
   799.2500     83.9315      0.0000   1457.6801     15.2269
   799.5000     81.5948      0.0000   1456.2810     15.0537
   799.7500     82.8043      0.0000   1450.7874     14.8830
   800.0000     86.5372      0.0000   1434.0438     14.7169
   800.2500     90.9700      0.0000   1394.3422     14.5763
   800.5000     94.4374      0.0000   1321.3845     14.4841
   800.7500     96.4125      0.0000   1218.1515     14.4459
   801.0000     97.7178      0.0000   1107.7361     14.4478
   801.2500     99.9488      0.0000   1022.8507     14.4711
   801.5000    104.5245      0.0000    982.3920     14.5063
   801.7500    111.6847      0.0000    976.0115     14.5553
   802.0000    120.0356      0.0000    973.2380     14.6251
   802.2500    127.3274      0.0000    950.5883     14.7210
   802.5000    131.9024      0.0000    910.4186     14.8385
   802.7500    133.5092      0.0000    874.5569     14.9626
   803.0000    133.1342      0.0000    864.6315     15.0776
   803.2500    132.2460      0.0000    889.5360     15.1798
   803.5000    131.6131      0.0000    943.6501     15.2820
   803.7500    130.5103      0.0000   1010.4774     15.4075
   804.0000    127.5868      0.0000   1070.6505     15.5815
   804.2500    122.6687      0.0000   1111.6365     15.8231
   804.5000    117.1968      0.0000   1131.0981     16.1391
   804.7500    112.9222      0.0000   1131.2827     16.5263
   805.0000    110.7449      0.0000   1112.1442     16.9764
   805.2500    110.6312      0.0000   1071.3411     17.4772
   805.5000    111.7300      0.0000   1011.1760     18.0114
   805.7500    112.3454      0.0000    943.9426     18.5695
   806.0000    110.7759      0.0000    887.8875     19.1741
   806.2500    107.0156      0.0000    856.6242     19.8828
   806.5000    103.3192      0.0000    852.0517     20.7530
   806.7500    102.5707      0.0000    866.1379     21.7982
   807.0000    106.0917      0.0000    888.5150     22.9693
   807.2500    112.9119      0.0000    913.5876     24.1707
   807.5000    120.5770      0.0000    941.5085     25.2845
   807.7500    126.5398      0.0000    974.5540     26.1730
   808.0000    129.3432      0.0000   1016.4662     26.6611
   808.2500    128.9274      0.0000   1074.3800     26.5561
   808.5000    125.9627      0.0000   1153.7002     25.7444
   808.7500    121.1729      0.0000   1247.3309     24.3084
   809.0000    115.4130      0.0000   1335.3674     22.5448
   809.2500    109.7973      0.0000   1399.5255     20.8400
   809.5000    105.0089      0.0000   1435.5487     19.4943
   809.7500    100.4929      0.0000   1451.1351     18.6218
   810.0000     95.0228      0.0000   1456.3409     18.1654
   810.2500     88.4823      0.0000   1457.6866     17.9774
   810.5000     82.8412      0.0000   1457.9562     17.8991
   810.7500     81.0065      0.0000   1458.0000     17.8165
   811.0000     84.6310      0.0000   1458.0000     17.6955
   811.2500     92.9772      0.0000   1458.0000     17.5955
   811.5000    103.4846      0.0000   1458.0000     17.6413
   811.7500    113.1476      0.0000   1458.0000     17.9505
   812.0000    119.6835      0.0000   1457.9562     18.5547
   812.2500    122.2944      0.0000   1457.6708     19.3713
   812.5000    121.9319      0.0000   1456.2446     20.2351
   812.7500    120.6967      0.0000   1450.6565     20.9657
   813.0000    120.4118      0.0000   1433.7231     21.4431
   813.2500    121.3943      0.0000   1394.1633     21.6639
   813.5000    122.4466      0.0000   1323.4138     21.7466
   813.7500    121.9611      0.0000   1227.5741     21.8741
   814.0000    119.1367      0.0000   1131.0286     22.1982
   814.2500    114.6476      0.0000   1060.9639     22.7548
   814.5000    110.5105      0.0000   1026.8798     23.4431
   814.7500    108.9803      0.0000   1020.2861     24.0824
   815.0000    111.0730      0.0000   1033.2891     24.5020
   815.2500    115.9560      0.0000   1069.0074     24.5993
   815.5000    121.6020      0.0000   1131.1761     24.3552
   815.7500    125.9713      0.0000   1209.4374     23.8248
