~Version Information
VERS.                      2.0: CWLS Log ASCII Standard - VERSION 2.0
WRAP.                       NO: One line per depth step
~Well Information Block
STRT.FT                -4.2500: 
STOP.FT              2018.7500: 
STEP.FT                 0.2500: 
NULL.                -999.2500: 
COMP.          Petrogulf Corporation: COMPANY
WELL.             State 16-21R: WELL
FLD.           Purgatoire River: FIELD
LOC.           203' FNL & 1560' FWL----: LOCATION
PROV.                 Colorado: PROVINCE
CNTY.               Las Animas: COUNTRY
SRVC.                         : SERVICE COMPANY
DATE.          Thu Sep 29 11:32:19 2005: LOG DATE
API.           05-071-08313 : API Number
~Curve Information Block
DEPT.FT            0 000 00 00: Depth
GR.GAPI                       : Gamma Ray
CCL.                          : Casing Collar Locator
AMP3.mV                       : CBL 3' Amplitude
AMP5.mV                       : CBL 5' Amplitude
~Parameter Information Block
~A  Depth        GR         CCL         AMP3        AMP5    
# ...
  1302.2500    116.7794      0.0000     34.6544     10.2953
  1302.5000    119.9347      0.0000     32.6234      9.7365
  1302.7500    124.6598      0.0000     30.9326      9.3262
  1303.0000    129.1562      0.0000     29.5888      9.0535
  1303.2500    131.8085      0.0000     28.5985      8.8799
  1303.5000    131.9569      0.0000     27.9843      8.7650
  1303.7500    130.1067      0.0000     27.7866      8.6793
  1304.0000    127.3742      0.0000     28.0411      8.6017
  1304.2500    124.4300      0.0000     28.7413      8.5131
  1304.5000    120.9085      0.0000     29.7996      8.3975
  1304.7500    115.9319      0.0000     31.0310      8.2492
  1305.0000    109.2361      0.0000     32.1957      8.0805
  1305.2500    101.9872      0.0000     33.1027      7.9165
  1305.5000     96.6452      0.0000     33.6929      7.7708
  1305.7500     95.6450      0.0000     34.0257      7.6222
  1306.0000     99.5879      0.0000     34.1836      7.4207
  1306.2500    106.5374      0.0000     34.1650      7.1216
  1306.5000    113.2270      0.0000     33.8281      6.7198
  1306.7500    117.1558      0.0000     32.9328      6.2551
  1307.0000    117.7890      0.0000     31.2791      5.7896
  1307.2500    116.1847      0.0000     28.8509      5.3717
  1307.5000    113.7603      0.0000     25.8474      5.0123
  1307.7500    111.3745      0.0000     22.6056      4.6904
  1308.0000    109.2622      0.0000     19.4958      4.3789
  1308.2500    107.5962      0.0000     16.8333      4.0617
  1308.5000    107.0132      0.0000     14.7999      3.7332
  1308.7500    108.5024      0.0000     13.4077      3.3941
  1309.0000    112.6889      0.0000     12.5403      3.0554
  1309.2500    119.2973      0.0000     12.0300      2.7397
  1309.5000    127.3554      0.0000     11.7150      2.4718
  1309.7500    135.6839      0.0000     11.4712      2.2676
  1310.0000    142.9788      0.0000     11.2378      2.1286
  1310.2500    147.8062      0.0000     11.0191      2.0436
  1310.5000    149.2066      0.0000     10.8519      1.9922
  1310.7500    147.4661      0.0000     10.7629      1.9508
  1311.0000    143.9048      0.0000     10.7438      1.9007
  1311.2500    139.7820      0.0000     10.7412      1.8321
  1311.5000    135.5615      0.0000     10.6703      1.7378
  1311.7500    131.2424      0.0000     10.4727      1.6095
  1312.0000    127.1262      0.0000     10.1769      1.4490
  1312.2500    123.9767      0.0000      9.8700      1.2776
  1312.5000    122.1988      0.0000      9.5709      1.1234
  1312.7500    121.0466      0.0000      9.1646      1.0004
  1313.0000    119.1438      0.0000      8.5250      0.9052
  1313.2500    115.8669      0.0000      7.6874      0.8290
  1313.5000    111.9651      0.0000      6.8416      0.7659
  1313.7500    109.0266      0.0000      6.1613      0.7120
  1314.0000    108.5575      0.0000      5.6887      0.6609
  1314.2500    111.2563     -1.6223      5.3654      0.6058
  1314.5000    116.7874      0.0000      5.1238      0.5439
  1314.7500    123.9260      0.0000      4.9396      0.4781
  1315.0000    130.7081      0.0000      4.8168      0.4162
  1315.2500    134.9663      0.0000      4.7458      0.3667
  1315.5000    135.5220      0.0000      4.6921      0.3344
  1315.7500    132.9876      0.0000      4.6299      0.3181
  1316.0000    129.2992      0.0000      4.5639      0.3130
  1316.2500    126.6740      0.0000      4.5094      0.3145
  1316.5000    126.6245      0.0000      4.4688      0.3196
  1316.7500    129.0293      0.0000      4.4323      0.3279
  1317.0000    132.0592      0.0000      4.3927      0.3395
  1317.2500    133.7256      0.0000      4.3544      0.3542
  1317.5000    133.5892      0.0000      4.3335      0.3723
  1317.7500    132.6432      0.0000      4.3434      0.3966
  1318.0000    131.9213      0.0000      4.3782      0.4274
  1318.2500    131.7475      0.0000      4.4145      0.4563
  1318.5000    131.9684      0.0000      4.4367      0.4711
  1318.7500    132.3472      0.0000      4.4524      0.4706
  1319.0000    132.8599      0.0000      4.4790      0.4684
  1319.2500    133.8664      0.0000      4.5189      0.4802
  1319.5000    135.9104      0.0000      4.5551      0.5089
  1319.7500    139.1085      0.0000      4.5681      0.5436
  1320.0000    142.5909      0.0000      4.5546      0.5712
  1320.2500    144.7443      0.0000      4.5342      0.5873
  1320.5000    144.4532      0.0000      4.5419      0.5969
  1320.7500    142.1303      0.0000      4.6065      0.6071
  1321.0000    139.2791      0.0000      4.7278      0.6222
  1321.2500    137.2193      0.0000      4.8803      0.6431
  1321.5000    136.4135      0.0000      5.0397      0.6673
  1321.7500    136.4990      0.0000      5.1967      0.6887
  1322.0000    136.5058      0.0000      5.3453      0.7016
  1322.2500    135.5511      0.0000      5.4684      0.7043
  1322.5000    133.8687      0.0000      5.5421      0.6991
  1322.7500    132.7780      0.0000      5.5566      0.6901
  1323.0000    133.2278      0.0000      5.5325      0.6819
  1323.2500    134.7034      0.0000      5.5116      0.6774
  1323.5000    135.9097      0.0000      5.5228      0.6748
  1323.7500    136.3517      0.0000      5.5559      0.6664
  1324.0000    136.9004      0.0000      5.5677      0.6451
  1324.2500    138.5618      0.0000      5.5089      0.6106
  1324.5000    140.9221      0.0000      5.3486      0.5710
  1324.7500    142.4464      0.0000      5.0855      0.5363
  1325.0000    142.3774      0.0000      4.7426      0.5123
  1325.2500    141.5096      0.0000      4.3493      0.4960
  1325.5000    140.7490      0.0000      3.9300      0.4773
  1325.7500    139.5892      0.0000      3.5131      0.4448
  1326.0000    136.4806      0.0000      3.1392      0.3959
  1326.2500    130.3924      0.0000      2.8463      0.3393
  1326.5000    121.8233      0.0000      2.6488      0.2867
  1326.7500    112.7759      0.0000      2.5322      0.2427
  1327.0000    106.1187      0.0000      2.4620      0.2048
  1327.2500    104.3012      0.0000      2.3984      0.1689
  1327.5000    107.6142      0.0000      2.3115      0.1337
  1327.7500    113.5050      0.0000      2.1912      0.1018
  1328.0000    118.1233      0.0000      2.0427      0.0767
  1328.2500    118.9263      0.0000      1.8761      0.0586
  1328.5000    115.8479      0.0000      1.7051      0.0430
  1328.7500    110.2095      0.0000      1.5507      0.0242
  1329.0000    103.2568      0.0000      1.4298      0.0010
  1329.2500     96.2187      0.0000      1.3403     -0.0202
  1329.5000     90.9235      0.0000      1.2662     -0.0299
  1329.7500     89.0259      0.0000      1.1988     -0.0237
  1330.0000     90.5428      0.0000      1.1449     -0.0077
  1330.2500     93.9523      0.0000      1.1158      0.0064
  1330.5000     97.7358      0.0000      1.1150      0.0118
  1330.7500    101.2244      0.0000      1.1382      0.0118
  1331.0000    104.1608      0.0000      1.1791      0.0157
  1331.2500    106.4557      0.0000      1.2295      0.0298
  1331.5000    108.6246      0.0000      1.2782      0.0512
  1331.7500    111.4561      0.0000      1.3158      0.0710
  1332.0000    114.5652      0.0000      1.3428      0.0834
  1332.2500    115.8627      0.0000      1.3669      0.0895
  1332.5000    113.1046      0.0000      1.3924      0.0932
  1332.7500    105.7270      0.0000      1.4140      0.0955
  1333.0000     94.9822      0.0000      1.4181      0.0952
  1333.2500     82.9009      0.0000      1.3917      0.0909
  1333.5000     71.5543      0.0000      1.3355      0.0841
  1333.7500     62.8865      0.0000      1.2731      0.0810
  1334.0000     58.6095      0.0000      1.2437      0.0882
  1334.2500     59.8970      0.0000      1.2817      0.1049
  1334.5000     66.8392      0.0000      1.4004      0.1230
  1334.7500     77.9412      0.0000      1.5967      0.1368
  1335.0000     90.3645      0.0000      1.8699      0.1488
  1335.2500    101.1872      0.0000      2.2286      0.1628
  1335.5000    108.7844      0.0000      2.6739      0.1784
