~Version Information
 VERS.                                  2.0 : CWLS LAS VERSION
 WRAP.                                   NO : WRAPING MODE
 SWARE .                 MController 2.5.0N : SOFTWARE VERSION
~Well Information
 WELL.                   Casablanca 11-28TR : WELL
 COMP.    Pioneer Natural Resources USA Inc : COMPANY
 FLD.                      Purgatoire River : FIELD
 LOC.                NW/NW Sec 28 T32S R67W : LOCATION
 DATE.                         3/05-06/2005 : DATE(S) LOGGED
 SRVC.       Blanco Geological Services LLC : SERVICE COMPANY
 STAT.                                   CO : STATE
 CNTY.                           Las Animas : COUNTY
 CTRY.                                  USA : COUNTRY
 API.                       05-071-08314-00 : API NUMBER
 STRT.FT                             818.00 : START DEPTH
 STOP.FT                            2250.00 : STOP DEPTH
 STEP.FT                               1.00 : DEPTH INCREMENT
 NULL.                                -9999 : NULL VALUE
~Curve information
 DEPTH.FT                                   :
 ROP.MIN/FT                                 :
 GAS.UNITS                                  :
~ASCII Log data
# ...
      1588.0         0.33         29.2 
      1589.0         0.30         30.7 
      1590.0         0.33         29.8 
      1591.0         0.35         27.0 
      1592.0         0.33         26.5 
      1593.0         0.33         25.8 
      1594.0         1.27         24.4 
      1595.0         0.77         27.2 
      1596.0         0.55         27.8 
      1597.0         0.28         30.7 
      1598.0         0.28         32.1 
      1599.0         0.30         32.0 
      1600.0         0.30         31.4 
      1601.0         0.30         28.9 
      1602.0         0.30         31.2 
      1603.0         0.28         34.3 
      1604.0         0.30         34.7 
      1605.0         1.13         35.6 
      1606.0         0.53         40.6 
      1607.0         0.53         37.4 
      1608.0         0.57         46.6 
      1609.0         0.75         52.5 
      1610.0         0.43         68.7 
      1611.0         0.50         70.1 
      1612.0         1.03         60.4 
      1613.0         2.15         52.2 
      1614.0         1.60         35.3 
      1615.0         0.82         29.9 
      1616.0         0.63         30.1 
      1617.0         0.55         31.5 
      1618.0         0.52         32.6 
      1619.0         0.50         32.9 
      1620.0         0.88         31.4 
      1621.0         0.40         32.2 
      1622.0         0.43         34.3 
      1623.0         0.40         34.6 
      1624.0         0.40         37.7 
      1625.0         0.43         41.6 
      1626.0         0.42         41.6 
      1627.0         0.33         40.8 
      1628.0         0.35         40.9 
      1629.0         0.30         38.5 
      1630.0         0.38         36.7 
      1631.0         0.33         35.6 
      1632.0         0.33         35.3 
      1633.0         0.33         33.5 
      1634.0         0.33         32.5 
      1635.0         0.35         32.2 
      1636.0         0.33         32.1 
      1637.0         0.33         32.5 
      1638.0         0.35         32.4 
      1639.0         0.35         34.1 
      1640.0         0.33         34.3 
      1641.0         0.33         34.9 
      1642.0         0.37         36.7 
      1643.0         0.35         36.8 
      1644.0         0.30         33.5 
      1645.0         0.35         34.5 
      1646.0         0.62         34.5 
      1647.0         0.60         36.2 
      1648.0         0.47         36.3 
      1649.0         0.50         36.2 
      1650.0         0.40         36.3 
      1651.0         0.37         36.2 
      1652.0         0.38         33.9 
      1653.0         0.33         32.2 
      1654.0         0.38         32.5 
      1655.0         0.38         33.3 
      1656.0         0.40         33.8 
      1657.0         0.37         34.0 
      1658.0         0.33         35.3 
      1659.0         0.33         35.2 
      1660.0         0.35         36.3 
      1661.0         0.33         35.9 
      1662.0         0.38         34.9 
      1663.0         0.42         38.7 
      1664.0         0.38         38.7 
      1665.0         0.38         33.6 
      1666.0         0.33         30.0 
      1667.0         0.33         31.7 
      1668.0         1.32         34.9 
      1669.0         0.50         35.0 
      1670.0         0.40         33.0 
      1671.0         0.37         32.6 
      1672.0         0.40         32.4 
      1673.0         0.33         31.8 
      1674.0         0.30         30.9 
      1675.0         0.30         30.7 
      1676.0         0.30         32.4 
      1677.0         0.32         34.3 
      1678.0         0.32         33.0 
      1679.0         0.32         32.1 
      1680.0         0.30         32.4 
      1681.0         0.30         32.6 
      1682.0         0.30         32.4 
      1683.0         0.67         39.2 
      1684.0         0.30         37.9 
      1685.0         0.28         36.2 
      1686.0         0.25         32.9 
      1687.0         0.30         30.3 
      1688.0         0.25         31.0 
      1689.0         0.30         30.8 
      1690.0         0.97         31.9 
      1691.0         0.47         35.9 
      1692.0         0.37         33.8 
      1693.0         0.23         32.3 
      1694.0         0.28         30.3 
      1695.0         0.28         28.9 
      1696.0         0.27         29.6 
      1697.0         1.13         31.7 
      1698.0         0.47         31.7 
      1699.0         0.50         29.6 
      1700.0         0.47         30.3 
      1701.0         0.47         30.0 
      1702.0         0.47         30.1 
      1703.0         0.47         30.2 
      1704.0         0.42         29.4 
      1705.0         0.45         31.3 
      1706.0         0.47         31.6 
      1707.0         0.40         55.2 
      1708.0         0.40         29.1 
      1709.0         0.40         29.1 
      1710.0         0.37         26.4 
      1711.0         0.42         27.1 
      1712.0         0.35         29.8 
      1713.0         0.67         34.7 
      1714.0         0.38         34.4 
      1715.0         0.33         32.2 
      1716.0         0.40         30.1 
      1717.0         0.37         27.7 
      1718.0         1.07         29.7 
      1719.0         0.90         29.6 
      1720.0         0.95         28.7 
      1721.0         0.90         29.7 
      1722.0         0.88         30.5 
      1723.0         0.80         54.9 
      1724.0         0.83         53.0 
      1725.0         1.00         38.0 
      1726.0         0.68         45.7 
      1727.0         0.48         49.4 
      1728.0         0.33         47.4 
      1729.0         0.33         47.3 
      1730.0         0.33         47.6 
      1731.0         0.33         50.0 
      1732.0         0.33         50.2 
      1733.0         0.35         48.7 
      1734.0         0.30         48.2 
      1735.0         0.33         48.1 
      1736.0         0.37         48.1 
      1737.0         0.33         55.4 
      1738.0         0.37         40.1 
      1739.0         0.37         29.1 
      1740.0         0.33         29.5 
      1741.0         0.33         31.1 
      1742.0         0.38         30.8 
      1743.0         0.93         30.0 
      1744.0         0.63         47.6 
      1745.0         0.58         48.0 
      1746.0         0.58         38.7 
      1747.0         1.48         38.3 
      1748.0         1.43         28.4 
      1749.0         1.48         40.8 
      1750.0         1.43         44.9 
      1751.0         1.38         44.0 
      1752.0         0.93         41.9 
      1753.0         1.67         45.8 
      1754.0         0.85         45.7 
      1755.0         0.50         44.8 
      1756.0         0.37         45.0 
      1757.0         0.33         48.1 
      1758.0         0.43         48.6 
      1759.0         0.47         45.1 
      1760.0         0.42         46.0 
      1761.0         0.38         51.3 
      1762.0         0.35         60.4 
      1763.0         0.30         54.7 
      1764.0         2.03         41.2 
      1765.0         0.72         45.5 
      1766.0         0.75         44.5 
      1767.0         1.35         44.2 
      1768.0         1.38         42.2 
      1769.0         0.83         41.7 
      1770.0         0.82         42.6 
      1771.0         1.65         41.4 
      1772.0         2.18         39.4 
      1773.0         0.33         43.1 
      1774.0         0.33         45.8 
      1775.0         0.33         46.2 
      1776.0         0.35         46.4 
      1777.0         0.33         44.5 
      1778.0         0.33         41.3 
      1779.0         0.33         27.6 
      1780.0         0.32         59.3 
      1781.0         0.35          5.9 
      1782.0         0.28          5.9 
      1783.0         0.35          5.5 
      1784.0         0.33          5.7 
      1785.0         1.77          5.8 
      1786.0         2.40          4.3 
      1787.0         0.68          4.3 
