~Version Information
VERS.                      2.0: CWLS Log ASCII Standard - VERSION 2.0
WRAP.                       NO: One line per depth step
~Well Information Block
STRT.FT               754.6000: 
STOP.FT              2329.0000: 
STEP.FT                 0.1000: 
NULL.                -999.2500: 
COMP.          Petrogulf Corporation: COMPANY
WELL.           Anderson 18-42: WELL
FLD.           Purgatoire River: FIELD
LOC.           1668' FNL & 1110' FEL: LOCATION
CNTY.               Las Animas: COUNTY
SRVC.                         : SERVICE COMPANY
DATE.          Tue Dec 16 12:18:55 2003: LOG DATE
UWI.                          : UNIQUE WELL ID
STAT.                 Colorado: STATE
~Curve Information Block
DEPT.FT            0 000 00 00: Depth
DCAL.in                       : CDL Caliper
RHOB.g/cc                     : CDL Bulk Density
RHOC.g/cc                     : CDL Density Correction
DPOR.pu                       : CDL Density Porosity
NPOR.pu                       : Neutron Porosity
GR.GAPI                       : Gamma Ray
~Parameter Information Block
~A  Depth       DCAL        RHOB        RHOC        DPOR        NPOR         GR     
# ...
  2319.4000      7.9339      2.5505      0.0120      6.0283   -999.2500   -999.2500
  2319.5000      7.9284      2.5517      0.0297      5.9591   -999.2500   -999.2500
  2319.6000      7.9284      2.5494      0.0399      6.0964   -999.2500   -999.2500
  2319.7000      7.9284      2.5482      0.0224      6.1709   -999.2500   -999.2500
  2319.8000      7.9288      2.5612      0.0218      5.3839   -999.2500   -999.2500
  2319.9000      7.9288      2.5891      0.0580      3.6914   -999.2500   -999.2500
  2320.0000      7.9276      2.6155      0.0443      2.0927   -999.2500   -999.2500
  2320.1000      7.9276      2.6280      0.0722      1.3317   -999.2500   -999.2500
  2320.2000      7.9276      2.6256      0.0552      1.4775   -999.2500   -999.2500
  2320.3000      7.9284      2.6146      0.0568      2.1459   -999.2500   -999.2500
  2320.4000      7.9284      2.6042      0.0351      2.7741   -999.2500   -999.2500
  2320.5000      7.9304      2.5992      0.0221      3.0785   -999.2500   -999.2500
  2320.6000      7.9304      2.5951      0.0205      3.3283   -999.2500   -999.2500
  2320.7000      7.9304      2.5899      0.0173      3.6444   -999.2500   -999.2500
  2320.8000      7.9335      2.5888      0.0357      3.7086   -999.2500   -999.2500
  2320.9000      7.9335      2.5931      0.0024      3.4483   -999.2500   -999.2500
  2321.0000      7.9288      2.6016      0.0191      2.9347   -999.2500   -999.2500
  2321.1000      7.9288      2.6083      0.0591      2.5286   -999.2500   -999.2500
  2321.2000      7.9288      2.6028      0.0561      2.8599   -999.2500   -999.2500
  2321.3000      7.9500      2.5862      0.0577      3.8687   -999.2500   -999.2500
  2321.4000      7.9500      2.5761      0.0295      4.4761   -999.2500   -999.2500
  2321.5000      8.0635      2.5832      0.0496      4.0458   -999.2500   -999.2500
  2321.6000      8.0635      2.5908      0.0486      3.5881   -999.2500   -999.2500
  2321.7000      8.0635      2.5868      0.0439      3.8327   -999.2500   -999.2500
  2321.8000      7.9489      2.5813      0.0270      4.1657   -999.2500   -999.2500
  2321.9000      7.9489      2.5746      0.0531      4.5674   -999.2500   -999.2500
  2322.0000      7.9129      2.5608     -0.0051      5.4033   -999.2500   -999.2500
  2322.1000      7.9129      2.5561     -0.0537      5.6928   -999.2500   -999.2500
  2322.2000      7.9129      2.5735      0.0247      4.6344   -999.2500   -999.2500
  2322.3000      7.9083      2.5955      0.0428      3.3045   -999.2500   -999.2500
  2322.4000      7.9083      2.6010      0.0486      2.9706   -999.2500   -999.2500
  2322.5000      7.9084      2.5956      0.0068      3.2940   -999.2500   -999.2500
  2322.6000      7.9084      2.5977      0.0116      3.1674   -999.2500   -999.2500
  2322.7000      7.9084      2.6089      0.0337      2.4884   -999.2500   -999.2500
  2322.8000      7.9067      2.6173      0.0383      1.9795   -999.2500   -999.2500
  2322.9000      7.9067      2.6194      0.0183      1.8572   -999.2500   -999.2500
  2323.0000      7.9094      2.6176      0.0394      1.9629   -999.2500   -999.2500
  2323.1000      7.9094      2.6111      0.0322      2.3587   -999.2500   -999.2500
  2323.2000      7.9094      2.6018      0.0278      2.9225   -999.2500   -999.2500
  2323.3000      7.9103      2.5943      0.0125      3.3741   -999.2500   -999.2500
  2323.4000      7.9103      2.5864      0.0347      3.8563   -999.2500   -999.2500
  2323.5000      7.8996      2.5740     -0.0074      4.6033   -999.2500   -999.2500
  2323.6000      7.8996      2.5609      0.0413      5.4001   -999.2500   -999.2500
  2323.7000      7.8996      2.5553     -0.0049      5.7408   -999.2500   -999.2500
  2323.8000      7.8282      2.5624      0.0462      5.3072   -999.2500   -999.2500
  2323.9000      7.8282      2.5762      0.0305      4.4710   -999.2500   -999.2500
  2324.0000      7.8055      2.5843      0.0305      3.9814   -999.2500   -999.2500
  2324.1000      7.8055      2.5789      0.0267      4.3109   -999.2500   -999.2500
  2324.2000      7.8055      2.5664      0.0290      5.0657   -999.2500   -999.2500
  2324.3000      7.8066      2.5601     -0.0186      5.4503   -999.2500   -999.2500
  2324.4000      7.8066      2.5599      0.0205      5.4580   -999.2500   -999.2500
  2324.5000      7.7592      2.5565      0.0030      5.6692   -999.2500   -999.2500
  2324.6000      7.7592      2.5490      0.0159      6.1224   -999.2500   -999.2500
  2324.7000      7.7592      2.5407      0.0198      6.6241   -999.2500   -999.2500
  2324.8000      7.7343      2.5364     -0.0091      6.8833   -999.2500   -999.2500
  2324.9000      7.7343      2.5448      0.0152      6.3737   -999.2500   -999.2500
  2325.0000      7.7034      2.5629      0.0407      5.2793   -999.2500   -999.2500
  2325.1000      7.7034      2.5805      0.0205      4.2130   -999.2500   -999.2500
  2325.2000      7.7034      2.5986      0.0398      3.1129   -999.2500   -999.2500
  2325.3000      7.6650      2.6170      0.0623      1.9998   -999.2500   -999.2500
  2325.4000      7.6650      2.6246      0.0718      1.5391   -999.2500   -999.2500
  2325.5000      7.6576      2.6162      0.0487      2.0492   -999.2500   -999.2500
  2325.6000      7.6576      2.5989      0.0493      3.0994   -999.2500   -999.2500
  2325.7000      7.6576      2.5805      0.0388      4.2131   -999.2500   -999.2500
  2325.8000      7.6420      2.5694     -0.0035      4.8856   -999.2500   -999.2500
  2325.9000      7.6420      2.5727      0.0211      4.6872   -999.2500   -999.2500
  2326.0000      7.6332      2.5878      0.0332      3.7674   -999.2500   -999.2500
  2326.1000      7.6332      2.6226      0.0658      1.6583   -999.2500   -999.2500
  2326.2000      7.6332      2.7044      0.0500     -3.2975   -999.2500   -999.2500
  2326.3000      7.6112      2.7166      0.0767     -4.0345   -999.2500   -999.2500
  2326.4000      7.6112      2.2557      0.5870     23.8990   -999.2500   -999.2500
  2326.5000      6.7559      1.2741      0.0000     83.3880   -999.2500   -999.2500
  2326.6000      6.7559      0.4307      0.0000    134.5030   -999.2500   -999.2500
  2326.7000      6.7559      0.0816   -999.2500    155.6578   -999.2500   -999.2500
  2326.8000      1.3950      0.0084   -999.2500    160.0965   -999.2500   -999.2500
  2326.9000      1.3950      0.0005   -999.2500    160.5784   -999.2500   -999.2500
  2327.0000      0.6718      0.0000   -999.2500    160.6061   -999.2500   -999.2500
  2327.1000      0.6718      0.0000   -999.2500    160.6061   -999.2500   -999.2500
  2327.2000      0.6718   -999.2500   -999.2500   -999.2500   -999.2500   -999.2500
  2327.3000   -999.2500   -999.2500   -999.2500   -999.2500   -999.2500   -999.2500
  2327.4000   -999.2500   -999.2500   -999.2500   -999.2500   -999.2500   -999.2500
  2327.5000   -999.2500   -999.2500   -999.2500   -999.2500   -999.2500   -999.2500
  2327.6000   -999.2500   -999.2500   -999.2500   -999.2500   -999.2500   -999.2500
  2327.7000   -999.2500   -999.2500   -999.2500   -999.2500   -999.2500   -999.2500
  2327.8000   -999.2500   -999.2500   -999.2500   -999.2500   -999.2500   -999.2500
  2327.9000   -999.2500   -999.2500   -999.2500   -999.2500   -999.2500   -999.2500
  2328.0000   -999.2500   -999.2500   -999.2500   -999.2500   -999.2500   -999.2500
  2328.1000   -999.2500   -999.2500   -999.2500   -999.2500   -999.2500   -999.2500
  2328.2000   -999.2500   -999.2500   -999.2500   -999.2500   -999.2500   -999.2500
  2328.3000   -999.2500   -999.2500   -999.2500   -999.2500   -999.2500   -999.2500
  2328.4000   -999.2500   -999.2500   -999.2500   -999.2500   -999.2500   -999.2500
  2328.5000   -999.2500   -999.2500   -999.2500   -999.2500   -999.2500   -999.2500
  2328.6000   -999.2500   -999.2500   -999.2500   -999.2500   -999.2500   -999.2500
  2328.7000   -999.2500   -999.2500   -999.2500   -999.2500   -999.2500   -999.2500
  2328.8000   -999.2500   -999.2500   -999.2500   -999.2500   -999.2500   -999.2500
  2328.9000   -999.2500   -999.2500   -999.2500   -999.2500   -999.2500   -999.2500
