~Version Information
VERS.                      2.0: CWLS Log ASCII Standard - VERSION 2.0
WRAP.                       NO: One line per depth step
~Well Information Block
STRT.FT               553.0000: 
STOP.FT              1576.5000: 
STEP.FT                 0.2500: 
NULL.                -999.2500: 
COMP.          Pioneer Natural Resources: COMPANY
WELL.           Telna 24-22 Tr: WELL
FLD.           Purgatoire River: FIELD
LOC.           748' FSL & 1931' FWL: LOCATION
PROV.                 Colorado: PROVINCE
CNTY.               Las Animas: COUNTRY
SRVC.                Patterson: SERVICE COMPANY
DATE.          Mon May 02 07:15:29 2005: LOG DATE
UWI.           05 071 08304 00: UNIQUE WELL ID
~Curve Information Block
DEPT.FT            0 000 00 00: Depth
DCAL.in                       : CDL Caliper
RHOB.g/cc                     : CDL Bulk Density
RHOC.g/cc                     : CDL Density Correction
DPOR.pu                       : CDL Density Porosity
GR.GAPI                       : Gamma Ray
NPOR.pu                       : Neutron Porosity
~Parameter Information Block
~A  Depth       DCAL        RHOB        RHOC        DPOR         GR         NPOR    
# ...
   625.0000      7.8771      2.5587      0.0451      5.5315    139.0874     27.3031
   625.2500      7.8733      2.5472      0.0440      6.2322    150.6631     29.0324
   625.5000      7.8703      2.5688      0.0939      4.9192    152.1124     27.7908
   625.7500      7.8752      2.5263      0.0539      7.4991    162.0997     28.6070
   626.0000      7.8799      2.4721      0.0315     10.7834    163.8179     32.1525
   626.2500      7.8723      2.4722      0.0260     10.7751    149.3788     33.8366
   626.5000      7.8562      2.6055      0.1672      2.6973    134.4839     31.8599
   626.7500      7.8530      2.6622      0.2185     -0.7419    138.4122     31.6067
   627.0000      7.8704      2.6645      0.1364     -0.8809    133.8606     31.3408
   627.2500      7.8902      2.5769      0.0697      4.4314    121.3622     29.4960
   627.5000      7.9008      2.4778      0.0503     10.4339    119.6328     25.6515
   627.7500      7.9023      2.5217      0.0976      7.7728    128.4200     25.5825
   628.0000      7.8956      2.5752      0.1041      4.5308    122.0913     26.5382
   628.2500      7.8916      2.5733      0.0646      4.6502    132.1728     27.2942
   628.5000      7.8926      2.5280      0.1202      7.3957    161.1605     26.9629
   628.7500      7.8943      2.4898      0.0009      9.7078    152.0396     26.7660
   629.0000      7.8959      2.5346      0.0599      6.9958    135.9945     25.1955
   629.2500      7.8985      2.4882      0.0324      9.8064    146.1496     23.2292
   629.5000      7.9047      2.4122      0.0537     14.4148    143.8596     18.5279
   629.7500      7.9243      2.3375      0.0266     18.9386    137.4827     15.9744
   630.0000      7.9693      2.0771      0.0072     34.7216    136.9067     13.2809
   630.2500      8.0280      1.8144     -0.0135     50.6441    118.6250     10.8866
   630.5000      8.0855      1.3241     -0.1122     80.3568     89.6499      8.3825
   630.7500      8.2030      1.1355     -0.1463     91.7876     73.6126      8.2957
   631.0000      8.4402      1.1673      0.0134     89.8587     57.4759      8.2599
   631.2500      8.6721      1.1889      0.0878     88.5496     63.8264      9.2017
   631.5000      8.6992      1.3011      0.2309     81.7486     74.1924     15.3628
   631.7500      8.5725      1.5041      0.2417     69.4462     79.8028     19.4829
   632.0000      8.4159      2.0870      0.5067     34.1217     83.9589     26.0393
   632.2500      8.2102      2.3569      0.4995     17.7664     94.0516     28.5345
   632.5000      7.9684      2.5126      0.2423      8.3268    112.5389     30.6337
   632.7500      7.7938      2.5038      0.1010      8.8584    113.7175     29.4188
   633.0000      7.9083      2.5034      0.1813      8.8848    139.8702     27.3273
   633.2500      7.8956      2.5061      0.1433      8.7212    139.4207     26.1694
   633.5000      7.8945      2.5710      0.1771      4.7891    135.1008     24.4619
   633.7500      7.8942      2.5968      0.1972      3.2268    131.5814     25.4747
   634.0000      7.8939      2.5064      0.1130      8.7049    137.3165     25.7728
   634.2500      7.8936      2.4362      0.0268     12.9571    137.7938     25.8683
   634.5000      7.8942      2.4157      0.0503     14.1977    129.5477     26.1256
   634.7500      7.8957      2.3846      0.0215     16.0866    132.7094     26.1450
   635.0000      7.8959      2.4519      0.1148     12.0055    131.9456     25.7397
   635.2500      7.8947      2.5110      0.1465      8.4222    132.4654     26.5112
   635.5000      7.8944      2.6259      0.2373      1.4629    117.6709     26.9375
   635.7500      7.8961      2.6482      0.1406      0.1093    111.0426     26.5631
   636.0000      7.8978      2.6439      0.1425      0.3726    104.2429     23.6144
   636.2500      7.9003      2.5478      0.0266      6.1933    107.7825     22.5289
   636.5000      7.9027      2.5034      0.0207      8.8849    110.9143     23.6097
   636.7500      7.9007      2.5684      0.1026      4.9440    109.6620     25.0095
   637.0000      7.8979      2.4963      0.0299      9.3161    125.9177     26.2410
   637.2500      7.8960      2.4650      0.0381     11.2104    133.1562     25.7713
   637.5000      7.8948      2.4533     -0.0080     11.9195    138.1482     23.9591
   637.7500      7.8946      2.4429      0.0411     12.5497    142.0002     25.1443
   638.0000      7.8953      2.4595      0.0443     11.5450    158.8674     26.9816
   638.2500      7.8959      2.4875      0.1103      9.8496    153.6691     27.2438
   638.5000      7.8959      2.4727      0.0516     10.7429    135.2344     26.6252
   638.7500      7.8950      2.4629      0.0729     11.3407    145.6532     26.5084
   639.0000      7.8945      2.4720      0.0571     10.7909    139.3674     28.8987
   639.2500      7.8940      2.4464      0.0116     12.3383    131.4229     27.8419
   639.5000      7.8935      2.5329      0.0340      7.0957    134.8468     27.7484
   639.7500      7.8943      2.6269      0.1368      1.4008    138.5730     27.4585
   640.0000      7.8949      2.6144      0.1240      2.1563    124.2441     26.9729
   640.2500      7.8950      2.5727      0.0667      4.6834    136.7117     27.0450
   640.5000      7.8951      2.5464     -0.0035      6.2796    121.3132     24.6234
   640.7500      7.8953      2.5594      0.0880      5.4905    123.9381     24.3194
   641.0000      7.8954      2.5042     -0.0003      8.8384    106.7881     24.1916
   641.2500      7.8955      2.5150      0.0666      8.1833     99.3793     23.1553
   641.5000      7.8951      2.5377      0.1097      6.8045     93.0793     23.7714
   641.7500      7.8947      2.5204      0.0864      7.8526     89.2978     21.3843
   642.0000      7.8949      2.5514      0.0961      5.9776    102.6412     21.5256
   642.2500      7.8950      2.5454      0.0809      6.3396    114.5148     21.8108
   642.5000      7.8949      2.5429      0.0149      6.4917    103.6528     22.4480
   642.7500      7.8952      2.5367      0.0743      6.8654    106.0147     22.8423
   643.0000      7.8951      2.4674     -0.0281     11.0661    100.2656     23.0391
   643.2500      7.8947      2.5454      0.0982      6.3409     99.2031     23.0857
   643.5000      7.8948      2.6000      0.0285      3.0281    102.1884     23.3423
   643.7500      7.8952      2.6177      0.1031      1.9570     98.8235     22.8225
   644.0000      7.8952      2.5824      0.0690      4.0956    104.7887     22.7218
   644.2500      7.8952      2.5706      0.1080      4.8125     96.2069     22.8902
   644.5000      7.8959      2.6409      0.1020      0.5524     89.0182     18.9316
   644.7500      7.8966      2.5921      0.1369      3.5110    101.0136     17.9564
   645.0000      7.8961      2.4386      0.0055     12.8127    119.1617     20.1609
   645.2500      7.8949      2.4034     -0.0059     14.9424    133.5570     20.0047
   645.5000      7.8946      2.3595      0.1002     17.6062    155.9365     21.5410
   645.7500      7.8953      2.3883      0.1458     15.8582    171.2991     20.8594
   646.0000      7.8963      2.3276      0.1492     19.5376    168.6577     20.5411
   646.2500      7.8980      2.1606      0.1060     29.6601    159.7531     21.4836
   646.5000      7.8997      2.0174      0.0276     38.3408    137.8560     24.9632
   646.7500      7.9006      2.0545      0.0633     36.0899    120.9668     28.1122
   647.0000      7.8989      2.2634      0.2417     23.4311    132.6134     32.3498
   647.2500      7.8893      2.4326      0.2332     13.1775    148.1333     32.1062
   647.5000      7.8736      2.4995      0.0389      9.1235    151.5059     32.1571
   647.7500      7.8641      2.4959      0.0720      9.3385    156.4997     31.0041
   648.0000      7.8620      2.4832      0.0449     10.1115    148.0072     28.4826
   648.2500      7.8621      2.5245      0.0321      7.6038    150.6440     28.3751
   648.5000      7.8620      2.5177      0.0569      8.0175    144.4569     26.8575
   648.7500      7.8605      2.4955      0.1313      9.3635    137.5474     27.2245
