~Version Information
 VERS.                      2.0: CWLS Log ASCII Standard - VERSION 2.0
 WRAP.                       NO: One line per depth step
 ~Well Information Block
 STRT.FT               465.6000: 
 STOP.FT              1777.2000: 
 STEP.FT                 0.1000: 
 NULL.                -999.2500: 
 COMP.          Petrogulf Corporation: COMPANY
 WELL.          Alexander 9-43R: WELL
 FLD.           Purgatorie River: FIELD
 LOC.           1652' FSL & 1049' FEL: LOCATION
 CNTY.               Las Animas: COUNTY
 SRVC.                         : SERVICE COMPANY
 DATE.          Fri Sep 03 15:08:45 2004: LOG DATE
 UWI.           05 071 08036 00: UNIQUE WELL ID
 STAT.                 Colorado: STATE
 PROV.                         :Province
 ~Curve Information Block
 DEPT.FT            0 000 00 00: Depth
 DCAL.in                       : CDL Caliper
 RHOB.g/cc                     : CDL Bulk Density
 RHOC.g/cc                     : CDL Density Correction
 DPOR.pu                       : CDL Density Porosity
 GR.GAPI                       : Gamma Ray
 NPOR.pu                       : Neutron Porosity
 ~Parameter Information Block
 ~A  Depth       DCAL        RHOB        RHOC        DPOR         GR         NPOR    
# ...
  1761.6000      8.0306      2.5410      0.0893      6.6052   -999.2500     28.0207
  1761.7000      8.0306      2.5260      0.0727      7.5145   -999.2500     28.1630
  1761.8000      8.0418      2.5102      0.0643      8.4754   -999.2500     28.6646
  1761.9000      8.0418      2.4988      0.0189      9.1656   -999.2500     28.8174
  1762.0000      8.0305      2.4931      0.0042      9.5078   -999.2500     28.4464
  1762.1000      8.0305      2.4923      0.0149      9.5574   -999.2500     28.0637
  1762.2000      8.0305      2.4989      0.0137      9.1583   -999.2500     27.7905
  1762.3000      8.0378      2.5168      0.0171      8.0735   -999.2500     27.8411
  1762.4000      8.0378      2.5337      0.0744      7.0509   -999.2500     29.6948
  1762.5000      8.0376      2.5284      0.0590      7.3717   -999.2500     35.0010
  1762.6000      8.0376      2.5107      0.0050      8.4417   -999.2500     42.0936
  1762.7000      8.0376      2.5067      0.0188      8.6874   -999.2500     46.9318
  1762.8000      8.0439      2.5165      0.0375      8.0893   -999.2500     48.6875
  1762.9000      8.0439      2.5280      0.0659      7.3926   -999.2500     49.0330
  1763.0000      8.0441      2.5379      0.0404      6.7926   -999.2500     49.0694
  1763.1000      8.0441      2.5421      0.0628      6.5380   -999.2500     49.0714
  1763.2000      8.0441      2.5368      0.0494      6.8598   -999.2500   -999.2500
  1763.3000      8.0430      2.5311      0.0442      7.2053   -999.2500   -999.2500
  1763.4000      8.0430      2.5374      0.0217      6.8268   -999.2500   -999.2500
  1763.5000      8.0172      2.5511      0.0687      5.9925   -999.2500   -999.2500
  1763.6000      8.0172      2.5540      0.0786      5.8156   -999.2500   -999.2500
  1763.7000      8.0172      2.5392      0.0909      6.7134   -999.2500   -999.2500
  1763.8000      8.0003      2.5148      0.0902      8.1969   -999.2500   -999.2500
  1763.9000      8.0003      2.4925      0.0815      9.5448   -999.2500   -999.2500
  1764.0000      7.9633      2.4819      0.0608     10.1896   -999.2500   -999.2500
  1764.1000      7.9633      2.4868      0.0595      9.8924   -999.2500   -999.2500
  1764.2000      7.9633      2.5049      0.0760      8.7925   -999.2500   -999.2500
  1764.3000      7.9350      2.5221      0.1065      7.7545   -999.2500   -999.2500
  1764.4000      7.9350      2.5184      0.1373      7.9755   -999.2500   -999.2500
  1764.5000      7.9569      2.4957      0.0657      9.3501   -999.2500   -999.2500
  1764.6000      7.9569      2.4801      0.0704     10.2967   -999.2500   -999.2500
  1764.7000      7.9569      2.4820      0.1050     10.1810   -999.2500   -999.2500
  1764.8000      7.9651      2.4913      0.0725      9.6188   -999.2500   -999.2500
  1764.9000      7.9651      2.5078      0.0439      8.6196   -999.2500   -999.2500
  1765.0000      7.9677      2.5380      0.0581      6.7855   -999.2500   -999.2500
  1765.1000      7.9677      2.5725      0.1461      4.6974   -999.2500   -999.2500
  1765.2000      7.9677      2.5969      0.1504      3.2192   -999.2500   -999.2500
  1765.3000      7.9789      2.6065      0.1604      2.6362   -999.2500   -999.2500
  1765.4000      7.9789      2.5934      0.1501      3.4276   -999.2500   -999.2500
  1765.5000      7.9791      2.5593      0.1154      5.4990   -999.2500   -999.2500
  1765.6000      7.9791      2.5290      0.0553      7.3307   -999.2500   -999.2500
  1765.7000      7.9791      2.5201      0.0775      7.8744   -999.2500   -999.2500
  1765.8000      7.9572      2.5257      0.0343      7.5364   -999.2500   -999.2500
  1765.9000      7.9572      2.5388      0.0154      6.7414   -999.2500   -999.2500
  1766.0000      7.9033      2.5525      0.0687      5.9089   -999.2500   -999.2500
  1766.1000      7.9033      2.5589      0.0587      5.5229   -999.2500   -999.2500
  1766.2000      7.9033      2.5676      0.0851      4.9942   -999.2500   -999.2500
  1766.3000      8.0025      2.5880      0.0598      3.7605   -999.2500   -999.2500
  1766.4000      8.0025      2.6073      0.1042      2.5870   -999.2500   -999.2500
  1766.5000      8.0279      2.6077      0.0963      2.5644   -999.2500   -999.2500
  1766.6000      8.0279      2.5843      0.0677      3.9819   -999.2500   -999.2500
  1766.7000      8.0279      2.5462      0.0327      6.2885   -999.2500   -999.2500
  1766.8000      8.0361      2.5153     -0.0443      8.1666   -999.2500   -999.2500
  1766.9000      8.0361      2.5068      0.0546      8.6764   -999.2500   -999.2500
  1767.0000      8.0416      2.5066      0.0159      8.6891   -999.2500   -999.2500
  1767.1000      8.0416      2.4945      0.0316      9.4222   -999.2500   -999.2500
  1767.2000      8.0416      2.4673      0.0292     11.0756   -999.2500   -999.2500
  1767.3000      8.0445      2.4310      0.0583     13.2736   -999.2500   -999.2500
  1767.4000      8.0445      2.3934     -0.0168     15.5502   -999.2500   -999.2500
  1767.5000      8.0446      2.3642     -0.0028     17.3203   -999.2500   -999.2500
  1767.6000      8.0446      2.3468      0.0177     18.3786   -999.2500   -999.2500
  1767.7000      8.0446      2.3384      0.0186     18.8823   -999.2500   -999.2500
  1767.8000      8.0469      2.3424     -0.0007     18.6414   -999.2500   -999.2500
  1767.9000      8.0469      2.3665      0.0294     17.1836   -999.2500   -999.2500
  1768.0000      8.0493      2.4027      0.1064     14.9907   -999.2500   -999.2500
  1768.1000      8.0493      2.4298      0.1486     13.3482   -999.2500   -999.2500
  1768.2000      8.0493      2.4434      0.1482     12.5215   -999.2500   -999.2500
  1768.3000      8.0445      2.4523      0.1449     11.9841   -999.2500   -999.2500
  1768.4000      8.0445      2.4596      0.1362     11.5392   -999.2500   -999.2500
  1768.5000      8.0405      2.4709      0.0888     10.8541   -999.2500   -999.2500
  1768.6000      8.0405      2.4926      0.0932      9.5367   -999.2500   -999.2500
  1768.7000      8.0405      2.5153      0.1181      8.1645   -999.2500   -999.2500
  1768.8000      8.0125      2.5264      0.1062      7.4879   -999.2500   -999.2500
  1768.9000      8.0125      2.5308      0.1066      7.2266   -999.2500   -999.2500
  1769.0000      8.0020      2.5322      0.1381      7.1389   -999.2500   -999.2500
  1769.1000      8.0020      2.5245      0.1255      7.6043   -999.2500   -999.2500
  1769.2000      8.0020      2.5141      0.1011      8.2374   -999.2500   -999.2500
  1769.3000      7.9966      2.5196      0.0770      7.9053   -999.2500   -999.2500
  1769.4000      7.9966      2.5420      0.1371      6.5476   -999.2500   -999.2500
  1769.5000      8.0180      2.5641      0.1253      5.2068   -999.2500   -999.2500
  1769.6000      8.0180      2.5743      0.1106      4.5874   -999.2500   -999.2500
  1769.7000      8.0180      2.5675      0.1434      5.0023   -999.2500   -999.2500
  1769.8000      8.0215      2.5539      0.0620      5.8271   -999.2500   -999.2500
  1769.9000      8.0215      2.5601      0.0577      5.4472   -999.2500   -999.2500
  1770.0000      8.0288      2.5843      0.1309      3.9825   -999.2500   -999.2500
  1770.1000      8.0288      2.5967      0.1122      3.2331   -999.2500   -999.2500
  1770.2000      8.0288      2.5845      0.1391      3.9670   -999.2500   -999.2500
  1770.3000      8.0108      2.5593      0.0677      5.4993   -999.2500   -999.2500
  1770.4000      8.0108      2.5381      0.0460      6.7815   -999.2500   -999.2500
  1770.5000      8.0340      2.5260      0.0551      7.5132   -999.2500   -999.2500
  1770.6000      8.0340      2.5168      0.0568      8.0705   -999.2500   -999.2500
  1770.7000      8.0340      2.5094      0.0166      8.5184   -999.2500   -999.2500
  1770.8000      8.0386      2.5071      0.0443      8.6594   -999.2500   -999.2500
  1770.9000      8.0386      2.5085      0.0366      8.5741   -999.2500   -999.2500
  1771.0000      8.0477      2.5139      0.0427      8.2512   -999.2500   -999.2500
  1771.1000      8.0477      2.5278      0.0409      7.4076   -999.2500   -999.2500
