~Version Information
VERS.                      2.0: CWLS Log ASCII Standard - VERSION 2.0
WRAP.                       NO: One line per depth step
~Well Information Block
STRT.FT               510.0000: 
STOP.FT              1848.7500: 
STEP.FT                 0.2500: 
NULL.                -999.2500: 
COMP.          Pioneer Natural Resources: COMPANY
WELL.           Stampede 42-18: WELL
FLD.           Purgatoire River: FIELD
LOC.           2479' FNL & 160' FEL--: LOCATION
CNTY.               Las Animas: COUNTY
SRVC.          Superior Well Services: SERVICE COMPANY
DATE.          Sat Jun 09 02:07:27 2007: LOG DATE
UWI.           05 071 08237 00: UNIQUE WELL ID
STAT.                 Colorado: STATE
~Curve Information Block
DEPT.FT            0 000 00 00: Depth
SN.Ohm-m                      : IEL Short Normal
SP.mV                         : IEL Spontaneous Potential
DIR.Ohm-m                     : IEL Induction Resistivity
GR.GAPI                       : Gamma Ray
~Parameter Information Block
~A  Depth        SN          SP         DIR          GR     
   510.0000   2000.0000   2000.0000   9637.3867     70.3006
   510.2500   2000.0000   2000.0000  11212.6611     71.1891
   510.5000   2000.0000   2000.0000   7555.6973     73.0185
   510.7500   2000.0000   2000.0000   4368.5088     74.3570
   511.0000   2000.0000   2000.0000   2868.9329     76.0713
   511.2500   2000.0000   2000.0000   2268.9387     76.7195
   511.5000   2000.0000   2000.0000   2176.4568     76.7586
   511.7500   2000.0000   2000.0000   2555.7234     76.3824
   512.0000   2000.0000   2000.0000   3793.5190     75.8341
   512.2500   2000.0000   2000.0000   7949.9678     75.6875
   512.5000   2000.0000   2000.0000  51485.1797     75.8471
   512.7500   2000.0000   2000.0000 100000.0000     76.2490
   513.0000   2000.0000   2000.0000 100000.0000     77.5149
   513.2500   2000.0000   2000.0000 100000.0000     78.8418
   513.5000   2000.0000   2000.0000  10773.9727     81.0934
   513.7500   2000.0000   2000.0000   4811.0762     82.2310
   514.0000   2000.0000   2000.0000   3168.0310     82.7128
   514.2500   2000.0000   2000.0000   2625.3511     82.3037
   514.5000   2000.0000   2000.0000   2596.5715     81.2436
   514.7500   2000.0000   2000.0000   2997.6873     80.4302
   515.0000   2000.0000   2000.0000   4075.8445     78.8251
   515.2500   2000.0000   2000.0000   7349.7808     77.3831
   515.5000   2000.0000   2000.0000  90842.0313     74.9185
   515.7500   2000.0000   2000.0000 100000.0000     73.3007
   516.0000   2000.0000   2000.0000 100000.0000     70.9960
   516.2500   2000.0000   2000.0000 100000.0000     69.4915
   516.5000   2000.0000   2000.0000 100000.0000     67.3161
   516.7500   2000.0000   2000.0000 100000.0000     65.9168
   517.0000   2000.0000   2000.0000 100000.0000     63.6237
   517.2500   2000.0000   2000.0000 100000.0000     61.8734
   517.5000   2000.0000   2000.0000 100000.0000     59.4568
   517.7500   2000.0000   2000.0000 100000.0000     58.6170
   518.0000   2000.0000   2000.0000 100000.0000     59.3102
   518.2500   2000.0000   2000.0000 100000.0000     61.0810
   518.5000   2000.0000   2000.0000 100000.0000     65.0683
   518.7500   2000.0000   2000.0000 100000.0000     68.1357
   519.0000   2000.0000   2000.0000 100000.0000     72.8273
   519.2500   2000.0000   2000.0000 100000.0000     75.9643
   519.5000   2000.0000   2000.0000 100000.0000     80.6639
   519.7500   2000.0000   2000.0000 100000.0000     83.5403
   520.0000   2000.0000   2000.0000 100000.0000     86.6498
   520.2500   2000.0000   2000.0000 100000.0000     87.5553
   520.5000   2000.0000   2000.0000 100000.0000     87.2434
   520.7500   2000.0000   2000.0000 100000.0000     86.3433
   521.0000   2000.0000   2000.0000   7036.4800     84.9085
   521.2500   2000.0000   2000.0000   2330.7366     84.4141
   521.5000   2000.0000   2000.0000   1030.0211     84.9195
   521.7500   2000.0000   2000.0000    508.9891     86.0126
   522.0000   2000.0000   2000.0000    273.8887     87.9356
   522.2500   2000.0000   2000.0000    161.2465     88.8445
   522.5000   2000.0000   2000.0000    104.4078     89.3740
   522.7500   2000.0000   2000.0000     74.2466     89.4164
   523.0000   2000.0000   2000.0000     57.5149     89.3910
   523.2500   2000.0000   2000.0000     47.9039     89.2428
   523.5000   2000.0000   2000.0000     42.2427     88.5202
   523.7500   2000.0000   2000.0000     38.8693     87.7586
   524.0000   2000.0000   2000.0000     36.9404     86.6767
   524.2500   2000.0000   2000.0000     36.1452     86.1301
   524.5000   2000.0000   2000.0000     36.6440     85.1120
   524.7500   2000.0000   2000.0000     39.2711     83.9196
   525.0000   2000.0000   2000.0000     46.5228     81.4725
   525.2500   2000.0000   2000.0000     68.0132     79.9932
   525.5000   2000.0000   2000.0000    204.9702     78.8924
   525.7500   2000.0000   2000.0000 100000.0000     78.8274
   526.0000   2000.0000   2000.0000 100000.0000     78.9310
   526.2500   2000.0000   2000.0000 100000.0000     78.9008
   526.5000   2000.0000   2000.0000 100000.0000     79.0567
   526.7500   2000.0000   2000.0000 100000.0000     79.5499
   527.0000   2000.0000   2000.0000 100000.0000     80.7667
   527.2500   2000.0000   2000.0000 100000.0000     81.5632
   527.5000   2000.0000   2000.0000 100000.0000     82.1024
   527.7500   2000.0000   2000.0000 100000.0000     81.7242
   528.0000   2000.0000   2000.0000 100000.0000     79.6273
   528.2500   2000.0000   2000.0000 100000.0000     77.0377
   528.5000   2000.0000   2000.0000 100000.0000     71.4383
   528.7500   2000.0000   2000.0000 100000.0000     66.9260
   529.0000   2000.0000   2000.0000 100000.0000     59.9943
   529.2500   2000.0000   2000.0000 100000.0000     55.8623
   529.5000   2000.0000   2000.0000 100000.0000     51.3007
   529.7500   2000.0000   2000.0000 100000.0000     49.8730
   530.0000   2000.0000   2000.0000 100000.0000     50.8644
   530.2500   2000.0000   2000.0000 100000.0000     53.5229
   530.5000   2000.0000   2000.0000 100000.0000     59.0088
   530.7500   2000.0000   2000.0000 100000.0000     62.4028
   531.0000   2000.0000   2000.0000 100000.0000     65.7106
   531.2500   2000.0000   2000.0000 100000.0000     66.7135
   531.5000   2000.0000   2000.0000 100000.0000     67.1200
   531.7500   2000.0000   2000.0000 100000.0000     67.0170
   532.0000   2000.0000   2000.0000 100000.0000     66.5972
   532.2500   2000.0000   2000.0000 100000.0000     66.2242
   532.5000   2000.0000   2000.0000      5.2261     65.7400
   532.7500   2000.0000   2000.0000      2.5385     65.7282
   533.0000   2000.0000   2000.0000      1.7988     66.7767
   533.2500   2000.0000   2000.0000      1.5273     68.4122
   533.5000   2000.0000   2000.0000      1.4490     72.3172
   533.7500   2000.0000   2000.0000      1.4844     75.9507
   534.0000   2000.0000   2000.0000      1.6205     83.3749
   534.2500   2000.0000   2000.0000      1.8878     89.7659
   534.5000   2000.0000   2000.0000      2.3648    100.7887
   534.7500   2000.0000   2000.0000      3.1916    108.1840
   535.0000   2000.0000   2000.0000      4.5529    117.8811
   535.2500   2000.0000   2000.0000      6.4680    123.0480
   535.5000   2000.0000   2000.0000      8.2859    129.0254
   535.7500   2000.0000   2000.0000      8.9677    132.0394
   536.0000   2000.0000   2000.0000      8.5544    135.1577
   536.2500   2000.0000   2000.0000      7.8381    136.2799
   536.5000   2000.0000   2000.0000      7.2622    136.9853
   536.7500   2000.0000   2000.0000      6.9082    137.3838
   537.0000   2000.0000   2000.0000      6.7489    138.6013
   537.2500   2000.0000   2000.0000      6.7549    139.6945
   537.5000   2000.0000   2000.0000      6.9138    141.0574
   537.7500   2000.0000   2000.0000      7.2251    141.7023
   538.0000   2000.0000   2000.0000      7.7004    142.7117
   538.2500   2000.0000   2000.0000      8.3699    143.3554
   538.5000   2000.0000   2000.0000      9.2883    143.2927
   538.7500   2000.0000   2000.0000     10.5218    142.2193
   539.0000   2000.0000   2000.0000     12.1068    139.9918
   539.2500   2000.0000   2000.0000     13.9857    139.0567
   539.5000   2000.0000   2000.0000     15.9640    139.0048
   539.7500   2000.0000   2000.0000     17.7581    139.1724
   540.0000   2000.0000   2000.0000     19.1245    137.7404
   540.2500   2000.0000   2000.0000     19.9342    134.7870
   540.5000   2000.0000   2000.0000     20.1386    127.0815
   540.7500   2000.0000   2000.0000     19.7522    120.2523
   541.0000   2000.0000   2000.0000     18.9050    108.7639
   541.2500   2000.0000   2000.0000     17.8503    101.0113
   541.5000   2000.0000   2000.0000     16.8631     90.5304
   541.7500   2000.0000   2000.0000     16.1273     85.1634
   542.0000   2000.0000   2000.0000     15.7036     80.7795
   542.2500   2000.0000   2000.0000     15.5579     80.6180
   542.5000   2000.0000   2000.0000     15.6047     84.5975
   542.7500   2000.0000   2000.0000     15.7448     90.1087
   543.0000   2000.0000   2000.0000     15.8929    102.3495
   543.2500   2000.0000   2000.0000     15.9956    112.2472
