~Version Information
 VERS.                                  2.0 : CWLS LAS VERSION
 WRAP.                                   NO : WRAPING MODE
 SWARE .                 MController 2.5.0J : SOFTWARE VERSION
~Well Information
 WELL.                          GETEM 21-21 : WELL
 COMP.    PIONEER NATURAL RESOURCES USA INC : COMPANY
 FLD.                      PURGATOIRE RIVER : FIELD
 LOC.                NE/NW SEC 23 T32S R67W : LOCATION
 DATE.                             06/18/05 : DATE(S) LOGGED
 SRVC.       BLANCO GEOLOGICAL SERVICES LLC : SERVICE COMPANY
 STAT.                             COLORADO : STATE
 CNTY.                           LAS ANIMAS : COUNTY
 CTRY.                                  USA : COUNTRY
 API.                       05-071-08411-00 : API NUMBER
 STRT.FT                             321.00 : START DEPTH
 STOP.FT                            2815.00 : STOP DEPTH
 STEP.FT                               1.00 : DEPTH INCREMENT
 NULL.                                -9999 : NULL VALUE
~Curve information
 DEPTH.FT                                   :
 ROP.MIN/FT                                 :
 GAS.UNITS                                  :
~ASCII Log data
# ...
      1121.0         0.23          5.6 
      1122.0         0.20          5.0 
      1123.0         0.25          4.8 
      1124.0         0.23          5.8 
      1125.0         0.20          4.9 
      1126.0         0.13          4.9 
      1127.0         0.27          4.5 
      1128.0         0.20          4.2 
      1129.0         0.23          3.8 
      1130.0         0.20          3.5 
      1131.0         0.23          4.0 
      1132.0         0.20          4.0 
      1133.0         0.23          4.3 
      1134.0         0.23          3.9 
      1135.0         0.30          4.1 
      1136.0         1.42          3.1 
      1137.0         0.40          2.6 
      1138.0         0.33          2.7 
      1139.0         0.23          2.4 
      1140.0         0.23          2.5 
      1141.0         0.20          3.7 
      1142.0         0.13          4.3 
      1143.0         0.10          4.7 
      1144.0         0.13          5.3 
      1145.0         0.20          6.5 
      1146.0         0.23          7.7 
      1147.0         0.22          8.5 
      1148.0         0.20          9.4 
      1149.0         0.23          7.6 
      1150.0         0.20          8.7 
      1151.0         0.20         14.8 
      1152.0         0.20         24.5 
      1153.0         0.20         33.9 
      1154.0         0.20         38.8 
      1155.0         0.20         43.5 
      1156.0         0.23         45.4 
      1157.0         0.20         45.8 
      1158.0         0.20         43.9 
      1159.0         0.20         41.1 
      1160.0         0.20         38.6 
      1161.0         0.23         35.8 
      1162.0         0.20         31.5 
      1163.0         0.25         29.1 
      1164.0         0.23         26.5 
      1165.0         0.27         23.4 
      1166.0         2.13          8.5 
      1167.0         0.33          9.1 
      1168.0         0.23         11.3 
      1169.0         0.28         12.9 
      1170.0         0.23         15.3 
      1171.0         0.20         18.6 
      1172.0         0.23         25.6 
      1173.0         0.23         31.9 
      1174.0         0.33         36.4 
      1175.0         0.30         32.9 
      1176.0         0.23         28.8 
      1177.0         0.23         22.8 
      1178.0         0.20         21.1 
      1179.0         0.20         18.8 
      1180.0         0.20         15.7 
      1181.0         0.27         15.6 
      1182.0         0.32         16.4 
      1183.0         0.23         15.3 
      1184.0         0.17         16.4 
      1185.0         0.20         15.6 
      1186.0         0.23         16.2 
      1187.0         0.23         17.4 
      1188.0         0.23         15.8 
      1189.0         0.23         16.6 
      1190.0         0.20         15.3 
      1191.0         0.23         15.1 
      1192.0         0.23         12.6 
      1193.0         0.23         12.4 
      1194.0         0.23         11.1 
      1195.0         0.37         10.7 
      1196.0         1.98          5.1 
      1197.0         0.53          7.1 
      1198.0         0.30          9.2 
      1199.0         0.27         12.1 
      1200.0         0.30         16.3 
      1201.0         0.20         20.3 
      1202.0         0.18         24.8 
      1203.0         0.10         28.0 
      1204.0         0.30         37.2 
      1205.0         0.30         41.4 
      1206.0         0.30         36.7 
      1207.0         0.23         31.1 
      1208.0         0.27         25.0 
      1209.0         0.30         22.9 
      1210.0         0.23         23.9 
      1211.0         0.27         27.0 
      1212.0         0.23         29.9 
      1213.0         0.27         30.2 
      1214.0         0.27         28.0 
      1215.0         0.32         25.6 
      1216.0         0.23         22.9 
      1217.0         0.23         24.0 
      1218.0         0.23         24.1 
      1219.0         0.20         22.4 
      1220.0         0.30         21.0 
      1221.0         0.27         21.0 
      1222.0         0.23         20.4 
      1223.0         0.27         22.1 
      1224.0         0.27         22.6 
      1225.0         0.20         21.6 
      1226.0         3.35         24.5 
      1227.0         0.95         63.3 
      1228.0         1.03         43.7 
      1229.0         0.63         31.0 
      1230.0         0.30         29.7 
      1231.0         0.23         27.8 
      1232.0         0.27         25.6 
      1233.0         0.23         24.0 
      1234.0         0.23         22.3 
      1235.0         0.25         23.3 
      1236.0         0.27         23.1 
      1237.0         0.23         22.2 
      1238.0         0.23         23.7 
      1239.0         0.23         22.5 
      1240.0         0.23         22.6 
      1241.0         0.27         21.3 
      1242.0         0.23         20.7 
      1243.0         0.23         19.5 
      1244.0         0.20         19.1 
      1245.0         0.23         19.1 
      1246.0         0.20         17.7 
      1247.0         0.10         18.4 
      1248.0         0.13         18.6 
      1249.0         0.13         17.1 
      1250.0         0.10         16.7 
      1251.0         0.20         16.6 
      1252.0         0.28         16.1 
      1253.0         0.23         16.4 
      1254.0         0.23         17.0 
      1255.0         0.23         21.5 
      1256.0         1.77         29.0 
      1257.0         0.30         23.7 
      1258.0         0.23         22.8 
      1259.0         0.13         24.4 
      1260.0         0.28         26.4 
      1261.0         0.27         29.8 
      1262.0         0.27         35.7 
      1263.0         0.20         39.6 
      1264.0         0.20         45.8 
      1265.0         0.13         49.9 
      1266.0         0.07         51.5 
      1267.0         0.10         55.7 
      1268.0         0.10         60.2 
      1269.0         0.33         71.2 
      1270.0         0.23         70.6 
      1271.0         0.30         62.2 
      1272.0         0.30         54.9 
      1273.0         0.30         59.8 
      1274.0         0.23         74.8 
      1275.0         0.22         91.4 
      1276.0         0.27        107.5 
      1277.0         0.23        114.7 
      1278.0         0.27        114.2 
      1279.0         0.23        108.1 
      1280.0         0.23         98.7 
      1281.0         0.27         87.2 
      1282.0         0.20         78.9 
      1283.0         0.20         72.5 
      1284.0         0.23         67.5 
      1285.0         0.20         63.8 
      1286.0         2.65         36.6 
      1287.0         0.30         42.4 
      1288.0         0.30         51.0 
      1289.0         0.33         65.2 
      1290.0         0.33         85.3 
      1291.0         0.35        103.7 
      1292.0         0.37        111.0 
      1293.0         0.30        101.1 
      1294.0         0.30         84.3 
      1295.0         0.33         66.8 
      1296.0         0.30         58.3 
      1297.0         0.20         56.0 
      1298.0         0.27         52.9 
      1299.0         0.27         51.0 
      1300.0         0.17         49.3 
      1301.0         0.20         47.5 
      1302.0         0.23         45.8 
      1303.0         0.27         44.8 
      1304.0         0.25         45.0 
      1305.0         0.23         44.5 
      1306.0         0.30         44.3 
      1307.0         0.30         44.5 
      1308.0         0.20         46.5 
      1309.0         0.23         46.7 
      1310.0         0.23         47.4 
      1311.0         0.27         46.3 
      1312.0         0.20         45.1 
      1313.0         0.27         42.5 
      1314.0         0.20         40.7 
      1315.0         0.27         41.2 
      1316.0         2.18         25.5 
      1317.0         0.33         29.4 
      1318.0         0.33         36.3 
      1319.0         0.33         46.5 
      1320.0         0.40         64.7 
