~Version Information
VERS.                      2.0: CWLS Log ASCII Standard - VERSION 2.0
WRAP.                       NO: One line per depth step
~Well Information Block
STRT.FT               745.0000: 
STOP.FT              2945.7000: 
STEP.FT                 0.1000: 
NULL.                -999.2500: 
COMP.          Pioneer Natural Resources: COMPANY
WELL.          Old Yeller 31-32: WELL
FLD.           Purgatoire River: FIELD
LOC.           1832' FEL & 793' FNL--: LOCATION
STAT.                 Colorado: State
CNTY.               Las Animas: COUNTY
CTRY. USA : Country
SECT. 32 : Section
TOWN. 32S : Township
RANG. 67W : Range
SRVC.                Patterson: SERVICE COMPANY
DATE.          Mon Aug 29 11:12:35 2005: LOG DATE
API.           05 071 08356 00: UNIQUE WELL ID
~Curve Information Block
DEPT.FT            0 000 00 00: Depth
DCAL.in                       : CDL Caliper
RHOB.g/cc                     : CDL Bulk Density
RHOC.g/cc                     : CDL Density Correction
DPOR.pu                       : CDL Density Porosity
NPOR.pu                       : Neutron Porosity
GR.GAPI                       : Gamma Ray
~Parameter Information Block
~A  Depth       DCAL        RHOB        RHOC        DPOR        NPOR         GR     
# ...
  1609.0000      8.0786      2.4441      0.0550     12.4813     14.3031     45.2604
  1609.1000      8.0786      2.4483      0.0361     12.2246     13.7745     45.0851
  1609.2000      8.0786      2.4476      0.0312     12.2666     13.6133     43.7683
  1609.3000      8.0777      2.4367      0.0479     12.9261     13.8271     41.5393
  1609.4000      8.0777      2.4186      0.0279     14.0258     14.0737     41.7626
  1609.5000      8.0782      2.4168     -0.0025     14.1328     14.3935     46.2367
  1609.6000      8.0782      2.4387      0.0479     12.8042     14.8605     51.4309
  1609.7000      8.0782      2.4517      0.0877     12.0192     15.1141     54.1685
  1609.8000      8.0803      2.4404      0.0110     12.7023     14.9796     56.6361
  1609.9000      8.0803      2.4351     -0.0279     13.0257     14.5332     60.8176
  1610.0000      8.0808      2.4471      0.0458     12.2945     14.1989     63.2009
  1610.1000      8.0808      2.4549      0.0419     11.8217     14.3440     61.4611
  1610.2000      8.0808      2.4547      0.0378     11.8362     14.6610     56.0733
  1610.3000      8.0789      2.4532      0.0632     11.9242     14.8829     48.7221
  1610.4000      8.0789      2.4428      0.0742     12.5555     14.9219     43.7740
  1610.5000      8.0780      2.4247      0.0108     13.6535     14.5936     44.6602
  1610.6000      8.0780      2.4148     -0.0134     14.2518     14.0451     49.2991
  1610.7000      8.0780      2.4108      0.0198     14.4961     13.6432     53.2985
  1610.8000      8.0791      2.4019     -0.0049     15.0360     13.5124     53.8636
  1610.9000      8.0791      2.3963     -0.0107     15.3779     13.6885     50.1916
  1611.0000      8.0797      2.4046      0.0243     14.8756     13.9511     46.4343
  1611.1000      8.0797      2.4218      0.0513     13.8296     13.9863     47.8461
  1611.2000      8.0797      2.4358      0.0562     12.9815     14.1929     51.2799
  1611.3000      8.0807      2.4414      0.0577     12.6403     15.2123     51.7927
  1611.4000      8.0807      2.4357      0.0883     12.9863     16.8447     52.1538
  1611.5000      8.0804      2.4220      0.0223     13.8185     17.9542     55.3005
  1611.6000      8.0804      2.4193      0.0087     13.9801     18.1182     58.3227
  1611.7000      8.0804      2.4319      0.0590     13.2203     18.1497     58.9998
  1611.8000      8.0798      2.4432      0.0225     12.5313     18.8232     59.5038
  1611.9000      8.0798      2.4463      0.0489     12.3465     20.2939     58.5825
  1612.0000      8.0806      2.4341      0.0490     13.0858     21.9908     55.3283
  1612.1000      8.0806      2.3960      0.0440     15.3955     23.4208     58.3311
  1612.2000      8.0806      2.3365     -0.0071     18.9984     24.8733     73.2995
  1612.3000      8.0797      2.2742     -0.0475     22.7740     26.7279     92.9816
  1612.4000      8.0797      2.2195     -0.0426     26.0912     28.7550    105.3088
  1612.5000      8.0791      2.1678     -0.0454     29.2268     30.2899    107.3096
  1612.6000      8.0791      2.1199     -0.0770     32.1248     31.2491    105.3701
  1612.7000      8.0791      2.0811     -0.0713     34.4788     32.2299    104.4482
  1612.8000      8.0800      2.0416     -0.0527     36.8716     33.4060    105.0003
  1612.9000      8.0800      1.9936     -0.0780     39.7822     34.4530    107.5477
  1613.0000      8.0817      1.9523     -0.0879     42.2876     34.8285    111.9302
  1613.1000      8.0817      1.9294     -0.0222     43.6718     34.3905    117.7351
  1613.2000      8.0817      1.9120      0.0405     44.7259     33.7377    123.9153
  1613.3000      8.0810      1.8877      0.0427     46.2014     33.2080    125.5553
  1613.4000      8.0810      1.8584      0.0391     47.9731     32.6779    119.7880
  1613.5000      8.0783      1.8341      0.0066     49.4515     32.2752    113.4784
  1613.6000      8.0783      1.8329     -0.0227     49.5235     32.0263    112.6403
  1613.7000      8.0783      1.8670     -0.0298     47.4518     31.8123    111.9451
  1613.8000      8.0767      1.9271      0.0278     43.8144     31.5718    109.0847
  1613.9000      8.0767      2.0008      0.0568     39.3443     31.1497    108.5047
  1614.0000      8.0765      2.0871      0.1265     34.1136     29.9730    109.4358
  1614.1000      8.0765      2.1814      0.2063     28.4027     27.7475    107.2369
  1614.2000      8.0765      2.2797      0.2030     22.4436     25.4373    100.6170
  1614.3000      8.0744      2.3893      0.2515     15.8015     24.0378     92.9636
  1614.4000      8.0744      2.5038      0.2625      8.8604     23.3320     89.4171
  1614.5000      8.0730      2.5892      0.2908      3.6878     23.0066     90.3706
  1614.6000      8.0730      2.6191      0.1950      1.8732     23.2148     92.3446
  1614.7000      8.0730      2.6069      0.0801      2.6111     23.5024     93.8577
  1614.8000      8.0756      2.5815      0.0358      4.1501     23.4288     96.6363
  1614.9000      8.0756      2.5620     -0.0035      5.3304     23.4862    101.0265
  1615.0000      8.0798      2.5560      0.0382      5.6988     24.0870    103.2429
  1615.1000      8.0798      2.5623      0.0167      5.3176     24.6836    104.6448
  1615.2000      8.0798      2.5777      0.0325      4.3791     24.6018    108.9379
  1615.3000      8.0811      2.5954      0.0828      3.3096     24.1777    111.6621
  1615.4000      8.0811      2.6055      0.0555      2.6963     24.1338    108.1401
  1615.5000      8.0809      2.5994      0.0768      3.0645     24.5519    103.6903
  1615.6000      8.0809      2.5793      0.0071      4.2835     25.1280    101.8749
  1615.7000      8.0809      2.5613      0.0070      5.3777     25.8186    100.2563
  1615.8000      8.0840      2.5513      0.0265      5.9803     26.7144    100.0480
  1615.9000      8.0840      2.5472      0.0100      6.2311     27.5072    104.6886
  1616.0000      8.0877      2.5499      0.0095      6.0668     27.8022    113.7148
  1616.1000      8.0877      2.5537      0.0399      5.8363     27.8601    120.8881
  1616.2000      8.0877      2.5514     -0.0210      5.9740     28.3782    121.1407
  1616.3000      8.0885      2.5436      0.0415      6.4481     29.3125    118.1384
  1616.4000      8.0885      2.5344      0.0234      7.0054     29.9133    117.7768
  1616.5000      8.0890      2.5327      0.0056      7.1063     29.9942    120.0665
  1616.6000      8.0890      2.5437      0.0475      6.4395     29.9212    123.0482
  1616.7000      8.0890      2.5622      0.0367      5.3217     29.7516    128.6594
  1616.8000      8.0890      2.5787      0.0607      4.3239     29.3898    137.4992
  1616.9000      8.0890      2.5887      0.0488      3.7151     28.8271    144.5027
  1617.0000      8.0876      2.5967      0.0679      3.2310     28.5622    145.2654
  1617.1000      8.0876      2.6048      0.0442      2.7368     29.1400    141.8216
  1617.2000      8.0876      2.6098      0.0842      2.4367     30.0444    142.0846
  1617.3000      8.0875      2.6055      0.0722      2.6947     30.4522    144.4836
  1617.4000      8.0875      2.5919      0.0460      3.5225     30.2114    141.0840
  1617.5000      8.0904      2.5805      0.0291      4.2141     29.6901    137.7137
  1617.6000      8.0904      2.5796      0.0342      4.2669     29.4962    139.6072
  1617.7000      8.0904      2.5860      0.0164      3.8810     29.9891    141.1114
  1617.8000      8.0930      2.5976      0.0225      3.1736     30.6547    141.4811
  1617.9000      8.0930      2.6171      0.0568      1.9949     30.7553    143.0412
  1618.0000      8.0938      2.6443      0.0238      0.3483     30.1143    142.7926
  1618.1000      8.0938      2.6702      0.0530     -1.2225     29.1581    136.3149
  1618.2000      8.0938      2.6793      0.0195     -1.7744     28.6364    126.2012
  1618.3000      8.0939      2.6704      0.0002     -1.2338     28.7729    121.2027
  1618.4000      8.0939      2.6546      0.0371     -0.2777     29.0897    121.9133
  1618.5000      8.0937      2.6372      0.0384      0.7747     29.0557    121.6717
