~Version Information
VERS.                      2.0: CWLS Log ASCII Standard - VERSION 2.0
WRAP.                       NO: One line per depth step
~Well Information Block
STRT.FT                -7.0500: 
STOP.FT              3072.6000: 
STEP.FT                 0.0500: 
NULL.                -999.2500: 
COMP.          Pioneer Natural Resources: COMPANY
WELL.              Stones 24-8: WELL
FLD.           Purgatoire River: FIELD
LOC.           648' FSL & 2264' FWL--: LOCATION
PROV.                 Colorado: PROVINCE
CNTY.               Las Animas: COUNTRY
SRVC.                Patterson: SERVICE COMPANY
DATE.          Fri Feb 04 12:43:19 2005: LOG DATE
UWI.           05 071 07945 00: UNIQUE WELL ID
~Curve Information Block
DEPT.FT            0 000 00 00: Depth
CCL.                          : Casing Collar Locator
TT3.usec                      : CBL 3' Travel Time
AMP3.mV                       : CBL 3' Amplitude
GR.GAPI                       : Gamma Ray
~Parameter Information Block
~A  Depth       CCL         TT3         AMP3         GR     
# ...
   200.6500      0.0000    812.0909      2.1547    119.0144
   200.7000      0.0000    812.0909      2.1547    119.0144
   200.7500      0.0000    826.9595      2.1838    118.4083
   200.8000      0.0000    826.9595      2.1838    118.4083
   200.8500      0.0000    826.9595      2.1838    118.4083
   200.9000      0.0000    826.9595      2.1838    118.4083
   200.9500      0.0000    826.9595      2.1838    118.4083
   201.0000      0.0000    833.9108      2.1939    116.5023
   201.0500      0.0000    833.9108      2.1939    116.5023
   201.1000      0.0000    833.9108      2.1939    116.5023
   201.1500      0.0000    833.9108      2.1939    116.5023
   201.2000      0.0000    833.9108      2.1939    116.5023
   201.2500      0.0000    834.1556      2.1747    114.4692
   201.3000      0.0000    834.1556      2.1747    114.4692
   201.3500      0.0000    834.1556      2.1747    114.4692
   201.4000      0.0000    834.1556      2.1747    114.4692
   201.4500      0.0000    834.1556      2.1747    114.4692
   201.5000      0.0000    829.8794      2.1182    113.4257
   201.5500      0.0000    829.8794      2.1182    113.4257
   201.6000      0.0000    829.8794      2.1182    113.4257
   201.6500      0.0000    829.8794      2.1182    113.4257
   201.7000      0.0000    829.8794      2.1182    113.4257
   201.7500      0.0000    821.8182      2.0233    113.5746
   201.8000      0.0000    821.8182      2.0233    113.5746
   201.8500      0.0000    821.8182      2.0233    113.5746
   201.9000      0.0000    821.8182      2.0233    113.5746
   201.9500      0.0000    821.8182      2.0233    113.5746
   202.0000      0.0000    810.4319      1.8991    113.8429
   202.0500      0.0000    810.4319      1.8991    113.8429
   202.1000      0.0000    810.4319      1.8991    113.8429
   202.1500      0.0000    810.4319      1.8991    113.8429
   202.2000      0.0000    810.4319      1.8991    113.8429
   202.2500      0.0000    798.3527      1.7655    112.5696
   202.3000      0.0000    798.3527      1.7655    112.5696
   202.3500      0.0000    798.3527      1.7655    112.5696
   202.4000      0.0000    798.3527      1.7655    112.5696
   202.4500      0.0000    798.3527      1.7655    112.5696
   202.5000      0.0000    790.2901      1.6460    109.0946
   202.5500      0.0000    790.2901      1.6460    109.0946
   202.6000      0.0000    790.2901      1.6460    109.0946
   202.6500      0.0000    790.2901      1.6460    109.0946
   202.7000      0.0000    790.2901      1.6460    109.0946
   202.7500      0.0000    790.7521      1.5550    104.8457
   202.8000      0.0000    790.7521      1.5550    104.8457
   202.8500      0.0000    790.7521      1.5550    104.8457
   202.9000      0.0000    790.7521      1.5550    104.8457
   202.9500      0.0000    790.7521      1.5550    104.8457
   203.0000      0.0000    801.7426      1.4926    102.0676
   203.0500      0.0000    801.7426      1.4926    102.0676
   203.1000      0.0000    801.7426      1.4926    102.0676
   203.1500      0.0000    801.7426      1.4926    102.0676
   203.2000      0.0000    801.7426      1.4926    102.0676
   203.2500      0.0000    820.1168      1.4507    101.0813
   203.3000      0.0000    820.1168      1.4507    101.0813
   203.3500      0.0000    820.1168      1.4507    101.0813
   203.4000      0.0000    820.1168      1.4507    101.0813
   203.4500      0.0000    820.1168      1.4507    101.0813
   203.5000      0.0000    835.9683      1.4243     99.7990
   203.5500      0.0000    835.9683      1.4243     99.7990
   203.6000      0.0000    835.9683      1.4243     99.7990
   203.6500      0.0000    835.9683      1.4243     99.7990
   203.7000      0.0000    835.9683      1.4243     99.7990
   203.7500      0.0000    837.4549      1.4172     96.3964
   203.8000      0.0000    837.4549      1.4172     96.3964
   203.8500      0.0000    837.4549      1.4172     96.3964
   203.9000      0.0000    837.4549      1.4172     96.3964
   203.9500      0.0000    837.4549      1.4172     96.3964
   204.0000      0.0000    820.8768      1.4354     91.3509
   204.0500      0.0000    820.8768      1.4354     91.3509
   204.1000      0.0000    820.8768      1.4354     91.3509
   204.1500      0.0000    820.8768      1.4354     91.3509
   204.2000      0.0000    820.8768      1.4354     91.3509
   204.2500      0.0000    794.4543      1.4759     86.4128
   204.3000      0.0000    794.4543      1.4759     86.4128
   204.3500      0.0000    794.4543      1.4759     86.4128
   204.4000      0.0000    794.4543      1.4759     86.4128
   204.4500      0.0000    794.4543      1.4759     86.4128
   204.5000      0.0000    770.4399      1.5215     82.7470
   204.5500      0.0000    770.4399      1.5215     82.7470
   204.6000      0.0000    770.4399      1.5215     82.7470
   204.6500      0.0000    770.4399      1.5215     82.7470
   204.7000      0.0000    770.4399      1.5215     82.7470
   204.7500      0.0000    755.3703      1.5485     80.5507
   204.8000      0.0000    755.3703      1.5485     80.5507
   204.8500      0.0000    755.3703      1.5485     80.5507
   204.9000      0.0000    755.3703      1.5485     80.5507
   204.9500      0.0000    755.3703      1.5485     80.5507
   205.0000      0.0000    748.4037      1.5404     79.4531
   205.0500      0.0000    748.4037      1.5404     79.4531
   205.1000      0.0000    748.4037      1.5404     79.4531
   205.1500      0.0000    748.4037      1.5404     79.4531
   205.2000      0.0000    748.4037      1.5404     79.4531
   205.2500      0.0000    745.6698      1.4977     78.5938
   205.3000      0.0000    745.6698      1.4977     78.5938
   205.3500      0.0000    745.6698      1.4977     78.5938
   205.4000      0.0000    745.6698      1.4977     78.5938
   205.4500      0.0000    745.6698      1.4977     78.5938
   205.5000      0.0000    743.8840      1.4360     76.8835
   205.5500      0.0000    743.8840      1.4360     76.8835
   205.6000      0.0000    743.8840      1.4360     76.8835
   205.6500      0.0000    743.8840      1.4360     76.8835
   205.7000      0.0000    743.8840      1.4360     76.8835
   205.7500      0.0000    741.1330      1.3778     73.9073
   205.8000      0.0000    741.1330      1.3778     73.9073
   205.8500      0.0000    741.1330      1.3778     73.9073
   205.9000      0.0000    741.1330      1.3778     73.9073
   205.9500      0.0000    741.1330      1.3778     73.9073
   206.0000      0.0000    736.6231      1.3438     70.6140
   206.0500      0.0000    736.6231      1.3438     70.6140
   206.1000      0.0000    736.6231      1.3438     70.6140
   206.1500      0.0000    736.6231      1.3438     70.6140
   206.2000      0.0000    736.6231      1.3438     70.6140
   206.2500      0.0000    730.7108      1.3501     68.7789
   206.3000      0.0000    730.7108      1.3501     68.7789
   206.3500      0.0000    730.7108      1.3501     68.7789
   206.4000      0.0000    730.7108      1.3501     68.7789
   206.4500      0.0000    730.7108      1.3501     68.7789
   206.5000      0.0000    724.6597      1.4053     69.7210
   206.5500      0.0000    724.6597      1.4053     69.7210
   206.6000      0.0000    724.6597      1.4053     69.7210
   206.6500      0.0000    724.6597      1.4053     69.7210
   206.7000      0.0000    724.6597      1.4053     69.7210
   206.7500      0.0000    719.6071      1.5039     73.3675
   206.8000      0.0000    719.6071      1.5039     73.3675
   206.8500      0.0000    719.6071      1.5039     73.3675
   206.9000      0.0000    719.6071      1.5039     73.3675
   206.9500      0.0000    719.6071      1.5039     73.3675
   207.0000      0.0000    715.7258      1.6206     78.0679
   207.0500      0.0000    715.7258      1.6206     78.0679
   207.1000      0.0000    715.7258      1.6206     78.0679
   207.1500      0.0000    715.7258      1.6206     78.0679
   207.2000      0.0000    715.7258      1.6206     78.0679
   207.2500      0.0000    712.8508      1.7171     81.1742
   207.3000      0.0000    712.8508      1.7171     81.1742
