~Version Information
VERS.                      2.0: CWLS Log ASCII Standard - VERSION 2.0
WRAP.                       NO: One line per depth step
~Well Information Block
STRT.FT               665.0000: 
STOP.FT              1972.0000: 
STEP.FT                 0.2500: 
NULL.                -999.2500: 
COMP.          Petrogulf Corporation: COMPANY
WELL.          Great Plains 22-21V: WELL
FLD.           Purgatorie River: FIELD
LOC.           63' FNL & 1895' FWL: LOCATION
PROV.                 Colorado: PROVINCE
CNTY.               Las Animas: COUNTRY
SRVC.                Patterson: SERVICE COMPANY
DATE.          Thu Sep 01 07:36:33 2005: LOG DATE
UWI.                          : UNIQUE WELL ID
~Curve Information Block
DEPT.FT            0 000 00 00: Depth
SP.mV                         : DIL Spontaneous Potential
RILD.Ohm-m                    : DIL Deep Resistivity
RILM.Ohm-m                    : DIL Medium Resistivity
RLL3.Ohm-m                    : DIL Shallow Resistivity
GR.GAPI                       : Gamma Ray
~Parameter Information Block
~A  Depth        SP         RILD        RILM        RLL3         GR     
# ...
  1001.0000   2000.0000     23.9473     26.7383   2000.0000     63.9944
  1001.2500   2000.0000     23.8946     29.5587   2000.0000     57.4067
  1001.5000   2000.0000     24.3635     30.9944   2000.0000     63.4471
  1001.7500   2000.0000     26.0384     29.2992   2000.0000     62.3608
  1002.0000   2000.0000     27.2443     29.4146   2000.0000     62.6376
  1002.2500   2000.0000     28.7294     29.7016   2000.0000     66.6740
  1002.5000   2000.0000     29.2054     32.1713   2000.0000     68.8939
  1002.7500   2000.0000     30.5543     30.2919   2000.0000     74.6957
  1003.0000   2000.0000     32.4055     31.4439   2000.0000     89.9217
  1003.2500   2000.0000     32.8979     31.1397   2000.0000     83.1752
  1003.5000   2000.0000     32.0549     31.5675   2000.0000     67.7565
  1003.7500   2000.0000     32.6082     34.1781   2000.0000     76.1382
  1004.0000   2000.0000     32.5201     33.9508   2000.0000     97.7525
  1004.2500   2000.0000     35.5353     34.7678   2000.0000     83.2803
  1004.5000   2000.0000     33.9578     38.8722   2000.0000     79.7596
  1004.7500   2000.0000     31.1049     40.4333   2000.0000     70.2707
  1005.0000   2000.0000     33.1968     42.5770   2000.0000     73.3256
  1005.2500   2000.0000     33.2830     44.1397   2000.0000     58.6126
  1005.5000   2000.0000     33.4685     45.1260   2000.0000     60.6906
  1005.7500   2000.0000     31.7708     45.9409   2000.0000     66.2300
  1006.0000   2000.0000     30.7693     46.3990   2000.0000     77.4369
  1006.2500   2000.0000     28.6805     50.6387   2000.0000     67.7727
  1006.5000   2000.0000     27.1196     43.6117   2000.0000     58.9794
  1006.7500   2000.0000     25.7413     37.7266   2000.0000     62.4585
  1007.0000   2000.0000     24.1660     33.4960   2000.0000     63.6273
  1007.2500   2000.0000     22.3839     29.5651   2000.0000     76.6726
  1007.5000   2000.0000     20.8194     24.9557   2000.0000     85.7119
  1007.7500   2000.0000     18.8383     20.6582   2000.0000     79.6959
  1008.0000   2000.0000     18.7370     17.5141   2000.0000     96.4310
  1008.2500   2000.0000     17.6821     15.6432   2000.0000    106.8099
  1008.5000   2000.0000     16.6010     14.8174   2000.0000    112.0413
  1008.7500   2000.0000     15.7571     13.5645   2000.0000    125.8323
  1009.0000   2000.0000     15.1810     12.8318   2000.0000    113.1376
  1009.2500   2000.0000     14.6301     12.3415   2000.0000    104.8296
  1009.5000   2000.0000     14.2457     11.9855   2000.0000    118.5297
  1009.7500   2000.0000     14.1772     11.5996   2000.0000    124.0988
  1010.0000   2000.0000     14.1517     11.2631   2000.0000    136.4575
  1010.2500   2000.0000     14.1284     11.1683   2000.0000    115.8940
  1010.5000   2000.0000     14.2686     11.2787   2000.0000    128.0074
  1010.7500   2000.0000     14.7484     11.7196   2000.0000    129.4053
  1011.0000   2000.0000     15.1042     12.5849   2000.0000    100.7217
  1011.2500   2000.0000     15.9022     13.9330   2000.0000     79.3433
  1011.5000   2000.0000     15.8683     15.5764   2000.0000     75.5961
  1011.7500   2000.0000     15.3557     16.4948   2000.0000     70.7475
  1012.0000   2000.0000     15.7912     17.7453   2000.0000     62.7500
  1012.2500   2000.0000     15.7942     18.3284   2000.0000     73.2282
  1012.5000   2000.0000     15.2706     18.9904   2000.0000     70.3969
  1012.7500   2000.0000     15.0855     19.1163   2000.0000     78.9513
  1013.0000   2000.0000     15.1379     18.6492   2000.0000     81.4097
  1013.2500   2000.0000     14.7323     17.3431   2000.0000     91.8486
  1013.5000   2000.0000     13.8882     16.0139   2000.0000    101.4306
  1013.7500   2000.0000     13.3954     14.4641   2000.0000     98.0030
  1014.0000   2000.0000     12.6922     13.1802   2000.0000    126.7765
  1014.2500   2000.0000     12.2469     12.0571   2000.0000    137.7449
  1014.5000   2000.0000     11.4547     10.9504   2000.0000    125.1604
  1014.7500   2000.0000     11.0072     10.0882   2000.0000    121.7582
  1015.0000   2000.0000     10.4242      9.4786   2000.0000    118.1049
  1015.2500   2000.0000      9.8782      9.1250   2000.0000    121.1063
  1015.5000   2000.0000      9.2576      8.8267   2000.0000    125.6171
  1015.7500   2000.0000      8.7342      8.4883   2000.0000    131.6453
  1016.0000   2000.0000      8.3001      8.0923   2000.0000    136.2874
  1016.2500   2000.0000      7.9294      7.7885   2000.0000    139.8988
  1016.5000   2000.0000      7.5997      7.4815   2000.0000    139.0190
  1016.7500   2000.0000      7.3138      7.0908   2000.0000    134.0221
  1017.0000   2000.0000      7.1551      6.6854   2000.0000    124.0565
  1017.2500   2000.0000      7.0234      6.5265   2000.0000    119.8200
  1017.5000   2000.0000      7.0050      6.3292   2000.0000    121.3123
  1017.7500   2000.0000      6.9065      6.2470   2000.0000    115.1315
  1018.0000   2000.0000      6.8374      6.2016   2000.0000    133.0110
  1018.2500   2000.0000      6.7719      6.2286   2000.0000    126.4433
  1018.5000   2000.0000      6.6289      6.1730   2000.0000    102.2766
  1018.7500   2000.0000      6.6196      6.1572   2000.0000    110.5199
  1019.0000   2000.0000      6.5618      6.1287   2000.0000    126.1349
  1019.2500   2000.0000      6.5917      6.0515   2000.0000    131.0750
  1019.5000   2000.0000      6.5356      6.0463   2000.0000    133.5724
  1019.7500   2000.0000      6.5363      6.1242   2000.0000    137.6298
  1020.0000   2000.0000      6.5890      6.1748   2000.0000    127.1696
  1020.2500   2000.0000      6.5959      6.2662   2000.0000    123.2165
  1020.5000   2000.0000      6.7068      6.4607   2000.0000    101.6938
  1020.7500   2000.0000      6.7667      6.6002   2000.0000    101.2962
  1021.0000   2000.0000      6.8439      6.7335   2000.0000    122.1770
  1021.2500   2000.0000      6.7988      6.8110   2000.0000    119.1577
  1021.5000   2000.0000      6.8601      7.0010   2000.0000    122.4412
  1021.7500   2000.0000      6.9870      7.1021   2000.0000    137.1437
  1022.0000   2000.0000      6.8809      7.1811   2000.0000    128.3620
  1022.2500   2000.0000      6.8133      7.2367   2000.0000    127.1638
  1022.5000   2000.0000      6.7161      7.0273   2000.0000    147.0093
  1022.7500   2000.0000      6.6784      6.7885   2000.0000    149.2026
  1023.0000   2000.0000      6.7034      6.4614   2000.0000    134.6874
  1023.2500   2000.0000      6.6640      6.2793   2000.0000    123.6183
  1023.5000   2000.0000      6.6766      6.2393   2000.0000    133.2401
  1023.7500   2000.0000      6.7660      6.1512   2000.0000    119.7869
  1024.0000   2000.0000      6.8232      6.1414   2000.0000    119.3842
  1024.2500   2000.0000      6.8906      6.1622   2000.0000    118.8663
  1024.5000   2000.0000      6.9921      6.2286   2000.0000    139.8476
  1024.7500   2000.0000      7.0134      6.3086   2000.0000    134.3590
  1025.0000   2000.0000      7.0586      6.5097   2000.0000    133.5740
  1025.2500   2000.0000      7.0521      6.5957   2000.0000    138.2367
  1025.5000   2000.0000      7.3736      6.6987   2000.0000    122.7454
  1025.7500   2000.0000      7.5498      6.9974   2000.0000    121.3108
  1026.0000   2000.0000      7.8398      7.4100   2000.0000    126.3422
  1026.2500   2000.0000      8.1070      7.9186   2000.0000    117.5879
  1026.5000   2000.0000      8.2501      8.4667   2000.0000    113.2721
  1026.7500   2000.0000      8.4256      8.9979   2000.0000    115.8745
  1027.0000   2000.0000      8.5582      9.5517   2000.0000    108.4569
  1027.2500   2000.0000      8.7378     10.0828   2000.0000     98.0277
  1027.5000   2000.0000      8.7464     10.2675   2000.0000     95.5675
  1027.7500   2000.0000      8.6777     10.2044   2000.0000     94.7227
  1028.0000   2000.0000      8.5074      9.8822   2000.0000    109.7063
  1028.2500   2000.0000      8.4727      9.2754   2000.0000    112.9413
  1028.5000   2000.0000      8.5534      8.7563   2000.0000    116.7805
  1028.7500   2000.0000      8.8060      8.1723   2000.0000    127.3039
