~Version Information
VERS.                      2.0: CWLS Log ASCII Standard - VERSION 2.0
WRAP.                       NO: One line per depth step
~Well Information Block
STRT.FT                -6.7500: 
STOP.FT              1181.0000: 
STEP.FT                 0.2500: 
NULL.                -999.2500: 
COMP.          Pioneer Natural Resources: COMPANY
WELL.          Pacheco 33-27 Tr: WELL
FLD.           Purgatorie River: FIELD
LOC.           2251' FSL & 2342' FEL--: LOCATION
PROV.                       CO: PROVINCE
CNTY.               Las Animas: COUNTRY
SRVC.          Patterson Wireline: SERVICE COMPANY
DATE.          Wed Jun 15 10:58:02 2005: LOG DATE
UWI.           05 071 08384 00: UNIQUE WELL ID
~Curve Information Block
DEPT.FT            0 000 00 00: Depth
CCL.                          : Casing Collar Locator
TT3.usec                      : CBL 3' Travel Time
AMP3.mV                       : CBL 3' Amplitude
GR.GAPI                       : Gamma Ray
~Parameter Information Block
~A  Depth       CCL         TT3         AMP3         GR     
# ...
   462.2500      0.0000    868.0079      7.8179    143.5198
   462.5000      0.0000    871.7701      7.5752    142.7547
   462.7500      0.0000    873.0891      7.2895    135.5251
   463.0000      0.0000    873.5982      7.0014    123.8308
   463.2500      0.0000    874.2626      6.7593    110.3543
   463.5000      0.0000    875.6491      6.6071     96.4519
   463.7500      0.0000    877.6473      6.5693     82.4820
   464.0000      0.0000    878.9842      6.6376     68.9547
   464.2500      0.0000    877.3823      6.7741     56.6682
   464.5000      0.0000    870.8075      6.9310     46.2532
   464.7500      0.0000    859.1875      7.0719     38.1290
   465.0000      0.0000    845.3510      7.1894     32.6179
   465.2500      0.0000    833.7640      7.3091     29.7054
   465.5000      0.0000    826.9644      7.4669     28.8194
   465.7500      0.0000    822.9933      7.6749     29.1112
   466.0000      0.0000    817.6868      7.9083     29.9932
   466.2500      0.0000    809.8890      8.1197     31.3089
   466.5000      0.0000    803.3239      8.2692     32.9866
   466.7500      0.0000    803.1935      8.3455     34.7063
   467.0000      0.0000    811.7154      8.3547     36.0298
   467.2500      0.0000    826.6424      8.3082     36.7357
   467.5000      0.0000    843.0460      8.2429     36.9085
   467.7500      0.0000    856.3699      8.2434     36.7958
   468.0000      0.0000    864.4547      8.4169     36.7896
   468.2500      0.0000    867.0670      8.8340     37.6501
   468.5000      0.0000    863.3433      9.4919     40.5090
   468.7500      0.0000    848.7369     10.3340     46.2438
   469.0000      0.0000    814.1038     11.2971     54.6846
   469.2500      0.0000    750.7039     12.3266     64.5882
   469.5000      0.0000    660.8126     13.3498     74.5133
   469.7500      0.0000    564.2781     14.2674     83.6684
   470.0000      0.0000    489.2676     15.0106     92.0001
   470.2500      0.0000    451.1476     15.6271     99.7748
   470.5000      0.0000    440.0578     16.2919    106.9997
   470.7500      0.0000    431.3860     17.1901    112.8581
   471.0000      0.0000    408.7129     18.3481    115.8760
   471.2500      0.0000    375.1718     19.5617    115.2141
   471.5000      0.0000    344.3143     20.4897    111.8757
   471.7500      0.0000    325.8019     20.8452    108.4531
   472.0000      0.0000    322.2877     20.5447    107.5019
   472.2500      0.0000    336.1136     19.7138    109.7060
   472.5000      0.0000    374.2177     18.5659    113.3259
   472.7500      0.0000    443.6360     17.2778    115.6794
   473.0000      0.0000    540.2756     15.9601    115.4960
   473.2500      0.0000    643.2526     14.6987    113.8920
   473.5000      0.0000    725.0648     13.5802    113.0844
   473.7500      0.0000    770.7043     12.6647    114.2739
   474.0000      0.0000    786.5102     11.9455    116.8530
   474.2500      0.0000    791.0286     11.3602    119.4479
   474.5000      0.0000    799.0785     10.8485    121.2622
   474.7500      0.0000    813.5768     10.3963    122.2902
   475.0000      0.0000    828.7545     10.0232    122.7351
   475.2500      0.0000    838.3931      9.7443    122.7431
   475.5000      0.0000    841.1749      9.5510    122.5461
   475.7500      0.0000    840.2599      9.4213    122.5389
   476.0000      0.0000    839.7202      9.3359    123.1670
   476.2500      0.0000    841.7766      9.2847    124.7667
   476.5000      0.0000    846.2045      9.2655    127.2925
   476.7500      0.0000    851.3792      9.2765    130.0732
   477.0000      0.0000    855.9245      9.3067    131.9479
   477.2500      0.0000    859.6685      9.3343    131.8637
   477.5000      0.0000    863.0583      9.3428    129.7129
   477.7500      0.0000    866.0324      9.3351    126.7899
   478.0000      0.0000    867.8642      9.3265    125.1216
   478.2500      0.0000    867.9517      9.3255    126.0180
   478.5000      0.0000    866.5268      9.3278    129.2769
   478.7500      0.0000    864.7432      9.3301    133.5839
   479.0000      0.0000    864.0286      9.3413    137.1723
   479.2500      0.0000    865.0266      9.3737    138.2377
   479.5000      0.0000    867.1052      9.4245    135.7192
   479.7500      0.0000    868.9906      9.4737    130.3404
   480.0000      0.0000    869.7134      9.4986    124.4380
   480.2500      0.0000    868.9612      9.4820    120.2573
   480.5000      0.0000    867.0774      9.4179    118.5742
   480.7500      0.0000    865.0733      9.3274    118.8857
   481.0000      0.0000    864.2391      9.2570    120.1538
   481.2500      0.0000    865.1957      9.2436    121.2144
   481.5000      0.0000    867.3673      9.2821    121.2163
   481.7500      0.0000    869.6120      9.3380    120.1880
   482.0000      0.0000    871.2088      9.3852    118.9914
   482.2500      0.0000    872.1258      9.4199    118.4609
   482.5000      0.0000    872.6323      9.4387    118.6565
   482.7500      0.0000    872.9313      9.4221    119.1978
   483.0000      0.0000    873.0861      9.3523    120.2427
   483.2500      0.0000    873.1029      9.2384    122.6559
   483.5000      0.0000    873.0050      9.1141    127.0103
   483.7500      0.0000    872.8467      9.0083    132.7262
   484.0000      0.0000    872.6747      8.9294    138.3663
   484.2500      0.0000    872.4979      8.8817    142.6660
   484.5000      0.0000    872.2689      8.8752    145.1724
   484.7500      0.0000    871.8422      8.9061    145.9247
   485.0000      0.0000    870.9009      8.9444    144.7369
   485.2500      0.0000    868.9095      8.9520    141.1585
   485.5000      0.0000    865.1858      8.8998    135.2454
   485.7500      0.0000    858.7845      8.7670    128.0339
   486.0000      0.0000    848.1484      8.5400    121.0881
   486.2500      0.0000    831.6661      8.2297    115.7700
   486.5000      0.0000    810.3042      7.8976    112.7405
   486.7500      0.0000    789.9929      7.6419    111.6210
   487.0000      0.0000    779.2265      7.5149    111.0873
   487.2500      0.0000    782.3638      7.4621    109.7658
   487.5000      0.0000    795.6653      7.3863    107.2216
   487.7500      0.0000    810.8392      7.2574    103.9396
   488.0000      0.0000    821.8308      7.1237    100.5882
   488.2500      0.0000    827.6254      7.0387     97.9218
   488.5000      0.0000    829.7787      7.0167     97.3075
   488.7500      2.0000    828.9263      7.0454    100.4319
   489.0000      0.0000    823.0075      7.1238    107.6696
   489.2500      0.0000    808.3706      7.2894    116.7323
   489.5000      0.0000    785.0506      7.5989    123.4954
   489.7500      0.0000    762.4353      8.0532    124.7854
   490.0000      0.0000    755.6429      8.5607    120.8029
   490.2500      0.0000    772.0006      9.0188    115.0548
   490.5000      0.0000    803.2994      9.4032    111.7784
   490.7500      0.0000    834.0606      9.7343    112.8953
   491.0000      0.0000    854.6822      9.9923    117.0556
   491.2500      0.0000    864.9359     10.1293    121.4762
   491.5000      0.0000    868.8227     10.1398    124.3801
   491.7500      0.0000    869.6283     10.0676    125.7087
   492.0000      0.0000    868.6174      9.9526    126.1245
   492.2500      0.0000    865.7570      9.8093    125.9567
   492.5000      0.0000    860.8374      9.6482    125.1448
   492.7500      0.0000    854.6141      9.4870    123.8935
   493.0000      0.0000    849.2300      9.3425    123.0773
   493.2500      0.0000    847.2482      9.2283    123.7537
   493.5000      0.0000    849.7169      9.1596    126.0859
   493.7500      0.0000    855.1807      9.1462    128.7265
   494.0000      0.0000    860.7322      9.1781    129.4893
   494.2500      0.0000    863.8918      9.2274    126.9715
   494.5000      0.0000    863.4830      9.2621    121.8311
   494.7500      0.0000    859.4278      9.2577    116.5384
   495.0000      0.0000    852.5979      9.2070    113.7601
   495.2500      0.0000    844.9213      9.1233    114.8193
   495.5000      0.0000    838.7914      9.0302    119.3630
