~Version Information
VERS.                      2.0: CWLS Log ASCII Standard - VERSION 2.0
WRAP.                       NO: One line per depth step
~Well Information Block
STRT.FT               528.0000: 
STOP.FT              2250.0000: 
STEP.FT                 0.1000: 
NULL.                -999.2500: 
COMP.          Pioneer Natural Resources: COMPANY
WELL.           Parklane 43-34: WELL
FLD.           Purgatorie River: FIELD
LOC.           1704' FSL & 1119' FEL: LOCATION
PROV.                 Colorado: PROVINCE
CNTY.               Las Animas: COUNTRY
SRVC.                         : SERVICE COMPANY
DATE.          Thu Oct 07 08:21:17 2004: LOG DATE
UWI.           05 071 08162 00: UNIQUE WELL ID
~Curve Information Block
DEPT.FT            0 000 00 00: Depth
LTEN.lb                       : Surface Line Tension
DCAL.in                       : CDL Caliper
RHOB.g/cc                     : CDL Bulk Density
RHOC.g/cc                     : CDL Density Correction
DPOR.pu                       : CDL Density Porosity
GR.GAPI                       : Gamma Ray
NPOR.pu                       : Neutron Porosity
~Parameter Information Block
~A  Depth       LTEN        DCAL        RHOB        RHOC        DPOR         GR         NPOR    
# ...
   754.8000    796.5825      8.0479      2.5298      0.1432      7.2848    146.1241     25.9628
   754.9000    796.5825      8.0479      2.5142      0.0734      8.2281    145.8614     25.5068
   755.0000    826.1376      8.0483      2.4800      0.0700     10.3052    143.2420     25.2696
   755.1000    826.1376      8.0483      2.4403      0.0305     12.7105    140.7217     24.8236
   755.2000    826.1376      8.0483      2.4092     -0.0383     14.5959    142.4391     24.1959
   755.3000    890.6280      8.0492      2.3942      0.0151     15.5007    145.9427     23.8640
   755.4000    890.6280      8.0492      2.3827      0.0498     16.2029    145.9908     24.0108
   755.5000    823.7752      8.0501      2.3580      0.0283     17.6967    145.9509     24.4417
   755.6000    823.7752      8.0501      2.3199     -0.0240     20.0087    150.9819     24.9253
   755.7000    823.7752      8.0501      2.2781      0.0097     22.5405    155.8622     25.2601
   755.8000    814.6390      8.0513      2.2425      0.0029     24.6997    156.9538     25.2282
   755.9000    814.6390      8.0513      2.2216      0.0032     25.9626    158.8938     24.8075
   756.0000    870.6807      8.0531      2.2130      0.0558     26.4875    163.0723     24.6549
   756.1000    870.6807      8.0531      2.2047      0.0569     26.9908    164.5244     25.3040
   756.2000    870.6807      8.0531      2.1988      0.0180     27.3431    161.9926     26.2131
   756.3000    834.3066      8.0540      2.2110      0.0828     26.6031    158.9266     26.6996
   756.4000    834.3066      8.0540      2.2603      0.1002     23.6203    154.9503     26.9188
   756.5000    819.9976      8.0544      2.3591      0.1978     17.6273    150.0108     27.2777
   756.6000    819.9976      8.0544      2.4830      0.3785     10.1215    146.0681     27.7896
   756.7000    819.9976      8.0544      2.5799      0.4165      4.2464    142.6799     28.1537
   756.8000    832.9451      8.0537      2.6292      0.4118      1.2589    140.8026     28.1343
   756.9000    832.9451      8.0537      2.6484      0.4421      0.0945    142.8037     27.9159
   757.0000    838.9109      8.0522      2.6548      0.3925     -0.2923    147.6299     27.8771
   757.1000    838.9109      8.0522      2.6495      0.3617      0.0328    149.4444     28.1415
   757.2000    838.9109      8.0522      2.6237      0.3052      1.5967    146.2988     28.6742
   757.3000    834.3221      8.0512      2.5839      0.1595      4.0058    141.7785     29.2927
   757.4000    834.3221      8.0512      2.5609      0.0776      5.4012    137.7520     29.8007
   757.5000    821.9342      8.0500      2.5677      0.1151      4.9849    135.3842     30.0511
   757.6000    821.9342      8.0500      2.5867      0.1200      3.8364    134.7906     29.8507
   757.7000    821.9342      8.0500      2.6031      0.1661      2.8396    136.2712     29.2957
   757.8000    829.8470      8.0481      2.6099      0.1868      2.4280    141.9373     28.8552
   757.9000    829.8470      8.0481      2.5960      0.1925      3.2734    147.0098     28.8125
   758.0000    832.9959      8.0473      2.5630      0.0725      5.2714    145.3188     28.9786
   758.1000    832.9959      8.0473      2.5349      0.0466      6.9748    141.7749     29.0775
   758.2000    832.9959      8.0473      2.5244      0.0857      7.6124    141.6053     29.1851
   758.3000    817.5537      8.0478      2.5136      0.0772      8.2689    142.0390     29.5527
   758.4000    817.5537      8.0478      2.4933      0.0207      9.4988    142.5623     30.0710
   758.5000    815.4255      8.0464      2.4860      0.0153      9.9419    142.6442     30.5075
   758.6000    815.4255      8.0464      2.5065      0.0407      8.6960    139.1495     30.8699
   758.7000    815.4255      8.0464      2.5406      0.0372      6.6293    137.5252     31.1771
   758.8000    851.3367      8.0371      2.5635      0.0517      5.2395    143.6335     31.2065
   758.9000    851.3367      8.0371      2.5614      0.0380      5.3723    150.3331     30.9405
   759.0000    902.5696      8.0210      2.5458     -0.0014      6.3168    150.4151     30.7576
   759.1000    902.5696      8.0210      2.5379      0.0532      6.7955    148.0548     30.7717
   759.2000    902.5696      8.0210      2.5398      0.0376      6.6772    144.2680     30.7256
   759.3000    855.3531      8.0099      2.5452      0.0246      6.3491    135.1747     30.6013
   759.4000    855.3531      8.0099      2.5468      0.0921      6.2559    122.6792     30.6960
   759.5000    803.0083      8.0025      2.5359      0.0571      6.9160    113.4810     30.8465
   759.6000    803.0083      8.0025      2.5208      0.0197      7.8277    113.9271     30.5552
   759.7000    803.0083      8.0025      2.5138      0.0323      8.2528    120.8129     30.0292
   759.8000    819.7197      7.9937      2.5128      0.0206      8.3136    123.9687     29.6755
   759.9000    819.7197      7.9937      2.5155      0.0352      8.1506    120.7744     29.5657
   760.0000    896.2299      7.9885      2.5229      0.0255      7.7009    117.2456     29.7822
   760.1000    896.2299      7.9885      2.5304      0.0497      7.2494    117.8738     30.1892
   760.2000    896.2299      7.9885      2.5311      0.0474      7.2076    121.5689     30.3387
   760.3000    846.4607      7.9875      2.5302      0.0299      7.2603    123.3212     30.0964
   760.4000    846.4607      7.9875      2.5367      0.0403      6.8658    122.7123     29.6333
   760.5000    806.1861      7.9873      2.5530      0.0674      5.8789    125.3490     28.9647
   760.6000    806.1861      7.9873      2.5780      0.0623      4.3612    129.1161     28.4109
   760.7000    806.1861      7.9873      2.6122      0.0496      2.2880    127.5004     28.3816
   760.8000    854.0802      7.9873      2.6547      0.0844     -0.2842    125.3072     28.7353
   760.9000    854.0802      7.9873      2.6943      0.1338     -2.6828    126.7660     29.0015
   761.0000    855.3643      7.9868      2.7137      0.1738     -3.8624    127.5522     29.0638
   761.1000    855.3643      7.9868      2.7072      0.1676     -3.4679    125.3828     29.2765
   761.2000    855.3643      7.9868      2.6867      0.1270     -2.2246    121.1468     29.5931
   761.3000    838.6550      7.9863      2.6711      0.0950     -1.2769    116.7097     29.6821
   761.4000    838.6550      7.9863      2.6713      0.0984     -1.2896    113.4557     29.7102
   761.5000    852.7736      7.9859      2.6841      0.0652     -2.0682    110.7043     29.9488
   761.6000    852.7736      7.9859      2.7004      0.0716     -3.0529    108.0925     30.2406
   761.7000    852.7736      7.9859      2.7104      0.1093     -3.6583    104.5975     30.2909
   761.8000    836.0352      7.9861      2.7074      0.1026     -3.4816    102.1638     30.0548
   761.9000    836.0352      7.9861      2.6919      0.1138     -2.5379    109.3079     29.9197
   762.0000    842.9445      7.9862      2.6700      0.0966     -1.2102    124.3569     30.3558
   762.1000    842.9445      7.9862      2.6501      0.0996     -0.0041    133.7266     31.0210
   762.2000    842.9445      7.9862      2.6332      0.0644      1.0182    132.4715     31.3762
   762.3000    844.4719      7.9860      2.6195      0.0028      1.8461    127.9791     31.5985
   762.4000    844.4719      7.9860      2.6129      0.0156      2.2490    124.5711     31.9590
   762.5000    820.1108      7.9855      2.6138     -0.0110      2.1944    120.2598     32.2914
   762.6000    820.1108      7.9855      2.6174     -0.0180      1.9777    117.3765     32.3524
   762.7000    820.1108      7.9855      2.6129      0.0381      2.2468    117.9534     32.0662
   762.8000    840.4623      7.9853      2.5981     -0.0101      3.1437    118.4626     31.6561
   762.9000    840.4623      7.9853      2.5859     -0.0096      3.8860    117.6897     31.3132
   763.0000    876.7854      7.9858      2.5796      0.0332      4.2645    116.4305     30.9315
   763.1000    876.7854      7.9858      2.5747      0.0406      4.5618    111.6267     30.5664
