~Version Information
VERS.                      2.0: CWLS Log ASCII Standard - VERSION 2.0
WRAP.                       NO: One line per depth step
~Well Information Block
STRT.FT               720.0000: 
STOP.FT              2730.2000: 
STEP.FT                 0.1000: 
NULL.                -999.2500: 
COMP.          Evergreen Operating Corporation: COMPANY
WELL.            Rangely 22-28: WELL
FLD.           Purgatoire River: FIELD
LOC.           1741' FNL & 2335' FWL: LOCATION
PROV.                 Colorado: PROVINCE
CNTY.               Las Animas: COUNTRY
SRVC.                Patterson: SERVICE COMPANY
DATE.          Thu Sep 16 15:10:36 2004: LOG DATE
UWI.           05 071 08044 00: UNIQUE WELL ID
~Curve Information Block
DEPT.FT            0 000 00 00: Depth
DCAL.in                       : CDL Caliper
DPOR.pu                       : CDL Density Porosity
NPOR.pu                       : Neutron Porosity
RHOB.g/cc                     : CDL Bulk Density
RHOC.g/cc                     : CDL Density Correction
GR.GAPI                       : Gamma Ray
~Parameter Information Block
~A  Depth       DCAL        DPOR        NPOR        RHOB        RHOC         GR     
# ...
  1737.6000      8.0418      9.1961     23.6391      2.4983      0.0437    121.9238
  1737.7000      8.0418      8.9498     23.1945      2.5023      0.0800    121.0088
  1737.8000      8.0453      9.5820     22.8608      2.4919      0.0263    124.5286
  1737.9000      8.0453      9.8429     22.7065      2.4876      0.0343    129.1750
  1738.0000      8.0554      9.5850     22.6158      2.4918      0.0615    133.4556
  1738.1000      8.0554      9.6815     22.4222      2.4903      0.0349    140.4863
  1738.2000      8.0554     10.1687     22.0251      2.4822      0.0195    148.0656
  1738.3000      8.0664     10.5321     21.6021      2.4762      0.0425    147.5100
  1738.4000      8.0664     10.7901     21.4423      2.4720      0.0598    138.3902
  1738.5000      8.0700     10.9474     21.6824      2.4694      0.0211    132.4084
  1738.6000      8.0700     10.7850     22.1174      2.4720      0.0513    135.9496
  1738.7000      8.0700     10.6851     22.4273      2.4737     -0.0008    142.5049
  1738.8000      8.0689     10.9155     22.4359      2.4699      0.0379    143.1002
  1738.9000      8.0689     11.1644     22.1872      2.4658      0.0366    137.8278
  1739.0000      8.0742     11.0878     22.0695      2.4671      0.0260    136.0729
  1739.1000      8.0742     10.7129     22.2283      2.4732      0.0358    144.0412
  1739.2000      8.0742     10.7122     22.3838      2.4732      0.0624    153.8382
  1739.3000      8.0826     11.2422     22.4539      2.4645      0.0216    154.9485
  1739.4000      8.0826     11.3427     22.6265      2.4628      0.0276    148.4091
  1739.5000      8.0808     10.9732     22.9513      2.4689      0.0477    138.9962
  1739.6000      8.0808     10.8416     23.2522      2.4711      0.0132    130.4890
  1739.7000      8.0808     10.9421     23.3550      2.4695      0.0699    127.5097
  1739.8000      8.0765     11.3175     23.2747      2.4633      0.0673    132.3324
  1739.9000      8.0765     12.0843     22.9930      2.4506      0.0494    142.8870
  1740.0000      8.0720     13.0172     22.5268      2.4352      0.0743    151.2505
  1740.1000      8.0720     13.6267     21.9901      2.4252      0.0100    153.5272
  1740.2000      8.0720     13.7486     21.4074      2.4231      0.0335    156.5521
  1740.3000      8.0691     14.3351     20.9724      2.4135      0.0270    160.9803
  1740.4000      8.0691     15.7496     20.9873      2.3901     -0.0130    161.4116
  1740.5000      8.0679     16.6437     21.2726      2.3754      0.0005    160.0647
  1740.6000      8.0679     16.1450     21.3918      2.3836      0.0350    158.7893
  1740.7000      8.0679     14.7156     21.2926      2.4072      0.0237    154.0866
  1740.8000      8.0668     12.7553     21.1936      2.4395      0.0731    149.8704
  1740.9000      8.0668     10.1781     21.2412      2.4821      0.0449    150.8032
  1741.0000      8.0671      7.4894     21.5210      2.5264      0.1312    150.9368
  1741.1000      8.0671      6.2736     21.9286      2.5465      0.1568    147.2389
  1741.2000      8.0671      6.9407     22.2935      2.5355      0.1585    146.4707
  1741.3000      8.0684      7.6517     22.7372      2.5237      0.0577    150.3927
  1741.4000      8.0684      6.7106     23.2421      2.5393      0.1080    151.5475
  1741.5000      8.0691      4.7141     23.6330      2.5722      0.0787    146.9483
  1741.6000      8.0691      2.9730     23.9089      2.6009      0.1001    142.4101
  1741.7000      8.0691      1.6819     24.1525      2.6222      0.0580    143.2538
  1741.8000      8.0699      1.0133     24.3249      2.6333      0.1358    147.9286
  1741.9000      8.0699      2.0027     24.2538      2.6170      0.1513    149.3253
  1742.0000      8.0712      4.5628     24.0655      2.5747      0.0875    144.9088
  1742.1000      8.0712      7.2392     24.0346      2.5306      0.0484    139.0577
  1742.2000      8.0712      8.7608     24.1306      2.5054      0.0325    134.6582
  1742.3000      8.0717      8.5910     24.1196      2.5082      0.0276    131.1186
  1742.4000      8.0717      7.7705     23.8171      2.5218      0.0736    126.9968
  1742.5000      8.0709      8.0041     23.3694      2.5179      0.0822    125.1812
  1742.6000      8.0709      9.3042     23.0332      2.4965      0.0252    129.2655
  1742.7000      8.0709     10.7821     22.7817      2.4721      0.0220    134.1476
  1742.8000      8.0711     12.5069     22.6159      2.4436      0.0594    134.5872
  1742.9000      8.0711     14.0406     22.6779      2.4183     -0.0492    135.4759
  1743.0000      8.0772     13.7221     22.9661      2.4236      0.0005    142.1768
  1743.1000      8.0772     11.6382     23.2171      2.4580      0.0311    151.3116
  1743.2000      8.0772      9.9341     23.0898      2.4861      0.0593    155.7181
  1743.3000      8.0912     10.3017     22.7676      2.4800      0.0696    150.8988
  1743.4000      8.0912     12.3297     22.6444      2.4466     -0.0034    139.9402
  1743.5000      8.1104     13.6203     22.6608      2.4253     -0.0802    131.5459
  1743.6000      8.1104     12.7922     22.6755      2.4389     -0.0019    130.1963
  1743.7000      8.1104     11.4859     22.4775      2.4605      0.0509    133.4700
  1743.8000      8.1271     11.1762     21.9033      2.4656      0.0208    139.2951
  1743.9000      8.1271     11.1108     21.6399      2.4667     -0.0060    147.2075
  1744.0000      8.1290     10.7900     22.2195      2.4720      0.0293    153.4647
  1744.1000      8.1290     11.0068     23.0592      2.4684      0.0459    155.3369
  1744.2000      8.1290     11.9941     23.4790      2.4521      0.0457    156.0431
  1744.3000      8.1253     12.5678     23.4779      2.4426      0.0008    158.6866
  1744.4000      8.1253     11.8102     23.2253      2.4551      0.0442    160.4075
  1744.5000      8.1270     10.5150     22.8970      2.4765      0.0301    156.8945
  1744.6000      8.1270      9.8936     22.8363      2.4868      0.0512    151.8205
  1744.7000      8.1270     10.4054     23.1375      2.4783      0.0574    151.6497
  1744.8000      8.1284     11.5610     23.4826      2.4592      0.0212    155.4883
  1744.9000      8.1284     12.0534     23.7135      2.4511     -0.0068    156.2957
  1745.0000      8.1175     11.4173     23.8674      2.4616      0.0545    152.2061
  1745.1000      8.1175     10.6391     23.9381      2.4745      0.0324    147.8138
  1745.2000      8.1175     10.3847     24.0090      2.4787      0.0528    144.1293
  1745.3000      8.1061     10.2603     24.0822      2.4807      0.0552    142.8976
  1745.4000      8.1061      9.8642     23.8920      2.4872      0.0738    145.7968
  1745.5000      8.1123      9.5001     23.4184      2.4932      0.0558    147.2323
  1745.6000      8.1123      9.2490     23.0791      2.4974      0.0393    144.8925
  1745.7000      8.1123      8.9662     23.0268      2.5021      0.0703    143.5303
  1745.8000      8.1230      9.5173     23.0198      2.4930      0.0809    145.8904
  1745.9000      8.1230     11.4865     23.0064      2.4605      0.0303    151.2394
  1746.0000      8.1274     13.5874     22.9293      2.4258     -0.0092    155.8923
  1746.1000      8.1274     14.8798     22.6358      2.4045      0.0345    156.2622
  1746.2000      8.1274     16.2847     22.2811      2.3813      0.0280    154.8983
  1746.3000      8.1320     18.1298     22.2037      2.3509     -0.0038    154.0424
  1746.4000      8.1320     19.4199     22.4298      2.3296      0.0082    151.5179
  1746.5000      8.1480     19.8537     22.6219      2.3224      0.0017    149.1840
  1746.6000      8.1480     20.3925     22.5107      2.3135     -0.0198    148.9876
  1746.7000      8.1480     22.3174     22.0380      2.2818      0.0337    150.0343
  1746.8000      8.1840     26.6150     21.3148      2.2109     -0.0064    153.1277
  1746.9000      8.1840     33.6368     20.5638      2.0950      0.0089    154.1026
  1747.0000      8.2274     42.3229     19.7470      1.9517     -0.0592    147.9739
  1747.1000      8.2274     49.9544     18.7717      1.8258     -0.0919    141.4416
