~Version Information
 VERS.                      2.0: CWLS Log ASCII Standard - VERSION 2.0
 WRAP.                       NO: One line per depth step
 ~Well Information Block
 STRT.FT               462.4000: 
 STOP.FT              2260.5000: 
 STEP.FT                 0.1000: 
 NULL.                -999.2500: 
 COMP.          Petrogulf Corporation: COMPANY
 WELL.             McLeod 9-42V: WELL
 FLD.           Purgatorie River: FIELD
 LOC.           1658' FNL & 415' FEL: LOCATION
 CNTY.               Las Animas: COUNTY
 SRVC.                         : SERVICE COMPANY
 DATE.          Fri Nov 12 10:12:24 2004: LOG DATE
 UWI.           05 071 08071 00: UNIQUE WELL ID
 STAT.                 Colorado: STATE
 PROV.                         :Province
 ~Curve Information Block
 DEPT.FT            0 000 00 00: Depth
 DCAL.in                       : CDL Caliper
 RHOB.g/cc                     : CDL Bulk Density
 RHOC.g/cc                     : CDL Density Correction
 DPOR.pu                       : CDL Density Porosity
 GR.GAPI                       : Gamma Ray
 NPOR.pu                       : Neutron Porosity
 ~Parameter Information Block
 ~A  Depth       DCAL        RHOB        RHOC        DPOR         GR         NPOR    
# ...
  1892.8000      7.8854      2.5247      0.0420      7.5957    118.6066     22.4779
  1892.9000      7.8854      2.5095      0.0468      8.5181    116.3746     21.5317
  1893.0000      7.8851      2.4854      0.0199      9.9729    109.0430     20.6847
  1893.1000      7.8851      2.4542     -0.0195     11.8666    102.4002     20.1901
  1893.2000      7.8851      2.4274     -0.0008     13.4917     96.7889     20.1738
  1893.3000      7.8782      2.4138     -0.0409     14.3174     91.2500     20.3338
  1893.4000      7.8782      2.4195     -0.0502     13.9709     87.4755     20.4360
  1893.5000      7.8828      2.4465      0.0015     12.3332     86.8032     20.6503
  1893.6000      7.8828      2.4864      0.0472      9.9166     89.4322     21.1434
  1893.7000      7.8828      2.5211      0.1400      7.8130     92.3825     21.7711
  1893.8000      7.8848      2.5310      0.1694      7.2141     93.3010     22.3000
  1893.9000      7.8848      2.5116      0.1628      8.3878     93.8401     22.6085
  1894.0000      7.8261      2.4756      0.1350     10.5715     95.6157     22.7094
  1894.1000      7.8261      2.4364      0.1226     12.9425     98.7515     22.8608
  1894.2000      7.8261      2.4053      0.0957     14.8330    102.4226     23.3025
  1894.3000      7.8213      2.3923      0.0238     15.6162    106.5068     24.0034
  1894.4000      7.8213      2.3915      0.0261     15.6662    109.7375     24.8534
  1894.5000      7.8794      2.3800      0.0386     16.3632    109.7525     25.5663
  1894.6000      7.8794      2.3563     -0.0094     17.7978    107.0900     26.0391
  1894.7000      7.8794      2.3431      0.0153     18.6017    104.4802     26.2863
  1894.8000      7.9118      2.3371      0.0906     18.9614    102.5342     26.1428
  1894.9000      7.9118      2.3088      0.0632     20.6808    102.3884     25.9500
  1895.0000      7.9110      2.2512      0.0395     24.1692    105.9350     25.9647
  1895.1000      7.9110      2.1825      0.0122     28.3334    108.4871     25.6947
  1895.2000      7.9110      2.1159     -0.0394     32.3668    106.0316     25.1450
  1895.3000      7.9091      2.0588     -0.0381     35.8311    101.3119     24.9301
  1895.4000      7.9091      2.0159     -0.0466     38.4319     96.8938     25.2515
  1895.5000      7.9001      1.9872     -0.0598     40.1715     95.0181     25.7460
  1895.6000      7.9001      1.9729     -0.0523     41.0353     94.7968     25.8610
  1895.7000      7.9001      1.9749     -0.0394     40.9151     91.7427     25.5037
  1895.8000      7.9021      1.9902      0.0448     39.9850     85.3235     25.1606
  1895.9000      7.9021      2.0204      0.0173     38.1598     79.3772     25.0978
  1896.0000      7.8948      2.0809      0.0133     34.4938     77.3171     25.1034
  1896.1000      7.8948      2.1718      0.0893     28.9797     78.3896     24.9279
  1896.2000      7.8948      2.2603      0.0999     23.6189     78.3280     24.5036
  1896.3000      7.8913      2.3100      0.0859     20.6077     73.7317     23.9265
  1896.4000      7.8913      2.3114      0.0596     20.5234     65.0007     23.3273
  1896.5000      7.8893      2.2827      0.0139     22.2603     55.3939     22.5511
  1896.6000      7.8893      2.2483      0.0248     24.3474     47.5783     21.5583
  1896.7000      7.8893      2.2118      0.0826     26.5602     43.0570     20.8307
  1896.8000      7.8365      2.1646      0.0007     29.4206     42.1021     20.7007
  1896.9000      7.8365      2.1106      0.0047     32.6921     42.5826     20.8097
  1897.0000      7.8149      2.0647     -0.0558     35.4720     42.9297     20.5914
  1897.1000      7.8149      2.0431     -0.0601     36.7796     43.6267     19.9896
  1897.2000      7.8149      2.0497      0.0299     36.3792     45.4239     19.6932
  1897.3000      7.8425      2.0706      0.0476     35.1141     46.6721     20.2121
  1897.4000      7.8425      2.0952      0.0694     33.6251     45.4858     21.0787
  1897.5000      7.8878      2.1285      0.0357     31.6056     43.5332     21.5770
  1897.6000      7.8878      2.1801      0.0807     28.4796     44.0657     21.7280
  1897.7000      7.8878      2.2513      0.1045     24.1647     48.1272     21.9879
  1897.8000      7.8987      2.3320      0.1282     19.2738     54.6305     22.5432
  1897.9000      7.8987      2.4035      0.1072     14.9410     63.4245     23.4135
  1898.0000      7.9059      2.4539      0.0908     11.8836     73.2828     24.5670
  1898.1000      7.9059      2.4836      0.0989     10.0841     81.5749     25.5299
  1898.2000      7.9059      2.4986      0.0859      9.1764     88.9145     25.9150
  1898.3000      7.9028      2.5122      0.1086      8.3512     97.4329     25.9912
  1898.4000      7.9028      2.5297      0.1501      7.2931    105.9376     26.1935
  1898.5000      7.9187      2.5413      0.1047      6.5888    111.9358     26.6935
  1898.6000      7.9187      2.5407      0.1045      6.6242    115.3705     27.0907
  1898.7000      7.9187      2.5336      0.0675      7.0527    118.4028     27.0403
  1898.8000      7.9190      2.5310      0.0739      7.2142    120.4631     26.7524
  1898.9000      7.9190      2.5363      0.0603      6.8910    119.5695     26.3684
  1899.0000      7.9213      2.5460      0.0332      6.3024    117.7325     25.9614
  1899.1000      7.9213      2.5528      0.0523      5.8899    117.9936     25.4876
  1899.2000      7.9213      2.5516      0.0239      5.9649    118.4080     24.9455
  1899.3000      7.9313      2.5461      0.0278      6.2971    114.8569     24.5950
  1899.4000      7.9313      2.5383      0.0955      6.7707    108.3444     24.6350
  1899.5000      7.9147      2.5298      0.0250      7.2826    102.1844     25.0641
  1899.6000      7.9147      2.5283      0.0895      7.3739    100.6394     25.5431
  1899.7000      7.9147      2.5338      0.0477      7.0403    104.7320     25.8666
  1899.8000      7.8810      2.5402      0.0704      6.6573    107.1176     26.0995
  1899.9000      7.8810      2.5475      0.0741      6.2131    103.3413     25.9992
  1900.0000      7.8780      2.5654      0.0786      5.1301     98.2877     25.2980
  1900.1000      7.8780      2.5913      0.0853      3.5549     97.8276     24.1864
  1900.2000      7.8780      2.6029      0.1034      2.8546    101.7161     23.1908
  1900.3000      7.8885      2.5869      0.0858      3.8235    104.2395     22.9812
  1900.4000      7.8885      2.5627      0.0110      5.2921    102.4165     23.4279
  1900.5000      7.8974      2.5557      0.0359      5.7180    100.0959     23.6088
  1900.6000      7.8974      2.5583      0.0398      5.5597     98.5054     23.0211
  1900.7000      7.8974      2.5471      0.0271      6.2338     97.2108     22.0016
  1900.8000      7.8986      2.5212     -0.0123      7.8056     99.7908     21.2755
  1900.9000      7.8986      2.4992      0.0024      9.1370    105.5351     21.3310
  1901.0000      7.8931      2.4925     -0.0052      9.5434    107.8104     21.8896
  1901.1000      7.8931      2.4919      0.0268      9.5836    104.3278     22.0639
  1901.2000      7.8931      2.4829     -0.0100     10.1276     99.3055     21.4452
  1901.3000      7.8983      2.4725     -0.0307     10.7587     97.0104     20.6722
  1901.4000      7.8983      2.4803     -0.0214     10.2834     98.7510     20.2922
  1901.5000      7.9046      2.5124      0.0040      8.3414    103.3375     20.0545
  1901.6000      7.9046      2.5536      0.0046      5.8435    106.6805     19.8871
  1901.7000      7.9046      2.5770      0.0529      4.4227    106.1894     20.1086
  1901.8000      7.9066      2.5693      0.0534      4.8890    103.7550     20.4743
  1901.9000      7.9066      2.5480     -0.0033      6.1794    102.8003     20.4512
  1902.0000      7.9005      2.5409     -0.0254      6.6138    103.3492     20.0016
  1902.1000      7.9005      2.5596     -0.0016      5.4787    102.3367     19.3227
  1902.2000      7.9005      2.5947      0.0476      3.3487     99.3321     18.5755
  1902.3000      7.8991      2.6250      0.0945      1.5173     96.1026     18.1843
