~Version Information
VERS.                      2.0: CWLS Log ASCII Standard - VERSION 2.0
WRAP.                       NO: One line per depth step
~Well Information Block
STRT.FT               -12.2500: 
STOP.FT              2595.7500: 
STEP.FT                 0.2500: 
NULL.                -999.2500: 
COMP.          Petrogulf Corporation: COMPANY
WELL.            Montoya 1-44V: WELL
FLD.           Purgatoire River: FIELD
LOC.           753' FSL & 990' FEL--: LOCATION
PROV.                       CO: PROVINCE
CNTY.               Las Aniams: COUNTRY
SRVC.          Patterson Wireline: SERVICE COMPANY
DATE.          Mon Jun 13 11:58:10 2005: LOG DATE
UWI.           05 071 08142 00: UNIQUE WELL ID
~Curve Information Block
DEPT.FT            0 000 00 00: Depth
CCL.                          : Casing Collar Locator
TT3.usec                      : CBL 3' Travel Time
AMP3.mV                       : CBL 3' Amplitude
GR.GAPI                       : Gamma Ray
~Parameter Information Block
~A  Depth       CCL         TT3         AMP3         GR     
# ...
  2232.2500      0.0000    267.8983     47.8567     73.5134
  2232.5000      0.0000    267.7034     48.3871     73.8045
  2232.7500      0.0000    267.4659     49.3640     75.2333
  2233.0000      0.0000    267.2488     50.5654     77.3412
  2233.2500      0.0000    267.0852     51.7536     79.8306
  2233.5000      0.0000    266.9718     52.8025     82.2796
  2233.7500      0.0000    266.8873     53.7310     84.0866
  2234.0000      0.0000    266.8260     54.5591     84.9451
  2234.2500      0.0000    266.8097     55.1801     85.2517
  2234.5000      0.0000    266.8531     55.4732     86.0539
  2234.7500      0.0000    266.9292     55.5078     88.4709
  2235.0000      0.0000    266.9882     55.5052     92.6609
  2235.2500      0.0000    267.0045     55.6045     97.0799
  2235.5000      0.0000    266.9904     55.7722     99.2691
  2235.7500      0.0000    266.9722     55.9145     98.0357
  2236.0000      0.0000    266.9715     55.9684     94.7768
  2236.2500      0.0000    266.9989     55.9046     92.0887
  2236.5000      0.0000    267.0435     55.7380     90.9608
  2236.7500      0.0000    267.0717     55.5522     89.7194
  2237.0000      0.0000    267.0499     55.4658     86.0210
  2237.2500      0.0000    266.9723     55.5649     79.5632
  2237.5000      0.0000    266.8571     55.9016     72.4448
  2237.7500      0.0000    266.7203     56.5557     67.0615
  2238.0000      0.0000    266.5615     57.6768     64.2857
  2238.2500      0.0000    266.3734     59.4362     63.7059
  2238.5000      0.0000    266.1603     61.8804     64.7785
  2238.7500      0.0000    265.9483     64.7668     67.1108
  2239.0000      0.0000    265.7762     67.5559     69.9475
  2239.2500      0.0000    265.6700     69.6283     72.1451
  2239.5000      0.0000    265.6272     70.5625     73.0811
  2239.7500      0.0000    265.6268     70.2541     73.4371
  2240.0000      0.0000    265.6544     68.8526     74.6919
  2240.2500      0.0000    265.7102     66.6577     77.7352
  2240.5000      0.0000    265.7957     64.0605     82.1210
  2240.7500      0.0000    265.9016     61.4793     86.4889
  2241.0000      0.0000    266.0136     59.2421     89.4725
  2241.2500      0.0000    266.1290     57.4635     90.4364
  2241.5000      0.0000    266.2720     56.0131     89.7245
  2241.7500      0.0000    266.5282     54.6241     88.2478
  2242.0000      0.0000    267.1714     53.0740     86.8166
  2242.2500      0.0000    268.8742     51.2606     85.7753
  2242.5000      0.0000    272.8040     49.0915     84.9797
  2242.7500      0.0000    280.0561     46.4060     83.9820
  2243.0000      0.0000    290.3046     43.1493     82.3498
  2243.2500      0.0000    301.0012     39.5683     80.0707
  2243.5000      0.0000    308.8549     36.0392     77.8599
  2243.7500      0.0000    312.6725     32.7207     76.8937
  2244.0000      0.0000    314.5505     29.5532     77.7532
  2244.2500      0.0000    318.8201     26.5216     79.6117
  2244.5000      0.0000    331.4578     23.6991     80.8876
  2244.7500      0.0000    360.3430     21.0907     80.7134
  2245.0000      2.0000    412.8511     18.6265     79.4747
  2245.2500      2.0000    489.5396     16.3137     78.1811
  2245.5000      0.0000    579.2750     14.2940     77.8549
  2245.7500      0.0000    662.2159     12.7320     79.2753
  2246.0000      0.0000    719.8448     11.6752     82.5466
  2246.2500      0.0000    744.6514     11.0250     86.7617
  2246.5000      0.0000    742.7901     10.6317     90.4198
  2246.7500      0.0000    728.6194     10.4232     92.2616
  2247.0000      0.0000    716.1420     10.4175     91.6467
  2247.2500      0.0000    713.4871     10.6251     88.4528
  2247.5000      0.0000    721.9683     10.9877     83.0357
  2247.7500      0.0000    737.5166     11.4055     76.3378
  2248.0000      0.0000    753.1339     11.7689     69.7755
  2248.2500      0.0000    762.2864     11.9772     64.7905
  2248.5000      0.0000    762.6157     11.9798     62.2458
  2248.7500      0.0000    757.8207     11.8020     62.0691
  2249.0000      0.0000    754.9711     11.5120     63.5473
  2249.2500      0.0000    757.6879     11.1818     66.0116
  2249.5000      0.0000    761.6764     10.8932     69.0699
  2249.7500      0.0000    758.6953     10.7484     72.2417
  2250.0000      0.0000    745.2104     10.8380     74.8052
  2250.2500      0.0000    725.9535     11.1879     76.2214
  2250.5000      0.0000    709.5002     11.7462     76.5130
  2250.7500      0.0000    701.4820     12.4316     76.0903
  2251.0000      0.0000    699.4802     13.2128     75.3443
  2251.2500      0.0000    690.8889     14.1597     74.4208
  2251.5000      0.0000    658.0919     15.4311     73.1494
  2251.7500      0.0000    592.3816     17.2151     71.1443
  2252.0000      0.0000    504.8866     19.6485     68.2344
  2252.2500      0.0000    420.2339     22.7465     64.9416
  2252.5000      0.0000    358.0405     26.3622     62.3235
  2252.7500      0.0000    322.0665     30.1964     61.1005
  2253.0000      0.0000    304.8464     33.8577     60.9958
  2253.2500      0.0000    297.4752     36.9610     61.1494
  2253.5000      0.0000    294.2807     39.2404     61.0229
  2253.7500      0.0000    292.6036     40.6243     60.5652
  2254.0000      0.0000    291.7057     41.2246     59.7445
  2254.2500      0.0000    291.9535     41.2614     58.5154
  2254.5000      0.0000    293.7945     40.9810     57.2322
  2254.7500      0.0000    296.9366     40.5975     56.6254
  2255.0000      0.0000    300.3547     40.2578     57.1326
  2255.2500      0.0000    303.0391     40.0188     58.3829
  2255.5000      0.0000    304.6145     39.8226     59.5633
  2255.7500      0.0000    305.2920     39.4939     60.3551
  2256.0000      0.0000    305.4543     38.8128     61.3412
  2256.2500      0.0000    305.3847     37.6522     63.3257
  2256.5000      0.0000    305.2526     36.0615     66.3369
  2256.7500      0.0000    305.1751     34.2089     69.4434
  2257.0000      0.0000    305.2262     32.2614     71.5631
  2257.2500      0.0000    305.4264     30.3315     72.4554
  2257.5000      0.0000    305.7427     28.5020     72.8954
  2257.7500      0.0000    306.1225     26.8519     73.8459
  2258.0000      0.0000    306.5290     25.4509     75.6425
  2258.2500      0.0000    306.9402     24.3401     78.1475
  2258.5000      0.0000    307.3130     23.5225     81.2554
  2258.7500      0.0000    307.5666     22.9870     84.6363
  2259.0000      0.0000    307.6223     22.7553     87.3407
  2259.2500      0.0000    307.4635     22.8896     88.5121
  2259.5000      0.0000    307.1529     23.4288     88.3028
  2259.7500      0.0000    306.7916     24.3038     87.5165
  2260.0000      0.0000    306.4645     25.3217     86.7750
  2260.2500      0.0000    306.2168     26.2489     86.5266
  2260.5000      0.0000    306.0655     26.9108     87.2212
  2260.7500      0.0000    306.0217     27.2120     88.7529
  2261.0000      0.0000    306.0988     27.1068     90.0611
  2261.2500      0.0000    306.2995     26.6110     89.8401
  2261.5000      0.0000    306.5959     25.8430     87.5494
  2261.7500      0.0000    306.9287     24.9856     83.6955
  2262.0000      0.0000    307.2323     24.1726     79.4712
  2262.2500      0.0000    307.4655     23.4273     76.1153
  2262.5000      0.0000    307.6189     22.7201     74.2137
  2262.7500      0.0000    307.6980     22.0734     73.4162
  2263.0000      0.0000    307.7008     21.5978     72.8691
  2263.2500      0.0000    307.6153     21.4344     71.8883
  2263.5000      0.0000    307.4381     21.6838     70.2814
  2263.7500      0.0000    307.1914     22.3920     68.3064
  2264.0000      0.0000    306.9149     23.5497     66.4271
  2264.2500      0.0000    306.6468     25.0333     64.9144
  2264.5000      0.0000    306.4183     26.5546     63.6301
  2264.7500      0.0000    306.2638     27.7449     62.4282
  2265.0000      0.0000    306.2228     28.3302     61.7974
  2265.2500      0.0000    306.3286     28.2202     62.7563
  2265.5000      0.0000    306.6208     27.4634     65.8757
