~Version Information
VERS.                      2.0: CWLS Log ASCII Standard - VERSION 2.0
WRAP.                       NO: One line per depth step
~Well Information Block
STRT.FT               765.6000: 
STOP.FT              2431.0000: 
STEP.FT                 0.1000: 
NULL.                -999.2500: 
COMP.          Petrogulf Corporation: COMPANY
WELL.             Norton 9-14V: WELL
FLD.           Purgatorie River: FIELD
LOC.           230' FSL & 225' FWL: LOCATION
CNTY.               Las Animas: COUNTY
SRVC.                         : SERVICE COMPANY
DATE.          Thu Oct 28 06:20:25 2004: LOG DATE
UWI.           05 071 07891 00: UNIQUE WELL ID
STAT.                 Colorado: STATE
~Curve Information Block
DEPT.FT            0 000 00 00: Depth
DCAL.in                       : CDL Caliper
RHOB.g/cc                     : CDL Bulk Density
RHOC.g/cc                     : CDL Density Correction
DPOR.pu                       : CDL Density Porosity
GR.GAPI                       : Gamma Ray
NPOR.pu                       : Neutron Porosity
~Parameter Information Block
~A  Depth       DCAL        RHOB        RHOC        DPOR         GR         NPOR    
# ...
   784.8000   -999.2500   -999.2500   -999.2500   -999.2500     64.6681     50.0125
   784.9000   -999.2500   -999.2500   -999.2500   -999.2500     65.8832     49.8942
   785.0000   -999.2500   -999.2500   -999.2500   -999.2500     75.8106     49.9600
   785.1000   -999.2500   -999.2500   -999.2500   -999.2500     82.2917     50.0855
   785.2000   -999.2500   -999.2500   -999.2500   -999.2500     79.5773     50.0092
   785.3000   -999.2500   -999.2500   -999.2500   -999.2500     74.1812     49.6975
   785.4000   -999.2500   -999.2500   -999.2500   -999.2500     73.9044     49.3765
   785.5000   -999.2500   -999.2500   -999.2500   -999.2500     80.5622     49.2099
   785.6000   -999.2500   -999.2500   -999.2500   -999.2500     87.4857     49.0754
   785.7000   -999.2500   -999.2500   -999.2500   -999.2500     87.7609     48.7607
   785.8000   -999.2500   -999.2500   -999.2500   -999.2500     84.2785     48.3507
   785.9000   -999.2500   -999.2500   -999.2500   -999.2500     84.3061     48.1660
   786.0000   -999.2500   -999.2500   -999.2500   -999.2500     88.0397     48.4072
   786.1000   -999.2500   -999.2500   -999.2500   -999.2500     91.2357     48.9644
   786.2000   -999.2500   -999.2500   -999.2500   -999.2500     93.5353     49.3481
   786.3000   -999.2500   -999.2500   -999.2500   -999.2500     93.7113     49.1897
   786.4000   -999.2500   -999.2500   -999.2500   -999.2500     89.0066     48.7267
   786.5000   -999.2500   -999.2500   -999.2500   -999.2500     82.5330     48.5151
   786.6000   -999.2500   -999.2500   -999.2500   -999.2500     79.3768     48.8676
   786.7000   -999.2500   -999.2500   -999.2500   -999.2500     79.3375     49.3689
   786.8000   -999.2500   -999.2500   -999.2500   -999.2500     79.2232     49.5195
   786.9000   -999.2500   -999.2500   -999.2500   -999.2500     79.3798     49.4237
   787.0000   -999.2500   -999.2500   -999.2500   -999.2500     82.6515     49.3305
   787.1000   -999.2500   -999.2500   -999.2500   -999.2500     88.3811     49.2620
   787.2000   -999.2500   -999.2500   -999.2500   -999.2500     91.5462     49.0322
   787.3000   -999.2500   -999.2500   -999.2500   -999.2500     88.0413     48.4919
   787.4000   -999.2500   -999.2500   -999.2500   -999.2500     81.8722     47.7300
   787.5000   -999.2500   -999.2500   -999.2500   -999.2500     82.8283     47.2244
   787.6000   -999.2500   -999.2500   -999.2500   -999.2500     89.5283     47.4697
   787.7000   -999.2500   -999.2500   -999.2500   -999.2500     92.4635     48.2609
   787.8000   -999.2500   -999.2500   -999.2500   -999.2500     90.3516     48.8892
   787.9000   -999.2500   -999.2500   -999.2500   -999.2500     87.6925     49.0747
   788.0000   -999.2500   -999.2500   -999.2500   -999.2500     84.0518     49.0539
   788.1000   -999.2500   -999.2500   -999.2500   -999.2500     78.1091     49.0321
   788.2000   -999.2500   -999.2500   -999.2500   -999.2500     72.6016     49.0272
   788.3000   -999.2500   -999.2500   -999.2500   -999.2500     70.0425     48.9611
   788.4000   -999.2500   -999.2500   -999.2500   -999.2500     69.5839     49.0050
   788.5000   -999.2500   -999.2500   -999.2500   -999.2500     70.8184     49.2707
   788.6000   -999.2500   -999.2500   -999.2500   -999.2500     71.8390     49.2823
   788.7000   -999.2500   -999.2500   -999.2500   -999.2500     69.4892     48.8370
   788.8000   -999.2500   -999.2500   -999.2500   -999.2500     65.2381     48.5449
   788.9000   -999.2500   -999.2500      0.4469   -999.2500     64.3375     48.7595
   789.0000      4.8053   -999.2500      0.4496   -999.2500     66.9158     49.0062
   789.1000      4.8053   -999.2500      0.4724   -999.2500     69.7647     48.8825
   789.2000      4.8053   -999.2500      0.4627   -999.2500     73.0999     48.6495
   789.3000      4.8121   -999.2500      0.4270   -999.2500     77.2172     48.4894
   789.4000      4.8121      2.4585      0.4310     11.6063     81.1022     48.2289
   789.5000      4.8034      2.4560      0.4213     11.7592     82.4506     47.7505
   789.6000      4.8034      2.4564      0.4362     11.7356     80.1162     47.0804
   789.7000      4.8034      2.4514      0.4384     12.0357     76.5220     46.5956
   789.8000      4.8074      2.4424      0.3877     12.5801     74.7074     46.6616
   789.9000      4.8074      2.4391      0.4136     12.7847     74.3930     46.8747
   790.0000      4.7982      2.4403      0.4276     12.7116     73.5912     46.6899
   790.1000      4.7982      2.4385      0.4056     12.8163     71.6920     46.3608
   790.2000      4.7982      2.4316      0.4362     13.2381     68.1962     46.3642
   790.3000      4.8142      2.4243      0.3956     13.6799     65.6352     46.5898
   790.4000      4.8142      2.4258      0.4100     13.5900     66.8229     46.6320
   790.5000      4.8221      2.4344      0.4118     13.0643     67.8890     46.5100
   790.6000      4.8221      2.4376      0.4287     12.8715     65.3569     46.5462
   790.7000      4.8221      2.4306      0.4111     13.2953     62.7521     46.7642
   790.8000      4.8117      2.4229      0.4158     13.7624     62.3272     46.9334
   790.9000      4.8117      2.4222      0.4180     13.8047     62.2228     46.9994
   791.0000      4.8096      2.4309      0.3795     13.2782     62.5956     47.1500
   791.1000      4.8096      2.4464      0.4430     12.3424     63.9227     47.3729
   791.2000      4.8096      2.4553      0.4397     11.7972     64.0886     47.2562
   791.3000      4.7990      2.4509      0.4331     12.0684     62.0383     46.6360
   791.4000      4.7990      2.4392      0.4205     12.7765     59.7271     46.2046
   791.5000      4.8044      2.4268      0.4303     13.5256     59.8219     46.4241
   791.6000      4.8044      2.4182      0.4009     14.0509     61.1817     46.7053
   791.7000      4.8044      2.4158      0.4058     14.1950     59.8226     46.7010
   791.8000      4.8134      2.4188      0.3977     14.0140     56.1195     46.6624
   791.9000      4.8134      2.4238      0.4116     13.7076     54.4975     46.5876
   792.0000      4.8079      2.4297      0.4156     13.3503     55.1810     46.3515
   792.1000      4.8079      2.4413      0.3910     12.6459     55.2163     45.9897
   792.2000      4.8079      2.4581      0.4176     11.6319     56.0409     45.7188
   792.3000      4.8040      2.4680      0.4234     11.0331     59.5683     45.7099
   792.4000      4.8040      2.4648      0.4242     11.2262     62.1567     45.7629
   792.5000      4.8095      2.4564      0.3972     11.7343     60.1766     45.6446
   792.6000      4.8095      2.4525      0.3998     11.9714     53.6661     45.2896
   792.7000      4.8095      2.4518      0.4052     12.0124     46.0270     44.6416
   792.8000      4.8118      2.4500      0.4172     12.1185     42.0139     44.2369
   792.9000      4.8118      2.4526      0.3849     11.9632     42.9227     44.3556
   793.0000      4.8093      2.4664      0.3903     11.1279     46.3533     44.3043
   793.1000      4.8093      2.4857      0.4342      9.9546     49.6838     43.9808
   793.2000      4.8093      2.5037      0.4245      8.8693     50.8769     43.8902
   793.3000      4.8110      2.5190      0.4239      7.9400     51.2332     44.2692
   793.4000      4.8110      2.5249      0.4610      7.5830     52.5605     44.8850
   793.5000      4.8181      2.5177      0.4431      8.0191     53.4067     45.1371
   793.6000      4.8181      2.5080      0.4300      8.6048     52.2668     44.7188
   793.7000      4.8181      2.5025      0.4285      8.9417     49.7602     44.2238
   793.8000      4.8097      2.4957      0.4227      9.3514     47.9348     44.2296
   793.9000      4.8097      2.4864      0.4200      9.9136     47.7270     44.4144
   794.0000      4.8022      2.4770      0.4560     10.4848     51.6662     44.3364
   794.1000      4.8022      2.4674      0.4123     11.0667     59.3796     44.0987
   794.2000      4.8022      2.4615      0.4060     11.4267     62.8815     43.9015
   794.3000      4.8046      2.4571      0.4446     11.6895     58.8383     43.7330
