~Version Information
 VERS.                                  2.0 : CWLS LAS VERSION
 WRAP.                                   NO : WRAPING MODE
 SWARE .                 MController 2.5.0E : SOFTWARE VERSION
~Well Information
 WELL.                         STATE 16-24V : WELL
 COMP.                      Petrogulf Corp. : COMPANY
 FLD.                      Purgatorie River : FIELD
 LOC.                NW/SE Sec 16 T33S R67W : LOCATION
 DATE.                      5/02/04-5/03/04 : DATE(S) LOGGED
 SRVC.       Blanco Geological Services LLC : SERVICE COMPANY
 STAT.                                   CO : STATE
 CNTY.                           Las Animas : COUNTY
 CTRY.                                  USA : COUNTRY
 API.                       05-071-08014-00 : API NUMBER
 STRT.FT                              40.00 : START DEPTH
 STOP.FT                            2380.00 : STOP DEPTH
 STEP.FT                               1.00 : DEPTH INCREMENT
 NULL.                                -9999 : NULL VALUE
~Curve information
 DEPTH.FT                                   :
 ROP.MIN/FT                                 :
 GAS.UNITS                                  :
~ASCII Log data
# ...
     1040.00        0.167         12.7 
     1041.00        0.200         12.7 
     1042.00        0.167         12.5 
     1043.00        0.217         11.9 
     1044.00        0.167         12.9 
     1045.00        0.200         12.9 
     1046.00        1.967         13.5 
     1047.00        0.100         13.5 
     1048.00        0.333         14.0 
     1049.00        0.300         15.1 
     1050.00        0.417         14.3 
     1051.00        0.300         12.9 
     1052.00        0.233         13.3 
     1053.00        0.200         13.4 
     1054.00        0.233         12.6 
     1055.00        0.200         11.7 
     1056.00        0.267         11.5 
     1057.00        0.200         11.7 
     1058.00        0.167         12.4 
     1059.00        0.200         12.3 
     1060.00        0.167         12.2 
     1061.00        0.200         12.7 
     1062.00        0.167         12.4 
     1063.00        0.200         12.6 
     1064.00        0.200         13.6 
     1065.00        0.167         13.2 
     1066.00        0.150         13.4 
     1067.00        0.167         13.1 
     1068.00        0.200         13.6 
     1069.00        0.167         12.2 
     1070.00        0.200         10.8 
     1071.00        0.167          9.5 
     1072.00        0.167          8.8 
     1073.00        0.167          8.6 
     1074.00        0.100          8.6 
     1075.00        0.100          8.6 
     1076.00        2.117          9.2 
     1077.00        0.067          8.7 
     1078.00        0.267          8.6 
     1079.00        0.100          8.6 
     1080.00        0.133          9.1 
     1081.00        0.200          9.1 
     1082.00        0.267          9.2 
     1083.00        0.233          9.3 
     1084.00        0.233          8.5 
     1085.00        0.333          8.7 
     1086.00        0.233          8.6 
     1087.00        0.200          8.5 
     1088.00        0.167          8.3 
     1089.00        0.200          7.5 
     1090.00        0.200          7.7 
     1091.00        0.167          8.0 
     1092.00        0.183          7.8 
     1093.00        0.133          7.3 
     1094.00        0.100          7.3 
     1095.00        0.133          7.8 
     1096.00        0.100          7.2 
     1097.00        0.267          7.2 
     1098.00        0.200          7.1 
     1099.00        0.200          7.4 
     1100.00        0.200          7.0 
     1101.00        0.200          7.0 
     1102.00        0.200          6.9 
     1103.00        0.133          6.8 
     1104.00        0.133          6.8 
     1105.00        0.333          7.4 
     1106.00        1.750          7.1 
     1107.00        0.300          6.2 
     1108.00        0.300          6.0 
     1109.00        0.267          6.0 
     1110.00        0.300          6.1 
     1111.00        0.267          6.6 
     1112.00        0.200          6.1 
     1113.00        0.233          5.7 
     1114.00        0.200          5.5 
     1115.00        0.200          5.8 
     1116.00        0.200          6.1 
     1117.00        0.217          5.9 
     1118.00        0.167          5.7 
     1119.00        0.167          5.4 
     1120.00        0.200          5.3 
     1121.00        0.233          6.1 
     1122.00        0.300          5.6 
     1123.00        0.233          5.6 
     1124.00        0.133          5.5 
     1125.00        0.133          5.5 
     1126.00        0.133          5.3 
     1127.00        0.133          5.3 
     1128.00        0.100          5.3 
     1129.00        0.133          5.7 
     1130.00        0.200          5.2 
     1131.00        0.233          5.2 
     1132.00        0.200          5.0 
     1133.00        0.200          4.7 
     1134.00        0.167          5.1 
     1135.00        0.250          5.1 
     1136.00        3.350          5.2 
     1137.00        0.567          4.0 
     1138.00        0.300          3.7 
     1139.00        0.400          4.2 
     1140.00        0.267          3.9 
     1141.00        0.400          3.8 
     1142.00        0.333          3.5 
     1143.00        0.233          3.9 
     1144.00        0.300          3.3 
     1145.00        0.233          3.8 
     1146.00        0.167          3.7 
     1147.00        0.183          3.5 
     1148.00        0.200          3.0 
     1149.00        0.200          3.2 
     1150.00        0.200          3.3 
     1151.00        0.233          3.3 
     1152.00        0.200          2.9 
     1153.00        0.200          3.1 
     1154.00        0.200          3.0 
     1155.00        0.233          2.5 
     1156.00        0.167          2.8 
     1157.00        0.167          2.8 
     1158.00        0.200          2.4 
     1159.00        0.167          2.2 
     1160.00        0.200          2.2 
     1161.00        0.167          2.2 
     1162.00        0.100          2.2 
     1163.00        0.133          1.7 
     1164.00        0.200          1.9 
     1165.00        0.217          1.8 
     1166.00        2.300          1.9 
     1167.00        0.167          1.4 
     1168.00        0.400          1.0 
     1169.00        0.417          1.0 
     1170.00        0.267          0.8 
     1171.00        0.200          0.6 
     1172.00        0.167          0.8 
     1173.00        0.167          0.7 
     1174.00        0.167          0.7 
     1175.00        0.167          0.6 
     1176.00        0.100          0.3 
     1177.00        0.100          0.4 
     1178.00        0.100          0.8 
     1179.00        0.133          0.5 
     1180.00        0.200          0.4 
     1181.00        0.167          0.5 
     1182.00        0.133          0.6 
     1183.00        0.100          0.2 
     1184.00        0.100          0.5 
     1185.00        0.233          0.2 
     1186.00        0.133          0.2 
     1187.00        0.133          0.6 
     1188.00        0.100          0.2 
     1189.00        0.100          0.2 
     1190.00        0.067          0.2 
     1191.00        0.100         -0.1 
     1192.00        0.150         -0.1 
     1193.00        0.167         -0.2 
     1194.00        0.133          0.0 
     1195.00        0.167          0.0 
     1196.00        2.067         61.1 
     1197.00        0.233         70.5 
     1198.00        0.300         80.4 
     1199.00        0.517         84.2 
     1200.00        0.200         83.6 
     1201.00        0.233         79.7 
     1202.00        0.267         76.3 
     1203.00        0.233         70.9 
     1204.00        0.167         63.8 
     1205.00        0.133         63.8 
     1206.00        0.167         63.2 
     1207.00        0.133         60.1 
     1208.00        0.167         58.6 
     1209.00        0.167         57.8 
     1210.00        0.167         57.4 
     1211.00        0.133         57.4 
     1212.00        0.133         57.3 
     1213.00        0.167         57.6 
     1214.00        0.167         57.6 
     1215.00        0.167         57.7 
     1216.00        0.167         57.7 
     1217.00        0.217         57.9 
     1218.00        0.200         58.6 
     1219.00        0.200         59.5 
     1220.00        0.233         60.1 
     1221.00        0.267         60.0 
     1222.00        0.200         59.9 
     1223.00        0.200         59.9 
     1224.00        0.200         59.4 
     1225.00        0.233         59.1 
     1226.00        1.983         56.8 
     1227.00        0.167         46.7 
     1228.00        0.367         50.4 
     1229.00        0.400         49.7 
     1230.00        0.233         42.7 
     1231.00        0.233         42.5 
     1232.00        0.233         36.9 
     1233.00        0.200         33.0 
     1234.00        0.167         28.6 
     1235.00        0.167         26.6 
     1236.00        0.133         26.6 
     1237.00        0.200         26.9 
     1238.00        0.167         25.2 
     1239.00        0.133         25.2 
