~Version Information
VERS.                      2.0: CWLS Log ASCII Standard - VERSION 2.0
WRAP.                       NO: One line per depth step
~Well Information Block
STRT.FT               480.0000: 
STOP.FT              1994.2000: 
STEP.FT                 0.1000: 
NULL.                -999.2500: 
COMP.          Evergreen Operating Corporation: COMPANY
WELL.          McCullough 34-32 Tr: WELL
FLD.           Purgatoire River: FIELD
LOC.           394' FSL & 2077' FEL: LOCATION
PROV.                 Colorado: PROVINCE
CNTY.               Las Animas: COUNTRY
SRVC.                Patterson: SERVICE COMPANY
DATE.          Mon Sep 20 07:30:00 2004: LOG DATE
UWI.           05 071 08157 00: UNIQUE WELL ID
~Curve Information Block
DEPT.FT            0 000 00 00: Depth
DCAL.in                       : CDL Caliper
RHOB.g/cc                     : CDL Bulk Density
RHOC.g/cc                     : CDL Density Correction
DPOR.pu                       : CDL Density Porosity
NPOR.pu                       : Neutron Porosity
GR.GAPI                       : Gamma Ray
~Parameter Information Block
~A  Depth       DCAL        RHOB        RHOC        DPOR        NPOR         GR     
# ...
  1574.4000      8.0106      2.5725      0.0538      4.6953     13.8052     83.5197
  1574.5000      8.0112      2.5698      0.0814      4.8602     13.2356     83.1751
  1574.6000      8.0112      2.5624      0.0438      5.3108     12.5480     85.1777
  1574.7000      8.0112      2.5540      0.0501      5.8205     12.2584     87.2831
  1574.8000      8.0113      2.5420      0.0768      6.5445     12.2486     85.3964
  1574.9000      8.0113      2.5226      0.0284      7.7213     12.2253     81.1873
  1575.0000      8.0108      2.5137     -0.0025      8.2604     12.2996     79.2077
  1575.1000      8.0108      2.5265      0.0541      7.4841     12.7334     80.0662
  1575.2000      8.0108      2.5412      0.0606      6.5939     13.2339     81.4441
  1575.3000      8.0107      2.5373      0.0645      6.8301     13.2592     82.4903
  1575.4000      8.0107      2.5194     -0.0133      7.9129     12.8500     81.9503
  1575.5000      8.0105      2.5058      0.0395      8.7414     12.5959     79.3527
  1575.6000      8.0105      2.5039     -0.0008      8.8551     12.8794     81.4104
  1575.7000      8.0105      2.5058      0.0389      8.7417     13.4119     90.8846
  1575.8000      8.0093      2.5006      0.0136      9.0525     13.7739     97.9371
  1575.9000      8.0093      2.4988      0.0074      9.1622     13.6668     96.3482
  1576.0000      8.0092      2.5172      0.0305      8.0485     12.9140     92.0147
  1576.1000      8.0092      2.5445      0.0672      6.3949     12.0906     89.4095
  1576.2000      8.0092      2.5544      0.0809      5.7944     12.0129     84.9061
  1576.3000      8.0097      2.5450      0.0310      6.3656     12.5773     78.8407
  1576.4000      8.0097      2.5367      0.0257      6.8681     13.1127     75.5356
  1576.5000      8.0077      2.5366      0.0596      6.8741     13.2979     73.2986
  1576.6000      8.0077      2.5365      0.0411      6.8814     13.3592     70.4818
  1576.7000      8.0077      2.5285      0.0538      7.3648     13.2303     71.3256
  1576.8000      8.0017      2.5085      0.0554      8.5758     12.6799     77.9376
  1576.9000      8.0017      2.4871      0.0222      9.8742     12.2125     85.7164
  1577.0000      7.9929      2.4820     -0.0151     10.1838     12.4660     90.8350
  1577.1000      7.9929      2.4895      0.0391      9.7280     13.2586     93.0886
  1577.2000      7.9929      2.4921      0.0236      9.5702     13.7663     92.2552
  1577.3000      7.9867      2.4901      0.0319      9.6933     13.8075     91.6050
  1577.4000      7.9867      2.4899      0.0586      9.7047     13.8846     94.2944
  1577.5000      7.9875      2.4931      0.0364      9.5074     13.9207     95.9766
  1577.6000      7.9875      2.5024      0.0373      8.9449     13.6158     92.6540
  1577.7000      7.9875      2.5174      0.0645      8.0361     13.1936     87.0156
  1577.8000      8.0004      2.5281      0.0857      7.3902     12.9544     83.5170
  1577.9000      8.0004      2.5228      0.0713      7.7101     13.0407     85.0361
  1578.0000      8.0119      2.5101      0.0326      8.4817     13.3435     91.4846
  1578.1000      8.0119      2.5069      0.0254      8.6738     13.5535     96.6993
  1578.2000      8.0119      2.5127      0.0557      8.3191     13.7806     98.4783
  1578.3000      8.0005      2.5122      0.0811      8.3532     14.1490    100.0274
  1578.4000      8.0005      2.4975      0.0514      9.2410     14.5384    100.0537
  1578.5000      7.9866      2.4804      0.0520     10.2774     14.8383     96.9755
  1578.6000      7.9866      2.4756      0.0483     10.5672     14.6234     92.0633
  1578.7000      7.9866      2.4819      0.0604     10.1900     13.7205     85.9354
  1578.8000      7.9834      2.4820      0.0410     10.1837     13.0239     79.9338
  1578.9000      7.9834      2.4706      0.0031     10.8698     13.3608     75.5084
  1579.0000      7.9841      2.4618      0.0331     11.4046     14.3675     71.4490
  1579.1000      7.9841      2.4620      0.0178     11.3942     15.1106     67.7277
  1579.2000      7.9841      2.4661      0.0560     11.1469     15.4237     67.1638
  1579.3000      7.9850      2.4700      0.0462     10.9105     15.5419     69.7171
  1579.4000      7.9850      2.4766      0.0390     10.5084     15.4150     72.1352
  1579.5000      7.9846      2.4891      0.0725      9.7538     15.2926     73.5099
  1579.6000      7.9846      2.5034      0.0766      8.8838     15.5416     75.1367
  1579.7000      7.9846      2.5127      0.0499      8.3205     16.2420     76.6637
  1579.8000      7.9833      2.5135      0.0754      8.2707     16.8303     79.6450
  1579.9000      7.9833      2.5078      0.0551      8.6206     16.5376     83.9391
  1580.0000      7.9824      2.4999      0.0567      9.0955     15.9271     84.6538
  1580.1000      7.9824      2.4941      0.0483      9.4459     15.7693     79.1349
  1580.2000      7.9824      2.4933      0.0281      9.4961     15.7323     68.0956
  1580.3000      7.9828      2.4943      0.0449      9.4350     15.5084     58.0013
  1580.4000      7.9828      2.4878      0.0770      9.8322     15.3778     55.9387
  1580.5000      7.9849      2.4701      0.0407     10.9051     15.3567     60.7545
  1580.6000      7.9849      2.4509      0.0374     12.0687     15.1633     66.7954
  1580.7000      7.9849      2.4401      0.0288     12.7193     14.8205     69.4267
  1580.8000      7.9858      2.4392      0.0265     12.7788     14.6291     68.3672
  1580.9000      7.9858      2.4448      0.0321     12.4371     14.6496     65.2771
  1581.0000      7.9840      2.4588      0.0384     11.5896     14.8162     61.1633
  1581.1000      7.9840      2.4828      0.0617     10.1350     14.9605     57.9608
  1581.2000      7.9840      2.5023      0.1096      8.9536     14.8839     56.5136
  1581.3000      7.9821      2.5007      0.0712      9.0499     14.6402     55.8005
  1581.4000      7.9821      2.4851      0.0591      9.9912     14.3937     55.6980
  1581.5000      7.9813      2.4731      0.0551     10.7232     14.1910     55.1218
  1581.6000      7.9813      2.4707      0.0341     10.8642     13.8070     54.2752
  1581.7000      7.9813      2.4712      0.1011     10.8343     13.1410     55.5803
  1581.8000      7.9812      2.4650      0.0589     11.2095     12.7241     57.0340
  1581.9000      7.9812      2.4584     -0.0015     11.6108     12.9926     55.3423
  1582.0000      7.9825      2.4613      0.0369     11.4350     13.8086     52.7966
  1582.1000      7.9825      2.4681      0.0588     11.0251     14.8386     52.2563
  1582.2000      7.9825      2.4708      0.0391     10.8585     15.4860     52.9559
  1582.3000      7.9841      2.4758      0.0674     10.5606     15.6461     54.3327
  1582.4000      7.9841      2.4849      0.0752     10.0054     15.9831     57.6725
  1582.5000      7.9843      2.4923      0.0675      9.5567     16.5435     62.3942
  1582.6000      7.9843      2.4984      0.0628      9.1879     16.5853     65.9196
  1582.7000      7.9843      2.5038      0.0807      8.8623     16.0152     68.9804
  1582.8000      7.9835      2.5043      0.0967      8.8331     15.6274     75.1854
  1582.9000      7.9835      2.4981      0.0866      9.2037     15.5120     83.8553
  1583.0000      7.9827      2.4901      0.0844      9.6894     15.2135     88.1881
  1583.1000      7.9827      2.4858      0.0524      9.9526     14.9511     84.9625
  1583.2000      7.9827      2.4827      0.0586     10.1390     15.1596     77.7609
  1583.3000      7.9825      2.4739      0.0599     10.6730     15.4267     70.2556
  1583.4000      7.9825      2.4596      0.0445     11.5393     15.0523     64.5671
  1583.5000      7.9840      2.4444      0.0514     12.4597     14.1020     61.5212
  1583.6000      7.9840      2.4313      0.0542     13.2520     13.0187     60.7922
  1583.7000      7.9840      2.4315     -0.0075     13.2400     12.3068     59.4302
  1583.8000      7.9858      2.4546      0.0354     11.8441     12.1499     56.2062
  1583.9000      7.9858      2.4859      0.0793      9.9424     12.2770     54.9354
