~Version Information
VERS.                      2.0: CWLS Log ASCII Standard - VERSION 2.0
WRAP.                       NO: One line per depth step
~Well Information Block
STRT.FT               240.0000: 
STOP.FT               966.2000: 
STEP.FT                 0.1000: 
NULL.                -999.2500: 
COMP.          Pioneer Natural Resources: COMPANY
WELL.          New Mexico 21-5: WELL
FLD.           Purgatoire River: FIELD
LOC.           175' FNL & 1700' FWL: LOCATION
PROV.                 Colorado: PROVINCE
CNTY.               Las Animas: COUNTRY
SRVC.                Patterson: SERVICE COMPANY
DATE.          Mon Dec 13 06:55:26 2004: LOG DATE
UWI.           05 071 08234 00: UNIQUE WELL ID
~Curve Information Block
DEPT.FT            0 000 00 00: Depth
DCAL.in                       : CDL Caliper
RHOB.g/cc                     : CDL Bulk Density
RHOC.g/cc                     : CDL Density Correction
DPOR.pu                       : CDL Density Porosity
NPOR.pu                       : Neutron Porosity
GR.GAPI                       : Gamma Ray
~Parameter Information Block
~A  Depth       DCAL        RHOB        RHOC        DPOR        NPOR         GR     
# ...
   422.4000      8.0036      2.5081      0.0230      8.6006     26.1538     96.3085
   422.5000      8.0091      2.5339      0.0614      7.0343     26.0378     96.3066
   422.6000      8.0091      2.5390      0.0462      6.7267     25.8333     94.2143
   422.7000      8.0091      2.5249      0.0355      7.5798     26.0556     95.9755
   422.8000      8.0220      2.5069      0.0465      8.6742     26.6050    103.4499
   422.9000      8.0220      2.4955      0.0421      9.3658     27.0558    110.3113
   423.0000      8.0431      2.4875      0.0678      9.8466     27.2620    113.3090
   423.1000      8.0431      2.4703      0.0912     10.8917     27.1941    114.9962
   423.2000      8.0431      2.4343      0.0859     13.0708     26.9634    118.1414
   423.3000      8.0687      2.3805      0.0709     16.3346     26.6053    123.1409
   423.4000      8.0687      2.3133      0.0250     20.4080     25.8777    130.3593
   423.5000      8.0907      2.2412     -0.0090     24.7767     24.8023    138.8697
   423.6000      8.0907      2.1740      0.0156     28.8514     23.7379    144.3529
   423.7000      8.0907      2.1091      0.0644     32.7823     22.8827    146.1559
   423.8000      8.1093      2.0439      0.0234     36.7344     22.1703    145.6701
   423.9000      8.1093      1.9957      0.0010     39.6545     21.3497    143.8419
   424.0000      8.1267      1.9837      0.0432     40.3829     20.2726    143.5582
   424.1000      8.1267      2.0071      0.0988     38.9627     18.9921    143.7856
   424.2000      8.1267      2.0534      0.1357     36.1555     17.4769    140.1251
   424.3000      8.1463      2.1172      0.1693     32.2891     16.0033    133.1997
   424.4000      8.1463      2.2012      0.2838     27.2000     14.9432    128.1199
   424.5000      8.1513      2.3047      0.2897     20.9260     14.4208    128.0714
   424.6000      8.1513      2.4114      0.3554     14.4593     14.6174    130.1294
   424.7000      8.1513      2.4966      0.3083      9.2973     15.5949    130.2412
   424.8000      8.1142      2.5566      0.2431      5.6596     17.1586    128.5204
   424.9000      8.1142      2.5942      0.2076      3.3843     19.0597    127.5048
   425.0000      8.0761      2.5999      0.1656      3.0393     20.8326    129.6897
   425.1000      8.0761      2.5771      0.1311      4.4193     22.1426    134.6501
   425.2000      8.0761      2.5522      0.0624      5.9296     23.1913    137.1225
   425.3000      8.0596      2.5478      0.0748      6.1968     24.2588    134.1409
   425.4000      8.0596      2.5631      0.0758      5.2677     25.3711    129.8455
   425.5000      8.0532      2.5859      0.0937      3.8848     26.3738    127.9853
   425.6000      8.0532      2.6014      0.1176      2.9449     26.9167    125.7284
   425.7000      8.0532      2.6049      0.0644      2.7309     26.9873    119.2910
   425.8000      8.0564      2.6092      0.0714      2.4720     27.1050    113.0303
   425.9000      8.0564      2.6119      0.0958      2.3081     27.5161    113.3505
   426.0000      8.0608      2.5977      0.0299      3.1681     27.9943    117.0466
   426.1000      8.0608      2.5642      0.0526      5.2019     28.3786    116.5533
   426.2000      8.0608      2.5196     -0.0047      7.9034     28.6661    112.5042
   426.3000      8.0611      2.4896     -0.0491      9.7189     28.9129    113.8382
   426.4000      8.0611      2.4904      0.0102      9.6729     28.9868    123.5844
   426.5000      8.0604      2.5020      0.0684      8.9723     28.6797    133.3732
   426.6000      8.0604      2.5025      0.0495      8.9394     28.1610    137.3165
   426.7000      8.0604      2.4966      0.0235      9.2967     27.6604    137.6379
   426.8000      8.0630      2.4954      0.0255      9.3687     27.1641    138.3353
   426.9000      8.0630      2.4977      0.0728      9.2303     26.7374    142.9015
   427.0000      8.0727      2.4938      0.0874      9.4640     26.3675    151.3906
   427.1000      8.0727      2.4783      0.1021     10.4050     25.9228    158.4983
   427.2000      8.0727      2.4655      0.0767     11.1815     25.3717    159.1026
   427.3000      8.0950      2.4745      0.0882     10.6339     24.7522    155.0139
   427.4000      8.0950      2.4944      0.1820      9.4331     24.1386    152.5151
   427.5000      8.1285      2.4953      0.1638      9.3773     23.6725    154.4531
   427.6000      8.1285      2.4683      0.1436     11.0117     23.5795    156.5050
   427.7000      8.1285      2.4312      0.0609     13.2619     23.6809    154.5437
   427.8000      8.1612      2.4117      0.0286     14.4448     23.5416    151.6050
   427.9000      8.1612      2.4157      0.0861     14.1982     23.2526    155.0792
   428.0000      8.1844      2.4273      0.0693     13.4981     23.3511    166.0198
   428.1000      8.1844      2.4421      0.0918     12.6017     24.0548    175.0228
   428.2000      8.1844      2.4613      0.1420     11.4363     24.8188    177.1026
   428.3000      8.2007      2.4720      0.1353     10.7851     24.9595    173.0972
   428.4000      8.2007      2.4684      0.0758     11.0086     24.6614    164.6160
   428.5000      8.2107      2.4672      0.0480     11.0789     24.5452    157.8016
   428.6000      8.2107      2.4760      0.1398     10.5448     24.6215    153.6117
   428.7000      8.2107      2.4717      0.1727     10.8033     24.7453    147.5298
   428.8000      8.2149      2.4386      0.1096     12.8147     24.6878    142.3213
   428.9000      8.2149      2.3809      0.0360     16.3101     24.0140    142.2231
   429.0000      8.2137      2.2944      0.0533     21.5544     23.0252    144.8155
   429.1000      8.2137      2.1755     -0.0283     28.7593     22.3892    148.4429
   429.2000      8.2137      2.0412     -0.0539     36.8959     21.9763    151.0119
   429.3000      8.2231      1.9135     -0.1032     44.6387     21.1041    148.6618
   429.4000      8.2231      1.8176     -0.1489     50.4498     19.5129    141.3018
   429.5000      8.2478      1.7787     -0.1021     52.8054     17.6770    133.8963
   429.6000      8.2478      1.7965     -0.0292     51.7257     16.2124    132.2276
   429.7000      8.2478      1.8522      0.0192     48.3499     15.1948    133.6895
   429.8000      8.2668      1.9300      0.1153     43.6348     14.4483    132.3983
   429.9000      8.2668      2.0175      0.2082     38.3361     13.9670    128.8278
   430.0000      8.2737      2.1075      0.2819     32.8807     13.7034    125.6119
   430.1000      8.2737      2.1998      0.3283     27.2832     13.6407    125.0478
   430.2000      8.2737      2.3001      0.3111     21.2057     14.0028    130.7684
   430.3000      8.2607      2.4133      0.3084     14.3443     14.9394    139.4468
   430.4000      8.2607      2.5197      0.3030      7.8992     16.1682    143.6183
   430.5000      8.2030      2.5824      0.2516      4.0993     17.2556    143.1277
   430.6000      8.2030      2.5955      0.1359      3.3053     18.2524    141.0056
   430.7000      8.2030      2.5820      0.0924      4.1194     19.4155    139.3152
   430.8000      8.1302      2.5549      0.0929      5.7657     20.3852    140.8512
   430.9000      8.1302      2.5219      0.0523      7.7609     21.0048    142.6637
   431.0000      8.0829      2.4969      0.0269      9.2792     21.9385    139.0844
   431.1000      8.0829      2.4851      0.0228      9.9936     23.1190    132.6418
   431.2000      8.0829      2.4865      0.0196      9.9093     23.5680    129.1985
   431.3000      8.0565      2.5064     -0.0068      8.7041     23.1011    128.0998
   431.4000      8.0565      2.5380      0.0543      6.7849     22.3971    126.3666
   431.5000      8.0464      2.5607      0.0482      5.4143     22.2159    121.3249
   431.6000      8.0464      2.5715      0.0392      4.7563     22.8504    114.8026
   431.7000      8.0464      2.5783      0.0744      4.3434     23.7422    114.6521
   431.8000      8.0421      2.5749      0.0682      4.5520     24.0960    121.1303
   431.9000      8.0421      2.5614      0.0400      5.3681     23.8946    126.9279
