~Version Information
VERS.                      2.0: CWLS Log ASCII Standard - VERSION 2.0
WRAP.                       NO: One line per depth step
~Well Information Block
STRT.FT                 0.0000: 
STOP.FT              2159.0000: 
STEP.FT                 0.2500: 
NULL.                -999.2500: 
COMP.          Petrogulf Corporation: COMPANY
WELL.               Furu 6-23R: WELL
FLD.           Purgatoire River: FIELD
LOC.           2211' FSL & 1780' FWL: LOCATION
CNTY.               Las Animas: COUNTY
SRVC.                         : SERVICE COMPANY
DATE.          Fri Jul 14 16:00:32 2006: LOG DATE
UWI.           05 071 08266 00: UNIQUE WELL ID
STAT.                       CO: STATE
~Curve Information Block
DEPT.FT            0 000 00 00: Depth
GR.GAPI                       : Gamma Ray
CCL.                          : Casing Collar Locator
TT3.usec                      : CBL 3' Travel Time
AMP3.mV                       : CBL 3' Amplitude
~Parameter Information Block
~A  Depth        GR         CCL         TT3         AMP3    
# ...
  1139.0000    164.6821      0.0000    277.2626     49.9702
  1139.2500    172.3247      0.0000    278.2580     45.6294
  1139.5000    177.9616      0.0000    275.8536     42.2556
  1139.7500    177.9834      0.0000    271.9366     40.0034
  1140.0000    171.5090      0.0000    268.7406     38.8278
  1140.2500    162.1403     -2.0000    267.5812     38.5956
  1140.5000    154.9240     -1.4264    268.8579     39.2118
  1140.7500    151.6102      0.0000    272.2924     40.6838
  1141.0000    149.8875      0.0000    276.5899     43.0920
  1141.2500    147.2588      0.0000    279.3917     46.4829
  1141.5000    144.1261      0.0000    278.6030     50.7483
  1141.7500    142.5912      0.0000    274.1578     55.5687
  1142.0000    143.7763      0.0000    268.1126     60.4622
  1142.2500    147.3468      0.0000    262.8713     64.9211
  1142.5000    152.6146      0.0000    259.5691     68.5660
  1142.7500    158.8731      0.0000    257.9929     71.2358
  1143.0000    165.0530      0.0000    257.4197     72.9864
  1143.2500    169.9134      0.0000    257.2666     74.0124
  1143.5000    172.3435      0.0000    257.2409     74.5525
  1143.7500    171.3814      0.0000    257.2437     74.8169
  1144.0000    166.8739      0.0000    257.2545     74.9546
  1144.2500    160.3974      0.0000    257.2708     75.0497
  1144.5000    154.5882      0.0000    257.2912     75.1345
  1144.7500    151.1707      0.0000    257.3105     75.2079
  1145.0000    150.0364      0.0000    257.3223     75.2527
  1145.2500    150.0021      0.0000    257.3225     75.2510
  1145.5000    149.9136      0.0000    257.3142     75.1940
  1145.7500    149.3241      0.0000    257.3069     75.0855
  1146.0000    148.6521      0.0000    257.3090     74.9421
  1146.2500    148.5181      0.0000    257.3214     74.7900
  1146.5000    148.8417      0.0000    257.3357     74.6584
  1146.7500    149.1009      0.0000    257.3411     74.5728
  1147.0000    149.4336      0.0000    257.3339     74.5476
  1147.2500    150.4413      0.0000    257.3198     74.5815
  1147.5000    151.6792      0.0000    257.3094     74.6592
  1147.7500    151.3764      0.0000    257.3083     74.7571
  1148.0000    148.1525      0.0000    257.3127     74.8524
  1148.2500    142.3884      0.0000    257.3154     74.9287
  1148.5000    135.6229      0.0000    257.3142     74.9793
  1148.7500    129.0440      0.0000    257.3123     75.0057
  1149.0000    122.7680      0.0000    257.3113     75.0150
  1149.2500    116.4247      0.0000    257.3087     75.0163
  1149.5000    110.5739      0.0000    257.3021     75.0176
  1149.7500    107.4109      0.0000    257.2928     75.0237
  1150.0000    109.2607      0.0000    257.2825     75.0357
  1150.2500    115.8550      0.0000    257.2694     75.0518
  1150.5000    123.5617      0.0000    257.2507     75.0690
  1150.7500    127.8689      0.0000    257.2275     75.0851
  1151.0000    126.6938      0.0000    257.2037     75.0995
  1151.2500    121.2154      0.0000    257.1839     75.1136
  1151.5000    114.0418      0.0000    257.1740     75.1304
  1151.7500    107.1591      0.0000    257.1791     75.1538
  1152.0000    101.4795      0.0000    257.1969     75.1880
  1152.2500     97.4017      0.0000    257.2156     75.2363
  1152.5000     95.1283      0.0000    257.2249     75.3009
  1152.7500     94.7541      0.0000    257.2258     75.3817
  1153.0000     96.7225      0.0000    257.2265     75.4724
  1153.2500    102.1244      0.0000    257.2315     75.5587
  1153.5000    111.9189      0.0000    257.2354     75.6179
  1153.7500    125.5582      0.0000    257.2288     75.6251
  1154.0000    140.6083      0.0000    257.2089     75.5640
  1154.2500    153.8286      0.0000    257.1848     75.4365
  1154.5000    162.5926      0.0000    257.1706     75.2632
  1154.7500    165.6613      0.0000    257.1753     75.0748
  1155.0000    163.0996      0.0000    257.1951     74.8963
  1155.2500    155.3818      0.0000    257.2162     74.7351
  1155.5000    142.7857      0.0000    257.2253     74.5780
  1155.7500    126.2960      0.0000    257.2207     74.3997
  1156.0000    108.8034      0.0000    257.2112     74.1784
  1156.2500     94.3994      0.0000    257.2034     73.9102
  1156.5000     86.2871      0.0000    257.1938     73.6144
  1156.7500     85.4448      0.0000    257.1764     73.3278
  1157.0000     90.6988      0.0000    257.1542     73.0900
  1157.2500     99.6396      0.0000    257.1383     72.9289
  1157.5000    109.7377      0.0000    257.1360     72.8517
  1157.7500    118.9864      0.0000    257.1479     72.8458
  1158.0000    125.9514      0.0000    257.1742     72.8841
  1158.2500    129.8927      0.0000    257.2147     72.9331
  1158.5000    131.0453      0.0000    257.2610     72.9623
  1158.7500    130.3740      0.0000    257.2969     72.9547
  1159.0000    128.9627      0.0000    257.3100     72.9158
  1159.2500    127.6713      0.0000    257.2998     72.8749
  1159.5000    126.7745      0.0000    257.2736     72.8742
  1159.7500    125.4894      0.0000    257.2408     72.9524
  1160.0000    122.5285      0.0000    257.2104     73.1259
  1160.2500    117.7991      0.0000    257.1912     73.3805
  1160.5000    113.3028      0.0000    257.1856     73.6761
  1160.7500    111.8703      0.0000    257.1888     73.9614
  1161.0000    114.7656      0.0000    257.1917     74.1934
  1161.2500    120.4239      0.0000    257.1858     74.3514
  1161.5000    125.6830      0.0000    257.1674     74.4413
  1161.7500    128.4478      0.0000    257.1403     74.4893
  1162.0000    128.8427      0.0000    257.1146     74.5284
  1162.2500    127.8074      0.0000    257.1002     74.5850
  1162.5000    125.5236      0.0000    257.0998     74.6719
  1162.7500    121.8267      0.0000    257.1095     74.7893
  1163.0000    117.5056      0.0000    257.1231     74.9298
  1163.2500    114.2001      0.0000    257.1330     75.0846
  1163.5000    112.8050      0.0000    257.1310     75.2461
  1163.7500    112.5889      0.0000    257.1134     75.4088
  1164.0000    112.2967      0.0000    257.0862     75.5685
  1164.2500    111.5747      0.0000    257.0615     75.7215
  1164.5000    110.7100      0.0000    257.0490     75.8637
  1164.7500    109.4972      0.0000    257.0493     75.9900
  1165.0000    107.3779      0.0000    257.0564     76.0954
  1165.2500    104.7963      0.0000    257.0621     76.1753
  1165.5000    103.5946      0.0000    257.0596     76.2266
  1165.7500    105.5298      0.0000    257.0443     76.2471
  1166.0000    110.7731      0.0000    257.0182     76.2356
  1166.2500    118.0350      0.0000    256.9949     76.1929
  1166.5000    125.4055      0.0000    256.9906     76.1242
  1166.7500    130.8287      0.0000    257.0102     76.0396
  1167.0000    132.9262      0.0000    257.0430     75.9521
  1167.2500    132.1602      0.0000    257.0727     75.8732
  1167.5000    130.6000      0.0000    257.0873     75.8096
  1167.7500    130.0494      0.0000    257.0847     75.7621
  1168.0000    130.7880      0.0000    257.0715     75.7278
  1168.2500    132.1201      0.0000    257.0566     75.7025
  1168.5000    133.4573      0.0000    257.0429     75.6834
  1168.7500    134.5596      0.0000    257.0270     75.6701
  1169.0000    135.0304      0.0000    257.0088     75.6649
  1169.2500    133.8552      0.0000    256.9962     75.6713
  1169.5000    129.7612      0.0000    256.9983     75.6921
  1169.7500    122.6740      0.0000    257.0153     75.7265
  1170.0000    115.0590      0.0000    257.0393     75.7687
  1170.2500    111.0479      0.0000    257.0633     75.8091
  1170.5000    113.1428      0.0000    257.0845     75.8371
  1170.7500    119.5935      0.0000    257.1010     75.8442
  1171.0000    125.8031      0.0000    257.1115     75.8274
  1171.2500    128.5674      0.0000    257.1166     75.7887
  1171.5000    128.2524      0.0000    257.1184     75.7339
  1171.7500    126.7890      0.0000    257.1176     75.6690
  1172.0000    124.9188      0.0000    257.1130     75.5976
  1172.2500    122.4743      0.0000    257.1024     75.5203
