~Version Information
VERS.                      2.0: CWLS Log ASCII Standard - VERSION 2.0
WRAP.                       NO: One line per depth step
~Well Information Block
STRT.FT               750.0000: 
STOP.FT              2431.5000: 
STEP.FT                 0.1000: 
NULL.                -999.2500: 
COMP.          Petrogulf Corporation: COMPANY
WELL.           McDaniel 9-34V: WELL
FLD.           Purgatorie River: FIELD
LOC.           620' FSL & 1800' FEL: LOCATION
PROV.                 Colorado: PROVINCE
CNTY.               Las Animas: COUNTRY
SRVC.                Patterson: SERVICE COMPANY
DATE.          Wed Sep 28 07:18:04 2005: LOG DATE
UWI.                          : UNIQUE WELL ID
~Curve Information Block
DEPT.FT            0 000 00 00: Depth
DCAL.in                       : CDL Caliper
RHOB.g/cc                     : CDL Bulk Density
RHOC.g/cc                     : CDL Density Correction
DPOR.pu                       : CDL Density Porosity
GR.GAPI                       : Gamma Ray
NPOR.pu                       : Neutron Porosity
~Parameter Information Block
~A  Depth       DCAL        RHOB        RHOC        DPOR         GR         NPOR    
# ...
  1086.0000      7.9587      2.6871      0.1404     -2.2510    149.0481     27.6690
  1086.1000      7.9587      2.7434      0.1983     -5.6614    148.4254     27.7248
  1086.2000      7.9587      2.7912      0.1640     -8.5556    142.8011     28.2478
  1086.3000      7.9449      2.8379      0.1441    -11.3878    135.0548     28.8641
  1086.4000      7.9449      2.8737      0.2116    -13.5568    128.7894     29.2023
  1086.5000      7.9466      2.8740      0.1597    -13.5783    124.4746     29.2749
  1086.6000      7.9466      2.8394      0.0714    -11.4785    121.9339     29.1252
  1086.7000      7.9466      2.7972      0.0364     -8.9191    120.3809     28.8945
  1086.8000      8.0259      2.7665      0.0845     -7.0608    120.6395     28.5895
  1086.9000      8.0259      2.7454      0.0417     -5.7836    122.0700     28.1333
  1087.0000      8.0601      2.7319     -0.0184     -4.9628    122.7422     27.6390
  1087.1000      8.0601      2.7275     -0.0484     -4.6978    122.6736     27.2759
  1087.2000      8.0601      2.7195      0.0026     -4.2144    122.1081     26.9472
  1087.3000      8.0307      2.6954     -0.0655     -2.7509    123.2918     26.7718
  1087.4000      8.0307      2.6711     -0.0445     -1.2767    127.2012     27.1046
  1087.5000      8.0023      2.6599     -0.0104     -0.5984    132.3775     27.6611
  1087.6000      8.0023      2.6466      0.0590      0.2050    138.4401     27.8400
  1087.7000      8.0023      2.6293     -0.0514      1.2541    142.4788     27.5119
  1087.8000      7.9979      2.6295     -0.0211      1.2434    141.5054     26.9629
  1087.9000      7.9979      2.6412      0.0218      0.5326    138.8463     26.8627
  1088.0000      8.0255      2.6460      0.0201      0.2451    137.4940     27.4453
  1088.1000      8.0255      2.6491      0.0247      0.0535    134.9057     28.1754
  1088.2000      8.0255      2.6586      0.0454     -0.5224    131.9273     28.6527
  1088.3000      8.0815      2.6604      0.0733     -0.6298    133.3938     28.8922
  1088.4000      8.0815      2.6359      0.0787      0.8567    137.4805     28.9033
  1088.5000      8.1284      2.5884      0.0985      3.7346    139.3651     28.6704
  1088.6000      8.1284      2.5364      0.0574      6.8876    140.5220     28.3108
  1088.7000      8.1284      2.4954      0.0190      9.3690    144.1674     28.0174
  1088.8000      8.1365      2.4700      0.0240     10.9096    150.0383     27.9612
  1088.9000      8.1365      2.4573      0.0327     11.6791    154.2970     28.3030
  1089.0000      8.1536      2.4459      0.0715     12.3695    151.5158     29.0220
  1089.1000      8.1536      2.4226      0.0608     13.7833    143.2272     29.9033
  1089.2000      8.1536      2.3981      0.0201     15.2661    135.4068     30.6994
  1089.3000      8.1973      2.3842      0.1589     16.1111    130.4259     31.1982
  1089.4000      8.1973      2.3540      0.1695     17.9381    127.9583     31.3719
  1089.5000      8.2100      2.2824      0.1154     22.2818    125.0584     31.3608
  1089.6000      8.2100      2.1908      0.0328     27.8297    119.0887     31.2075
  1089.7000      8.2100      2.1064      0.0333     32.9437    111.5799     31.0440
  1089.8000      8.2253      2.0113      0.0292     38.7078    104.5994     31.0674
  1089.9000      8.2253      1.8871     -0.1192     46.2344     99.1408     31.1323
  1090.0000      8.2291      1.7590     -0.1152     53.9991     95.2270     31.3147
  1090.1000      8.2291      1.6521     -0.1642     60.4789     90.1190     31.9778
  1090.2000      8.2291      1.5553     -0.0931     66.3434     83.7363     32.9028
  1090.3000      8.2540      1.4645     -0.1357     71.8483     79.3644     33.4657
  1090.4000      8.2540      1.4246     -0.1672     74.2662     77.6890     33.4874
  1090.5000      8.3960      1.4736     -0.0039     71.2974     78.1780     33.5875
  1090.6000      8.3960      1.5893      0.0838     64.2846     81.4460     34.0112
  1090.7000      8.3960      1.7284      0.1246     55.8560     85.1367     34.1559
  1090.8000      8.3729      1.8633      0.1517     47.6788     86.0700     33.9035
  1090.9000      8.3729      1.9876      0.1795     40.1480     86.1463     33.7986
  1091.0000      8.2363      2.1144      0.1909     32.4620     88.5565     33.9438
  1091.1000      8.2363      2.2484      0.2229     24.3422     92.9605     33.9935
  1091.2000      8.2363      2.3611      0.2411     17.5081     98.9265     33.7206
  1091.3000      8.1528      2.4279      0.1887     13.4579    106.4072     33.2595
  1091.4000      8.1528      2.4616      0.1309     11.4200    112.7159     32.8260
  1091.5000      8.1395      2.4804      0.1174     10.2759    117.4900     32.3891
  1091.6000      8.1395      2.4825      0.0842     10.1505    122.4279     31.7997
  1091.7000      8.1395      2.4632      0.0498     11.3219    126.5580     31.2086
  1091.8000      8.1379      2.4332      0.0154     13.1384    129.7193     31.0107
  1091.9000      8.1379      2.4100      0.0073     14.5481    132.3209     31.2756
  1092.0000      8.1384      2.3988      0.0380     15.2270    133.3474     31.5441
  1092.1000      8.1384      2.3917      0.0493     15.6534    133.5807     31.4239
  1092.2000      8.1384      2.3806      0.0907     16.3264    134.8901     31.0710
  1092.3000      8.1442      2.3626      0.0323     17.4175    136.1608     30.9613
  1092.4000      8.1442      2.3356      0.0884     19.0568    133.6983     31.1618
  1092.5000      8.1493      2.2964      0.0539     21.4281    127.3768     31.1992
  1092.6000      8.1493      2.2449      0.0665     24.5500    122.5563     30.8499
  1092.7000      8.1493      2.1809     -0.0100     28.4307    120.6991     30.4567
  1092.8000      8.1515      2.1109     -0.0591     32.6752    118.9231     30.3202
  1092.9000      8.1515      2.0525     -0.0937     36.2140    116.9327     30.4695
  1093.0000      8.1497      2.0286     -0.0569     37.6581    116.0591     30.7415
  1093.1000      8.1497      2.0400      0.0072     36.9686    117.5996     30.9575
  1093.2000      8.1497      2.0541      0.0698     36.1178    120.9685     31.1464
  1093.3000      8.1563      2.0450      0.0678     36.6658    124.7579     31.4761
  1093.4000      8.1563      2.0202      0.0750     38.1698    125.8276     31.9335
  1093.5000      8.1560      1.9985      0.0046     39.4820    121.2208     32.2149
  1093.6000      8.1560      1.9843      0.0365     40.3467    115.4026     32.3075
  1093.7000      8.1560      1.9698     -0.0172     41.2226    113.8732     32.4838
  1093.8000      8.1541      1.9569     -0.0296     42.0082    114.1691     32.7230
  1093.9000      8.1541      1.9446      0.0324     42.7506    111.8079     32.8393
  1094.0000      8.1568      1.9237      0.0428     44.0198    107.8263     32.7682
  1094.1000      8.1568      1.8961      0.0617     45.6883    103.1545     32.5545
  1094.2000      8.1568      1.8629      0.0998     47.7014     96.7589     32.3527
  1094.3000      8.1662      1.8171      0.0004     50.4781     90.1072     32.2627
  1094.4000      8.1662      1.7689     -0.0958     53.4002     87.4244     32.0252
  1094.5000      8.1810      1.7363     -0.0718     55.3782     90.4884     31.6553
  1094.6000      8.1810      1.7147     -0.0019     56.6832     94.4493     31.6874
  1094.7000      8.1810      1.6829      0.0379     58.6142     93.2096     32.1776
  1094.8000      8.1834      1.6381      0.0314     61.3292     87.4281     32.5752
  1094.9000      8.1834      1.5996      0.0369     63.6617     81.2576     32.7071
  1095.0000      8.1640      1.5773      0.0491     65.0119     76.2447     32.9724
  1095.1000      8.1640      1.5700      0.0058     65.4573     73.0651     33.4992
  1095.2000      8.1640      1.5841     -0.0342     64.5985     72.5547     33.7357
  1095.3000      8.1523      1.6314     -0.0187     61.7312     74.6842     33.4372
  1095.4000      8.1523      1.7156      0.0407     56.6292     77.7562     33.3006
  1095.5000      8.1514      1.8294      0.0741     49.7329     80.3465     33.8101
