~Version Information
 VERS.                                  2.0 : CWLS LAS VERSION
 WRAP.                                   NO : WRAPING MODE
 SWARE .                 MController 2.5.0N : SOFTWARE VERSION
~Well Information
 WELL.                                  N/A : WELL
 COMP.                                  N/A : COMPANY
 FLD.                                   N/A : FIELD
 LOC.                                   N/A : LOCATION
 DATE.                                  N/A : DATE(S) LOGGED
 SRVC.                                  N/A : SERVICE COMPANY
 STAT.                                  N/A : STATE
 CNTY.                                  N/A : COUNTY
 CTRY.                                  N/A : COUNTRY
 API.                                   N/A : API NUMBER
 STRT.FT                               0.00 : START DEPTH
 STOP.FT                            2050.00 : STOP DEPTH
 STEP.FT                               1.00 : DEPTH INCREMENT
 NULL.                                -9999 : NULL VALUE
~Curve information
 DEPTH.FT                                   :
 ROP.MIN/FT                                 :
 GAS.UNITS                                  :
~ASCII Log data
# ...
       400.0         0.30          3.0 
       401.0         0.27          2.7 
       402.0         0.27          2.3 
       403.0         0.28          2.7 
       404.0         0.30          2.6 
       405.0         0.30          2.7 
       406.0         0.33          2.7 
       407.0         0.30          2.8 
       408.0         0.30          2.8 
       409.0         0.27          2.6 
       410.0         0.30          2.9 
       411.0         0.27          2.6 
       412.0         0.33          2.7 
       413.0         0.27          2.8 
       414.0         0.27          2.8 
       415.0         0.25          2.7 
       416.0         1.60          3.0 
       417.0         0.37          2.8 
       418.0         0.37          2.7 
       419.0         0.40          2.2 
       420.0         0.33          2.6 
       421.0         0.45          2.6 
       422.0         0.50          2.7 
       423.0         0.50          7.2 
       424.0         0.47        128.5 
       425.0         0.23         89.0 
       426.0         0.27         37.6 
       427.0         0.30         13.3 
       428.0         0.30          4.8 
       429.0         0.42          2.4 
       430.0         0.33          1.6 
       431.0         0.27          1.2 
       432.0         0.27          1.2 
       433.0         0.27          1.1 
       434.0         0.30          1.3 
       435.0         0.27          1.3 
       436.0         0.23          1.3 
       437.0         0.23          1.3 
       438.0         0.27          1.4 
       439.0         0.20          1.5 
       440.0         0.27          1.6 
       441.0         0.28          1.8 
       442.0         0.27          1.6 
       443.0         0.30          1.7 
       444.0         0.30          1.9 
       445.0         0.33          2.1 
       446.0         1.23          2.0 
       447.0         0.33          2.2 
       448.0         0.32          2.2 
       449.0         0.30          2.2 
       450.0         0.27          2.2 
       451.0         0.33          2.3 
       452.0         0.63          2.4 
       453.0         0.57          2.5 
       454.0         0.30          2.4 
       455.0         0.27          2.3 
       456.0         0.23          2.3 
       457.0         0.28          2.4 
       458.0         0.37          2.4 
       459.0         0.57          2.3 
       460.0         0.30          2.3 
       461.0         0.30          2.5 
       462.0         0.27          2.4 
       463.0         0.20          2.1 
       464.0         0.27          2.3 
       465.0         0.33          2.4 
       466.0         0.28          2.4 
       467.0         0.27          2.2 
       468.0         0.20          2.1 
       469.0         0.30          2.0 
       470.0         0.27          2.2 
       471.0         0.30          2.2 
       472.0         0.27          2.2 
       473.0         0.30          2.2 
       474.0         0.20          2.2 
       475.0         0.20          2.1 
       476.0         1.95          2.4 
       477.0         0.23          2.5 
       478.0         0.30          2.8 
       479.0         0.20          2.9 
       480.0         0.17          2.6 
       481.0         0.13          2.4 
       482.0         0.17          2.3 
       483.0         0.13          2.4 
       484.0         0.20          2.2 
       485.0         0.27          2.2 
       486.0         0.27          2.2 
       487.0         0.28          2.2 
       488.0         0.30          2.2 
       489.0         0.37          2.6 
       490.0         0.30          2.8 
       491.0         0.27          2.9 
       492.0         0.20          2.7 
       493.0         0.20          2.2 
       494.0         0.17          2.3 
       495.0         0.13          1.5 
       496.0         0.17          2.1 
       497.0         0.17          2.1 
       498.0         0.30          2.2 
       499.0         0.27          2.2 
       500.0         0.32          2.1 
       501.0         0.23          2.3 
       502.0         0.23          2.2 
       503.0         0.27          2.2 
       504.0         0.27          2.2 
       505.0         0.27          2.0 
       506.0         1.58          2.6 
       507.0         0.37          2.4 
       508.0         0.37          2.2 
       509.0         0.30          2.1 
       510.0         0.27          1.9 
       511.0         0.30          2.4 
       512.0         0.23          2.4 
       513.0         0.27          2.3 
       514.0         0.27          2.3 
       515.0         0.27          1.8 
       516.0         0.20          1.9 
       517.0         0.23          2.1 
       518.0         0.25          1.8 
       519.0         0.27          1.9 
       520.0         0.23          1.9 
       521.0         0.27          1.9 
       522.0         0.23          1.6 
       523.0         0.23          1.8 
       524.0         0.20          1.8 
       525.0         0.17          1.5 
       526.0         0.23          1.7 
       527.0         0.20          1.6 
       528.0         0.20          1.3 
       529.0         0.23          1.4 
       530.0         0.20          1.5 
       531.0         0.23          1.4 
       532.0         0.25          1.6 
       533.0         0.20          1.7 
       534.0         0.20          1.7 
       535.0         0.27          1.9 
       536.0         1.70          2.2 
       537.0         0.27          1.9 
       538.0         0.27          2.0 
       539.0         0.25          2.1 
       540.0         0.30          2.2 
       541.0         0.33          2.2 
       542.0         0.37          2.3 
       543.0         0.37          2.3 
       544.0         0.53          2.2 
       545.0         0.50          2.0 
       546.0         0.50          2.1 
       547.0         0.48          2.0 
       548.0         0.37          2.0 
       549.0         0.30          1.9 
       550.0         0.27          2.0 
       551.0         0.30          2.0 
       552.0         0.33          2.0 
       553.0         0.37          1.8 
       554.0         0.33          1.7 
       555.0         0.37          1.8 
       556.0         0.35          1.5 
       557.0         0.40          1.5 
       558.0         0.37          1.3 
       559.0         0.33          1.4 
       560.0         0.33          1.3 
       561.0         0.33          1.2 
       562.0         0.40          1.3 
       563.0         0.53          1.5 
       564.0         0.45          1.6 
       565.0         0.57          1.6 
       566.0         1.33          1.9 
       567.0         0.33          1.6 
       568.0         0.33          1.6 
       569.0         0.33          1.5 
       570.0         0.35          1.5 
       571.0         0.40          1.5 
       572.0         0.30          1.6 
       573.0         0.23          1.8 
       574.0         0.33          1.8 
       575.0         0.30          1.2 
       576.0         0.27          1.3 
       577.0         0.33          1.2 
       578.0         0.37          1.3 
       579.0         0.27          1.4 
       580.0         0.32          1.7 
       581.0         0.27          1.7 
       582.0         0.27          1.7 
       583.0         0.23          1.6 
       584.0         0.30          1.3 
       585.0         0.33          1.3 
       586.0         0.33          1.2 
       587.0         0.40          1.2 
       588.0         0.33          1.2 
       589.0         0.27          1.3 
       590.0         0.32          1.3 
       591.0         0.33          1.1 
       592.0         0.33          1.5 
       593.0         0.23          1.5 
       594.0         0.23          1.6 
       595.0         0.30          1.8 
       596.0         2.05          1.9 
       597.0         0.20          1.5 
       598.0         0.20          1.6 
       599.0         0.20          1.8 
