~Version Information
VERS.                      2.0: CWLS Log ASCII Standard - VERSION 2.0
WRAP.                       NO: One line per depth step
~Well Information Block
STRT.FT                15.0000: 
STOP.FT              1211.0000: 
STEP.FT                 0.2500: 
NULL.                -999.2500: 
COMP.          Pioneer Natural Resources: COMPANY
WELL.          Santa Fe 43-27 Tr: WELL
FLD.           Purgatoire River: FIELD
LOC.           2018' FSL & 534' FEL: LOCATION
PROV.                 Colorado: PROVINCE
CNTY.               Las Animas: COUNTRY
SRVC.                Patterson: SERVICE COMPANY
DATE.          Mon Mar 14 15:43:40 2005: LOG DATE
UWI.           05 071 08303 00: UNIQUE WELL ID
~Curve Information Block
DEPT.FT            0 000 00 00: Depth
GR.GAPI                       : Gamma Ray
CCL.                          : Casing Collar Locator
TT3.usec                      : CBL 3' Travel Time
AMP3.mV                       : CBL 3' Amplitude
AMP5.mV                       : CBL 5' Amplitude
~Parameter Information Block
~A  Depth        GR         CCL         TT3         AMP3        AMP5    
# ...
   631.0000    123.9936      0.0000    775.6542     18.5441      3.5630
   631.2500    127.1208      0.0000    779.9221     18.4198      3.5626
   631.5000    129.4569      0.0000    783.3259     18.3098      3.5407
   631.7500    129.2236      0.0000    784.6316     18.2079      3.5026
   632.0000    125.3335      0.0000    783.5880     18.1161      3.4626
   632.2500    118.4653      0.0000    780.5914     18.0454      3.4367
   632.5000    110.6984      0.0000    776.9581     18.0127      3.4335
   632.7500    104.1177      0.0000    774.7260     18.0408      3.4500
   633.0000     99.8280      0.0000    775.3359     18.1554      3.4762
   633.2500     98.0179      0.0000    778.4234     18.3682      3.5040
   633.5000     98.6303      0.0000    781.7385     18.6567      3.5310
   633.7500    101.7166      0.0000    781.5020     18.9598      3.5585
   634.0000    107.0687      0.0000    773.5174     19.1984      3.5870
   634.2500    113.8362      0.0000    756.5695     19.3122      3.6142
   634.5000    120.7150      0.0000    736.2163     19.2915      3.6351
   634.7500    126.3427      0.0000    723.0675     19.1790      3.6438
   635.0000    129.6858      0.0000    724.4684     19.0418      3.6353
   635.2500    130.6125      0.0000    738.3305     18.9385      3.6099
   635.5000    130.0669      0.0000    756.3633     18.8998      3.5760
   635.7500    129.2106      0.0000    771.8209     18.9201      3.5473
   636.0000    128.4001      0.0000    782.8625     18.9609      3.5349
   636.2500    127.1475      0.0000    790.4928     18.9775      3.5408
   636.5000    124.8324      0.0000    795.7797     18.9555      3.5583
   636.7500    121.3125      0.0000    799.1486     18.9215      3.5769
   637.0000    117.1247      0.0000    800.9396     18.9152      3.5845
   637.2500    113.3666      0.0000    801.7059     18.9552      3.5701
   637.5000    111.3484      0.0000    802.0314     19.0290      3.5291
   637.7500    111.9566      0.0000    802.2579     19.1048      3.4672
   638.0000    114.9484      0.0000    802.4509     19.1371      3.3918
   638.2500    118.8596      0.0000    802.5213     19.0654      3.2951
   638.5000    121.8968      0.0000    802.4126     18.8306      3.1475
   638.7500    123.1991      0.0000    802.3995     18.4084      2.9220
   639.0000    123.1631      0.0000    803.6630     17.8058      2.6358
   639.2500    122.3703      0.0000    809.3812     16.9857      2.3550
   639.5000    120.5093      0.0000    825.8725     15.8049      2.1371
   639.7500    116.9348      0.0000    861.9236     14.1189      1.9787
   640.0000    112.1943      0.0000    924.0781     12.0159      1.8417
   640.2500    108.2807      0.0000   1009.2158      9.8794      1.7155
   640.5000    107.0253      0.0000   1100.8171      8.1055      1.6246
   640.7500    108.5110      0.0000   1174.8398      6.8045      1.5856
   641.0000    111.1851      0.0000   1212.9426      5.8840      1.5871
   641.2500    113.2970      0.0000   1213.3477      5.3170      1.6071
   641.5000    113.9943      0.0000   1190.9570      5.1579      1.6308
   641.7500    113.3447      0.0000   1167.1122      5.3546      1.6528
   642.0000    112.0695     -3.0000   1157.3378      5.7116      1.6717
   642.2500    111.4954     -3.0000   1164.6357      6.0539      1.6869
   642.5000    112.9879      0.0000   1179.2617      6.4089      1.6987
   642.7500    116.6973      0.0000   1183.1931      7.0474      1.7075
   643.0000    120.9174      0.0000   1159.4575      8.2854      1.7135
   643.2500    123.2781      0.0000   1103.5997     10.1231      1.7236
   643.5000    123.0281      0.0000   1028.3538     12.1157      1.7639
   643.7500    121.9778      0.0000    955.4109     13.7333      1.8842
   644.0000    122.7132      0.0000    900.3769     14.8028      2.1268
   644.2500    125.9713      0.0000    864.8639     15.5038      2.4671
   644.5000    130.1867      0.0000    841.8430     16.0457      2.8011
   644.7500    133.3561      0.0000    825.4043     16.4814      3.0230
   645.0000    134.5858      0.0000    813.9161     16.7670      3.1110
   645.2500    133.8714      0.0000    807.1479     16.8791      3.1199
   645.5000    131.5271      0.0000    803.9861     16.8590      3.1109
   645.7500    128.5427      0.0000    802.8677     16.7788      3.1111
   646.0000    126.7958      0.0000    802.7921     16.6879      3.1235
   646.2500    127.9563      0.0000    803.5139     16.5947      3.1458
   646.5000    132.1059      0.0000    805.1732     16.4961      3.1741
   646.7500    137.7411      0.0000    807.6486     16.4076      3.2006
   647.0000    142.9498      0.0000    810.0657     16.3601      3.2173
   647.2500    146.1147      0.0000    811.1169     16.3715      3.2208
   647.5000    145.6341      0.0000    810.1461     16.4252      3.2127
   647.7500    140.0331      0.0000    807.7881     16.4843      3.1948
   648.0000    129.3805      0.0000    805.3123     16.5294      3.1682
   648.2500    116.5064      0.0000    803.5439     16.5746      3.1356
   648.5000    105.8701      0.0000    802.5650     16.6442      3.1038
   648.7500    100.5642      0.0000    802.1163     16.7432      3.0806
   649.0000    100.4726      0.0000    801.9668     16.8579      3.0718
   649.2500    103.3345      0.0000    801.9835     16.9774      3.0790
   649.5000    106.9520      0.0000    802.0803     17.1034      3.1008
   649.7500    109.9272      0.0000    802.1883     17.2391      3.1350
   650.0000    111.0630      0.0000    802.2488     17.3742      3.1773
   650.2500    109.4327      0.0000    802.2261     17.4837      3.2201
   650.5000    105.4279      0.0000    802.1243     17.5465      3.2544
   650.7500    100.9210      0.0000    801.9883     17.5683      3.2747
   651.0000     97.7966      0.0000    801.8718     17.5798      3.2819
   651.2500     96.4779      0.0000    801.7999     17.6106      3.2819
   651.5000     96.0073      0.0000    801.7634     17.6680      3.2825
   651.7500     95.2951      0.0000    801.7424     17.7418      3.2879
   652.0000     94.1088      0.0000    801.7338     17.8160      3.2976
   652.2500     93.0504      0.0000    801.7552     17.8734      3.3069
   652.5000     92.8633      0.0000    801.8596     17.8956      3.3097
   652.7500     93.6460      0.0000    802.1829     17.8637      3.3018
   653.0000     94.5523      0.0000    803.0101     17.7616      3.2815
   653.2500     94.4356      0.0000    804.6847     17.5886      3.2505
   653.5000     93.0033      0.0000    807.1910     17.3766      3.2128
   653.7500     91.1937      0.0000    809.7143     17.1834      3.1724
   654.0000     90.2677      0.0000    810.9312     17.0568      3.1320
   654.2500     90.7177      0.0000    810.1069     17.0012      3.0937
   654.5000     92.1368      0.0000    807.7968     16.9789      3.0610
   654.7500     93.6763      0.0000    805.2667     16.9360      3.0363
   655.0000     94.2673      0.0000    803.4154     16.8279      3.0202
   655.2500     92.8802      0.0000    802.3797     16.6317      3.0110
   655.5000     89.2978      0.0000    801.8583     16.3473      3.0068
   655.7500     84.7179      0.0000    801.5298     15.9976      3.0051
   656.0000     81.1732      0.0000    801.2452     15.6298      3.0017
   656.2500     80.1806      0.0000    801.0179     15.3064      2.9907
   656.5000     82.0644      0.0000    800.9660     15.0788      2.9669
   656.7500     86.4295      0.0000    801.3090     14.9635      2.9287
   657.0000     92.7954      0.0000    802.5613     14.9421      2.8807
   657.2500    100.5127      0.0000    805.7465     14.9763      2.8325
   657.5000    108.4316      0.0000    812.2853     15.0236      2.7951
   657.7500    115.2505      0.0000    823.1311     15.0522      2.7751
   658.0000    120.4921      0.0000    837.1885     15.0539      2.7728
   658.2500    124.8577      0.0000    850.3332     15.0401      2.7853
   658.5000    129.2348      0.0000    857.1890     15.0236      2.8098
   658.7500    133.5146      0.0000    855.3009     15.0074      2.8423
