~Version Information
VERS.                      2.0: CWLS Log ASCII Standard - VERSION 2.0
WRAP.                       NO: One line per depth step
~Well Information Block
STRT.FT               557.0000: 
STOP.FT              2136.0000: 
STEP.FT                 0.2500: 
NULL.                -999.2500: 
COMP.          Petrogulf Corporation: COMPANY
WELL.           Montoya 12-41R: WELL
FLD.           Purgatorie River: FIELD
LOC.           1086' FNL & 610' FEL: LOCATION
CNTY.               Las Animas: COUNTY
SRVC.                         : SERVICE COMPANY
DATE.          Thu Nov 18 06:03:03 2004: LOG DATE
UWI.           05 071 08241 00: UNIQUE WELL ID
STAT.                 Colorado: STATE
~Curve Information Block
DEPT.FT            0 000 00 00: Depth
SP.mV                         : DIL Spontaneous Potential
RILD.Ohm-m                    : DIL Deep Resistivity
RILM.Ohm-m                    : DIL Medium Resistivity
RLL3.Ohm-m                    : DIL Shallow Resistivity
GR.GAPI                       : Gamma Ray
~Parameter Information Block
~A  Depth        SP         RILD        RILM        RLL3         GR     
# ...
   585.0000   2000.0000      8.4914 100000.0000   2000.0000     97.3996
   585.2500   2000.0000      8.5018 100000.0000   2000.0000     97.7841
   585.5000   2000.0000      8.5147 100000.0000   2000.0000     97.8411
   585.7500   2000.0000      8.5269 100000.0000   2000.0000     97.5529
   586.0000   2000.0000      8.5360 100000.0000   2000.0000     96.9672
   586.2500   2000.0000      8.5413 100000.0000   2000.0000     96.5073
   586.5000   2000.0000      8.5437 100000.0000   2000.0000     95.4051
   586.7500   2000.0000      8.5453 100000.0000   2000.0000     94.2661
   587.0000   2000.0000      8.5491 100000.0000   2000.0000     92.1674
   587.2500   2000.0000      8.5582 100000.0000   2000.0000     90.8332
   587.5000   2000.0000      8.5755 100000.0000   2000.0000     89.5684
   587.7500   2000.0000      8.6039 100000.0000   2000.0000     89.4673
   588.0000   2000.0000      8.6459 100000.0000   2000.0000     90.2284
   588.2500   2000.0000      8.7043 100000.0000   2000.0000     90.7136
   588.5000   2000.0000      8.7818 100000.0000   2000.0000     89.8640
   588.7500   2000.0000      8.8809 100000.0000   2000.0000     87.6602
   589.0000   2000.0000      9.0031 100000.0000   2000.0000     82.2920
   589.2500   2000.0000      9.1475 100000.0000   2000.0000     78.2647
   589.5000   2000.0000      9.3101 100000.0000   2000.0000     73.2233
   589.7500   2000.0000      9.4829 100000.0000   2000.0000     71.0459
   590.0000   2000.0000      9.6543 100000.0000   2000.0000     69.5869
   590.2500   2000.0000      9.8105 100000.0000   2000.0000     69.6252
   590.5000   2000.0000      9.9382 100000.0000   2000.0000     70.8819
   590.7500   2000.0000     10.0282 100000.0000   2000.0000     72.3410
   591.0000   2000.0000     10.0775 100000.0000   2000.0000     75.1203
   591.2500   2000.0000     10.0900 100000.0000   2000.0000     77.2623
   591.5000   2000.0000     10.0754 100000.0000   2000.0000     81.0308
   591.7500   2000.0000     10.0456 100000.0000   2000.0000     84.0043
   592.0000   2000.0000     10.0115 100000.0000   2000.0000     88.8852
   592.2500   2000.0000      9.9810 100000.0000   2000.0000     91.9825
   592.5000   2000.0000      9.9574 100000.0000   2000.0000     95.5825
   592.7500   2000.0000      9.9398 100000.0000   2000.0000     97.0157
   593.0000   2000.0000      9.9243 100000.0000   2000.0000     97.7205
   593.2500   2000.0000      9.9057 100000.0000   2000.0000     97.3867
   593.5000   2000.0000      9.8792 100000.0000   2000.0000     95.9253
   593.7500   2000.0000      9.8420 100000.0000   2000.0000     94.4164
   594.0000   2000.0000      9.7935 100000.0000   2000.0000     91.6866
   594.2500   2000.0000      9.7356 100000.0000   2000.0000     89.8790
   594.5000   2000.0000      9.6719 100000.0000   2000.0000     87.6927
   594.7500   2000.0000      9.6065 100000.0000   2000.0000     86.6765
   595.0000   2000.0000      9.5435 100000.0000   2000.0000     85.5705
   595.2500   2000.0000      9.4869 100000.0000   2000.0000     84.7885
   595.5000   2000.0000      9.4403 100000.0000   2000.0000     82.7962
   595.7500   2000.0000      9.4078 100000.0000   2000.0000     80.4970
   596.0000   2000.0000      9.3948 100000.0000   2000.0000     75.3447
   596.2500   2000.0000      9.4089 100000.0000   2000.0000     71.0980
   596.5000   2000.0000      9.4596 100000.0000   2000.0000     64.6923
   596.7500   2000.0000      9.5583 100000.0000   2000.0000     61.1622
   597.0000   2000.0000      9.7166 100000.0000   2000.0000     57.8842
   597.2500   2000.0000      9.9452 100000.0000   2000.0000     57.1132
   597.5000   2000.0000     10.2516 100000.0000   2000.0000     57.2346
   597.7500   2000.0000     10.6386 100000.0000   2000.0000     57.2691
   598.0000   2000.0000     11.1026 100000.0000   2000.0000     55.9256
   598.2500   2000.0000     11.6330 100000.0000   2000.0000     53.9855
   598.5000   2000.0000     12.2133 100000.0000   2000.0000     50.5040
   598.7500   2000.0000     12.8230 100000.0000   2000.0000     48.5192
   599.0000   2000.0000     13.4414 100000.0000   2000.0000     46.5620
   599.2500   2000.0000     14.0495 100000.0000   2000.0000     45.8745
   599.5000   2000.0000     14.6301 100000.0000   2000.0000     45.6150
   599.7500   2000.0000     15.1629 100000.0000   2000.0000     45.9470
   600.0000   2000.0000     15.6177 100000.0000   2000.0000     47.1186
   600.2500   2000.0000     15.9567 100000.0000   2000.0000     48.1736
   600.5000   2000.0000     16.1386 100000.0000   2000.0000     49.7742
   600.7500   2000.0000     16.1341 100000.0000   2000.0000     50.6993
   601.0000   2000.0000     15.9425 100000.0000   2000.0000     51.7146
   601.2500   2000.0000     15.6012 100000.0000   2000.0000     52.0067
   601.5000   2000.0000     15.1775 100000.0000   2000.0000     51.6263
   601.7500   2000.0000     14.7503 100000.0000   2000.0000     50.8488
   602.0000   2000.0000     14.3882 100000.0000   2000.0000     49.2592
   602.2500   2000.0000     14.1339 100000.0000   2000.0000     48.1415
   602.5000   2000.0000     13.9941 100000.0000   2000.0000     46.5449
   602.7500   2000.0000     13.9361 100000.0000   2000.0000     45.5764
   603.0000   2000.0000     13.8854 100000.0000   2000.0000     44.4340
   603.2500   2000.0000     13.7401 100000.0000   2000.0000     43.9617
   603.5000   2000.0000     13.3978 100000.0000   2000.0000     43.5809
   603.7500   2000.0000     12.8040 100000.0000   2000.0000     43.4110
   604.0000   2000.0000     11.9855 100000.0000   2000.0000     43.2608
   604.2500   2000.0000     11.0386 100000.0000   2000.0000     43.3760
   604.5000   2000.0000     10.0790 100000.0000   2000.0000     44.1051
   604.7500   2000.0000      9.1947 100000.0000   2000.0000     44.9424
   605.0000   2000.0000      8.4284 100000.0000   2000.0000     46.5640
   605.2500   2000.0000      7.7845 100000.0000   2000.0000     47.9229
   605.5000   2000.0000      7.2447 100000.0000   2000.0000     50.6587
   605.7500   2000.0000      6.7832 100000.0000   2000.0000     52.9895
   606.0000   2000.0000      6.3809 100000.0000   2000.0000     56.8570
   606.2500   2000.0000      6.0324 100000.0000   2000.0000     59.3339
   606.5000   2000.0000      5.7475 100000.0000   2000.0000     62.3511
   606.7500   2000.0000      5.5490 100000.0000   2000.0000     63.6428
   607.0000   2000.0000      5.4690 100000.0000   2000.0000     64.4332
   607.2500   2000.0000      5.5494 100000.0000   2000.0000     64.5501
   607.5000   2000.0000      5.8492 100000.0000   2000.0000     65.0641
   607.7500   2000.0000      6.4658 100000.0000   2000.0000     65.8673
   608.0000   2000.0000      7.5800 100000.0000   2000.0000     67.1266
   608.2500   2000.0000      9.5727    240.6574   2000.0000     67.3251
   608.5000   2000.0000     13.3802     58.6861   2000.0000     65.9543
   608.7500   2000.0000     21.9883     42.2169   2000.0000     64.0972
   609.0000   2000.0000     52.1144     39.7664   2000.0000     61.0222
   609.2500   2000.0000 100000.0000     43.8617   2000.0000     59.5517
   609.5000   2000.0000 100000.0000     55.2289   2000.0000     59.0300
   609.7500   2000.0000 100000.0000     80.5138   2000.0000     59.8197
   610.0000   2000.0000 100000.0000    145.8844   2000.0000     62.0545
   610.2500   2000.0000 100000.0000    447.0338   2000.0000     63.6239
   610.5000   2000.0000 100000.0000 100000.0000   2000.0000     65.0355
   610.7500   2000.0000 100000.0000 100000.0000   2000.0000     65.0347
   611.0000   2000.0000 100000.0000 100000.0000   2000.0000     64.1435
   611.2500   2000.0000 100000.0000   1920.7325   2000.0000     63.9092
   611.5000   2000.0000    467.6622    234.5006   2000.0000     66.0751
   611.7500   2000.0000    107.2859    109.2027   2000.0000     69.9211
   612.0000   2000.0000     64.4634     67.5641   2000.0000     79.1303
   612.2500   2000.0000     48.3373     48.0908   2000.0000     86.8267
   612.5000   2000.0000     40.0214     37.3521   2000.0000     99.2931
   612.7500   2000.0000     34.9593     30.8284   2000.0000    107.6896
