~Version Information
VERS.                      2.0: CWLS Log ASCII Standard - VERSION 2.0
WRAP.                       NO: One line per depth step
~Well Information Block
STRT.FT               953.8000: 
STOP.FT              2226.0000: 
STEP.FT                 0.1000: 
NULL.                -999.2500: 
COMP.          Petrogulf Corporation: COMPANY
WELL.             Burson 8-13R: WELL
FLD.           Purgatorie River: FIELD
LOC.           1045' FNL & 2189' FEL: LOCATION
CNTY.               Las Animas: COUNTY
SRVC.                         : SERVICE COMPANY
DATE.          Fri Apr 30 07:30:36 2004: LOG DATE
UWI.           05 071 08039 00: UNIQUE WELL ID
STAT.                 Colorado: STATE
~Curve Information Block
DEPT.FT            0 000 00 00: Depth
DCAL.in                       : CDL Caliper
RHOB.g/cc                     : CDL Bulk Density
RHOC.g/cc                     : CDL Density Correction
DPOR.pu                       : CDL Density Porosity
NPOR.pu                       : Neutron Porosity
GR.GAPI                       : Gamma Ray
~Parameter Information Block
~A  Depth       DCAL        RHOB        RHOC        DPOR        NPOR         GR     
# ...
  1289.8000      7.9105      2.6472     -0.0038      0.1682     26.6634    117.7161
  1289.9000      7.9105      2.6642     -0.0000     -0.8619     27.4068    117.4652
  1290.0000      7.9076      2.6925      0.0098     -2.5757     27.9057    117.7409
  1290.1000      7.9076      2.7134      0.0238     -3.8453     28.4289    118.9690
  1290.2000      7.9076      2.7116      0.0289     -3.7309     29.1503    118.3268
  1290.3000      7.8904      2.6875      0.0239     -2.2748     29.6340    114.6371
  1290.4000      7.8904      2.6595     -0.0413     -0.5758     29.8444    110.9930
  1290.5000      7.9079      2.6467      0.0026      0.2008     30.0391    109.9308
  1290.6000      7.9079      2.6502      0.0204     -0.0099     30.2281    113.2605
  1290.7000      7.9079      2.6646      0.0346     -0.8843     30.3863    119.2417
  1290.8000      7.9127      2.6764      0.0754     -1.6029     30.4138    122.2004
  1290.9000      7.9127      2.6619      0.0954     -0.7232     30.2208    120.5566
  1291.0000      7.9142      2.6249      0.0001      1.5211     29.7579    120.7066
  1291.1000      7.9142      2.5949     -0.0013      3.3406     29.0884    127.0801
  1291.2000      7.9142      2.5864     -0.0064      3.8546     28.5130    131.6195
  1291.3000      7.9093      2.5815      0.0980      4.1523     28.1029    127.1349
  1291.4000      7.9093      2.5569      0.0383      5.6409     27.7764    120.0095
  1291.5000      7.9078      2.5212      0.0651      7.8043     27.4278    117.0758
  1291.6000      7.9078      2.4904      0.0668      9.6732     26.8064    118.9878
  1291.7000      7.9078      2.4707      0.0563     10.8696     25.9032    123.4521
  1291.8000      7.9042      2.4706      0.0133     10.8754     24.8606    124.6504
  1291.9000      7.9042      2.4932      0.0400      9.5034     23.9092    118.2300
  1292.0000      7.8905      2.5264      0.0806      7.4929     23.5241    108.0375
  1292.1000      7.8905      2.5527      0.1178      5.8944     23.7662    101.7856
  1292.2000      7.8905      2.5605      0.1400      5.4269     24.1587    102.4083
  1292.3000      7.9109      2.5521      0.1138      5.9331     24.4713    105.0412
  1292.4000      7.9109      2.5515      0.0547      5.9670     24.6429    104.5041
  1292.5000      7.9070      2.5781      0.0803      4.3593     24.6896    103.0516
  1292.6000      7.9070      2.6120      0.1051      2.3041     24.8804    103.3111
  1292.7000      7.9070      2.6241      0.1169      1.5710     25.1914    103.6683
  1292.8000      7.9095      2.6166      0.0756      2.0221     25.3603    102.8876
  1292.9000      7.9095      2.6040      0.0917      2.7864     25.3793    102.8804
  1293.0000      7.9085      2.5922      0.0372      3.5049     25.2183    104.6676
  1293.1000      7.9085      2.5832      0.0612      4.0484     24.9178    106.9257
  1293.2000      7.9085      2.5733      0.0564      4.6477     24.5708    108.1997
  1293.3000      7.9104      2.5616      0.0742      5.3570     24.0025    106.3013
  1293.4000      7.9104      2.5563      0.0363      5.6779     23.3286    100.8576
  1293.5000      7.9086      2.5587      0.0213      5.5359     22.9993     97.1294
  1293.6000      7.9086      2.5570      0.0153      5.6376     23.0531     99.5885
  1293.7000      7.9086      2.5535     -0.0279      5.8500     23.1701    101.4508
  1293.8000      7.9104      2.5634      0.0335      5.2460     23.2394     95.8836
  1293.9000      7.9104      2.5816      0.0664      4.1470     23.4704     88.4171
  1294.0000      7.9087      2.5904      0.0297      3.6107     23.8889     87.7807
  1294.1000      7.9087      2.5835      0.0162      4.0323     24.2865     93.3401
  1294.2000      7.9087      2.5589      0.0315      5.5236     24.4747     97.9649
  1294.3000      7.9110      2.5303     -0.0281      7.2548     24.2980     98.5475
  1294.4000      7.9110      2.5292     -0.0119      7.3203     23.9136     95.6619
  1294.5000      7.9032      2.5615     -0.0404      5.3657     23.7834     91.0535
  1294.6000      7.9032      2.5986      0.0763      3.1161     23.8205     88.6861
  1294.7000      7.9032      2.6171      0.0157      1.9914     23.6635     90.3038
  1294.8000      7.9057      2.6211      0.0613      1.7536     23.4693     90.8618
  1294.9000      7.9057      2.6134      0.0751      2.2188     23.5064     87.1477
  1295.0000      7.9020      2.5904      0.0560      3.6141     23.6359     83.6988
  1295.1000      7.9020      2.5601      0.0117      5.4500     23.3229     85.2400
  1295.2000      7.9020      2.5399      0.0147      6.6708     22.4681     88.9373
  1295.3000      7.9067      2.5377      0.0608      6.8044     21.5398     88.6207
  1295.4000      7.9067      2.5440      0.0367      6.4254     20.9356     86.8920
  1295.5000      7.9056      2.5436      0.0392      6.4488     20.7951     89.4713
  1295.6000      7.9056      2.5304      0.0212      7.2468     20.7853     94.3308
  1295.7000      7.9056      2.5172      0.0067      8.0488     20.5998     96.6616
  1295.8000      7.9095      2.5185      0.0155      7.9677     20.4598     95.1232
  1295.9000      7.9095      2.5253      0.0094      7.5599     20.3679     91.5560
  1296.0000      7.9037      2.5210      0.0139      7.8183     19.9124     87.5941
  1296.1000      7.9037      2.5123      0.0154      8.3465     19.0439     81.7036
  1296.2000      7.9037      2.5150     -0.0005      8.1848     18.3129     75.0213
  1296.3000      7.9076      2.5263      0.0245      7.4996     18.0060     72.1722
  1296.4000      7.9076      2.5325      0.0572      7.1214     18.0855     72.2789
  1296.5000      7.9103      2.5332      0.0367      7.0768     18.4274     71.2793
  1296.6000      7.9103      2.5340      0.0424      7.0315     18.7979     69.7628
  1296.7000      7.9103      2.5333     -0.0029      7.0705     19.2707     69.4933
  1296.8000      7.9072      2.5281      0.0208      7.3855     19.9813     70.6583
  1296.9000      7.9072      2.5179      0.0370      8.0046     20.6953     73.6929
  1297.0000      7.9095      2.5069      0.0353      8.6699     21.1333     79.2688
  1297.1000      7.9095      2.4962      0.0301      9.3204     21.3286     84.5745
  1297.2000      7.9095      2.4900     -0.0177      9.6992     21.3575     84.0980
  1297.3000      7.9067      2.4975      0.0058      9.2409     21.2318     79.3040
  1297.4000      7.9067      2.5119      0.0449      8.3670     21.1606     77.1230
  1297.5000      7.9017      2.5254      0.0369      7.5511     21.2253     79.3883
  1297.6000      7.9017      2.5446      0.0552      6.3861     21.1691     81.2681
  1297.7000      7.9017      2.5657      0.1233      5.1121     20.8938     80.6890
  1297.8000      7.9048      2.5760      0.0897      4.4832     20.6619     79.0022
  1297.9000      7.9048      2.5740      0.1074      4.6084     20.7305     78.1508
  1298.0000      7.9115      2.5567      0.1123      5.6554     20.9655     81.5098
  1298.1000      7.9115      2.5320      0.0372      7.1540     21.2649     84.6787
  1298.2000      7.9115      2.5237      0.0328      7.6568     21.8655     82.4322
  1298.3000      7.9269      2.5343      0.0746      7.0130     22.6290     79.9766
  1298.4000      7.9269      2.5409      0.0850      6.6134     23.3697     80.3585
  1298.5000      7.9382      2.5314      0.0558      7.1850     24.0850     81.8573
  1298.6000      7.9382      2.5121      0.0461      8.3596     24.5008     82.4934
  1298.7000      7.9382      2.4904      0.0202      9.6745     24.4770     79.9100
  1298.8000      7.9382      2.4640      0.0426     11.2723     24.3717     75.7656
  1298.9000      7.9382      2.4201      0.0459     13.9327     24.5702     77.0703
  1299.0000      7.9372      2.3474      0.0453     18.3414     25.1169     86.1152
  1299.1000      7.9372      2.2530     -0.0278     24.0597     25.4827     96.5005
  1299.2000      7.9372      2.1618     -0.0117     29.5907     25.0240    104.5311
  1299.3000      7.9633      2.0917     -0.0570     33.8367     23.8340    111.2075
