~Version Information
VERS.                      2.0: CWLS Log ASCII Standard - VERSION 2.0
WRAP.                       NO: One line per depth step
~Well Information Block
STRT.FT               510.0000: 
STOP.FT              1861.5000: 
STEP.FT                 0.1000: 
NULL.                -999.2500: 
COMP.          Pioneer Natural Resources: COMPANY
WELL.           Guajardo 24-16: WELL
FLD.           Purgatoire River: FIELD
LOC.           883' FSL & 2147' FWL: LOCATION
PROV.                 Colorado: PROVINCE
CNTY.               Las Animas: COUNTRY
SRVC.                Patterson: SERVICE COMPANY
DATE.          Mon Aug 08 09:13:01 2005: LOG DATE
UWI.           05 071 08377 00: UNIQUE WELL ID
~Curve Information Block
DEPT.FT            0 000 00 00: Depth
DCAL.in                       : CDL Caliper
RHOB.g/cc                     : CDL Bulk Density
RHOC.g/cc                     : CDL Density Correction
DPOR.pu                       : CDL Density Porosity
GR.GAPI                       : Gamma Ray
NPOR.pu                       : Neutron Porosity
~Parameter Information Block
~A  Depth       DCAL        RHOB        RHOC        DPOR         GR         NPOR    
# ...
  1662.0000      8.0160      2.5755      0.0304      4.5152     86.4031     16.2843
  1662.1000      8.0160      2.5655      0.0436      5.1236     82.4600     17.1781
  1662.2000      8.0160      2.5372     -0.0021      6.8352     78.1653     17.9520
  1662.3000      8.0177      2.5057      0.0487      8.7442     77.5963     18.3564
  1662.4000      8.0177      2.4891      0.0015      9.7515     82.1247     17.9845
  1662.5000      8.0162      2.4909     -0.0106      9.6449     88.9667     17.2324
  1662.6000      8.0162      2.4925      0.0301      9.5476     92.3015     16.9428
  1662.7000      8.0162      2.4839     -0.0260     10.0682     90.0936     17.4249
  1662.8000      8.0148      2.4851     -0.0238      9.9963     86.4322     18.2095
  1662.9000      8.0148      2.5081      0.0023      8.5987     83.5968     18.5171
  1663.0000      7.9995      2.5376      0.0698      6.8136     79.6194     18.3386
  1663.1000      7.9995      2.5503      0.0818      6.0396     75.5250     18.4828
  1663.2000      7.9995      2.5444      0.0528      6.4019     73.4733     19.2108
  1663.3000      7.9978      2.5441      0.0606      6.4179     73.2910     19.9342
  1663.4000      7.9978      2.5665      0.0214      5.0595     73.7113     20.1771
  1663.5000      8.0013      2.5963      0.0553      3.2531     71.9745     19.7047
  1663.6000      8.0013      2.6081      0.0392      2.5414     67.7614     18.6320
  1663.7000      8.0013      2.6020      0.0481      2.9070     63.9055     17.9565
  1663.8000      8.0038      2.5968      0.0223      3.2232     63.5439     17.9598
  1663.9000      8.0038      2.6073      0.0438      2.5891     68.3678     17.4021
  1664.0000      8.0089      2.6355      0.0172      0.8805     74.0272     16.2167
  1664.1000      8.0089      2.6585      0.1311     -0.5128     72.2458     15.7657
  1664.2000      8.0089      2.6472      0.0479      0.1672     64.4096     16.3103
  1664.3000      8.0072      2.6132      0.0105      2.2332     59.2072     17.4274
  1664.4000      8.0072      2.5874      0.0253      3.7920     58.5393     19.0055
  1664.5000      8.0057      2.5744      0.0622      4.5806     59.2016     20.2282
  1664.6000      8.0057      2.5627      0.0184      5.2925     58.8968     20.0428
  1664.7000      8.0057      2.5538      0.0314      5.8295     60.0469     19.2421
  1664.8000      7.9983      2.5576     -0.0103      5.5995     65.2193     18.9850
  1664.9000      7.9983      2.5689      0.0452      4.9165     69.5949     18.7473
  1665.0000      8.0082      2.5691      0.0064      4.9008     67.3623     17.9841
  1665.1000      8.0082      2.5599      0.0093      5.4603     61.8361     17.2235
  1665.2000      8.0082      2.5588     -0.0085      5.5278     58.3906     16.8355
  1665.3000      8.0083      2.5635      0.0463      5.2402     57.3518     17.0577
  1665.4000      8.0083      2.5603      0.0058      5.4371     57.4540     18.0223
  1665.5000      8.0085      2.5527      0.0335      5.8975     57.4598     18.6633
  1665.6000      8.0085      2.5533      0.0175      5.8598     57.2420     18.1710
  1665.7000      8.0085      2.5704      0.0579      4.8247     59.0759     17.6976
  1665.8000      8.0113      2.6020      0.0272      2.9101     62.3211     17.8870
  1665.9000      8.0113      2.6268      0.0629      1.4043     62.9772     17.6425
  1666.0000      8.0077      2.6203      0.0628      1.7983     62.1467     17.1220
  1666.1000      8.0077      2.5941     -0.0171      3.3879     63.3891     17.4381
  1666.2000      8.0077      2.5834     -0.0058      4.0378     66.0067     18.3209
  1666.3000      8.0097      2.5925      0.0647      3.4821     66.9410     18.9793
  1666.4000      8.0097      2.6009      0.0135      2.9746     65.7936     18.9309
  1666.5000      8.0181      2.5990      0.0480      3.0882     67.7563     17.7668
  1666.6000      8.0181      2.5832      0.0526      4.0495     75.1216     16.8044
  1666.7000      8.0181      2.5489      0.0748      6.1300     81.7745     17.6582
  1666.8000      8.0134      2.4999      0.0077      9.0987     84.8722     19.7061
  1666.9000      8.0134      2.4503     -0.0022     12.1052     87.7416     21.4091
  1667.0000      8.0117      2.4242     -0.0494     13.6878     89.2346     22.5514
  1667.1000      8.0117      2.4329     -0.0158     13.1589     87.0551     23.5124
  1667.2000      8.0117      2.4530      0.0258     11.9370     84.5753     23.9128
  1667.3000      8.0141      2.4593      0.0222     11.5562     87.5830     23.5242
  1667.4000      8.0141      2.4527      0.0635     11.9557     97.9025     23.4071
  1667.5000      8.0097      2.4513      0.0147     12.0447    109.2461     24.1431
  1667.6000      8.0097      2.4676      0.0568     11.0548    115.5937     24.8826
  1667.7000      8.0097      2.4883      0.0612      9.7982    119.3500     25.1081
  1667.8000      8.0114      2.4922      0.0444      9.5639    123.2990     24.8161
  1667.9000      8.0114      2.4818      0.0307     10.1947    123.6339     24.0824
  1668.0000      8.0126      2.4778      0.0176     10.4378    117.7406     23.5112
  1668.1000      8.0126      2.4921      0.0315      9.5714    111.4204     23.5728
  1668.2000      8.0126      2.5175      0.0385      8.0299    108.0458     23.6893
  1668.3000      8.0199      2.5372      0.0430      6.8368    104.4340     23.2509
  1668.4000      8.0199      2.5404      0.0338      6.6447    101.6478     23.0722
  1668.5000      8.0210      2.5317      0.0585      7.1692    102.0375     23.6501
  1668.6000      8.0210      2.5186      0.0761      7.9611    103.2758     23.7215
  1668.7000      8.0210      2.5034      0.0412      8.8831    102.6044     22.6624
  1668.8000      8.0126      2.4933      0.0571      9.4990     99.0997     22.3665
  1668.9000      8.0126      2.4936      0.0352      9.4764     95.9968     23.8719
  1669.0000      8.0148      2.4946      0.0265      9.4193     99.3438     25.3014
  1669.1000      8.0148      2.4838      0.0375     10.0744    109.1026     25.2549
  1669.2000      8.0148      2.4655     -0.0015     11.1808    116.8509     24.5536
  1669.3000      8.0244      2.4516      0.0206     12.0258    114.3696     23.8659
  1669.4000      8.0244      2.4477     -0.0273     12.2591    105.2103     23.5552
  1669.5000      8.0366      2.4551      0.0049     11.8143    100.6770     24.3440
  1669.6000      8.0366      2.4681      0.0130     11.0238    104.2195     25.6195
  1669.7000      8.0366      2.4729      0.0420     10.7336    109.3523     26.0248
  1669.8000      8.0489      2.4572      0.0463     11.6874    111.1894     25.8680
  1669.9000      8.0489      2.4356     -0.0535     12.9955    110.7680     25.9574
  1670.0000      8.0336      2.4389     -0.0470     12.7956    110.5000     25.5584
  1670.1000      8.0336      2.4685      0.0214     11.0024    108.7529     24.1822
  1670.2000      8.0336      2.4939      0.0459      9.4623    104.5787     23.4139
  1670.3000      8.0236      2.4952      0.0465      9.3842    100.9991     23.9450
  1670.4000      8.0236      2.4842      0.0239     10.0515     98.2977     24.1146
  1670.5000      8.0231      2.4769      0.0388     10.4930     95.1852     23.6375
  1670.6000      8.0231      2.4747      0.0059     10.6272     96.4000     23.8775
  1670.7000      8.0231      2.4827     -0.0148     10.1397    102.2455     25.0933
  1670.8000      8.0219      2.4981      0.0952      9.2054    104.5038     26.5988
  1670.9000      8.0219      2.5014      0.0341      9.0055    101.4450     27.4310
  1671.0000      8.0335      2.4910      0.0266      9.6360     97.6383     26.8069
  1671.1000      8.0335      2.4799      0.0057     10.3098     94.3015     25.3650
  1671.2000      8.0335      2.4751      0.0090     10.6008     94.5293     24.2529
  1671.3000      8.0403      2.4787     -0.0244     10.3797    101.3953     23.7810
  1671.4000      8.0403      2.4895      0.0600      9.7256    110.2225     23.7442
  1671.5000      8.0446      2.5003      0.0486      9.0705    115.6008     24.1946
