~Version Information
VERS.                      2.0: CWLS Log ASCII Standard - VERSION 2.0
WRAP.                       NO: One line per depth step
~Well Information Block
STRT.FT               823.7000: 
STOP.FT              2444.0000: 
STEP.FT                 0.1000: 
NULL.                -999.2500: 
COMP.          Petrogulf Corporation: COMPANY
WELL.            Kraft 17-23 V: WELL
FLD.           Purgatorie River: FIELD
LOC.           1500' FSL & 1773' FWL: LOCATION
CNTY.               Las Animas: COUNTY
SRVC.                         : SERVICE COMPANY
DATE.          Thu Nov 20 07:09:00 2003: LOG DATE
UWI.                          : UNIQUE WELL ID
STAT.                 Colorado: STATE
~Curve Information Block
DEPT.FT            0 000 00 00: Depth
DCAL.in                       : CDL Caliper
RHOB.g/cc                     : CDL Bulk Density
RHOC.g/cc                     : CDL Density Correction
DPOR.pu                       : CDL Density Porosity
GR.GAPI                       : Gamma Ray
NPOR.pu                       : Neutron Porosity
~Parameter Information Block
~A  Depth       DCAL        RHOB        RHOC        DPOR         GR         NPOR    
# ...
  1370.9000      8.3103      2.5474      0.3713      6.2210    129.5651     28.7911
  1371.0000      8.3735      2.5829      0.3852      4.0650    129.4595     27.9449
  1371.1000      8.3735      2.6006      0.3586      2.9968    122.5261     26.7345
  1371.2000      8.3735      2.5984      0.3894      3.1247    117.1175     25.8728
  1371.3000      8.4275      2.5782      0.2057      4.3518    114.5310     26.0333
  1371.4000      8.4275      2.5590      0.1724      5.5164    111.5166     26.9202
  1371.5000      8.4486      2.5547      0.1410      5.7778    109.3007     27.5051
  1371.6000      8.4486      2.5523      0.1731      5.9183    109.1950     27.5657
  1371.7000      8.4486      2.5406      0.0670      6.6275    110.0724     27.8313
  1371.8000      8.3733      2.5280      0.0176      7.3936    109.5673     28.5608
  1371.9000      8.3733      2.5173      0.0746      8.0404    103.5065     29.1028
  1372.0000      8.2918      2.5072      0.0023      8.6574     94.6666     29.0225
  1372.1000      8.2918      2.5010      0.0426      9.0281     95.0999     28.4809
  1372.2000      8.2918      2.4927      0.0201      9.5304    110.3722     27.4975
  1372.3000      8.2719      2.4797      0.0141     10.3206    126.4361     26.3514
  1372.4000      8.2719      2.4634      0.0445     11.3119    131.3102     25.5205
  1372.5000      8.2698      2.4380      0.0399     12.8473    128.7578     25.1617
  1372.6000      8.2698      2.4180     -0.0369     14.0606    120.4144     25.1756
  1372.7000      8.2698      2.4435     -0.1110     12.5179    107.7651     25.3428
  1372.8000      8.2648      2.5158      0.0447      8.1349     97.2581     25.4651
  1372.9000      8.2648      2.5734      0.1252      4.6416     92.8355     25.2865
  1373.0000      8.2564      2.5839      0.0483      4.0091     93.3896     25.0080
  1373.1000      8.2564      2.5922      0.0583      3.5025     90.7140     25.0592
  1373.2000      8.2564      2.6393      0.1415      0.6504     80.6758     25.3138
  1373.3000      8.1895      2.7058      0.1743     -3.3821     70.5773     25.7134
  1373.4000      8.1895      2.7512      0.2349     -6.1310     67.5061     26.2549
  1373.5000      8.0771      2.7575      0.1656     -6.5122     73.2065     26.5026
  1373.6000      8.0771      2.7358      0.1298     -5.2006     82.4872     26.4023
  1373.7000      8.0771      2.7027      0.0640     -3.1916     87.4083     26.3464
  1373.8000      8.0641      2.6669      0.0167     -1.0246     87.3671     26.4103
  1373.9000      8.0641      2.6292      0.0568      1.2630     89.3673     26.6712
  1374.0000      8.1053      2.5783      0.0342      4.3474     98.4276     27.1132
  1374.1000      8.1053      2.5139     -0.0316      8.2509    112.1121     27.2818
  1374.2000      8.1053      2.4652     -0.0576     11.2020    123.6704     27.2630
  1374.3000      8.1521      2.4535      0.0050     11.9116    130.5033     27.2553
  1374.4000      8.1521      2.4608      0.0783     11.4665    132.5139     27.2039
  1374.5000      8.2047      2.4700      0.0129     10.9100    127.6803     27.2547
  1374.6000      8.2047      2.4902      0.0583      9.6875    120.2850     27.4543
  1374.7000      8.2047      2.5176      0.0844      8.0255    115.4244     27.8048
  1374.8000      8.2346      2.5291      0.1174      7.3256    114.1456     28.0317
  1374.9000      8.2346      2.5225     -0.0047      7.7264    117.5971     27.9420
  1375.0000      8.2509      2.5098      0.0780      8.4963    122.6501     27.6668
  1375.1000      8.2509      2.4894      0.0314      9.7324    123.7455     27.0474
  1375.2000      8.2509      2.4684      0.0098     11.0042    120.6387     26.0599
  1375.3000      8.2433      2.4648      0.0044     11.2236    119.7136     25.3723
  1375.4000      8.2433      2.4845      0.0311     10.0330    123.7636     25.3898
  1375.5000      8.2181      2.5130      0.0934      8.3050    124.4104     25.5466
  1375.6000      8.2181      2.5254      0.1019      7.5486    116.6635     25.3277
  1375.7000      8.2181      2.5055      0.1148      8.7567    106.0093     25.0188
  1375.8000      8.1947      2.4632      0.0636     11.3216     98.4458     25.1890
  1375.9000      8.1947      2.4419     -0.0439     12.6120     93.1203     25.6919
  1376.0000      8.1592      2.4730     -0.0044     10.7265     87.7800     25.9038
  1376.1000      8.1592      2.5294      0.1195      7.3084     82.5495     25.8693
  1376.2000      8.1592      2.5674      0.1505      5.0088     78.2877     25.8295
  1376.3000      8.1681      2.5884      0.1251      3.7324     78.2261     25.6880
  1376.4000      8.1681      2.6180      0.1129      1.9370     79.2932     25.7139
  1376.5000      8.1884      2.6482      0.1694      0.1076     77.2634     26.2373
  1376.6000      8.1884      2.6491      0.1050      0.0529     73.8736     26.7542
  1376.7000      8.1884      2.6204      0.0990      1.7951     69.1984     26.5799
  1376.8000      8.1647      2.5889      0.0041      3.7038     64.6706     26.0047
  1376.9000      8.1647      2.5729      0.0280      4.6709     65.5873     25.6511
  1377.0000      8.1484      2.5666      0.0241      5.0560     72.2898     25.2625
  1377.1000      8.1484      2.5596      0.0460      5.4768     80.3521     24.5071
  1377.2000      8.1484      2.5458      0.0351      6.3152     87.8976     23.8245
  1377.3000      8.1684      2.5235     -0.0340      7.6680     94.2510     23.6171
  1377.4000      8.1684      2.5047     -0.0016      8.8089     96.3689     23.5368
  1377.5000      8.2103      2.5002     -0.0287      9.0762     94.8650     22.8968
  1377.6000      8.2103      2.5105     -0.0391      8.4524     92.5562     21.8018
  1377.7000      8.2103      2.5308      0.0321      7.2268     89.2611     20.9205
  1377.8000      8.2580      2.5546      0.0321      5.7793     84.0042     20.5132
  1377.9000      8.2580      2.5842      0.0642      3.9857     78.8129     20.5865
  1378.0000      8.3039      2.6166      0.0783      2.0217     77.6136     20.8579
  1378.1000      8.3039      2.6341      0.0909      0.9663     79.1077     20.9574
  1378.2000      8.3039      2.6233      0.0849      1.6171     78.6475     20.9686
  1378.3000      8.3038      2.6005      0.0026      2.9992     75.8113     21.1807
  1378.4000      8.3038      2.5944      0.0858      3.3692     72.7904     21.6437
  1378.5000      8.2164      2.6008      0.0563      2.9831     71.9280     21.9255
  1378.6000      8.2164      2.5980      0.0824      3.1506     73.3914     21.7771
  1378.7000      8.2164      2.5870      0.0350      3.8179     73.7856     21.6041
  1378.8000      8.1412      2.5853      0.0620      3.9203     73.1037     21.6660
  1378.9000      8.1412      2.5975      0.0704      3.1804     72.7577     21.8016
  1379.0000      8.1454      2.6126      0.0611      2.2689     71.4772     21.6171
  1379.1000      8.1454      2.6136      0.0799      2.2080     71.6507     21.0178
  1379.2000      8.1454      2.5974     -0.0452      3.1907     75.9253     20.5442
  1379.3000      8.1656      2.5835     -0.0058      4.0298     78.2618     20.7792
  1379.4000      8.1656      2.5861      0.0029      3.8724     74.0172     21.9118
  1379.5000      8.1456      2.5962      0.0552      3.2594     66.8433     23.6065
  1379.6000      8.1456      2.6020     -0.0043      2.9083     58.9997     25.3117
  1379.7000      8.1456      2.5959      0.0518      3.2775     51.3791     26.6176
  1379.8000      8.1262      2.5787     -0.0787      4.3186     49.0216     27.2718
  1379.9000      8.1262      2.5748      0.0010      4.5586     54.1994     27.3746
  1380.0000      8.1386      2.5916      0.0171      3.5384     63.4580     27.3594
  1380.1000      8.1386      2.6144      0.0092      2.1563     72.5410     27.7628
  1380.2000      8.1386      2.6372      0.0119      0.7783     81.4617     28.7786
  1380.3000      8.1448      2.6564      0.0720     -0.3874     92.8349     29.7781
  1380.4000      8.1448      2.6609      0.0813     -0.6605    102.7706     30.2037
