~Version Information
 VERS.                                  2.0 : CWLS LAS VERSION
 WRAP.                                   NO : WRAPING MODE
 SWARE .                 MController 2.5.0H : SOFTWARE VERSION
~Well Information
 WELL.                Scott Canyon 11-18 TR : WELL
 COMP.    Pioneer Natural Resources USA Inc : COMPANY
 FLD.                      Purgatoire River : FIELD
 LOC.                NW/NW Sec 18 T32S R65W : LOCATION
 DATE.                              2/16/05 : DATE(S) LOGGED
 SRVC.       Blanco Geological Services LLC : SERVICE COMPANY
 STAT.                                   CO : STATE
 CNTY.                           Las Animas : COUNTY
 CTRY.                                  USA : COUNTRY
 API.                       05-071-08286-00 : API NUMBER
 STRT.FT                             569.00 : START DEPTH
 STOP.FT                            1700.00 : STOP DEPTH
 STEP.FT                               1.00 : DEPTH INCREMENT
 NULL.                                -9999 : NULL VALUE
~Curve information
 DEPTH.FT                                   :
 ROP.MIN/FT                                 :
 GAS.UNITS                                  :
~ASCII Log data
# ...
     1569.00        0.267         59.7 
     1570.00        0.300         58.5 
     1571.00        0.267         56.8 
     1572.00        0.300         55.2 
     1573.00        0.267         53.0 
     1574.00        0.267         51.4 
     1575.00        0.200         49.5 
     1576.00        0.217         48.2 
     1577.00        0.233         47.6 
     1578.00        0.233         48.1 
     1579.00        0.233         48.0 
     1580.00        0.233         46.6 
     1581.00        0.233         44.7 
     1582.00        0.233         42.7 
     1583.00        0.200         41.0 
     1584.00        0.233         38.8 
     1585.00        0.233         37.3 
     1586.00        2.250         42.4 
     1587.00        0.300         52.6 
     1588.00        0.367         64.5 
     1589.00        0.333         71.8 
     1590.00        0.300         76.1 
     1591.00        0.233         78.0 
     1592.00        0.233         78.5 
     1593.00        0.267         78.4 
     1594.00        0.217         77.1 
     1595.00        0.233         74.8 
     1596.00        0.200         71.6 
     1597.00        0.133         69.0 
     1598.00        0.133         67.5 
     1599.00        0.167         66.3 
     1600.00        0.200         64.3 
     1601.00        0.200         62.0 
     1602.00        0.233         59.5 
     1603.00        0.233         57.1 
     1604.00        0.233         54.9 
     1605.00        0.233         52.7 
     1606.00        0.233         50.0 
     1607.00        0.233         47.7 
     1608.00        0.233         47.2 
     1609.00        0.200         46.9 
     1610.00        0.217         45.6 
     1611.00        0.200         43.7 
     1612.00        0.200         42.1 
     1613.00        0.200         40.7 
     1614.00        0.167         39.0 
     1615.00        0.233         37.7 
     1616.00        2.783         47.9 
     1617.00        0.300         54.7 
     1618.00        0.300         60.2 
     1619.00        0.267         64.6 
     1620.00        0.233         67.8 
     1621.00        0.233         69.2 
     1622.00        0.233         69.5 
     1623.00        0.267         69.2 
     1624.00        0.200         67.7 
     1625.00        0.233         66.4 
     1626.00        0.267         65.2 
     1627.00        0.233         63.7 
     1628.00        0.250         62.2 
     1629.00        0.267         60.2 
     1630.00        0.233         58.0 
     1631.00        0.233         56.0 
     1632.00        0.200         54.2 
     1633.00        0.233         52.4 
     1634.00        0.233         50.2 
     1635.00        0.200         47.9 
     1636.00        0.200         46.4 
     1637.00        0.233         46.0 
     1638.00        0.200         46.3 
     1639.00        0.200         46.2 
     1640.00        0.200         45.0 
     1641.00        0.233         42.8 
     1642.00        0.200         40.8 
     1643.00        0.317         38.0 
     1644.00        0.233         34.9 
     1645.00        0.200         33.3 
     1646.00        2.533         54.0 
     1647.00        0.317         62.2 
     1648.00        0.267         67.3 
     1649.00        0.367         71.8 
     1650.00        0.267         72.7 
     1651.00        0.333         72.5 
     1652.00        0.233         70.2 
     1653.00        0.267         67.7 
     1654.00        0.233         64.9 
     1655.00        0.233         63.6 
     1656.00        0.200         62.6 
     1657.00        0.167         61.6 
     1658.00        0.233         60.6 
     1659.00        0.233         58.8 
     1660.00        0.250         57.1 
     1661.00        0.233         55.0 
     1662.00        0.233         53.2 
     1663.00        0.200         51.7 
     1664.00        0.200         50.8 
     1665.00        0.200         49.5 
     1666.00        0.167         48.3 
     1667.00        0.200         48.1 
     1668.00        0.200         47.4 
     1669.00        0.200         45.5 
     1670.00        0.267         43.1 
     1671.00        0.233         40.7 
     1672.00        0.233         38.6 
     1673.00        0.200         36.1 
     1674.00        0.200         34.2 
     1675.00        0.133         32.8 
     1676.00        2.817         53.0 
     1677.00        0.300         59.9 
     1678.00        0.233         63.5 
     1679.00        0.283         68.1 
     1680.00        0.233         69.9 
     1681.00        0.267         70.1 
     1682.00        0.300         69.8 
     1683.00        0.200         68.2 
     1684.00        0.267         66.2 
     1685.00        0.267         63.5 
     1686.00        0.267         60.9 
     1687.00        0.267         58.4 
     1688.00        0.267         55.9 
     1689.00        0.300         53.4 
     1690.00        0.233         50.9 
     1691.00        0.267         49.1 
     1692.00        0.250         47.2 
     1693.00        0.267         45.5 
     1694.00        0.267         46.6 
     1695.00        0.267         47.3 
     1696.00        0.233         47.0 
     1697.00        0.233         45.5 
     1698.00        0.267         43.1 
     1699.00        0.233         41.3 
     1700.00        0.267         39.1 
