~Version Information
VERS.                      2.0: CWLS Log ASCII Standard - VERSION 2.0
WRAP.                       NO: One line per depth step
~Well Information Block
STRT.FT               698.9000: 
STOP.FT              2459.5000: 
STEP.FT                 0.1000: 
NULL.                -999.2500: 
COMP.          Petrogulf Corporation: COMPANY
WELL.             State 16-23V: WELL
FLD.           Purgatorie River: FIELD
LOC.           2414' FSL & 2215' FWL: LOCATION
PROV.                 Colorado: PROVINCE
CNTY.               Las Animas: COUNTRY
SRVC.                         : SERVICE COMPANY
DATE.          Mon Jun 09 12:47:39 2003: LOG DATE
UWI.           05 071 07865 00: UNIQUE WELL ID
~Curve Information Block
DEPT.FT            0 000 00 00: Depth
SP.mV                         : DIL Spontaneous Potential
RILD.Ohm-m                    : DIL Deep Resistivity
RILM.Ohm-m                    : DIL Medium Resistivity
RLL3.Ohm-m                    : DIL Shallow Resistivity
GR.GAPI                       : Gamma Ray
~Parameter Information Block
~A  Depth        SP         RILD        RILM        RLL3         GR     
# ...
  2199.7000     25.1339     10.1383      9.9230     13.2884     85.8444
  2199.8000     25.0563     10.1481      9.8234     13.4041     85.8521
  2199.9000     25.0563     10.1481      9.8234     13.4041     85.8587
  2200.0000     24.9654     10.1656      9.7085     13.3856     85.8818
  2200.1000     24.9654     10.1656      9.7085     13.3856     85.9473
  2200.2000     24.9654     10.1656      9.7085     13.3856     86.0811
  2200.3000     24.8499     10.1821      9.5972     13.2512     86.3018
  2200.4000     24.8499     10.1821      9.5972     13.2512     86.6229
  2200.5000     24.7165     10.1932      9.4956     13.0500     87.0502
  2200.6000     24.7165     10.1932      9.4956     13.0500     87.5851
  2200.7000     24.7165     10.1932      9.4956     13.0500     88.2260
  2200.8000     24.5676     10.1962      9.3993     12.7979     88.9705
  2200.9000     24.5676     10.1962      9.3993     12.7979     89.8122
  2201.0000     24.4007     10.1882      9.3010     12.4618     90.7407
  2201.1000     24.4007     10.1882      9.3010     12.4618     91.7384
  2201.2000     24.4007     10.1882      9.3010     12.4618     92.7778
  2201.3000     24.2165     10.1718      9.2015     12.0331     93.8244
  2201.4000     24.2165     10.1718      9.2015     12.0331     94.8398
  2201.5000     24.0113     10.1620      9.1122     11.5708     95.7831
  2201.6000     24.0113     10.1620      9.1122     11.5708     96.6175
  2201.7000     24.0113     10.1620      9.1122     11.5708     97.3145
  2201.8000     23.7707     10.1822      9.0490     11.1621     97.8559
  2201.9000     23.7707     10.1822      9.0490     11.1621     98.2331
  2202.0000     23.4864     10.2499      9.0262     10.8663     98.4503
  2202.1000     23.4864     10.2499      9.0262     10.8663     98.5190
  2202.2000     23.4864     10.2499      9.0262     10.8663     98.4572
  2202.3000     23.1703     10.3657      9.0563     10.7064     98.2890
  2202.4000     23.1703     10.3657      9.0563     10.7064     98.0381
  2202.5000     22.8470     10.5122      9.1517     10.7024     97.7254
  2202.6000     22.8470     10.5122      9.1517     10.7024     97.3686
  2202.7000     22.8470     10.5122      9.1517     10.7024     96.9792
  2202.8000     22.5359     10.6664      9.3255     10.8673     96.5635
  2202.9000     22.5359     10.6664      9.3255     10.8673     96.1268
  2203.0000     22.2392     10.8198      9.5881     11.1806     95.6794
  2203.1000     22.2392     10.8198      9.5881     11.1806     95.2356
  2203.2000     22.2392     10.8198      9.5881     11.1806     94.8174
  2203.3000     21.9470     10.9890      9.9435     11.6834     94.4561
  2203.4000     21.9470     10.9890      9.9435     11.6834     94.1852
  2203.5000     21.6609     11.2018     10.3857     12.5402     94.0314
  2203.6000     21.6609     11.2018     10.3857     12.5402     94.0109
  2203.7000     21.6609     11.2018     10.3857     12.5402     94.1212
  2203.8000     21.3999     11.4736     10.8969     13.8574     94.3385
  2203.9000     21.3999     11.4736     10.8969     13.8574     94.6201
  2204.0000     21.1713     11.8008     11.4488     15.5461     94.9066
  2204.1000     21.1713     11.8008     11.4488     15.5461     95.1368
  2204.2000     21.1713     11.8008     11.4488     15.5461     95.2533
  2204.3000     20.9584     12.1733     12.0105     17.4009     95.2171
  2204.4000     20.9584     12.1733     12.0105     17.4009     95.0097
  2204.5000     20.7422     12.5896     12.5650     19.1653     94.6363
  2204.6000     20.7422     12.5896     12.5650     19.1653     94.1258
  2204.7000     20.7422     12.5896     12.5650     19.1653     93.5237
  2204.8000     20.5161     13.0644     13.1209     20.5251     92.8863
  2204.9000     20.5161     13.0644     13.1209     20.5251     92.2717
  2205.0000     20.2851     13.6260     13.7075     21.2020     91.7383
  2205.1000     20.2851     13.6260     13.7075     21.2020     91.3372
  2205.2000     20.2851     13.6260     13.7075     21.2020     91.1094
  2205.3000     20.0650     14.3002     14.3558     21.1941     91.0811
  2205.4000     20.0650     14.3002     14.3558     21.1941     91.2620
  2205.5000     19.8717     15.0882     15.0890     20.9081     91.6417
  2205.6000     19.8717     15.0882     15.0890     20.9081     92.1897
  2205.7000     19.8717     15.0882     15.0890     20.9081     92.8529
  2205.8000     19.7084     15.9574     15.9357     20.9757     93.5622
  2205.9000     19.7084     15.9574     15.9357     20.9757     94.2376
  2206.0000     19.5725     16.8495     16.9528     22.0273     94.7960
  2206.1000     19.5725     16.8495     16.9528     22.0273     95.1560
  2206.2000     19.5725     16.8495     16.9528     22.0273     95.2455
  2206.3000     19.4712     17.7010     18.2309     24.8137     95.0001
  2206.4000     19.4712     17.7010     18.2309     24.8137     94.3656
  2206.5000     19.4204     18.4638     19.8683     30.6446     93.2965
  2206.6000     19.4204     18.4638     19.8683     30.6446     91.7575
  2206.7000     19.4204     18.4638     19.8683     30.6446     89.7264
  2206.8000     19.4327     19.1039     21.9151     41.7711     87.1989
  2206.9000     19.4327     19.1039     21.9151     41.7711     84.1961
  2207.0000     19.5068     19.5805     24.2933     61.2413     80.7670
  2207.1000     19.5068     19.5805     24.2933     61.2413     76.9927
  2207.2000     19.5068     19.5805     24.2933     61.2413     72.9804
  2207.3000     19.6285     19.8439     26.7055     91.5869     68.8582
  2207.4000     19.6285     19.8439     26.7055     91.5869     64.7621
  2207.5000     19.7967     19.8713     28.6017    131.7972     60.8236
  2207.6000     19.7967     19.8713     28.6017    131.7972     57.1646
  2207.7000     19.7967     19.8713     28.6017    131.7972     53.8837
  2207.8000     20.0309     19.7067     29.3480    173.7802     51.0593
  2207.9000     20.0309     19.7067     29.3480    173.7802     48.7490
  2208.0000     20.3427     19.4533     28.6318    202.5008     46.9943
  2208.1000     20.3427     19.4533     28.6318    202.5008     45.8231
  2208.2000     20.3427     19.4533     28.6318    202.5008     45.2559
  2208.3000     20.7262     19.2059     26.7470    203.4296     45.3044
  2208.4000     20.7262     19.2059     26.7470    203.4296     45.9700
  2208.5000     21.1711     18.9813     24.3620    173.5575     47.2436
  2208.6000     21.1711     18.9813     24.3620    173.5575     49.1001
  2208.7000     21.1711     18.9813     24.3620    173.5575     51.4959
  2208.8000     21.6589     18.7150     22.0457    125.2795     54.3668
  2208.9000     21.6589     18.7150     22.0457    125.2795     57.6257
  2209.0000     22.1564     18.3256     20.0631     77.7691     61.1654
  2209.1000     22.1564     18.3256     20.0631     77.7691     64.8596
  2209.2000     22.1564     18.3256     20.0631     77.7691     68.5712
  2209.3000     22.6321     17.7795     18.4549     44.0954     72.1600
  2209.4000     22.6321     17.7795     18.4549     44.0954     75.4937
  2209.5000     23.0724     17.0982     17.1664     26.1283     78.4591
  2209.6000     23.0724     17.0982     17.1664     26.1283     80.9765
  2209.7000     23.0724     17.0982     17.1664     26.1283     83.0078
  2209.8000     23.4748     16.3282     16.1160     18.9299     84.5594
  2209.9000     23.4748     16.3282     16.1160     18.9299     85.6791
  2210.0000     23.8348     15.5221     15.2206     17.0207     86.4464
  2210.1000     23.8348     15.5221     15.2206     17.0207     86.9581
  2210.2000     23.8348     15.5221     15.2206     17.0207     87.3125
  2210.3000     24.1456     14.7399     14.4174     17.0558     87.5920
  2210.4000     24.1456     14.7399     14.4174     17.0558     87.8558
  2210.5000     24.4058     14.0426     13.6808     17.5650     88.1330
  2210.6000     24.4058     14.0426     13.6808     17.5650     88.4281
  2210.7000     24.4058     14.0426     13.6808     17.5650     88.7270
  2210.8000     24.6261     13.4734     13.0179     18.0251     89.0087
