~Version Information
VERS.                      2.0: CWLS Log ASCII Standard - VERSION 2.0
WRAP.                       NO: One line per depth step
~Well Information Block
STRT.FT                 3.5000: 
STOP.FT              1971.5000: 
STEP.FT                 0.2500: 
NULL.                -999.2500: 
COMP.          Evergreen Operating Corporation: COMPANY
WELL.          McCullough 34-32 Tr: WELL
FLD.           Purgatorie River: FIELD
LOC.           394' FSL & 2077' FEL: LOCATION
PROV.                 Colorado: PROVINCE
CNTY.               Las Animas: COUNTRY
SRVC.                         : SERVICE COMPANY
DATE.          Fri Sep 24 11:00:22 2004: LOG DATE
UWI.           05 071 08157 00: UNIQUE WELL ID
~Curve Information Block
DEPT.FT            0 000 00 00: Depth
GR.GAPI                       : Gamma Ray
CCL.                          : Casing Collar Locator
TT3.usec                      : CBL 3' Travel Time
AMP3.mV                       : CBL 3' Amplitude
~Parameter Information Block
~A  Depth        GR         CCL         TT3         AMP3    
# ...
  1444.0000     89.0206      0.0000    562.9422      6.4004
  1444.2500     88.1561      0.0000    577.7946      6.4087
  1444.5000     91.2705      0.0000    583.8436      6.4379
  1444.7500     97.1531      0.0000    585.5682      6.4921
  1445.0000    103.4656      0.0000    589.5167      6.5574
  1445.2500    108.7242      0.0000    600.2224      6.6070
  1445.5000    113.1177      0.0000    619.5721      6.6154
  1445.7500    117.5694      0.0000    647.0518      6.5682
  1446.0000    122.4552      0.0000    678.4266      6.4697
  1446.2500    127.3113      0.0000    705.6982      6.3493
  1446.5000    131.3223      0.0000    721.0721      6.2530
  1446.7500    133.8212      0.0000    722.2220      6.2124
  1447.0000    134.7098      0.0000    713.6995      6.2222
  1447.2500    134.7508      0.0000    703.3569      6.2498
  1447.5000    135.1922      0.0000    697.2382      6.2638
  1447.7500    136.6785      0.0000    696.7769      6.2541
  1448.0000    138.6470      0.0000    699.2607      6.2295
  1448.2500    140.0133      0.0000    700.5726      6.2047
  1448.5000    140.1985      0.0000    698.4509      6.1907
  1448.7500    139.3833      0.0000    693.8938      6.1903
  1449.0000    138.1931      0.0000    689.7744      6.1959
  1449.2500    137.3195      0.0000    688.7603      6.1930
  1449.5000    137.0014      0.0000    692.6439      6.1728
  1449.7500    136.5338      0.0000    702.3517      6.1432
  1450.0000    134.5825      0.0000    717.1536      6.1146
  1450.2500    130.4212      0.0000    733.9469      6.0778
  1450.5000    124.7415      0.0000    748.2183      6.0121
  1450.7500    119.1029      0.0000    755.8753      5.9236
  1451.0000    114.9310      0.0000    753.4525      5.8525
  1451.2500    113.0438      0.0000    737.0243      5.8352
  1451.5000    113.3644      0.0000    703.3773      5.8762
  1451.7500    114.6290      0.0000    654.5522      5.9622
  1452.0000    114.9985      0.0000    600.4496      6.0792
  1452.2500    113.5398      0.0000    554.0954      6.2102
  1452.5000    110.8940      0.0000    523.2596      6.3342
  1452.7500    108.3219      0.0000    507.3375      6.4443
  1453.0000    106.4145      0.0000    501.3898      6.5577
  1453.2500    104.7960      0.0000    501.2554      6.6903
  1453.5000    102.6764      0.0000    505.1348      6.8206
  1453.7500     99.4710      0.0000    512.6429      6.8983
  1454.0000     94.9886      0.0000    524.1425      6.9046
  1454.2500     89.2957      0.0000    541.1580      6.8865
  1454.5000     82.7074      0.0000    565.8668      6.9153
  1454.7500     75.9412      0.0000    598.2416      7.0211
  1455.0000     69.9479      0.0000    633.6195      7.1787
  1455.2500     65.4356      0.0000    665.0065      7.3426
  1455.5000     62.6083      0.0000    688.3827      7.4781
  1455.7500     61.2272      0.0000    704.6044      7.5738
  1456.0000     60.7422      0.0000    716.3725      7.6497
  1456.2500     60.5976      0.0000    725.0013      7.7536
  1456.5000     60.6951      0.0000    730.0176      7.9168
  1456.7500     61.4210      0.0000    730.3537      8.0940
  1457.0000     63.0928      0.0000    725.4399      8.1708
  1457.2500     65.5061      0.0000    715.1675      8.0567
  1457.5000     67.9782      0.0000    698.6249      7.7632
  1457.7500     69.6760      0.0000    673.7807      7.3926
  1458.0000     69.9861      0.0000    640.3103      7.0718
  1458.2500     68.8065      0.0000    602.9124      6.8928
  1458.5000     66.6714      0.0000    569.9647      6.8835
  1458.7500     64.6040      0.0000    548.2231      7.0128
  1459.0000     63.5282      0.0000    539.9034      7.2174
  1459.2500     63.4742      0.0000    544.5720      7.4224
  1459.5000     63.4290      0.0000    561.4481      7.5567
  1459.7500     62.3377      0.0000    588.5537      7.5828
  1460.0000     60.3415      0.0000    621.1436      7.5184
  1460.2500     58.7589      0.0000    653.2671      7.4114
  1460.5000     58.6970      0.0000    681.0406      7.2959
  1460.7500     59.8782      0.0000    703.3785      7.1874
  1461.0000     61.0861      0.0000    720.3026      7.1001
  1461.2500     61.8069      0.0000    732.3646      7.0406
  1461.5000     63.3524      0.0000    741.2892      6.9881
  1461.7500     68.0989      0.0000    749.1028      6.8930
  1462.0000     77.2353      0.0000    756.3284      6.6986
  1462.2500     89.0552      0.0000    762.0519      6.3765
  1462.5000     99.6625      0.0000    765.5754      5.9499
  1462.7500    105.6748      0.0000    767.2213      5.4766
  1463.0000    106.4312      0.0000    767.8046      5.0058
  1463.2500    103.7517      0.0000    767.9615      4.5586
  1463.5000     99.9765      0.0000    767.9941      4.1488
  1463.7500     96.5149      0.0000    767.9938      3.8031
  1464.0000     93.8845      0.0000    767.9597      3.5484
  1464.2500     92.3643      0.0000    767.7894      3.3850
  1464.5000     92.3094      0.0000    767.1511      3.2864
  1464.7500     94.0717      0.0000    765.2990      3.2252
  1465.0000     97.7625      0.0000    761.1725      3.1961
  1465.2500    103.0445      0.0000    754.1085      3.2138
  1465.5000    109.3238      0.0000    744.7766      3.2957
  1465.7500    116.2858      0.0000    735.0570      3.4522
  1466.0000    124.0291      0.0000    726.4595      3.6990
  1466.2500    132.6301      0.0000    718.7729      4.0593
  1466.5000    141.8518      0.0000    710.7141      4.5304
  1466.7500    151.1697      0.0000    701.8307      5.0452
  1467.0000    159.7577      0.0000    693.3073      5.4945
  1467.2500    166.4749      0.0000    686.8992      5.8045
  1467.5000    169.9809      0.0000    683.6632      5.9875
  1467.7500    169.0632      0.0000    684.0800      6.1157
  1468.0000    163.4812      0.0000    688.7965      6.2485
  1468.2500    154.7674      0.0000    698.2214      6.3868
  1468.5000    145.4864      0.0000    710.6445      6.4862
  1468.7500    137.2561      0.0000    721.1536      6.5069
  1469.0000    129.9660      0.0000    723.8605      6.4482
  1469.2500    123.0012      0.0000    716.3571      6.3414
  1469.5000    116.5167      0.0000    702.3161      6.2248
  1469.7500    111.2783      0.0000    689.8123      6.1382
  1470.0000    107.8095      0.0000    686.6352      6.1289
  1470.2500    106.0983      0.0000    695.4042      6.2228
  1470.5000    105.9944      0.0000    711.7581      6.3756
  1470.7500    107.7755     -3.0000    727.6979      6.4835
  1471.0000    112.2914     -3.0000    737.3702      6.4649
  1471.2500    120.2248      0.0000    739.9708      6.3239
  1471.5000    130.7431      0.0000    737.7485      6.1453
  1471.7500    140.9110      0.0000    731.7839      6.0483
  1472.0000    146.9177      0.0000    719.6725      6.1235
  1472.2500    146.3161      0.0000    697.6314      6.3608
  1472.5000    139.3706      0.0000    665.4659      6.6381
  1472.7500    128.7308      0.0000    629.8997      6.8206
  1473.0000    118.0390      0.0000    601.9971      6.8751
  1473.2500    110.3081      0.0000    589.1438      6.8719
  1473.5000    106.7490      0.0000    588.3362      6.8942
  1473.7500    106.6413      0.0000    588.4838      6.9667
  1474.0000    108.2800      0.0000    580.6223      7.0518
  1474.2500    110.0962      0.0000    565.2583      7.0937
  1474.5000    111.0529      0.0000    549.5542      7.0686
  1474.7500    110.5781      0.0000    539.5129      6.9974
  1475.0000    108.7205      0.0000    535.9637      6.9174
  1475.2500    106.2443      0.0000    535.9710      6.8468
  1475.5000    103.9999      0.0000    535.9561      6.7825
  1475.7500    102.1449      0.0000    533.7975      6.7219
  1476.0000    100.3616      0.0000    529.1756      6.6777
  1476.2500     98.8011      0.0000    522.9266      6.6641
  1476.5000     98.4020      0.0000    516.9668      6.6765
  1476.7500    100.2151      0.0000    515.2544      6.6936
  1477.0000    104.6720      0.0000    523.7998      6.6983
  1477.2500    111.3831      0.0000    547.5358      6.6931
