~Version Information
VERS.                      2.0: CWLS Log ASCII Standard - VERSION 2.0
WRAP.                       NO: One line per depth step
~Well Information Block
STRT.FT               258.0000: 
STOP.FT               998.2000: 
STEP.FT                 0.1000: 
NULL.                -999.2500: 
COMP.          Pioneer Natural Resources: COMPANY
WELL.          Piggyback 33-25: WELL
FLD.           Purgatoire River: FIELD
LOC.           1600' FSL & 1800' FEL: LOCATION
PROV.                 Colorado: PROVINCE
CNTY.               Las Animas: COUNTRY
SRVC.                Patterson: SERVICE COMPANY
DATE.          Fri Apr 29 16:11:48 2005: LOG DATE
UWI.           05 071 08233 00: UNIQUE WELL ID
~Curve Information Block
DEPT.FT            0 000 00 00: Depth
DCAL.in                       : CDL Caliper
RHOB.g/cc                     : CDL Bulk Density
RHOC.g/cc                     : CDL Density Correction
DPOR.pu                       : CDL Density Porosity
GR.GAPI                       : Gamma Ray
NPOR.pu                       : Neutron Porosity
~Parameter Information Block
~A  Depth       DCAL        RHOB        RHOC        DPOR         GR         NPOR    
# ...
   843.6000      7.8351      2.5053      0.0418      8.7721     54.3797     19.8771
   843.7000      7.8351      2.5084      0.0801      8.5794     54.2676     20.4059
   843.8000      7.8416      2.5222      0.0086      7.7470     54.3650     20.2207
   843.9000      7.8416      2.5424      0.0663      6.5196     51.9052     19.6067
   844.0000      7.8396      2.5616      0.1035      5.3597     50.2764     18.9574
   844.1000      7.8396      2.5755      0.1129      4.5132     53.0233     18.8525
   844.2000      7.8396      2.5819      0.1083      4.1266     57.0834     19.4252
   844.3000      7.8280      2.5857      0.0908      3.8948     56.8055     20.1759
   844.4000      7.8280      2.5862      0.0855      3.8689     52.4790     20.5326
   844.5000      7.8324      2.5708      0.0839      4.7970     48.4028     20.2701
   844.6000      7.8324      2.5426      0.0734      6.5069     44.7461     19.6859
   844.7000      7.8324      2.5246      0.0500      7.6011     41.2208     19.1901
   844.8000      7.8369      2.5270      0.0616      7.4554     42.0857     19.2642
   844.9000      7.8369      2.5415      0.0570      6.5759     47.5233     19.6416
   845.0000      7.8415      2.5616      0.0727      5.3564     52.5589     19.2700
   845.1000      7.8415      2.5735      0.1057      4.6335     55.6202     18.4673
   845.2000      7.8415      2.5610      0.0943      5.3917     56.7191     17.8668
   845.3000      7.8474      2.5297      0.0698      7.2894     54.8233     17.0245
   845.4000      7.8474      2.5008      0.0393      9.0413     50.2957     16.3961
   845.5000      7.8430      2.4889      0.0180      9.7615     44.7535     16.7326
   845.6000      7.8430      2.4857      0.0483      9.9555     41.6616     17.3793
   845.7000      7.8430      2.4752      0.0109     10.5941     43.4287     17.5231
   845.8000      7.8392      2.4624      0.0080     11.3711     46.4895     17.0920
   845.9000      7.8392      2.4564     -0.0039     11.7314     45.8649     16.6880
   846.0000      7.8432      2.4500     -0.0153     12.1209     43.3835     16.6113
   846.1000      7.8432      2.4358     -0.0090     12.9846     44.4046     16.4954
   846.2000      7.8432      2.4235     -0.0160     13.7293     49.4683     16.4359
   846.3000      7.8464      2.4288      0.0114     13.4046     53.2709     16.8334
   846.4000      7.8464      2.4491      0.0806     12.1728     53.3619     17.4774
   846.5000      7.8487      2.4727      0.0787     10.7452     53.2798     17.6071
   846.6000      7.8487      2.4975      0.0464      9.2409     53.8315     16.9918
   846.7000      7.8487      2.5197      0.0795      7.8979     53.4058     16.4317
   846.8000      7.8494      2.5249      0.1298      7.5800     53.0165     16.6419
   846.9000      7.8494      2.5087      0.0787      8.5640     53.6440     17.1989
   847.0000      7.8453      2.4939      0.0383      9.4621     54.5295     17.1013
   847.1000      7.8453      2.4992      0.0540      9.1381     53.1691     16.3551
   847.2000      7.8453      2.5058      0.1093      8.7410     49.0335     15.9640
   847.3000      7.8373      2.4951      0.0674      9.3872     47.0714     16.6332
   847.4000      7.8373      2.4876      0.0289      9.8429     49.2940     17.9876
   847.5000      7.8330      2.5015      0.0680      8.9977     52.7123     18.7704
   847.6000      7.8330      2.5169      0.0895      8.0667     53.9737     18.8220
   847.7000      7.8330      2.5182      0.0444      7.9886     51.9628     18.9327
   847.8000      7.8341      2.5158      0.1001      8.1348     49.5125     19.0651
   847.9000      7.8341      2.5087      0.1070      8.5658     48.1936     18.8274
   848.0000      7.8257      2.4913      0.0659      9.6196     48.0257     18.6279
   848.1000      7.8257      2.4749      0.0422     10.6110     50.2493     18.7875
   848.2000      7.8257      2.4630      0.0762     11.3330     53.5080     18.3201
   848.3000      7.8304      2.4512      0.0388     12.0492     54.8625     16.9871
   848.4000      7.8304      2.4524      0.0078     11.9740     52.4241     15.9248
   848.5000      7.8372      2.4767      0.0665     10.5060     46.9807     15.6893
   848.6000      7.8372      2.5075      0.0926      8.6360     42.3069     16.2947
   848.7000      7.8372      2.5266      0.0872      7.4806     41.7738     17.3910
   848.8000      7.8419      2.5308      0.1171      7.2250     44.7065     18.2158
   848.9000      7.8419      2.5262      0.0558      7.5002     48.0284     18.7025
   849.0000      7.8429      2.5259      0.0220      7.5210     52.6813     19.1496
   849.1000      7.8429      2.5321      0.0958      7.1433     59.3238     19.3665
   849.2000      7.8429      2.5289      0.0964      7.3389     62.9622     19.5292
   849.3000      7.8358      2.5089      0.1055      8.5491     60.7164     19.7263
   849.4000      7.8358      2.4901      0.0407      9.6901     56.5509     19.4958
   849.5000      7.8329      2.4903      0.0618      9.6817     54.2761     18.9285
   849.6000      7.8329      2.4945      0.0930      9.4229     54.1126     19.0224
   849.7000      7.8329      2.4884      0.0594      9.7912     56.1133     19.9571
   849.8000      7.8300      2.4896      0.0530      9.7214     59.7858     20.6789
   849.9000      7.8300      2.5056      0.0962      8.7510     61.9727     21.2510
   850.0000      7.8135      2.5123      0.1267      8.3466     62.1253     22.2124
   850.1000      7.8135      2.4949      0.0754      9.4017     62.0575     22.6247
   850.2000      7.8135      2.4706      0.0368     10.8704     62.1497     21.9587
   850.3000      7.8092      2.4634      0.0116     11.3089     60.9692     20.7914
   850.4000      7.8092      2.4778      0.0582     10.4345     58.7397     19.8835
   850.5000      7.8214      2.4999      0.0582      9.0945     60.0204     19.5540
   850.6000      7.8214      2.5118      0.0869      8.3784     62.2181     19.1569
   850.7000      7.8214      2.5090      0.0530      8.5481     57.8108     18.5038
   850.8000      7.8292      2.5014      0.0757      9.0088     50.3413     18.0778
   850.9000      7.8292      2.5001      0.0772      9.0849     47.9895     17.8887
   851.0000      7.8211      2.5099      0.0787      8.4883     50.2470     17.7507
   851.1000      7.8211      2.5240      0.0965      7.6340     51.5718     17.7512
   851.2000      7.8211      2.5339      0.0815      7.0377     51.4101     17.7468
   851.3000      7.8250      2.5343      0.1105      7.0128     51.8382     17.4730
   851.4000      7.8250      2.5206      0.0823      7.8421     51.5249     17.1097
   851.5000      7.8236      2.5051      0.0193      8.7847     49.4106     17.2951
   851.6000      7.8236      2.5071      0.0145      8.6577     46.6586     18.1345
   851.7000      7.8236      2.5259      0.0316      7.5209     45.5626     18.8121
   851.8000      7.8340      2.5459      0.0758      6.3111     48.6664     18.5985
   851.9000      7.8340      2.5603      0.0206      5.4335     54.6232     17.7286
   852.0000      7.8479      2.5731      0.1034      4.6599     59.7834     17.0549
   852.1000      7.8479      2.5811      0.0790      4.1753     63.8236     16.9884
   852.2000      7.8479      2.5808      0.0912      4.1917     66.0399     17.3091
   852.3000      7.8440      2.5735      0.0959      4.6350     65.0187     17.7645
   852.4000      7.8440      2.5583      0.0626      5.5568     65.5538     18.3839
   852.5000      7.8501      2.5381      0.0108      6.7795     71.0849     19.0947
   852.6000      7.8501      2.5156      0.0188      8.1431     75.2585     19.2023
   852.7000      7.8501      2.4937      0.0117      9.4707     73.3352     18.4150
   852.8000      7.8559      2.4869     -0.0052      9.8865     69.4122     17.8377
   852.9000      7.8559      2.4972      0.0565      9.2631     68.2754     18.2905
   853.0000      7.8427      2.5074      0.0184      8.6438     71.7310     18.9299
   853.1000      7.8427      2.5107      0.0552      8.4403     77.1244     19.1676
