~Version Information
VERS.                      2.0: CWLS Log ASCII Standard - VERSION 2.0
WRAP.                       NO: One line per depth step
~Well Information Block
STRT.FT                 0.0000: 
STOP.FT              1390.5000: 
STEP.FT                 0.2500: 
NULL.                -999.2500: 
COMP.          Petrogulf Corporation: COMPANY
WELL.             Leier 17-42R: WELL
FLD.           Purgatorie River: FIELD
LOC.           2398' FNL & 1109' FEL: LOCATION
PROV.                 Colorado: PROVINCE
CNTY.               Las Animas: COUNTRY
SRVC.                Patterson: SERVICE COMPANY
DATE.          Thu Nov 10 14:34:29 2005: LOG DATE
UWI.                          : UNIQUE WELL ID
~Curve Information Block
DEPT.FT            0 000 00 00: Depth
CCL.                          : Casing Collar Locator
TT3.usec                      : CBL 3' Travel Time
AMP3.mV                       : CBL 3' Amplitude
GR.GAPI                       : Gamma Ray
~Parameter Information Block
~A  Depth       CCL         TT3         AMP3         GR     
# ...
  1373.5000      0.0000    509.8056      5.4513    110.5806
  1373.7500      0.0000    504.3545      5.5199    109.5535
  1374.0000      0.0000    503.1104      5.5725    103.1646
  1374.2500      0.0000    503.1388      5.7221     89.3199
  1374.5000      0.0000    503.8031      5.9925     69.0259
  1374.7500      0.0000    505.0898      6.3074     46.3072
  1375.0000      0.0000    507.5975      6.6348     26.2675
  1375.2500      0.0000    514.1677      7.0104     12.3135
  1375.5000      0.0000    529.7836      7.5017      4.6844
  1375.7500      0.0000    552.7395      8.2550      1.4268
  1376.0000      0.0000    563.2493      9.4761      0.3442
  1376.2500      0.0000    537.6394     11.2580      0.0646
  1376.5000      0.0000    480.7535     13.5194      0.0092
  1376.7500      0.0000    421.3828     16.1356      0.0000
  1377.0000      0.0000    377.2455     18.9633   -999.2500
  1377.2500      0.0000    346.5766     21.7515   -999.2500
  1377.5000      0.0000    323.8929     24.1485   -999.2500
  1377.7500      0.0000    308.4891     25.7600   -999.2500
  1378.0000      0.0000    301.1666     26.2504   -999.2500
  1378.2500      0.0000    302.2891     25.5365   -999.2500
  1378.5000      0.0000    317.4125     23.8656   -999.2500
  1378.7500      0.0000    360.0751     21.6038   -999.2500
  1379.0000      0.0000    436.8424     19.0181   -999.2500
  1379.2500      0.0000    524.1809     16.3176   -999.2500
  1379.5000      0.0000    573.1227     13.5995   -999.2500
  1379.7500      0.0000    539.5347     10.6524   -999.2500
  1380.0000      0.0000    413.3755      7.3002   -999.2500
  1380.2500      0.0000    241.7026      4.0354   -999.2500
  1380.5000      0.0000    101.7649      1.7139   -999.2500
  1380.7500      0.0000     29.5717      0.5928   -999.2500
  1381.0000      0.0000      5.7668      0.2361   -999.2500
  1381.2500      0.0000      0.7397      0.1622   -999.2500
  1381.5000      0.0000      0.0591      0.1524   -999.2500
  1381.7500      0.0000   -999.2500   -999.2500   -999.2500
  1382.0000      0.0000   -999.2500   -999.2500   -999.2500
  1382.2500      0.0000   -999.2500   -999.2500   -999.2500
  1382.5000      0.0000   -999.2500   -999.2500   -999.2500
  1382.7500      0.0000   -999.2500   -999.2500   -999.2500
  1383.0000      0.0000   -999.2500   -999.2500   -999.2500
  1383.2500      0.0000   -999.2500   -999.2500   -999.2500
  1383.5000      0.0000   -999.2500   -999.2500   -999.2500
  1383.7500      0.0000   -999.2500   -999.2500   -999.2500
  1384.0000      0.0000   -999.2500   -999.2500   -999.2500
  1384.2500      0.0000   -999.2500   -999.2500   -999.2500
  1384.5000      0.0000   -999.2500   -999.2500   -999.2500
  1384.7500      0.0000   -999.2500   -999.2500   -999.2500
  1385.0000      0.0000   -999.2500   -999.2500   -999.2500
  1385.2500      0.0000   -999.2500   -999.2500   -999.2500
  1385.5000      0.0000   -999.2500   -999.2500   -999.2500
  1385.7500      0.0000   -999.2500   -999.2500   -999.2500
  1386.0000      0.0000   -999.2500   -999.2500   -999.2500
  1386.2500      0.0000   -999.2500   -999.2500   -999.2500
  1386.5000      0.0000   -999.2500   -999.2500   -999.2500
  1386.7500      0.0000   -999.2500   -999.2500   -999.2500
  1387.0000      0.0000   -999.2500   -999.2500   -999.2500
  1387.2500      0.0000   -999.2500   -999.2500   -999.2500
  1387.5000      2.0000   -999.2500   -999.2500   -999.2500
  1387.7500      0.0000   -999.2500   -999.2500   -999.2500
  1388.0000   -999.2500   -999.2500   -999.2500   -999.2500
  1388.2500   -999.2500   -999.2500   -999.2500   -999.2500
  1388.5000   -999.2500   -999.2500   -999.2500   -999.2500
  1388.7500   -999.2500   -999.2500   -999.2500   -999.2500
  1389.0000   -999.2500   -999.2500   -999.2500   -999.2500
  1389.2500   -999.2500   -999.2500   -999.2500   -999.2500
  1389.5000   -999.2500   -999.2500   -999.2500   -999.2500
  1389.7500   -999.2500   -999.2500   -999.2500   -999.2500
  1390.0000   -999.2500   -999.2500   -999.2500   -999.2500
  1390.2500   -999.2500   -999.2500   -999.2500   -999.2500
  1390.5000   -999.2500   -999.2500   -999.2500   -999.2500
