~Version Information
VERS.                      2.0: CWLS Log ASCII Standard - VERSION 2.0
WRAP.                       NO: One line per depth step
~Well Information Block
STRT.FT                -6.5000: 
STOP.FT              2698.5000: 
STEP.FT                 0.2500: 
NULL.                -999.2500: 
COMP.          Pioneer Natural Resources: COMPANY
WELL.              Cluck 21-25: WELL
FLD.           Purgatorie River: FIELD
LOC.           91' FNL & 1834' FWL--: LOCATION
PROV.                       CO: PROVINCE
CNTY.               Las Animas: COUNTRY
SRVC.          Patterson Wireline: SERVICE COMPANY
DATE.          Mon Jun 13 14:54:35 2005: LOG DATE
UWI.           05 071 08397 00: UNIQUE WELL ID
~Curve Information Block
DEPT.FT            0 000 00 00: Depth
CCL.                          : Casing Collar Locator
TT3.usec                      : CBL 3' Travel Time
AMP3.mV                       : CBL 3' Amplitude
GR.GAPI                       : Gamma Ray
~Parameter Information Block
~A  Depth       CCL         TT3         AMP3         GR     
# ...
  1434.0000      0.0000    746.1430      3.3404    115.8152
  1434.2500      0.0000    720.6998      3.9279    122.6338
  1434.5000      0.0000    715.3646      4.4876    126.7066
  1434.7500      0.0000    725.8119      4.9429    126.1305
  1435.0000      0.0000    743.4348      5.2244    121.2147
  1435.2500      0.0000    759.6531      5.2597    114.0889
  1435.5000      0.0000    769.6962      5.0043    107.0193
  1435.7500      0.0000    773.4661      4.5071    101.3492
  1436.0000      0.0000    773.4405      3.9275     97.6206
  1436.2500      0.0000    771.9314      3.4544     95.7206
  1436.5000      0.0000    769.6826      3.1874     94.7061
  1436.7500      0.0000    766.7402      3.0931     93.3836
  1437.0000      0.0000    764.1065      3.0677     91.5165
  1437.2500      0.0000    763.4932      3.0351     90.0253
  1437.5000      2.0000    765.1769      2.9843     89.8036
  1437.7500      0.0000    767.0234      2.9339     90.7911
  1438.0000      0.0000    766.5580      2.8991     92.4078
  1438.2500      0.0000    763.4837      2.8963     94.4605
  1438.5000      0.0000    759.2288      2.9386     97.0245
  1438.7500      0.0000    754.9786      3.0012     99.3223
  1439.0000      0.0000    751.9559      3.0238     99.3465
  1439.2500      0.0000    752.8553      2.9808     95.4480
  1439.5000      0.0000    760.1084      2.9333     88.5449
  1439.7500      0.0000    772.0708      2.9770     82.3304
  1440.0000      0.0000    783.1327      3.1390     80.7873
  1440.2500      0.0000    788.6404      3.3534     85.4368
  1440.5000      0.0000    788.7557      3.5301     94.8473
  1440.7500      0.0000    787.4105      3.6253    106.0775
  1441.0000      0.0000    788.3794      3.6556    116.0834
  1441.2500      0.0000    792.4968      3.6769    122.4253
  1441.5000      0.0000    797.9952      3.7461    124.0187
  1441.7500      0.0000    802.8090      3.8797    121.9129
  1442.0000      0.0000    806.3004      4.0435    119.0308
  1442.2500      0.0000    809.2408      4.1899    118.5153
  1442.5000      0.0000    812.8049      4.2948    121.7451
  1442.7500      0.0000    817.4512      4.3502    127.5125
  1443.0000      0.0000    822.0767      4.3443    133.1173
  1443.2500      0.0000    824.2480      4.2725    136.4627
  1443.5000      0.0000    822.1793      4.1616    137.2119
  1443.7500      0.0000    817.1551      4.0594    136.1772
  1444.0000      0.0000    813.5551      3.9982    134.0909
  1444.2500      0.0000    815.2421      3.9679    131.1765
  1444.5000      0.0000    821.0446      3.9166    127.4377
  1444.7500      0.0000    824.3521      3.7884    122.7065
  1445.0000      0.0000    818.6248      3.5751    116.5824
  1445.2500      0.0000    803.6799      3.3224    109.1230
  1445.5000      0.0000    785.9550      3.0840    101.4615
  1445.7500      0.0000    773.1117      2.8940     94.8082
  1446.0000      0.0000    769.3273      2.7759     88.9863
  1446.2500      0.0000    774.6903      2.7364     83.0419
  1446.5000      0.0000    786.7946      2.7465     77.4078
  1446.7500      0.0000    802.1045      2.7587     74.4807
  1447.0000      0.0000    816.7794      2.7523     76.4859
  1447.2500      0.0000    827.3959      2.7453     83.1555
  1447.5000      0.0000    831.6805      2.7634     91.9944
  1447.7500      0.0000    829.0851      2.8054    100.4951
  1448.0000      0.0000    821.0804      2.8386    107.4118
  1448.2500      0.0000    810.7579      2.8278    112.0635
  1448.5000      0.0000    801.3097      2.7779    113.5497
  1448.7500      0.0000    794.2851      2.7399    111.4580
  1449.0000      0.0000    789.6630      2.7551    107.0363
  1449.2500      0.0000    787.7906      2.8017    102.7835
  1449.5000      0.0000    790.3362      2.8297    100.5363
  1449.7500      0.0000    798.5812      2.8426    100.1814
  1450.0000      0.0000    810.6527      2.9046    100.1948
  1450.2500      0.0000    820.2040      3.0533     99.0261
  1450.5000      0.0000    818.5502      3.2490     96.0449
  1450.7500      0.0000    800.8848      3.4299     91.8420
  1451.0000      0.0000    771.9951      3.5799     87.9222
  1451.2500      0.0000    744.2568      3.7209     85.7242
  1451.5000      0.0000    728.6408      3.8658     85.6110
  1451.7500      0.0000    727.9330      4.0058     86.8396
  1452.0000      0.0000    737.4396      4.1256     88.3654
  1452.2500      0.0000    749.8192      4.2102     89.5618
  1452.5000      0.0000    759.5494      4.2414     90.5927
  1452.7500      0.0000    765.1264      4.2030     92.3964
  1453.0000      0.0000    768.0891      4.0959     95.9268
  1453.2500      0.0000    769.9946      3.9478    101.2378
  1453.5000      0.0000    770.7676      3.8053    107.6033
  1453.7500      0.0000    769.8673      3.7081    114.2044
  1454.0000      0.0000    767.8572      3.6622    120.1755
  1454.2500      0.0000    766.2074      3.6435    124.2794
  1454.5000      0.0000    766.1334      3.6318    125.2169
  1454.7500      0.0000    768.0500      3.6366    122.4976
  1455.0000      0.0000    771.6108      3.6863    117.0771
  1455.2500      0.0000    775.8428      3.7955    111.1320
  1455.5000      0.0000    779.8306      3.9415    106.8367
  1455.7500      0.0000    783.9689      4.0671    104.8699
  1456.0000      0.0000    790.0176      4.1073    104.0475
  1456.2500      0.0000    798.7224      4.0396    102.6370
  1456.5000      0.0000    807.4392      3.9089    100.0062
  1456.7500      0.0000    811.4738      3.7821     96.8439
  1457.0000      0.0000    808.5416      3.6922     94.0477
  1457.2500      0.0000    801.1818      3.6474     91.9531
  1457.5000      0.0000    794.0002      3.6637     90.6171
  1457.7500      0.0000    788.8784      3.7425     90.0986
  1458.0000      0.0000    783.6272      3.8363     90.0863
  1458.2500      0.0000    775.2164      3.8778     89.7629
  1458.5000      0.0000    763.6705      3.8305     88.6217
  1458.7500      0.0000    752.4758      3.6949     87.1825
  1459.0000      0.0000    745.3829      3.4981     86.4955
  1459.2500      0.0000    743.3025      3.3011     87.0361
  1459.5000      0.0000    744.3973      3.1803     88.3940
  1459.7500      0.0000    746.3499      3.1710     90.1804
  1460.0000      0.0000    747.9271      3.2384     92.9823
  1460.2500      0.0000    748.9409      3.3128     97.7566
  1460.5000      0.0000    749.6715      3.3368    103.8131
  1460.7500      0.0000    750.5446      3.2961    108.0632
  1461.0000      0.0000    751.9879      3.2346    107.4566
  1461.2500      0.0000    754.1066      3.2284    102.2742
  1461.5000      0.0000    756.1640      3.3143     96.2811
  1461.7500      0.0000    756.5721      3.4571     93.4231
  1462.0000      0.0000    754.0717      3.6041     94.6313
  1462.2500      0.0000    749.1540      3.7431     97.7786
  1462.5000      0.0000    743.7646      3.8922    100.3037
  1462.7500      0.0000    739.3767      4.0594    101.5072
  1463.0000      0.0000    735.9500      4.2312    102.4030
  1463.2500      0.0000    733.0786      4.3834    103.9880
  1463.5000      0.0000    731.8267      4.5015    106.0675
  1463.7500      0.0000    735.0521      4.5897    107.3846
  1464.0000      0.0000    745.4838      4.6570    106.6060
  1464.2500      0.0000    762.7569      4.7039    103.7152
  1464.5000      0.0000    781.9412      4.7410    100.7521
  1464.7500      0.0000    795.4328      4.7873    100.6895
  1465.0000      0.0000    797.3269      4.8263    105.0521
  1465.2500      0.0000    786.9844      4.7982    112.6192
  1465.5000      0.0000    769.1888      4.6734    120.6084
  1465.7500      0.0000    751.1497      4.5118    127.1114
  1466.0000      0.0000    739.1171      4.4099    132.2690
  1466.2500      0.0000    737.0677      4.3949    137.1908
  1466.5000      0.0000    746.8503      4.3943    142.1012
  1466.7500      0.0000    767.4896      4.3248    145.8881
  1467.0000      0.0000    794.0558      4.1974    147.2290
  1467.2500      0.0000    819.1791      4.1102    145.6287
