~Version Information
 VERS.                                  2.0 : CWLS LAS VERSION
 WRAP.                                   NO : WRAPING MODE
 SWARE .                 MController 2.5.0E : SOFTWARE VERSION
~Well Information
 WELL.                       Parklane 43-34 : WELL
 COMP.             Evergreen Operating Corp : COMPANY
 FLD.                      Purgatorie River : FIELD
 LOC.                NE/SE Sec 34 T32S R66W : LOCATION
 DATE.                          10/04-06/04 : DATE(S) LOGGED
 SRVC.       Blanco Geological Services LLC : SERVICE COMPANY
 STAT.                                   CO : STATE
 CNTY.                           Las Animas : COUNTY
 CTRY.                                  USA : COUNTRY
 API.                       05-071-08162-00 : API NUMBER
 STRT.FT                             467.00 : START DEPTH
 STOP.FT                            2245.00 : STOP DEPTH
 STEP.FT                               1.00 : DEPTH INCREMENT
 NULL.                                -9999 : NULL VALUE
~Curve information
 DEPTH.FT                                   :
 ROP.MIN/FT                                 :
 GAS.UNITS                                  :
~ASCII Log data
# ...
     1867.00        0.133        896.4 
     1868.00        0.167        885.3 
     1869.00        0.200        874.2 
     1870.00        0.133        861.5 
     1871.00        0.200        856.5 
     1872.00        0.200        846.9 
     1873.00        0.200        836.1 
     1874.00        0.233        854.9 
     1875.00        0.167        868.5 
     1876.00        0.233        868.5 
     1877.00        0.233        843.8 
     1878.00        0.200        785.0 
     1879.00        0.233        733.3 
     1880.00        0.200        664.8 
     1881.00        0.250        603.5 
     1882.00        0.200        546.4 
     1883.00        0.200        556.2 
     1884.00        0.200        614.3 
     1885.00        0.200        708.9 
     1886.00        3.017       1514.1 
     1887.00        0.233       1128.8 
     1888.00        0.167       1075.8 
     1889.00        0.167       1047.2 
     1890.00        0.167       1023.1 
     1891.00        0.233       1003.1 
     1892.00        0.167        973.6 
     1893.00        0.167        945.0 
     1894.00        0.167        913.3 
     1895.00        0.200        880.3 
     1896.00        0.200        845.7 
     1897.00        0.233        816.1 
     1898.00        0.200        783.1 
     1899.00        0.200        762.8 
     1900.00        0.217        753.0 
     1901.00        0.200        739.3 
     1902.00        0.433        728.5 
     1903.00        0.567        703.5 
     1904.00        0.400        662.8 
     1905.00        0.200        704.7 
     1906.00        0.167        720.9 
     1907.00        0.167        720.6 
     1908.00        0.133        687.0 
     1909.00        0.167        635.6 
     1910.00        0.167        572.4 
     1911.00        0.133        531.1 
     1912.00        0.167        514.6 
     1913.00        0.233        531.8 
     1914.00        0.250        601.3 
     1915.00        0.233        700.6 
     1916.00        3.050       1370.9 
     1917.00        0.333       1061.5 
     1918.00        0.300        972.3 
     1919.00        0.300        896.4 
     1920.00        0.367        827.9 
     1921.00        0.233        753.6 
     1922.00        0.233        722.5 
     1923.00        0.200        703.5 
     1924.00        0.233        690.8 
     1925.00        0.233        688.9 
     1926.00        0.267        688.2 
     1927.00        0.200        686.3 
     1928.00        0.200        674.6 
     1929.00        0.250        662.8 
     1930.00        0.200        640.3 
     1931.00        0.233        609.5 
     1932.00        0.200        594.6 
     1933.00        0.233        645.4 
     1934.00        0.233        676.8 
     1935.00        0.167        693.6 
     1936.00        0.167        702.8 
     1937.00        0.167        706.6 
     1938.00        0.133        705.7 
     1939.00        0.133        694.6 
     1940.00        0.133        668.2 
     1941.00        0.167        630.8 
     1942.00        0.200        581.0 
     1943.00        0.200        541.6 
     1944.00        0.233        576.5 
     1945.00        0.267        670.5 
     1946.00        6.133       1291.3 
     1947.00        0.367        771.4 
     1948.00        0.400        729.2 
     1949.00        0.350        669.5 
     1950.00        0.200        634.6 
     1951.00        0.200        627.3 
     1952.00        0.133        616.5 
     1953.00        0.133        607.0 
     1954.00        0.133        595.2 
     1955.00        0.200        584.5 
     1956.00        0.233        566.4 
     1957.00        0.267        552.4 
     1958.00        0.200        540.0 
     1959.00        0.133        533.7 
     1960.00        0.233        526.4 
     1961.00        0.233        514.0 
     1962.00        0.267        549.9 
     1963.00        0.167        625.1 
     1964.00        0.133        726.3 
     1965.00        0.250        930.4 
     1966.00        0.133       1010.4 
     1967.00        0.200       1057.0 
     1968.00        0.233       1058.3 
     1969.00        0.200        973.9 
     1970.00        0.133        855.2 
     1971.00        0.133        793.6 
     1972.00        0.133        752.0 
     1973.00        0.167        728.5 
     1974.00        0.233        739.3 
     1975.00        0.267        816.8 
     1976.00        3.917       1905.4 
     1977.00        0.367       1173.5 
     1978.00        0.350       1093.9 
     1979.00        0.333       1038.0 
     1980.00        0.400        984.4 
     1981.00        0.367        888.5 
     1982.00        0.367        823.1 
     1983.00        0.333        787.9 
     1984.00        0.333        746.3 
     1985.00        0.333        723.2 
     1986.00        0.300        696.8 
     1987.00        0.267        696.5 
     1988.00        0.317        677.4 
     1989.00        0.300        650.8 
     1990.00        0.300        633.6 
     1991.00        0.300        619.7 
     1992.00        0.267        607.9 
     1993.00        0.267        598.1 
     1994.00        0.233        594.6 
     1995.00        0.267        624.8 
     1996.00        0.267        646.3 
     1997.00        0.233        646.0 
     1998.00        0.333        624.1 
     1999.00        0.300        542.6 
     2000.00        0.283        445.8 
     2001.00        0.300         99.6 
     2002.00        0.200        106.2 
     2003.00        0.167        131.6 
     2004.00        0.200        176.8 
     2005.00        0.400        307.5 
     2006.00        3.050       1368.1 
     2007.00        0.267        939.0 
     2008.00        0.400        902.8 
     2009.00        0.333        861.8 
     2010.00        0.300        827.3 
     2011.00        0.367        787.3 
     2012.00        0.300        735.2 
     2013.00        0.300        714.3 
     2014.00        0.183        698.4 
     2015.00        0.100        687.6 
     2016.00        0.167        680.6 
     2017.00        0.267        675.5 
     2018.00        0.333        665.1 
     2019.00        0.233        659.0 
     2020.00        0.133        655.9 
     2021.00        0.100        653.0 
     2022.00        0.133        650.8 
     2023.00        0.267        646.3 
     2024.00        0.267        635.6 
     2025.00        0.233        622.2 
     2026.00        0.267        608.9 
     2027.00        0.267        608.6 
     2028.00        0.200        618.4 
     2029.00        0.200        622.5 
     2030.00        0.250        619.0 
     2031.00        0.300        587.3 
     2032.00        0.233        521.0 
     2033.00        0.233        450.5 
     2034.00        0.400        440.0 
     2035.00        0.233         75.2 
     2036.00        5.017       1546.8 
     2037.00        0.417        796.1 
     2038.00        0.300        749.5 
     2039.00        0.333        712.4 
     2040.00        0.367        656.8 
     2041.00        0.333        602.5 
     2042.00        0.300        573.0 
     2043.00        0.367        547.3 
     2044.00        0.300        522.6 
     2045.00        0.333        506.4 
     2046.00        0.300        493.4 
     2047.00        0.350        487.3 
     2048.00        0.267        482.6 
     2049.00        0.300        481.3 
     2050.00        0.300        481.9 
     2051.00        0.300        481.3 
     2052.00        0.300        481.9 
     2053.00        0.300        482.3 
     2054.00        0.300        482.9 
     2055.00        0.333        483.8 
     2056.00        0.300        484.8 
     2057.00        0.300        499.7 
     2058.00        0.317        507.0 
     2059.00        0.333        507.3 
     2060.00        0.267        494.0 
     2061.00        0.300        469.6 
     2062.00        0.233        440.0 
     2063.00        0.267         78.1 
     2064.00        0.233         69.9 
     2065.00        0.267        110.3 
     2066.00        4.867       1811.5 
