~Version Information
VERS.                      2.0: CWLS Log ASCII Standard - VERSION 2.0
WRAP.                       NO: One line per depth step
~Well Information Block
STRT.FT               454.0000: 
STOP.FT              1389.0000: 
STEP.FT                 0.1000: 
NULL.                -999.2500: 
COMP.          Pioneer Natural Resources: COMPANY
WELL.          Lorencito 6-3-34-66: WELL
FLD.           Purgatoire River: FIELD
LOC.           2545' FNL & 1914' FWL: LOCATION
STAT.                 Colorado: State
CNTY.               Las Animas: COUNTY
CTRY. USA : Country
SECT. 3 : Section
TOWN. 34S : Township
RANG. 66W : Range
SRVC.                Patterson: SERVICE COMPANY
DATE.          Mon Sep 12 07:20:37 2005: LOG DATE
API.        05 071 08369 00: UNIQUE WELL ID
~Curve Information Block
DEPT.FT            0 000 00 00: Depth
DCAL.in                       : CDL Caliper
RHOB.g/cc                     : CDL Bulk Density
RHOC.g/cc                     : CDL Density Correction
DPOR.pu                       : CDL Density Porosity
GR.GAPI                       : Gamma Ray
NPOR.pu                       : Neutron Porosity
~Parameter Information Block
~A  Depth       DCAL        RHOB        RHOC        DPOR         GR         NPOR    
# ...
   636.4000      8.2353      2.5678      0.0409      4.9833    122.8457     22.0333
   636.5000      8.2671      2.5425      0.0048      6.5158    118.1371     21.7510
   636.6000      8.2671      2.5333      0.0294      7.0718    118.4854     21.8347
   636.7000      8.2671      2.5474      0.0256      6.2184    125.7339     22.3083
   636.8000      8.2762      2.5644      0.0942      5.1882    132.7480     22.6975
   636.9000      8.2762      2.5605      0.0650      5.4265    133.9085     22.5029
   637.0000      8.1771      2.5470      0.0441      6.2425    130.2105     21.9613
   637.1000      8.1771      2.5398      0.0457      6.6771    124.0280     21.5951
   637.2000      8.1771      2.5286      0.0748      7.3557    120.2835     21.6338
   637.3000      8.1871      2.5107     -0.0078      8.4418    120.7368     22.0054
   637.4000      8.1871      2.5027     -0.0009      8.9264    121.1700     22.3282
   637.5000      8.1647      2.5113      0.0075      8.4060    118.3823     22.3242
   637.6000      8.1647      2.5289      0.0322      7.3370    113.5218     22.2048
   637.7000      8.1647      2.5459      0.0390      6.3110    109.8571     22.3576
   637.8000      8.1531      2.5567      0.0349      5.6528    110.6101     22.7684
   637.9000      8.1531      2.5667      0.0543      5.0471    113.2832     23.1246
   638.0000      8.1638      2.5809      0.0643      4.1899    112.4778     23.4302
   638.1000      8.1638      2.5908      0.0857      3.5879    111.5050     23.8915
   638.2000      8.1638      2.5925      0.0286      3.4852    114.7730     24.3470
   638.3000      8.1840      2.5927      0.0507      3.4715    118.7271     24.3600
   638.4000      8.1840      2.5910      0.0942      3.5775    120.6768     24.0814
   638.5000      8.1353      2.5867      0.0927      3.8358    122.1490     24.1172
   638.6000      8.1353      2.5855      0.0777      3.9073    124.9025     24.5450
   638.7000      8.1353      2.5855      0.0701      3.9116    128.6223     24.8296
   638.8000      8.1404      2.5796      0.0872      4.2668    129.3235     24.8193
   638.9000      8.1404      2.5719      0.0518      4.7334    125.5074     24.7524
   639.0000      8.1564      2.5706      0.0436      4.8092    123.9541     24.7703
   639.1000      8.1564      2.5741      0.0381      4.6023    130.2595     24.9614
   639.2000      8.1564      2.5809      0.0451      4.1908    139.5381     25.1635
   639.3000      8.1083      2.5945      0.0499      3.3652    141.7960     25.1312
   639.4000      8.1083      2.6121      0.0754      2.2998    135.8298     24.9055
   639.5000      8.1286      2.6220      0.0724      1.6963    128.2379     24.6844
   639.6000      8.1286      2.6136      0.1086      2.2050    121.8316     24.4843
   639.7000      8.1286      2.5929      0.0423      3.4581    117.5490     24.2218
   639.8000      8.1501      2.5785      0.0327      4.3359    116.8043     24.0352
   639.9000      8.1501      2.5740      0.0152      4.6081    117.0136     24.1118
   640.0000      8.1359      2.5738      0.0347      4.6165    113.7202     24.2774
   640.1000      8.1359      2.5789     -0.0169      4.3118    110.6161     24.1091
   640.2000      8.1359      2.5881      0.0011      3.7494    114.2668     23.5180
   640.3000      8.1211      2.5891      0.0779      3.6900    118.9371     22.8244
   640.4000      8.1211      2.5788      0.0049      4.3147    119.7713     22.3918
   640.5000      8.1548      2.5753     -0.0029      4.5249    123.5862     22.3165
   640.6000      8.1548      2.5803      0.0465      4.2249    130.6494     22.5841
   640.7000      8.1548      2.5801      0.0069      4.2389    130.5233     23.0234
   640.8000      8.1484      2.5758      0.0326      4.4992    121.9735     23.2709
   640.9000      8.1484      2.5720      0.0299      4.7294    117.4749     23.3684
   641.0000      8.1097      2.5711      0.0402      4.7843    125.0405     23.4495
   641.1000      8.1097      2.5697      0.0655      4.8660    138.2258     23.3080
   641.2000      8.1097      2.5562      0.0805      5.6855    150.4569     23.0357
   641.3000      8.0720      2.5346      0.0290      6.9923    162.5862     23.0482
   641.4000      8.0720      2.5228      0.0340      7.7120    169.3385     23.6036
   641.5000      8.1204      2.5210     -0.0082      7.8199    167.0072     24.5408
   641.6000      8.1204      2.5185      0.0279      7.9714    165.9567     25.5298
   641.7000      8.1204      2.5136      0.0133      8.2665    172.0874     26.3178
   641.8000      8.1664      2.5145      0.0074      8.2103    180.0691     26.9153
   641.9000      8.1664      2.5307      0.0172      7.2295    184.5031     27.3235
   642.0000      8.2018      2.5589      0.0505      5.5240    181.1940     27.2371
   642.1000      8.2018      2.5809      0.0598      4.1856    172.0487     26.9609
   642.2000      8.2018      2.5959     -0.0048      3.2772    164.7245     27.0973
   642.3000      8.2650      2.6155      0.0750      2.0905    158.0115     27.4713
   642.4000      8.2650      2.6270      0.0867      1.3957    146.7228     27.7203
   642.5000      8.1846      2.6179      0.0223      1.9468    132.2122     27.7414
   642.6000      8.1846      2.5963      0.0620      3.2543    121.6735     27.3840
   642.7000      8.1846      2.5727     -0.0241      4.6842    117.8346     26.6914
   642.8000      8.1763      2.5597     -0.0431      5.4739    115.2312     25.9933
   642.9000      8.1763      2.5582      0.0152      5.5661    110.1963     25.4646
   643.0000      8.1356      2.5564      0.0207      5.6714    105.7694     24.9936
   643.1000      8.1356      2.5572      0.0138      5.6269    105.6109     24.4344
   643.2000      8.1356      2.5680      0.0627      4.9707    107.2093     24.0957
   643.3000      8.1099      2.5785      0.0545      4.3363    106.9267     24.3417
   643.4000      8.1099      2.5779      0.0623      4.3715    106.0038     24.7504
   643.5000      8.1056      2.5768      0.0357      4.4355    109.5626     24.7282
   643.6000      8.1056      2.5902      0.0845      3.6260    117.4137     24.2910
   643.7000      8.1056      2.6076      0.1515      2.5673    120.6818     23.7624
   643.8000      8.1855      2.6112      0.1295      2.3530    113.9027     23.2405
   643.9000      8.1855      2.6091      0.0616      2.4764    103.9592     22.7659
   644.0000      8.0617      2.6128      0.1006      2.2537     97.9906     22.5220
   644.1000      8.0617      2.6040      0.0992      2.7862     94.1881     22.4601
   644.2000      8.0617      2.5700      0.0699      4.8482     93.4657     22.3369
   644.3000      8.0593      2.5334     -0.0159      7.0685     96.9125     22.1166
   644.4000      8.0593      2.5143      0.0124      8.2229     97.1935     22.0326
   644.5000      8.0975      2.5048      0.0428      8.8002     93.3971     22.2637
   644.6000      8.0975      2.5015     -0.0424      9.0003     93.6413     22.7435
   644.7000      8.0975      2.5175      0.0028      8.0277     96.8471     23.2935
   644.8000      8.0531      2.5465      0.0722      6.2750     95.3882     23.5992
   644.9000      8.0531      2.5617      0.0935      5.3535     90.4714     23.3830
   645.0000      8.0931      2.5577      0.0331      5.5967     89.5336     22.8946
   645.1000      8.0931      2.5564      0.0456      5.6747     93.7987     22.6307
   645.2000      8.0931      2.5698      0.1162      4.8580     99.4725     22.5873
   645.3000      8.0807      2.5866      0.1196      3.8418    104.6852     22.5001
   645.4000      8.0807      2.5964      0.0841      3.2504    108.4879     22.4394
   645.5000      8.0666      2.5984      0.0890      3.1276    113.5362     22.5317
   645.6000      8.0666      2.5897      0.0687      3.6533    122.6908     22.6488
   645.7000      8.0666      2.5665      0.0753      5.0632    129.6625     22.5529
   645.8000      8.0525      2.5390     -0.0030      6.7279    132.0790     22.3402
   645.9000      8.0525      2.5284      0.0271      7.3707    140.7253     22.4894
