~Version Information
VERS.                      2.0: CWLS Log ASCII Standard - VERSION 2.0
WRAP.                       NO: One line per depth step
~Well Information Block
STRT.FT                10.0000: 
STOP.FT               859.0000: 
STEP.FT                 0.2500: 
NULL.                -999.2500: 
COMP.          Pioneer Natural Resources: COMPANY
WELL.          Prospector 12-19: WELL
FLD.           Purgatoire River: FIELD
LOC.           2262' FNL & 634' FWL: LOCATION
PROV.                 Colorado: PROVINCE
CNTY.               Las Animas: COUNTRY
SRVC.                Patterson: SERVICE COMPANY
DATE.          Tue May 10 11:52:48 2005: LOG DATE
UWI.           05 071 08191 00: UNIQUE WELL ID
~Curve Information Block
DEPT.FT            0 000 00 00: Depth
CCL.                          : Casing Collar Locator
TT3.usec                      : CBL 3' Travel Time
AMP3.mV                       : CBL 3' Amplitude
GR.GAPI                       : Gamma Ray
~Parameter Information Block
~A  Depth       CCL         TT3         AMP3         GR     
# ...
   814.0000      0.0000    716.8712      3.0102     82.5338
   814.2500      0.0000    731.4214      2.9148     86.6000
   814.5000      0.0000    751.6500      2.7727     90.8585
   814.7500      0.0000    771.0649      2.6036     94.6565
   815.0000      0.0000    785.6617      2.4236     98.0375
   815.2500      0.0000    795.1420      2.2568    101.7610
   815.5000      0.0000    801.4026      2.1444    106.2024
   815.7500      0.0000    806.3878      2.1300    110.6777
   816.0000      0.0000    810.9258      2.2286    114.1830
   816.2500      0.0000    815.1055      2.4103    116.3750
   816.5000      0.0000    818.9642      2.6215    117.5689
   816.7500      0.0000    822.1583      2.8190    118.0533
   817.0000      0.0000    823.7601      2.9820    117.4758
   817.2500      0.0000    823.6929      3.1000    114.9702
   817.5000      0.0000    824.0618      3.1604    110.2533
   817.7500      0.0000    827.7020      3.1464    104.6766
   818.0000      0.0000    835.0039      3.0428    100.8268
   818.2500      0.0000    842.8699      2.8481    100.8100
   818.5000      0.0000    847.6818      2.5911    104.6410
   818.7500      0.0000    849.5681      2.3365    109.9864
   819.0000      0.0000    853.0647      2.1620    113.5952
   819.2500      0.0000    862.5270      2.1181    113.5008
   819.5000      0.0000    876.7368      2.2039    109.9688
   819.7500      0.0000    888.9254      2.3764    104.4432
   820.0000      0.0000    892.9907      2.5746     98.2599
   820.2500      0.0000    889.2655      2.7353     92.5627
   820.5000      2.0000    883.4005      2.8025     88.5446
   820.7500      0.0000    880.1658      2.7411     86.9444
   821.0000      0.0000    879.6810      2.5559     87.3338
   821.2500      0.0000    878.9386      2.3018     88.2856
   821.5000      0.0000    874.6199      2.0674     88.4477
   821.7500      0.0000    864.2432      1.9304     87.5062
   822.0000      0.0000    846.9980      1.9263     86.2057
   822.2500      0.0000    824.9446      2.0544     85.6457
   822.5000      0.0000    802.6854      2.2900     86.3948
   822.7500      0.0000    784.8278      2.5766     87.8333
   823.0000      0.0000    773.5818      2.8314     88.3475
   823.2500      0.0000    768.8893      2.9833     86.7705
   823.5000      0.0000    770.2031      3.0050     83.7934
   823.7500      0.0000    777.2137      2.9140     81.5494
   824.0000      0.0000    788.8661      2.7626     81.8006
   824.2500      0.0000    802.0133      2.6300     84.8640
   824.5000      0.0000    811.4589      2.5947     90.0054
   824.7500      0.0000    812.5225      2.6868     96.1575
   825.0000      0.0000    804.6070      2.8599    102.3378
   825.2500      0.0000    791.8002      3.0211    107.9370
   825.5000      0.0000    779.4933      3.0910    112.7228
   825.7500      0.0000    770.6254      3.0423    116.4249
   826.0000      0.0000    764.9798      2.8980    118.5009
   826.2500      0.0000    761.1489      2.7152    118.4664
   826.5000      0.0000    758.6301      2.5713    116.2880
   826.7500      0.0000    758.2081      2.5387    112.3245
   827.0000      0.0000    760.6492      2.6442    107.0180
   827.2500      0.0000    765.3579      2.8418    100.8416
   827.5000      0.0000    770.5437      3.0352     94.4896
   827.7500      0.0000    774.6335      3.1347     89.0122
   828.0000      0.0000    777.3779      3.1064     85.6229
   828.2500      0.0000    779.5654      2.9841     85.1923
   828.5000      0.0000    781.8254      2.8461     87.9196
   828.7500      0.0000    783.8887      2.7725     93.4871
   829.0000      0.0000    784.8304      2.8020    101.2922
   829.2500      0.0000    783.7425      2.9094    110.3094
   829.5000      0.0000    780.1634      3.0220    119.0557
   829.7500      0.0000    774.1600      3.0642    126.1472
   830.0000      0.0000    766.4159      3.0057    130.8234
   830.2500      0.0000    758.3209      2.8822    132.8004
   830.5000      0.0000    751.4672      2.7760    132.1446
   830.7500      0.0000    746.5712      2.7589    129.7007
   831.0000      0.0000    742.9563      2.8367    127.1342
   831.2500      0.0000    739.1793      2.9438    125.8212
   831.5000      0.0000    734.2766      2.9964    125.5058
   831.7500      0.0000    728.9221      2.9556    124.3883
   832.0000      0.0000    725.8521      2.8536    120.7566
   832.2500      0.0000    728.5717      2.7703    114.5535
   832.5000      0.0000    738.4338      2.7746    107.4366
   832.7500      0.0000    752.9697      2.8699    101.4143
   833.0000      0.0000    767.7623      2.9892     97.3390
   833.2500      0.0000    779.8821      3.0497     94.6720
   833.5000      0.0000    789.1432      3.0188     92.6894
   833.7500      0.0000    796.2925      2.9342     91.7324
   834.0000      0.0000    800.6213      2.8681     93.1678
   834.2500      0.0000    800.1838      2.8627     98.0898
   834.5000      0.0000    794.8719      2.8943    105.9272
   834.7500      0.0000    788.1680      2.9064    114.1884
   835.0000      0.0000    784.2327      2.8791    119.8558
   835.2500      0.0000    783.6131      2.8558    121.4720
   835.5000      0.0000    783.3805      2.8875    119.9229
   835.7500      0.0000    781.0532      2.9647    117.1877
   836.0000      0.0000    776.5267      3.0208    114.7425
   836.2500      0.0000    770.6861      3.0064    113.2232
   836.5000      0.0000    764.7690      2.9455    112.8715
   836.7500      0.0000    761.5050      2.9072    113.7725
   837.0000      0.0000    764.2745      2.9261    115.8192
   837.2500      0.0000    773.7391      2.9672    118.6414
   837.5000      0.0000    786.5974      2.9755    121.5091
   837.7500      0.0000    798.7581      2.9457    123.3290
   838.0000      0.0000    808.9388      2.9224    123.0442
   838.2500      0.0000    818.4324      2.9346    120.3876
   838.5000      0.0000    828.0476      2.9547    116.4117
   838.7500      0.0000    836.3113      2.9390    113.1810
   839.0000      0.0000    840.9110      2.8921    112.6029
   839.2500      0.0000    841.3026      2.8631    115.0987
   839.5000      0.0000    839.3652      2.8793    119.1265
   839.7500      0.0000    837.6683      2.9109    122.0232
   840.0000      0.0000    837.3206      2.9163    121.6826
   840.2500      0.0000    837.3065      2.8980    117.8707
   840.5000      0.0000    835.7218      2.8900    112.2549
   840.7500      0.0000    831.6995      2.9040    107.1298
   841.0000      0.0000    826.0408      2.9195    103.7800
   841.2500      0.0000    820.2549      2.9258    101.7304
   841.5000      0.0000    815.3409      2.9421     99.4064
   841.7500      0.0000    811.3915      2.9815     95.5377
   842.0000      0.0000    808.1726      3.0248     90.1035
   842.2500      0.0000    805.7177      3.0471     84.0921
   842.5000      0.0000    803.9010      3.0492     78.2167
   842.7500      0.0000    801.6579      3.0413     71.6688
   843.0000      0.0000    797.2617      3.0205     62.3887
   843.2500      0.0000    789.7346      2.9886     49.1660
   843.5000      0.0000    780.2351      2.9685     33.5585
   843.7500      0.0000    772.0404      2.9802     19.1905
   844.0000      0.0000    768.7073      3.0157      8.9873
   844.2500      0.0000    771.6561      3.0542      3.3948
   844.5000      0.0000    779.0748      3.0857      1.0237
   844.7500      0.0000    787.1224      3.1079      0.2444
   845.0000      0.0000    792.6470      3.1195      0.0456
   845.2500      0.0000    795.2604      3.1223      0.0062
   845.5000      0.0000    797.0029      3.1200      0.0000
   845.7500      0.0000    800.2897      3.1137   -999.2500
   846.0000      0.0000    806.2309      3.1040   -999.2500
   846.2500      0.0000    813.9409      3.0917   -999.2500
   846.5000      0.0000    820.1098      3.0698   -999.2500
   846.7500      0.0000    819.6086      3.0265   -999.2500
   847.0000      0.0000    808.7206      2.9629   -999.2500
   847.2500      0.0000    789.0035      2.8993   -999.2500
