~Version Information
VERS.                      2.0: CWLS Log ASCII Standard - VERSION 2.0
WRAP.                       NO: One line per depth step
~Well Information Block
STRT.FT               506.1000: 
STOP.FT              2140.0000: 
STEP.FT                 0.1000: 
NULL.                -999.2500: 
COMP.          Petrogulf Corporation: COMPANY
WELL.            Montoya 1-44R: WELL
FLD.           Purgatorie River: FIELD
LOC.           658' FSL & 1052' FWL: LOCATION
CNTY.               Las Animas: COUNTY
SRVC.                         : SERVICE COMPANY
DATE.          Tue Nov 16 04:33:40 2004: LOG DATE
UWI.           05 071 08239 00: UNIQUE WELL ID
STAT.                 Colorado: STATE
~Curve Information Block
DEPT.FT            0 000 00 00: Depth
DCAL.in                       : CDL Caliper
RHOB.g/cc                     : CDL Bulk Density
RHOC.g/cc                     : CDL Density Correction
DPOR.pu                       : CDL Density Porosity
GR.GAPI                       : Gamma Ray
NPOR.pu                       : Neutron Porosity
~Parameter Information Block
~A  Depth       DCAL        RHOB        RHOC        DPOR         GR         NPOR    
# ...
   678.9000      8.1014      2.6146      0.0746      2.1438    150.1057     29.1413
   679.0000      8.0994      2.5971      0.0153      3.2068    151.0989     29.5104
   679.1000      8.0994      2.5950      0.0609      3.3334    152.8735     29.8393
   679.2000      8.0994      2.5985      0.0524      3.1195    157.4463     30.1451
   679.3000      8.1029      2.6006      0.0112      2.9938    162.1648     30.4613
   679.4000      8.1029      2.6103      0.0444      2.4031    168.4595     30.6238
   679.5000      8.1064      2.6387      0.0328      0.6872    177.2288     30.4121
   679.6000      8.1064      2.6855      0.0634     -2.1486    180.1527     29.9565
   679.7000      8.1064      2.7262      0.1048     -4.6159    175.0891     29.5814
   679.8000      8.1053      2.7328      0.1020     -5.0197    174.2318     29.3259
   679.9000      8.1053      2.7114      0.0622     -3.7241    182.8062     29.0282
   680.0000      8.1024      2.6922      0.0397     -2.5560    189.1577     28.6177
   680.1000      8.1024      2.6866      0.0338     -2.2202    184.2431     28.3222
   680.2000      8.1024      2.6779      0.0457     -1.6888    174.8224     28.2909
   680.3000      8.0950      2.6593     -0.0045     -0.5626    170.5342     28.3453
   680.4000      8.0950      2.6406      0.0409      0.5724    173.2821     28.2932
   680.5000      8.0892      2.6176      0.0427      1.9662    178.4105     28.1961
   680.6000      8.0892      2.5842      0.0322      3.9906    181.5691     28.0644
   680.7000      8.0892      2.5448      0.0337      6.3784    183.8709     27.5947
   680.8000      8.0926      2.4984      0.0647      9.1865    187.6701     26.9305
   680.9000      8.0926      2.4420      0.0238     12.6035    191.8333     26.5316
   681.0000      8.0962      2.3881     -0.0028     15.8743    195.7332     26.2858
   681.1000      8.0962      2.3549      0.0031     17.8868    201.2619     25.8349
   681.2000      8.0962      2.3480     -0.0151     18.3014    202.5799     25.2819
   681.3000      8.0903      2.3624     -0.0008     17.4276    192.5188     25.0334
   681.4000      8.0903      2.3893      0.0089     15.8026    178.7710     25.0737
   681.5000      8.0876      2.4190      0.0617     14.0004    172.2189     25.0208
   681.6000      8.0876      2.4484      0.0816     12.2152    173.0947     24.8896
   681.7000      8.0876      2.4760      0.1767     10.5447    177.9776     25.0459
   681.8000      8.0881      2.4939      0.1914      9.4589    184.3714     25.3500
   681.9000      8.0881      2.4980      0.2105      9.2100    189.1788     25.3267
   682.0000      8.0898      2.4865      0.2533      9.9061    190.5084     25.0478
   682.1000      8.0898      2.4566      0.1813     11.7210    186.8441     24.8161
   682.2000      8.0898      2.4141      0.1330     14.2990    181.1317     24.5718
   682.3000      8.0914      2.3784      0.0655     16.4622    180.1598     24.2422
   682.4000      8.0914      2.3720      0.0460     16.8507    182.9805     24.0241
   682.5000      8.0928      2.3980      0.0687     15.2743    182.7458     24.0106
   682.6000      8.0928      2.4374      0.1249     12.8840    179.9254     24.1574
   682.7000      8.0928      2.4689      0.1526     10.9748    177.8984     24.5146
   682.8000      8.0987      2.4806      0.1720     10.2638    174.8292     24.8100
   682.9000      8.0987      2.4768      0.1473     10.4981    169.4506     24.7285
   683.0000      8.1018      2.4705      0.1611     10.8810    164.5233     24.4521
   683.1000      8.1018      2.4644      0.1809     11.2465    162.5814     24.2506
   683.2000      8.1018      2.4564      0.1337     11.7306    164.8192     24.1060
   683.3000      8.0989      2.4494      0.1245     12.1579    168.6047     23.9422
   683.4000      8.0989      2.4375      0.1033     12.8776    166.9141     23.7783
   683.5000      8.0963      2.4120      0.0595     14.4240    160.6793     23.3707
   683.6000      8.0963      2.3769      0.0824     16.5544    156.1913     22.5829
   683.7000      8.0963      2.3363      0.0416     19.0101    154.2031     21.7693
   683.8000      8.0997      2.2867      0.0385     22.0167    154.0879     21.1705
   683.9000      8.0997      2.2220      0.0152     25.9407    154.9533     20.8001
   684.0000      8.1036      2.1412      0.0030     30.8390    156.8789     20.8231
   684.1000      8.1036      2.0579     -0.0253     35.8843    160.9518     21.3072
   684.2000      8.1036      1.9984     -0.0600     39.4913    163.8463     21.9417
   684.3000      8.1051      1.9767     -0.0473     40.8065    161.3019     22.5841
   684.4000      8.1051      1.9840     -0.0185     40.3639    155.2864     23.3007
   684.5000      8.1088      2.0095     -0.0108     38.8174    148.6101     24.0013
   684.6000      8.1088      2.0530      0.0507     36.1837    142.0631     24.8407
   684.7000      8.1088      2.1169      0.1003     32.3099    137.5295     25.9571
   684.8000      8.1109      2.1972      0.1609     27.4402    135.5921     27.0088
   684.9000      8.1109      2.2806      0.2340     22.3859    134.6050     27.6239
   685.0000      8.1053      2.3568      0.2032     17.7680    134.1394     27.7457
   685.1000      8.1053      2.4247      0.1585     13.6537    137.9445     27.6813
   685.2000      8.1053      2.4771      0.1153     10.4786    147.4671     27.8361
   685.3000      8.0961      2.5015      0.1092      8.9999    155.7360     28.1558
   685.4000      8.0961      2.5033      0.0575      8.8897    157.5313     28.4874
   685.5000      8.0879      2.5056      0.0953      8.7502    158.0868     28.8125
   685.6000      8.0879      2.5231      0.1118      7.6924    163.3066     28.9481
   685.7000      8.0879      2.5545      0.0905      5.7895    168.2422     28.9345
   685.8000      8.0803      2.5861      0.0935      3.8698    165.5856     29.0581
   685.9000      8.0803      2.6015      0.1091      2.9377    157.2258     29.2052
   686.0000      8.0675      2.5943      0.0788      3.3754    151.1933     29.1111
   686.1000      8.0675      2.5737      0.0286      4.6214    151.8696     28.9763
   686.2000      8.0675      2.5571      0.0051      5.6315    155.4718     29.0233
   686.3000      8.0520      2.5552      0.0264      5.7475    155.6565     29.0480
   686.4000      8.0520      2.5696      0.0264      4.8731    149.8280     28.5764
   686.5000      8.0417      2.6004      0.0098      3.0065    143.5619     27.5757
   686.6000      8.0417      2.6405      0.0635      0.5775    145.7022     26.7716
   686.7000      8.0417      2.6733      0.0820     -1.4122    154.2448     26.7162
   686.8000      8.0407      2.6904      0.0550     -2.4470    160.1178     27.3311
   686.9000      8.0407      2.6888      0.0977     -2.3485    161.3284     28.0025
   687.0000      8.0481      2.6657      0.0626     -0.9544    157.3188     28.0441
   687.1000      8.0481      2.6359      0.0375      0.8559    152.6495     27.4687
   687.2000      8.0481      2.6173      0.0143      1.9813    154.1999     26.9843
   687.3000      8.0544      2.6124      0.0083      2.2766    155.8585     27.0372
   687.4000      8.0544      2.6118      0.0286      2.3156    151.2410     27.3297
   687.5000      8.0609      2.6006      0.0196      2.9945    145.2551     27.4505
   687.6000      8.0609      2.5764     -0.0253      4.4586    144.9838     27.4215
   687.7000      8.0609      2.5595     -0.0674      5.4864    148.6241     27.3112
   687.8000      8.0667      2.5674     -0.0371      5.0083    148.4413     27.0743
   687.9000      8.0667      2.5873      0.0348      3.8024    142.7872     26.9848
   688.0000      8.0622      2.5950      0.0222      3.3318    138.4070     27.2116
   688.1000      8.0622      2.5952     -0.0124      3.3193    138.5170     27.4699
   688.2000      8.0622      2.6069      0.0155      2.6099    140.8965     27.4315
   688.3000      8.0549      2.6278      0.0505      1.3430    143.8466     27.1088
   688.4000      8.0549      2.6436      0.0617      0.3897    148.0222     26.8189
