~Version Information
VERS.                      2.0: CWLS Log ASCII Standard - VERSION 2.0
WRAP.                       NO: One line per depth step
~Well Information Block
STRT.FT               768.0000: 
STOP.FT              2635.5000: 
STEP.FT                 0.1000: 
NULL.                -999.2500: 
COMP.          Pioneer Natural Resources: COMPANY
WELL.               Zink 44-10: WELL
FLD.           Purgatoire River: FIELD
LOC.           548' FSL & 473' FEL: LOCATION
PROV.                 Colorado: PROVINCE
CNTY.               Las Animas: COUNTRY
SRVC.                Patterson: SERVICE COMPANY
DATE.          Tue May 31 07:05:25 2005: LOG DATE
UWI.           05 071 08380 00: UNIQUE WELL ID
~Curve Information Block
DEPT.FT            0 000 00 00: Depth
DCAL.in                       : CDL Caliper
RHOB.g/cc                     : CDL Bulk Density
RHOC.g/cc                     : CDL Density Correction
DPOR.pu                       : CDL Density Porosity
GR.GAPI                       : Gamma Ray
NPOR.pu                       : Neutron Porosity
~Parameter Information Block
~A  Depth       DCAL        RHOB        RHOC        DPOR         GR         NPOR    
# ...
   892.8000      8.1727      2.4813      0.0481     10.2257    136.9662     24.5116
   892.9000      8.1727      2.5083      0.0636      8.5888    131.8031     24.5312
   893.0000      8.1677      2.5229      0.1108      7.7041    126.4115     24.5286
   893.1000      8.1677      2.5181      0.0981      7.9931    124.2043     24.9499
   893.2000      8.1677      2.5080      0.0718      8.6065    124.7223     25.1120
   893.3000      8.1699      2.5112      0.0792      8.4104    124.1441     24.6725
   893.4000      8.1699      2.5187      0.0703      7.9549    121.0173     24.2181
   893.5000      8.1764      2.5125      0.0663      8.3317    116.5617     23.8852
   893.6000      8.1764      2.4968     -0.0251      9.2849    112.3402     23.4698
   893.7000      8.1764      2.4861     -0.0120      9.9343    109.6037     23.1250
   893.8000      8.1684      2.4893     -0.0427      9.7372    108.6318     22.8260
   893.9000      8.1684      2.5080      0.0542      8.6031    108.2126     22.4108
   894.0000      8.1758      2.5372     -0.0204      6.8371    107.1614     22.0148
   894.1000      8.1758      2.5677      0.0861      4.9885    109.3462     21.7837
   894.2000      8.1758      2.5790      0.1072      4.3041    116.1266     21.6736
   894.3000      8.2193      2.5672      0.0110      5.0161    123.2819     21.8103
   894.4000      8.2193      2.5574      0.0210      5.6101    126.5665     22.3186
   894.5000      8.2231      2.5581      0.0568      5.5704    121.9674     22.9146
   894.6000      8.2231      2.5614      0.0629      5.3688    111.2758     23.2582
   894.7000      8.2231      2.5704      0.0274      4.8244    104.0524     23.5265
   894.8000      8.2112      2.5827      0.0720      4.0780    107.9330     24.0020
   894.9000      8.2112      2.5836      0.0405      4.0247    119.1069     24.4414
   895.0000      8.2097      2.5659      0.0436      5.0941    126.0657     24.4970
   895.1000      8.2097      2.5354      0.0126      6.9449    125.6607     24.4671
   895.2000      8.2097      2.5029      0.0358      8.9127    124.6156     24.8872
   895.3000      8.2149      2.4791     -0.0256     10.3555    126.1811     25.5826
   895.4000      8.2149      2.4755     -0.0524     10.5749    129.3288     26.1959
   895.5000      8.1985      2.4874      0.0064      9.8555    133.5763     26.7416
   895.6000      8.1985      2.4913      0.0198      9.6156    137.0099     27.1421
   895.7000      8.1985      2.4727      0.0139     10.7429    137.4283     27.0202
   895.8000      8.1835      2.4340      0.0110     13.0892    137.5144     26.3644
   895.9000      8.1835      2.3930     -0.0765     15.5746    142.1279     25.6524
   896.0000      8.1661      2.3722     -0.0477     16.8375    147.7419     25.3562
   896.1000      8.1661      2.3771     -0.0446     16.5382    146.1964     25.5082
   896.2000      8.1661      2.4025     -0.0100     14.9992    140.4800     25.6541
   896.3000      8.1892      2.4472      0.0158     12.2934    135.9630     25.4505
   896.4000      8.1892      2.5102      0.0566      8.4730    132.8139     25.1220
   896.5000      8.2047      2.5765      0.1077      4.4517    131.6827     25.0144
   896.6000      8.2047      2.6293      0.1978      1.2561    132.5682     24.9874
   896.7000      8.2047      2.6646      0.2497     -0.8871    136.2606     24.7925
   896.8000      8.2273      2.6832      0.2309     -2.0148    142.5273     24.5589
   896.9000      8.2273      2.6804      0.2532     -1.8444    147.4224     24.4991
   897.0000      8.2332      2.6561      0.1955     -0.3710    148.0538     24.7394
   897.1000      8.2332      2.6276      0.0879      1.3591    144.5553     25.3804
   897.2000      8.2332      2.6107      0.0488      2.3815    140.1449     25.9672
   897.3000      8.2509      2.5987      0.0572      3.1072    138.3615     25.9817
   897.4000      8.2509      2.5806      0.0426      4.2087    137.6556     25.7168
   897.5000      8.2658      2.5641     -0.0234      5.2034    135.8182     25.5024
   897.6000      8.2658      2.5648      0.0086      5.1637    134.2479     25.2769
   897.7000      8.2658      2.5749      0.0353      4.5505    132.6444     25.0237
   897.8000      8.2696      2.5777      0.0407      4.3806    130.3099     24.9504
   897.9000      8.2696      2.5774      0.0042      4.3994    128.9944     25.2037
   898.0000      8.2343      2.5888      0.0010      3.7099    127.4980     25.5084
   898.1000      8.2343      2.6112      0.0275      2.3517    122.4192     25.5909
   898.2000      8.2343      2.6276      0.0113      1.3550    113.7196     25.6438
   898.3000      8.2590      2.6262      0.0775      1.4443    104.9103     25.8651
   898.4000      8.2590      2.6139      0.0503      2.1855    101.8022     26.1542
   898.5000      8.3077      2.6126      0.0078      2.2672    105.7596     26.3837
   898.6000      8.3077      2.6232      0.0724      1.6263    109.4146     26.4407
   898.7000      8.3077      2.6177      0.0611      1.9552    108.5974     26.3176
   898.8000      8.2636      2.5908      0.0270      3.5893    106.9729     26.1759
   898.9000      8.2636      2.5717      0.0475      4.7429    105.6182     26.1487
   899.0000      8.2231      2.5788      0.0689      4.3124    103.7831     26.1468
   899.1000      8.2231      2.5974      0.1055      3.1905    103.1041     25.9986
   899.2000      8.2231      2.6084      0.0302      2.5225    103.0801     25.6155
   899.3000      8.1492      2.6104      0.0669      2.4020    101.9050     24.9661
   899.4000      8.1492      2.6004      0.0767      3.0043    102.1822     24.3969
   899.5000      8.1458      2.5821      0.0234      4.1140    106.7827     24.3886
   899.6000      8.1458      2.5759      0.0040      4.4938    111.2039     24.7075
   899.7000      8.1458      2.5872      0.0693      3.8051    111.4674     24.9888
   899.8000      8.1494      2.6026      0.0486      2.8734    112.1921     25.2916
   899.9000      8.1494      2.6130      0.0342      2.2408    116.3902     25.3418
   900.0000      8.1670      2.6118      0.0531      2.3136    119.4248     24.8190
   900.1000      8.1670      2.6002      0.0486      3.0178    118.4883     24.2519
   900.2000      8.1670      2.5962      0.0576      3.2625    115.4383     24.1919
   900.3000      8.1706      2.6115      0.0791      2.3344    113.0028     24.3983
   900.4000      8.1706      2.6319      0.0778      1.0964    112.7598     24.4320
   900.5000      8.1705      2.6375      0.0767      0.7552    111.6277     24.3740
   900.6000      8.1705      2.6339      0.0791      0.9783    107.7687     24.6192
   900.7000      8.1705      2.6308      0.1494      1.1617    103.4127     25.0886
   900.8000      8.1764      2.6129      0.1427      2.2467     98.8903     25.3225
   900.9000      8.1764      2.5726      0.1133      4.6882     94.2313     25.1743
   901.0000      8.1889      2.5453      0.0577      6.3457     91.8414     24.8046
   901.1000      8.1889      2.5618      0.1268      5.3457     92.7818     24.5133
   901.2000      8.1889      2.5975      0.1726      3.1811     94.5123     24.3519
   901.3000      8.2049      2.6198      0.1176      1.8285     92.6672     24.1520
   901.4000      8.2049      2.6337      0.1264      0.9856     86.8027     23.9852
   901.5000      8.2090      2.6476      0.1739      0.1433     81.7307     23.9180
   901.6000      8.2090      2.6501      0.1861     -0.0063     81.3127     23.8515
   901.7000      8.2090      2.6355      0.1683      0.8801     86.3463     23.9366
   901.8000      8.2149      2.6147      0.1396      2.1385     92.4702     24.3503
   901.9000      8.2149      2.6067      0.0743      2.6259     91.7405     24.6558
   902.0000      8.2159      2.6229      0.0627      1.6425     83.7299     24.5032
   902.1000      8.2159      2.6479      0.1228      0.1301     75.8948     24.2474
   902.2000      8.2159      2.6551      0.1280     -0.3090     74.8300     24.2423
   902.3000      8.1868      2.6410      0.1401      0.5437     80.1352     24.2594
