~Version Information
VERS.                      2.0: CWLS Log ASCII Standard - VERSION 2.0
WRAP.                       NO: One line per depth step
~Well Information Block
STRT.FT               230.0000: 
STOP.FT              1527.0000: 
STEP.FT                 0.1000: 
NULL.                -999.2500: 
COMP.          Pioneer Natural Resources: COMPANY
WELL.              Border 21-3: WELL
FLD.           Purgatorie River: FIELD
LOC.           865' FNL & 1415' FWL: LOCATION
PROV.                 Colorado: PROVINCE
CNTY.               Las Animas: COUNTRY
SRVC.                         : SERVICE COMPANY
DATE.          Thu Dec 09 16:57:34 2004: LOG DATE
UWI.           05 071 08169 00: UNIQUE WELL ID
~Curve Information Block
DEPT.FT            0 000 00 00: Depth
LTEN.lb                       : Surface Line Tension
DCAL.in                       : CDL Caliper
RHOB.g/cc                     : CDL Bulk Density
RHOC.g/cc                     : CDL Density Correction
DPOR.pu                       : CDL Density Porosity
GR.GAPI                       : Gamma Ray
NPOR.pu                       : Neutron Porosity
~Parameter Information Block
~A  Depth       LTEN        DCAL        RHOB        RHOC        DPOR         GR         NPOR    
# ...
  1254.8000   1015.0604      7.6925      2.5614      0.0359      5.3690     64.3686     13.8294
  1254.9000   1015.0604      7.6925      2.5597      0.0688      5.4717     62.8146     14.3790
  1255.0000   1009.0341      7.6930      2.5453      0.0190      6.3449     59.3837     14.0268
  1255.1000   1009.0341      7.6930      2.5332      0.0080      7.0806     57.2195     13.2907
  1255.2000   1009.0341      7.6930      2.5374      0.0337      6.8257     56.0814     12.5470
  1255.3000   1004.7835      7.6932      2.5492      0.0357      6.1080     54.9446     12.3770
  1255.4000   1004.7835      7.6932      2.5589      0.0329      5.5185     55.4444     12.9688
  1255.5000   1002.1226      7.6920      2.5653      0.0435      5.1318     58.5822     13.4246
  1255.6000   1002.1226      7.6920      2.5651      0.0423      5.1427     62.2895     13.0388
  1255.7000   1002.1226      7.6920      2.5583      0.0152      5.5603     63.5340     12.3293
  1255.8000    992.0046      7.6919      2.5545      0.0264      5.7890     63.0347     12.0304
  1255.9000    992.0046      7.6919      2.5622      0.0335      5.3220     64.7254     11.8913
  1256.0000   1008.0260      7.6906      2.5810      0.0316      4.1814     68.2029     11.2285
  1256.1000   1008.0260      7.6906      2.5972      0.0752      3.2022     68.1214     10.2380
  1256.2000   1008.0260      7.6906      2.5927      0.0739      3.4733     64.0419      9.6620
  1256.3000   1001.2994      7.6932      2.5733      0.0217      4.6478     62.1680      9.7001
  1256.4000   1001.2994      7.6932      2.5636      0.0289      5.2366     63.3488      9.9025
  1256.5000    996.8501      7.6939      2.5736      0.0540      4.6301     63.0591     10.0077
  1256.6000    996.8501      7.6939      2.5906      0.0719      3.5982     60.2461     10.2593
  1256.7000    996.8501      7.6939      2.5956      0.0547      3.2962     56.4573     10.7341
  1256.8000   1009.4229      7.6937      2.5864      0.0568      3.8555     54.6221     11.2313
  1256.9000   1009.4229      7.6937      2.5795      0.0316      4.2756     57.5245     11.6671
  1257.0000   1007.7669      7.6919      2.5799      0.0736      4.2502     62.9104     12.1623
  1257.1000   1007.7669      7.6919      2.5712      0.0711      4.7735     64.2123     12.9049
  1257.2000   1007.7669      7.6919      2.5508      0.0518      6.0105     61.9770     13.5580
  1257.3000   1006.1224      7.6916      2.5372      0.0609      6.8387     63.7173     13.7556
  1257.4000   1006.1224      7.6916      2.5357      0.0541      6.9298     70.5297     13.8332
  1257.5000   1004.6326      7.6935      2.5340      0.0583      7.0330     78.1532     14.0510
  1257.6000   1004.6326      7.6935      2.5296      0.0246      7.2972     84.9737     14.5599
  1257.7000   1004.6326      7.6935      2.5324      0.0446      7.1247     88.8438     15.1312
  1257.8000   1024.2292      7.6924      2.5462      0.0360      6.2901     88.1543     15.3619
  1257.9000   1024.2292      7.6924      2.5639      0.0532      5.2204     86.0576     15.5527
  1258.0000   1003.9070      7.6926      2.5714      0.0927      4.7628     85.5483     16.0126
  1258.1000   1003.9070      7.6926      2.5655      0.0528      5.1222     86.8189     16.6464
  1258.2000   1003.9070      7.6926      2.5580      0.0794      5.5788     88.0986     17.1930
  1258.3000   1005.5184      7.6933      2.5569      0.0690      5.6408     86.0562     17.0421
  1258.4000   1005.5184      7.6933      2.5669      0.0626      5.0341     79.1797     16.0272
  1258.5000   1011.5742      7.6928      2.5840      0.0995      4.0025     70.8450     15.1702
  1258.6000   1011.5742      7.6928      2.5890      0.1108      3.6970     66.0416     14.9326
  1258.7000   1011.5742      7.6928      2.5771      0.0954      4.4177     64.6040     14.6066
  1258.8000   1006.6323      7.6932      2.5655      0.0534      5.1221     62.8040     13.9986
  1258.9000   1006.6323      7.6932      2.5672      0.0468      5.0159     59.4017     13.6039
  1259.0000   1007.7538      7.6920      2.5774      0.0312      4.4007     55.5946     13.2907
  1259.1000   1007.7538      7.6920      2.5816      0.1120      4.1441     52.5809     12.4651
  1259.2000   1007.7538      7.6920      2.5751      0.0414      4.5385     51.5633     11.4118
  1259.3000   1020.9703      7.6922      2.5659      0.0675      5.0944     53.1571     11.0973
  1259.4000   1020.9703      7.6922      2.5559      0.0506      5.7026     55.5432     11.7860
  1259.5000    991.9725      7.6930      2.5498      0.0419      6.0738     55.4782     12.6184
  1259.6000    991.9725      7.6930      2.5605      0.0363      5.4240     52.8131     12.7240
  1259.7000    991.9725      7.6930      2.5804      0.0926      4.2198     48.6987     12.4849
  1259.8000   1028.2775      7.6933      2.5827      0.1009      4.0773     43.4298     12.2256
  1259.9000   1028.2775      7.6933      2.5650      0.0718      5.1499     40.8575     11.9124
  1260.0000   1019.6833      7.6926      2.5494      0.0527      6.0955     42.7315     12.1307
  1260.1000   1019.6833      7.6926      2.5472      0.0726      6.2322     44.5612     12.9853
  1260.2000   1019.6833      7.6926      2.5558      0.0470      5.7109     44.7485     13.4629
  1260.3000    976.4871      7.6923      2.5710      0.0768      4.7874     45.4680     12.8163
  1260.4000    976.4871      7.6923      2.5861      0.0796      3.8728     45.9742     11.9723
  1260.5000   1029.1459      7.6932      2.5971      0.0594      3.2055     44.8937     11.8156
  1260.6000   1029.1459      7.6932      2.6057      0.0755      2.6858     43.6724     11.7992
  1260.7000   1029.1459      7.6932      2.6109      0.0985      2.3669     42.6505     11.5231
  1260.8000    994.6362      7.6923      2.6136      0.0943      2.2051     41.3795     11.3509
  1260.9000    994.6362      7.6923      2.6157      0.1107      2.0809     41.0191     11.1584
  1261.0000    962.1393      7.6919      2.6094      0.1356      2.4582     43.3000     10.6050
  1261.1000    962.1393      7.6919      2.5897      0.0735      3.6526     46.7141     10.2372
  1261.2000    962.1393      7.6919      2.5622      0.0843      5.3198     46.2542     10.5693
  1261.3000   1049.8479      7.6926      2.5344      0.0314      7.0091     41.9296     11.3601
  1261.4000   1049.8479      7.6926      2.5208      0.0065      7.8316     39.5616     12.1531
  1261.5000   1023.6371      7.6937      2.5333      0.0420      7.0727     41.4278     12.3624
  1261.6000   1023.6371      7.6937      2.5614      0.0695      5.3684     44.4576     11.9020
  1261.7000   1023.6371      7.6937      2.5807      0.1003      4.1996     45.5870     11.2547
  1261.8000    986.6625      7.6933      2.5802      0.0889      4.2321     44.7340     10.5407
  1261.9000    986.6625      7.6933      2.5768      0.0869      4.4358     45.0450      9.9117
  1262.0000   1020.3720      7.6917      2.5891      0.1278      3.6915     47.9689      9.6435
  1262.1000   1020.3720      7.6917      2.6091      0.1357      2.4776     50.8404      9.9384
  1262.2000   1020.3720      7.6917      2.6149      0.1347      2.1283     52.4474     10.7916
  1262.3000   1018.4821      7.6931      2.5960      0.1049      3.2736     53.0220     11.5927
  1262.4000   1018.4821      7.6931      2.5635      0.1080      5.2404     51.5221     11.7240
  1262.5000   1030.7548      7.6925      2.5430      0.0714      6.4864     48.8820     11.5128
  1262.6000   1030.7548      7.6925      2.5503      0.0651      6.0422     46.9490     11.7158
  1262.7000   1030.7548      7.6925      2.5725      0.1057      4.6992     45.9360     12.6826
  1262.8000   1028.1925      7.6939      2.5871      0.0928      3.8107     46.4584     13.7079
  1262.9000   1028.1925      7.6939      2.5891      0.0979      3.6884     49.3935     13.7575
  1263.0000   1012.0273      7.6928      2.5821      0.1066      4.1155     52.6618     13.2906
  1263.1000   1012.0273      7.6928      2.5696      0.1069      4.8747     53.4174     12.8655
