~Version Information
VERS.                      2.0: CWLS Log ASCII Standard - VERSION 2.0
WRAP.                       NO: One line per depth step
~Well Information Block
STRT.FT               298.0000: 
STOP.FT              1302.0000: 
STEP.FT                 0.1000: 
NULL.                -999.2500: 
COMP.          Pioneer Natural Resources: COMPANY
WELL.          Bouncer 41-27 Tr: WELL
FLD.           Purgatoire River: FIELD
LOC.           292' FNL & 222' FEL: LOCATION
PROV.                 Colorado: PROVINCE
CNTY.               Las Animas: COUNTRY
SRVC.                Patterson: SERVICE COMPANY
DATE.          Mon Feb 07 12:55:19 2005: LOG DATE
UWI.           05 071 08291 00: UNIQUE WELL ID
~Curve Information Block
DEPT.FT            0 000 00 00: Depth
DCAL.in                       : CDL Caliper
RHOB.g/cc                     : CDL Bulk Density
RHOC.g/cc                     : CDL Density Correction
DPOR.pu                       : CDL Density Porosity
GR.GAPI                       : Gamma Ray
NPOR.pu                       : Neutron Porosity
~Parameter Information Block
~A  Depth       DCAL        RHOB        RHOC        DPOR         GR         NPOR    
# ...
  1027.6000      7.8744      2.5139      0.0742      8.2496     72.3765     19.5253
  1027.7000      7.8744      2.5052      0.0642      8.7773     74.7216     19.6036
  1027.8000      7.8585      2.5335      0.0918      7.0611     77.6337     19.5479
  1027.9000      7.8585      2.5781      0.1033      4.3602     79.6508     19.4498
  1028.0000      7.8228      2.6072      0.0838      2.5933     81.7098     19.7212
  1028.1000      7.8228      2.6192      0.0872      1.8656     84.9620     20.3270
  1028.2000      7.8228      2.6353      0.1498      0.8939     88.8006     20.6227
  1028.3000      7.8078      2.6522      0.1920     -0.1345     91.8701     20.4006
  1028.4000      7.8078      2.6412      0.2252      0.5329     93.3645     20.2380
  1028.5000      7.8392      2.5991      0.1499      3.0876     94.6203     20.5031
  1028.6000      7.8392      2.5614      0.0971      5.3709     95.9899     20.8090
  1028.7000      7.8392      2.5578      0.0609      5.5895     96.5321     20.6410
  1028.8000      7.7668      2.5833      0.0330      4.0433     98.9833     20.2830
  1028.9000      7.7668      2.6018      0.0473      2.9200    104.9745     20.3278
  1029.0000      7.8141      2.5892      0.0335      3.6838    110.2927     20.5525
  1029.1000      7.8141      2.5678      0.0616      4.9829    111.8478     20.4992
  1029.2000      7.8141      2.5615      0.0794      5.3666    112.2528     20.2272
  1029.3000      7.9128      2.5596      0.1281      5.4811    112.7535     20.1597
  1029.4000      7.9128      2.5440      0.1059      6.4252    112.8584     20.5252
  1029.5000      7.8953      2.5156      0.0740      8.1439    114.9089     21.2085
  1029.6000      7.8953      2.4945      0.0527      9.4227    118.8429     22.1034
  1029.7000      7.8953      2.5091      0.0435      8.5414    121.9767     22.9816
  1029.8000      7.8952      2.5625      0.0973      5.3009    123.9100     23.3335
  1029.9000      7.8952      2.6190      0.1134      1.8783    124.5403     23.0177
  1030.0000      7.8973      2.6420      0.1563      0.4837    123.5817     22.4938
  1030.1000      7.8973      2.6276      0.1087      1.3546    119.3680     22.1748
  1030.2000      7.8973      2.6038      0.0726      2.8013    112.0389     21.8090
  1030.3000      7.8891      2.5894      0.1069      3.6756    108.3014     21.2513
  1030.4000      7.8891      2.5817      0.0383      4.1389    111.7714     21.4176
  1030.5000      7.8918      2.5789      0.0349      4.3066    118.7975     22.5426
  1030.6000      7.8918      2.5752      0.0820      4.5347    124.4804     23.4790
  1030.7000      7.8918      2.5653      0.0725      5.1361    126.8160     23.6311
  1030.8000      7.9075      2.5579      0.0210      5.5837    124.7952     23.1422
  1030.9000      7.9075      2.5636      0.0463      5.2349    117.6762     22.3439
  1031.0000      7.9133      2.5789      0.0177      4.3089    110.5222     21.5756
  1031.1000      7.9133      2.5833      0.0732      4.0434    107.9124     20.9508
  1031.2000      7.9133      2.5633      0.0385      5.2519    106.8579     20.6314
  1031.3000      7.9337      2.5425      0.0393      6.5152    103.5222     20.8489
  1031.4000      7.9337      2.5425      0.0385      6.5122     98.3264     21.2746
  1031.5000      7.9359      2.5499      0.0278      6.0652     92.4529     21.1475
  1031.6000      7.9359      2.5495      0.0166      6.0921     87.3687     20.4500
  1031.7000      7.9359      2.5440     -0.0082      6.4264     85.4602     19.9016
  1031.8000      7.9406      2.5350      0.0314      6.9707     84.6916     19.7860
  1031.9000      7.9406      2.5217      0.0101      7.7761     83.6459     19.9103
  1032.0000      7.9318      2.5156      0.0150      8.1457     84.7969     20.1283
  1032.1000      7.9318      2.5224      0.0516      7.7304     87.3940     20.3894
  1032.2000      7.9318      2.5355      0.0525      6.9399     89.7900     20.5385
  1032.3000      7.8972      2.5550      0.0423      5.7552     91.9190     20.6518
  1032.4000      7.8972      2.5786      0.0630      4.3250     93.5652     20.7046
  1032.5000      7.8831      2.5882      0.0775      3.7456     97.2157     20.4793
  1032.6000      7.8831      2.5799      0.0881      4.2505    102.1596     20.4271
  1032.7000      7.8831      2.5739      0.0285      4.6101    102.8164     21.0419
  1032.8000      7.8856      2.5789      0.0612      4.3065    101.0885     21.8478
  1032.9000      7.8856      2.5812      0.0847      4.1688    104.8208     22.0832
  1033.0000      7.9101      2.5848      0.0038      3.9505    113.3615     21.8750
  1033.1000      7.9101      2.6103      0.0821      2.4038    118.5362     21.8336
  1033.2000      7.9101      2.6478      0.1252      0.1317    118.0409     22.0668
  1033.3000      7.9093      2.6640      0.1515     -0.8506    115.8388     22.6141
  1033.4000      7.9093      2.6404      0.1060      0.5841    112.7315     23.1979
  1033.5000      7.9142      2.5991      0.0508      3.0863    107.0746     22.9891
  1033.6000      7.9142      2.5866     -0.0055      3.8401    100.5864     22.1671
  1033.7000      7.9142      2.6144      0.0505      2.1593     99.4093     21.7540
  1033.8000      7.9090      2.6389      0.0690      0.6728    104.5481     21.8787
  1033.9000      7.9090      2.6215      0.0842      1.7295    108.7428     22.1417
  1034.0000      7.9178      2.5766      0.0182      4.4471    106.7097     22.3112
  1034.1000      7.9178      2.5466      0.0049      6.2661    101.4916     22.6008
  1034.2000      7.9178      2.5408      0.0200      6.6201     99.6590     23.1327
  1034.3000      7.9370      2.5391      0.0019      6.7188    102.4229     23.4088
  1034.4000      7.9370      2.5317      0.0297      7.1725    105.8183     23.0890
  1034.5000      7.9233      2.5208      0.0519      7.8311    107.6294     22.4303
  1034.6000      7.9233      2.5133      0.0087      8.2866    107.9239     22.0323
  1034.7000      7.9233      2.5042      0.0592      8.8370    107.9810     22.1215
  1034.8000      7.9232      2.4847      0.0147     10.0203    110.2098     22.2442
  1034.9000      7.9232      2.4738     -0.0267     10.6760    114.3578     22.1408
  1035.0000      7.9254      2.4927     -0.0215      9.5329    117.9658     21.9685
  1035.1000      7.9254      2.5235      0.0394      7.6683    118.3716     22.0280
  1035.2000      7.9254      2.5423      0.0182      6.5251    115.5124     22.1922
  1035.3000      7.9218      2.5542      0.0154      5.8056    114.6778     21.9672
  1035.4000      7.9218      2.5587      0.0854      5.5307    119.4753     21.7202
  1035.5000      7.9375      2.5510      0.0205      5.9970    124.6109     22.3926
  1035.6000      7.9375      2.5506      0.0736      6.0223    126.4441     23.7227
  1035.7000      7.9375      2.5680      0.0737      4.9671    127.1830     24.4445
  1035.8000      7.9250      2.5822      0.1461      4.1065    127.1272     24.4222
  1035.9000      7.9250      2.5731      0.1298      4.6584    127.7837     24.5074
  1036.0000      7.9208      2.5559      0.0604      5.7057    131.5174     24.4298
  1036.1000      7.9208      2.5465      0.1134      6.2726    135.6877     23.8209
  1036.2000      7.9208      2.5379      0.0995      6.7936    137.7178     23.5582
  1036.3000      7.9083      2.5311      0.0860      7.2071    137.1315     24.0336
  1036.4000      7.9083      2.5243      0.1316      7.6195    133.1411     24.6963
  1036.5000      7.8851      2.5110      0.0869      8.4236    128.3609     24.9533
  1036.6000      7.8851      2.5084      0.0979      8.5803    127.2578     24.5555
  1036.7000      7.8851      2.5283      0.0662      7.3766    129.7342     23.8475
  1036.8000      7.8888      2.5538      0.1208      5.8275    133.2899     23.4679
  1036.9000      7.8888      2.5661      0.0789      5.0841    138.6126     23.8060
  1037.0000      7.8959      2.5649      0.1023      5.1553    145.5560     24.7029
  1037.1000      7.8959      2.5570      0.0839      5.6394    147.4604     25.4087
