~Version Information
 VERS.                                  2.0 : CWLS LAS VERSION
 WRAP.                                   NO : WRAPING MODE
 SWARE .                 MController 2.5.0J : SOFTWARE VERSION
~Well Information
 WELL.                         Culver 14-12 : WELL
 COMP.    Pioneer Natural Resources USA Inc : COMPANY
 FLD.                      Purgatoire River : FIELD
 LOC.                SW/SW Sec 12 T32S R66W : LOCATION
 DATE.                              6/06/05 : DATE(S) LOGGED
 SRVC.       Blanco Geological Services LLC : SERVICE COMPANY
 STAT.                                   CO : STATE
 CNTY.                           Las Animas : COUNTY
 CTRY.                                  USA : COUNTRY
 API.                       05 071 08386 00 : API NUMBER
 STRT.FT                             442.00 : START DEPTH
 STOP.FT                            2305.00 : STOP DEPTH
 STEP.FT                               1.00 : DEPTH INCREMENT
 NULL.                                -9999 : NULL VALUE
~Curve information
 DEPTH.FT                                   :
 ROP.MIN/FT                                 :
 GAS.UNITS                                  :
~ASCII Log data
# ...
      1642.0         0.20         68.2 
      1643.0         0.20         56.5 
      1644.0         0.20         46.6 
      1645.0         0.17         38.4 
      1646.0         1.82        156.0 
      1647.0         0.33        172.0 
      1648.0         0.20        176.5 
      1649.0         0.20        176.0 
      1650.0         0.30        170.2 
      1651.0         0.33        162.7 
      1652.0         0.27        140.4 
      1653.0         0.23        126.7 
      1654.0         0.23        117.7 
      1655.0         0.22        119.3 
      1656.0         0.23        125.5 
      1657.0         0.27        126.2 
      1658.0         0.23        123.0 
      1659.0         0.20        116.9 
      1660.0         0.27        110.8 
      1661.0         0.27        102.9 
      1662.0         0.23         91.5 
      1663.0         0.17         84.8 
      1664.0         0.17         84.9 
      1665.0         0.13         86.4 
      1666.0         0.20         88.4 
      1667.0         0.23         88.1 
      1668.0         0.20         92.3 
      1669.0         0.23         97.0 
      1670.0         0.25         96.3 
      1671.0         0.20         90.0 
      1672.0         0.17         85.2 
      1673.0         0.20         81.1 
      1674.0         0.17         73.7 
      1675.0         0.23         67.2 
      1676.0         1.90        132.3 
      1677.0         0.38        155.5 
      1678.0         0.30        161.4 
      1679.0         0.27        160.9 
      1680.0         0.23        150.3 
      1681.0         0.20        135.0 
      1682.0         0.20        122.4 
      1683.0         0.20        114.0 
      1684.0         0.27        103.4 
      1685.0         0.23         95.8 
      1686.0         0.37         96.3 
      1687.0         0.33         95.7 
      1688.0         0.40         89.0 
      1689.0         0.42         73.0 
      1690.0         0.33         59.4 
      1691.0         0.33         52.7 
      1692.0         0.33         50.0 
      1693.0         0.33         48.7 
      1694.0         0.37         49.3 
      1695.0         0.37         49.0 
      1696.0         0.27         45.0 
      1697.0         0.27         41.4 
      1698.0         0.30         40.4 
      1699.0         0.42         51.1 
      1700.0         0.40         63.1 
      1701.0         0.40         74.0 
      1702.0         0.27         80.3 
      1703.0         0.33         81.6 
      1704.0         0.30         79.8 
      1705.0         0.30         69.7 
      1706.0         1.85        130.8 
      1707.0         0.23        138.6 
      1708.0         0.37        159.0 
      1709.0         0.37        176.2 
      1710.0         0.33        176.3 
      1711.0         0.33        158.3 
      1712.0         0.27        131.3 
      1713.0         0.20        113.2 
      1714.0         0.23        102.4 
      1715.0         0.20         95.0 
      1716.0         0.25         93.6 
      1717.0         0.17         93.8 
      1718.0         0.27         93.4 
      1719.0         0.27         90.4 
      1720.0         0.23         87.4 
      1721.0         0.23         85.0 
      1722.0         0.40         82.9 
      1723.0         0.30         77.4 
      1724.0         0.20         74.4 
      1725.0         0.23         70.4 
      1726.0         0.23         66.8 
      1727.0         0.17         62.3 
      1728.0         0.20         60.5 
      1729.0         0.17         64.7 
      1730.0         0.17         67.4 
      1731.0         0.18         67.2 
      1732.0         0.17         61.0 
      1733.0         0.17         53.2 
      1734.0         0.13         46.7 
      1735.0         0.17         41.4 
      1736.0         2.23        136.8 
      1737.0         0.23        151.0 
      1738.0         0.32        169.2 
      1739.0         0.23        173.5 
      1740.0         0.23        172.9 
      1741.0         0.20        162.7 
      1742.0         0.17        143.7 
      1743.0         0.20        126.9 
      1744.0         0.17        112.6 
      1745.0         0.20        102.0 
      1746.0         0.20         90.5 
      1747.0         0.20         83.0 
      1748.0         0.27         85.7 
      1749.0         0.20         89.9 
      1750.0         0.20         91.8 
      1751.0         0.23         93.0 
      1752.0         0.27         92.8 
      1753.0         0.22         86.4 
      1754.0         0.33         81.7 
      1755.0         0.20         72.1 
      1756.0         0.13         65.5 
      1757.0         0.17         62.0 
      1758.0         0.17         58.8 
      1759.0         0.20         56.4 
      1760.0         0.20         58.8 
      1761.0         0.17         67.6 
      1762.0         0.23         77.7 
      1763.0         0.33         80.8 
      1764.0         0.27         77.3 
      1765.0         0.27         65.0 
      1766.0         1.75         93.3 
      1767.0         0.23        115.5 
      1768.0         0.27        141.1 
      1769.0         0.17        156.8 
      1770.0         0.23        176.3 
      1771.0         0.37        179.8 
      1772.0         0.27        175.5 
      1773.0         0.37        173.3 
      1774.0         0.45        171.4 
      1775.0         0.33        147.2 
      1776.0         0.27        117.7 
      1777.0         0.30        101.6 
      1778.0         0.30         91.9 
      1779.0         0.33         87.0 
      1780.0         0.30         86.6 
      1781.0         0.63         81.4 
      1782.0         0.23         77.6 
      1783.0         0.38         76.5 
      1784.0         0.27         71.5 
      1785.0         0.23         66.4 
      1786.0         0.20         65.3 
      1787.0         0.33         70.3 
      1788.0         0.23         73.5 
      1789.0         0.30         84.0 
      1790.0         0.27         85.1 
      1791.0         0.23         81.4 
      1792.0         0.23         69.6 
      1793.0         0.27         55.1 
      1794.0         0.33         42.7 
      1795.0         0.20         32.6 
      1796.0         1.15         87.3 
      1797.0         0.50        134.2 
      1798.0         0.47        177.7 
      1799.0         0.37        187.7 
      1800.0         0.30        185.0 
      1801.0         0.33        163.8 
      1802.0         0.27        134.1 
      1803.0         0.28        112.3 
      1804.0         0.30         95.2 
      1805.0         0.27         85.7 
      1806.0         0.23         90.4 
      1807.0         0.27         95.7 
      1808.0         0.27         98.0 
      1809.0         0.23         96.3 
      1810.0         0.17         89.1 
      1811.0         0.17         84.4 
      1812.0         0.13         79.9 
      1813.0         0.13         75.7 
      1814.0         0.13         72.3 
      1815.0         0.17         71.2 
      1816.0         0.20         70.6 
      1817.0         0.23         77.6 
      1818.0         0.20         80.5 
      1819.0         0.22         80.6 
      1820.0         0.13         74.4 
      1821.0         0.13         67.3 
      1822.0         0.17         59.3 
      1823.0         0.13         50.3 
      1824.0         0.13         44.4 
      1825.0         0.17         40.4 
      1826.0         2.35        193.5 
      1827.0         0.30        209.4 
      1828.0         0.30        209.6 
      1829.0         0.23        201.9 
      1830.0         0.23        183.9 
      1831.0         0.27        157.7 
      1832.0         0.27        131.5 
      1833.0         0.23        109.8 
      1834.0         0.27         94.9 
      1835.0         0.27         82.8 
      1836.0         0.20         83.0 
      1837.0         0.27         86.6 
      1838.0         0.17         88.7 
      1839.0         0.20         89.0 
      1840.0         0.25         88.5 
      1841.0         0.20         84.4 
