~Version Information
VERS.                      2.0: CWLS Log ASCII Standard - VERSION 2.0
WRAP.                       NO: One line per depth step
~Well Information Block
STRT.FT               245.0000: 
STOP.FT              2464.2000: 
STEP.FT                 0.1000: 
NULL.                -999.2500: 
COMP.          Pioneer Natural Resources: COMPANY
WELL.          Oink Oink 14-36: WELL
FLD.           Purgatoire River: FIELD
LOC.           216' FSL & 263' FWL--: LOCATION
PROV.                 Colorado: PROVINCE
CNTY.               Las Animas: COUNTRY
SRVC.                Patterson: SERVICE COMPANY
DATE.          Wed Jun 08 16:53:09 2005: LOG DATE
UWI.           05 071 08394 00: UNIQUE WELL ID
~Curve Information Block
DEPT.FT            0 000 00 00: Depth
DCAL.in                       : CDL Caliper
RHOB.g/cc                     : CDL Bulk Density
RHOC.g/cc                     : CDL Density Correction
DPOR.pu                       : CDL Density Porosity
NPOR.pu                       : Neutron Porosity
GR.GAPI                       : Gamma Ray
~Parameter Information Block
~A  Depth       DCAL        RHOB        RHOC        DPOR        NPOR         GR     
# ...
  1992.2000      8.0538      2.5379     -0.0063      6.7954     27.1531    191.4927
  1992.3000      8.0545      2.5486      0.0443      6.1480     26.4212    190.7717
  1992.4000      8.0545      2.5471      0.0557      6.2373     26.0570    188.9007
  1992.5000      8.0555      2.5280      0.0593      7.3963     25.9757    189.7957
  1992.6000      8.0555      2.5090      0.0386      8.5441     25.9147    189.5522
  1992.7000      8.0555      2.5063      0.0322      8.7094     25.7535    185.5432
  1992.8000      8.0597      2.5141      0.0247      8.2357     25.5650    182.7106
  1992.9000      8.0597      2.5281     -0.0200      7.3872     25.5576    180.4883
  1993.0000      8.0669      2.5500      0.0688      6.0599     25.4108    175.3153
  1993.1000      8.0669      2.5686      0.0512      4.9330     24.6786    171.4229
  1993.2000      8.0669      2.5731      0.0946      4.6633     23.8042    171.2021
  1993.3000      8.0691      2.5661      0.0625      5.0826     23.4946    171.7829
  1993.4000      8.0691      2.5628      0.0723      5.2876     23.6028    171.5907
  1993.5000      8.0639      2.5780      0.0716      4.3656     23.6638    170.3680
  1993.6000      8.0639      2.6078      0.1224      2.5604     23.9621    169.3622
  1993.7000      8.0639      2.6256      0.1391      1.4764     24.9302    168.9299
  1993.8000      8.0578      2.6155      0.0519      2.0922     26.1547    166.3503
  1993.9000      8.0578      2.5947      0.0002      3.3509     26.6313    159.8769
  1994.0000      8.0546      2.5885      0.0163      3.7298     26.0387    151.5108
  1994.1000      8.0546      2.5960      0.0559      3.2743     25.3554    146.0748
  1994.2000      8.0546      2.5974      0.0535      3.1876     25.2320    144.5360
  1994.3000      8.0534      2.5867      0.0318      3.8379     25.3651    145.8235
  1994.4000      8.0534      2.5720      0.0424      4.7257     25.2462    149.2906
  1994.5000      8.0527      2.5632     -0.0079      5.2593     24.6398    150.5753
  1994.6000      8.0527      2.5677      0.0497      4.9851     24.1583    147.8142
  1994.7000      8.0527      2.5784      0.0169      4.3375     24.5253    146.0321
  1994.8000      8.0518      2.5844      0.0242      3.9747     25.2309    144.6244
  1994.9000      8.0518      2.5840      0.0658      4.0020     25.2675    140.6063
  1995.0000      8.0495      2.5828      0.0213      4.0745     24.5487    140.2767
  1995.1000      8.0495      2.5892      0.0289      3.6824     23.6857    146.9664
  1995.2000      8.0495      2.6001      0.0594      3.0217     23.1745    150.7364
  1995.3000      8.0487      2.6083      0.0477      2.5287     23.3330    146.9450
  1995.4000      8.0487      2.6140      0.0426      2.1817     24.0109    144.6857
  1995.5000      8.0489      2.6218      0.0302      1.7113     24.5227    146.8514
  1995.6000      8.0489      2.6330      0.0469      1.0304     24.5166    144.7840
  1995.7000      8.0489      2.6394      0.0678      0.6431     24.3293    138.4646
  1995.8000      8.0484      2.6326      0.0312      1.0542     24.4658    137.5400
  1995.9000      8.0484      2.6188      0.0556      1.8896     24.8670    141.3735
  1996.0000      8.0468      2.6081      0.0408      2.5412     24.9788    140.6623
  1996.1000      8.0468      2.6027      0.0318      2.8649     24.6789    133.2213
  1996.2000      8.0468      2.6013      0.0160      2.9511     24.4923    124.2459
  1996.3000      8.0416      2.5988      0.0158      3.1055     24.6511    119.7591
  1996.4000      8.0416      2.5900      0.0289      3.6355     24.6406    122.8441
  1996.5000      8.0357      2.5822     -0.0095      4.1107     24.0846    127.6047
  1996.6000      8.0357      2.5804      0.0782      4.2170     23.4034    125.6116
  1996.7000      8.0357      2.5792      0.0443      4.2881     23.1421    118.5592
  1996.8000      8.0365      2.5794      0.0439      4.2794     23.3215    114.5211
  1996.9000      8.0365      2.5848      0.0297      3.9515     23.6064    115.2457
  1997.0000      8.0411      2.5927      0.0800      3.4714     23.5569    116.0214
  1997.1000      8.0411      2.5944      0.0685      3.3700     23.2639    114.3748
  1997.2000      8.0411      2.5878      0.0492      3.7704     23.4197    110.9596
  1997.3000      8.0438      2.5811      0.0453      4.1765     24.0853    108.7323
  1997.4000      8.0438      2.5796      0.0476      4.2640     24.3567    106.9504
  1997.5000      8.0456      2.5813      0.0395      4.1607     23.7144    104.2598
  1997.6000      8.0456      2.5817      0.0417      4.1400     22.7032    103.2529
  1997.7000      8.0456      2.5756      0.0763      4.5063     21.9563    103.5666
  1997.8000      8.0468      2.5679     -0.0005      4.9743     21.6409    100.3517
  1997.9000      8.0468      2.5728      0.0198      4.6784     21.7222     92.0835
  1998.0000      8.0477      2.5890      0.0509      3.6957     22.0576     84.2465
  1998.1000      8.0477      2.6029      0.0522      2.8569     22.3185     82.1768
  1998.2000      8.0477      2.6025      0.0850      2.8782     22.3779     83.2131
  1998.3000      8.0486      2.5872      0.0372      3.8084     22.3930     81.2500
  1998.4000      8.0486      2.5682      0.0681      4.9552     22.5146     77.4259
  1998.5000      8.0481      2.5566      0.0064      5.6630     22.7011     77.7217
  1998.6000      8.0481      2.5653     -0.0097      5.1320     22.8598     82.4717
  1998.7000      8.0481      2.5918      0.0531      3.5299     23.2217     86.7316
  1998.8000      8.0484      2.6060      0.1062      2.6678     23.7222     89.2636
  1998.9000      8.0484      2.5958      0.0394      3.2875     23.9755     94.0795
  1999.0000      8.0529      2.5839      0.0311      4.0044     24.0054    101.2722
  1999.1000      8.0529      2.5851      0.0672      3.9344     23.9316    102.8868
  1999.2000      8.0529      2.5872      0.0288      3.8051     23.7544     96.2138
  1999.3000      8.0614      2.5809      0.0101      4.1892     23.6555     91.5119
  1999.4000      8.0614      2.5708      0.0279      4.7984     23.8090     92.7026
  1999.5000      8.0702      2.5600      0.0413      5.4546     24.0572     93.0488
  1999.6000      8.0702      2.5460      0.0340      6.3009     24.2580     93.2599
  1999.7000      8.0702      2.5377     -0.0212      6.8091     24.5074    100.0195
  1999.8000      8.0759      2.5448      0.0209      6.3782     24.6880    111.0538
  1999.9000      8.0759      2.5599      0.0251      5.4622     24.5761    117.8101
  2000.0000      8.0776      2.5730      0.0610      4.6659     24.3511    117.0143
  2000.1000      8.0776      2.5882      0.0187      3.7483     24.3998    115.0349
  2000.2000      8.0776      2.6138      0.0426      2.1952     24.7796    119.8342
  2000.3000      8.0770      2.6397      0.0876      0.6256     25.1751    129.3594
  2000.4000      8.0770      2.6504      0.0841     -0.0242     25.4034    134.6516
  2000.5000      8.0768      2.6413      0.1022      0.5259     25.5488    133.0787
  2000.6000      8.0768      2.6120      0.0781      2.3016     25.6762    130.7834
  2000.7000      8.0768      2.5790      0.0007      4.3020     25.8325    131.1154
  2000.8000      8.0769      2.5655     -0.0229      5.1242     25.9191    131.7367
  2000.9000      8.0769      2.5662      0.0450      5.0763     25.9297    132.3961
  2001.0000      8.0783      2.5637      0.0430      5.2298     25.8922    135.5770
  2001.1000      8.0783      2.5560      0.0550      5.6970     25.5310    141.1304
  2001.2000      8.0783      2.5450      0.0567      6.3615     24.6545    144.1131
  2001.3000      8.0855      2.5296      0.0496      7.2978     23.2791    141.6589
  2001.4000      8.0855      2.5157      0.0152      8.1416     21.3243    137.6772
  2001.5000      8.0959      2.5174     -0.0026      8.0346     19.1052    134.5129
  2001.6000      8.0959      2.5334      0.0454      7.0670     17.4167    133.1881
  2001.7000      8.0959      2.5450      0.0302      6.3621     16.7910    134.8116
