~Version Information
VERS.                      2.0: CWLS Log ASCII Standard - VERSION 2.0
WRAP.                       NO: One line per depth step
~Well Information Block
STRT.FT               500.0000: 
STOP.FT              2732.5000: 
STEP.FT                 0.1000: 
NULL.                -999.2500: 
COMP.          Pioneer Natural Resources: COMPANY
WELL.          Dude Canyon 22-32: WELL
FLD.           Purgatoire River: FIELD
LOC.           1662' FNL & 2446' FWL----: LOCATION
PROV.                 Colorado: PROVINCE
CNTY.               Las Animas: COUNTRY
SRVC.                Patterson: SERVICE COMPANY
DATE.          Thu Mar 10 07:06:34 2005: LOG DATE
UWI.           05 071 08257 00: UNIQUE WELL ID
~Curve Information Block
DEPT.FT            0 000 00 00: Depth
GR.GAPI                       : Gamma Ray
DCAL.in                       : CDL Caliper
DPOR.pu                       : CDL Density Porosity
NPOR.pu                       : Neutron Porosity
RHOB.g/cc                     : CDL Bulk Density
RHOC.g/cc                     : CDL Density Correction
~Parameter Information Block
~A  Depth        GR         DCAL        DPOR        NPOR        RHOB        RHOC    
# ...
  1383.2000    138.8462      8.0401      1.4022     25.5821      2.6269      0.1157
  1383.3000    149.5215      8.0445      4.1254     25.9890      2.5819      0.0790
  1383.4000    153.2183      8.0445      6.4326     26.5402      2.5439      0.0019
  1383.5000    153.3314      8.0369      7.5277     26.8940      2.5258     -0.0239
  1383.6000    155.2420      8.0369      7.3683     26.6126      2.5284      0.0496
  1383.7000    155.8595      8.0369      6.8227     26.1343      2.5374      0.0219
  1383.8000    154.3491      8.0192      6.5041     26.0384      2.5427      0.0533
  1383.9000    151.2018      8.0192      6.5215     26.4032      2.5424      0.0421
  1384.0000    143.6162      8.0080      7.1764     26.7824      2.5316      0.0781
  1384.1000    138.4281      8.0080      8.2671     26.7628      2.5136     -0.0043
  1384.2000    149.3094      8.0080      8.3452     26.6277      2.5123     -0.0101
  1384.3000    170.6800      8.0051      6.7486     26.5127      2.5386      0.0100
  1384.4000    179.9964      8.0051      4.9417     26.3567      2.5685      0.0678
  1384.5000    167.4953      8.0035      4.4312     26.3834      2.5769      0.0101
  1384.6000    147.1038      8.0035      4.8989     26.3401      2.5692      0.0533
  1384.7000    136.5731      8.0035      5.2796     26.0794      2.5629      0.0248
  1384.8000    139.5585      7.9993      4.7280     25.8579      2.5720      0.0444
  1384.9000    148.2465      7.9993      3.8410     25.4345      2.5866      0.0899
  1385.0000    157.4002      7.9943      3.8955     24.7339      2.5857      0.0592
  1385.1000    165.3134      7.9943      4.6702     24.2442      2.5729      0.0283
  1385.2000    168.4487      7.9943      5.1289     24.0793      2.5654      0.0165
  1385.3000    164.9841      7.9929      4.8868     23.8037      2.5694      0.0393
  1385.4000    158.2310      7.9929      4.4365     23.2972      2.5768      0.0177
  1385.5000    152.3295      7.9937      4.2741     22.8982      2.5795      0.0288
  1385.6000    146.6640      7.9937      4.0832     22.8002      2.5826      0.0450
  1385.7000    140.4528      7.9937      3.2095     22.9166      2.5970      0.0159
  1385.8000    136.6552      7.9947      2.1961     23.0075      2.6138      0.0891
  1385.9000    137.2120      7.9947      2.4737     22.8919      2.6092      0.0483
  1386.0000    141.0046      7.9963      3.4000     22.7230      2.5939      0.0301
  1386.1000    144.7291      7.9963      3.2415     23.0119      2.5965      0.0332
  1386.2000    145.1614      7.9963      2.5304     23.6105      2.6082      0.0710
  1386.3000    141.1245      7.9974      2.7359     23.6782      2.6049      0.0436
  1386.4000    132.8534      7.9974      3.4301     23.0227      2.5934      0.0211
  1386.5000    125.8159      7.9971      3.5610     22.2907      2.5912      0.0159
  1386.6000    125.6512      7.9971      3.3814     22.0137      2.5942      0.0707
  1386.7000    128.9209      7.9971      3.2596     22.2014      2.5962      0.0097
  1386.8000    129.5405      7.9976      3.0202     22.4701      2.6002      0.0671
  1386.9000    126.6910      7.9976      3.0515     22.5215      2.5997      0.0562
  1387.0000    123.5611      7.9973      3.4264     22.4874      2.5935      0.0153
  1387.1000    121.7603      7.9973      3.5822     22.8146      2.5909     -0.0071
  1387.2000    119.0802      7.9973      3.4703     23.3458      2.5927      0.0244
  1387.3000    115.6350      7.9962      3.7748     23.6443      2.5877      0.0637
  1387.4000    114.0585      7.9962      5.1706     24.0985      2.5647      0.0942
  1387.5000    115.9905      7.9974      7.2867     24.9143      2.5298      0.0105
  1387.6000    120.4387      7.9974      9.1087     25.3620      2.4997      0.0184
  1387.7000    123.8359      7.9974     10.2869     25.3328      2.4803     -0.0134
  1387.8000    125.0642      8.0044     11.1772     25.4069      2.4656      0.0223
  1387.9000    127.4002      8.0044     12.3184     25.4668      2.4467      0.0401
  1388.0000    131.8120      8.0145     13.5314     25.5261      2.4267      0.0142
  1388.1000    136.3225      8.0145     13.9544     25.9445      2.4198      0.0366
  1388.2000    139.7254      8.0145     13.0907     26.5072      2.4340      0.0317
  1388.3000    139.2042      8.0211     11.5139     27.0349      2.4600      0.0838
  1388.4000    135.5940      8.0211     10.6552     27.4139      2.4742      0.0508
  1388.5000    132.1221      8.0265     11.8729     27.7199      2.4541      0.0648
  1388.6000    127.8473      8.0265     16.1416     28.2090      2.3837      0.0518
  1388.7000    123.2809      8.0265     22.9931     28.9258      2.2706     -0.0021
  1388.8000    120.8874      8.0339     30.8474     29.9488      2.1410     -0.0649
  1388.9000    120.6134      8.0339     39.1357     31.3336      2.0043     -0.0966
  1389.0000    120.1096      8.0421     47.5035     32.6009      1.8662     -0.1957
  1389.1000    115.1890      8.0421     54.1712     33.2884      1.7562     -0.2162
  1389.2000    104.5865      8.0421     57.8748     33.6556      1.6951     -0.2080
  1389.3000     92.9965      8.0481     59.7624     34.1304      1.6639     -0.0902
  1389.4000     83.9508      8.0481     61.0437     34.5842      1.6428     -0.1138
  1389.5000     76.3955      8.0505     60.1572     34.6050      1.6574     -0.0993
  1389.6000     72.4786      8.0505     55.3926     34.1183      1.7360      0.0630
  1389.7000     78.2039      8.0505     47.9091     33.5234      1.8595      0.2091
  1389.8000     92.7874      8.0526     39.8417     32.9668      1.9926      0.2547
  1389.9000    105.2947      8.0526     32.2479     32.2968      2.1179      0.2851
  1390.0000    110.0783      8.0497     25.5398     31.6908      2.2286      0.2892
  1390.1000    111.7273      8.0497     20.0219     31.5500      2.3196      0.2590
  1390.2000    113.5709      8.0497     15.9224     31.8405      2.3873      0.2294
  1390.3000    116.7739      8.0387     13.2776     31.9347      2.4309      0.1819
  1390.4000    121.9073      8.0387     11.6771     31.3947      2.4573      0.1314
  1390.5000    129.8970      8.0326     10.8462     30.6715      2.4710      0.1576
  1390.6000    140.7410      8.0326     10.8367     30.4635      2.4712      0.0910
  1390.7000    149.1950      8.0326     11.0997     30.5883      2.4669      0.0682
  1390.8000    147.2014      8.0348     10.8466     30.6418      2.4710      0.0690
  1390.9000    137.4144      8.0348      9.8517     30.6818      2.4874      0.0750
  1391.0000    134.2775      8.0394      8.2933     30.5550      2.5132      0.0625
  1391.1000    139.8108      8.0394      6.7493     30.3927      2.5386      0.0865
  1391.2000    142.1313      8.0394      6.0183     30.6124      2.5507      0.1083
  1391.3000    136.9594      8.0447      6.4162     30.8967      2.5441      0.0920
  1391.4000    131.2420      8.0447      7.6327     30.6476      2.5241      0.0802
  1391.5000    129.7887      8.0473      9.0834     29.7164      2.5001      0.0587
  1391.6000    131.1066      8.0473     10.4582     28.8903      2.4774      0.0996
  1391.7000    134.8946      8.0473     11.6089     29.1438      2.4585      0.0277
  1391.8000    141.7471      8.0461     12.0488     30.2034      2.4512      0.0283
  1391.9000    148.7378      8.0461     12.0291     31.0369      2.4515      0.0549
  1392.0000    148.5853      8.0471     13.0945     31.2192      2.4339      0.0656
  1392.1000    138.7946      8.0471     16.1356     31.3181      2.3838      0.0145
  1392.2000    125.7245      8.0471     19.9650     32.0505      2.3206     -0.0805
  1392.3000    118.6983      8.0549     23.5276     33.1669      2.2618     -0.0306
  1392.4000    121.5075      8.0549     28.0662     33.8547      2.1869     -0.0156
  1392.5000    127.6490      8.0657     34.9782     34.1764      2.0729     -0.0564
  1392.6000    126.4405      8.0657     43.7299     34.7358      1.9285     -0.1051
  1392.7000    115.4959      8.0657     52.7688     35.4915      1.7793     -0.1305
