~Version Information
VERS.                      2.0: CWLS Log ASCII Standard - VERSION 2.0
WRAP.                       NO: One line per depth step
~Well Information Block
STRT.FT               702.7000: 
STOP.FT              2529.2000: 
STEP.FT                 0.1000: 
NULL.                -999.2500: 
COMP.          Pioneer Natural Resources: COMPANY
WELL.          Aztec Federal 41-15: WELL
FLD.           Purgatorie River: FIELD
LOC.           706' FNL & 1253' FEL: LOCATION
CNTY.               Las Animas: COUNTY
SRVC.          Superior Well Services: SERVICE COMPANY
DATE.          Tue Mar 18 09-36-47 2008: LOG DATE
UWI.           05-071-08342-00: UNIQUE WELL ID
STAT.                       CO: STATE
~Curve Information Block
DEPT.FT            0 000 00 00: Depth
DCAL.in                       : CDL Caliper
DPOR.pu                       : CDL Density Porosity
GR.GAPI                       : Gamma Ray
RHOB.g/cc                     : CDL Bulk Density
RHOC.g/cc                     : CDL Density Correction
~Parameter Information Block
~A  Depth       DCAL        DPOR         GR         RHOB        RHOC    
# ...
  2393.9000      7.6919      3.1765     87.4665      2.5976      0.0659
  2394.0000      7.6922      3.7337     86.2933      2.5884      0.0928
  2394.1000      7.6925      5.3457     83.8225      2.5618      0.0505
  2394.2000      7.6928      6.2836     87.2185      2.5463     -0.0056
  2394.3000      7.6930      5.3292     91.8776      2.5621      0.0517
  2394.4000      7.6933      3.5686     94.4375      2.5911      0.0712
  2394.5000      7.6937      2.3090     99.5488      2.6119      0.0809
  2394.6000      7.6945      1.8320    102.4013      2.6198      0.1068
  2394.7000      7.6957      1.9618     93.6409      2.6176      0.0729
  2394.8000      7.6975      2.5006     79.8542      2.6087      0.0785
  2394.9000      7.6997      3.5520     73.5005      2.5914      0.0357
  2395.0000      7.7023      4.8692     75.7884      2.5697      0.0477
  2395.1000      7.7051      5.5542     78.8324      2.5584      0.0386
  2395.2000      7.7077      4.7595     75.3523      2.5715      0.0365
  2395.3000      7.7099      3.0912     68.4393      2.5990      0.0727
  2395.4000      7.7114      2.4003     66.2124      2.6104      0.0770
  2395.5000      7.7122      3.0548     69.8177      2.5996      0.0405
  2395.6000      7.7125      3.7176     76.5939      2.5887      0.0217
  2395.7000      7.7125      4.0114     81.9195      2.5838      0.0626
  2395.8000      7.7125      4.7953     82.2443      2.5709      0.0439
  2395.9000      7.7125      6.0938     80.1055      2.5495      0.0398
  2396.0000      7.7125      6.4564     76.8256      2.5435      0.0120
  2396.1000      7.7123      4.9906     72.1471      2.5677      0.0330
  2396.2000      7.7118      2.9469     70.2668      2.6014      0.0635
  2396.3000      7.7111      1.8876     73.0828      2.6189      0.0567
  2396.4000      7.7104      2.0717     74.6225      2.6158      0.0669
  2396.5000      7.7101      3.0115     72.4188      2.6003      0.0643
  2396.6000      7.7102      3.9046     72.4234      2.5856      0.0603
  2396.7000      7.7109      4.2697     76.0176      2.5796      0.0703
  2396.8000      7.7117      4.2058     77.1926      2.5806      0.0511
  2396.9000      7.7121      3.7656     72.6981      2.5879      0.0651
  2397.0000      7.7117      3.0368     69.9321      2.5999      0.0880
  2397.1000      7.7106      2.3401     76.4787      2.6114      0.0540
  2397.2000      7.7090      1.8151     86.6294      2.6201      0.0661
  2397.3000      7.7074      1.3950     89.9455      2.6270      0.0726
  2397.4000      7.7061      1.1131     86.9500      2.6316      0.1234
  2397.5000      7.7051      1.1402     84.7974      2.6312      0.1093
  2397.6000      7.7042      1.3291     81.7755      2.6281      0.0653
  2397.7000      7.7032      2.0699     76.8422      2.6158      0.1043
  2397.8000      7.7021      4.0765     77.1588      2.5827      0.0742
  2397.9000      7.7012      6.1767     80.4039      2.5481      0.0240
  2398.0000      7.7006      6.2904     76.4292      2.5462     -0.0151
  2398.1000      7.7002      4.3880     68.1428      2.5776      0.0862
  2398.2000      7.7001      2.2066     64.4550      2.6136      0.0756
  2398.3000      7.7003      0.8362     67.2049      2.6362      0.0836
  2398.4000      7.7009      0.4829     73.7094      2.6420      0.0575
  2398.5000      7.7019      1.0078     79.3518      2.6334      0.0836
  2398.6000      7.7032      1.9905     80.8641      2.6172      0.0443
  2398.7000      7.7046      2.8835     80.3762      2.6024      0.0703
  2398.8000      7.7059      3.2792     81.0600      2.5959      0.0424
  2398.9000      7.7070      3.0108     84.0713      2.6003      0.0413
  2399.0000      7.7083      2.7447     90.0696      2.6047      0.0916
  2399.1000      7.7100      3.0038     98.6010      2.6004      0.0414
  2399.2000      7.7119      3.2794    105.7271      2.5959      0.0543
  2399.3000      7.7137      3.8454    105.8187      2.5866      0.1021
  2399.4000      7.7150      5.1959    103.6801      2.5643      0.0605
  2399.5000      7.7155      6.5455    105.1693      2.5420      0.0790
  2399.6000      7.7152      7.2708    105.0892      2.5300      0.0773
  2399.7000      7.7142      7.3194    100.3249      2.5292      0.0542
  2399.8000      7.7129      6.5183     95.4006      2.5424      0.0557
  2399.9000      7.7116      5.2951     94.4674      2.5626      0.0599
  2400.0000      7.7105      4.7899     94.3902      2.5710      0.0677
  2400.1000      7.7097      5.1049     90.9696      2.5658      0.0477
  2400.2000      7.7092      4.9533     86.3003      2.5683      0.0533
  2400.3000      7.7089      3.8518     84.1072      2.5864      0.1030
  2400.4000      7.7084      2.8551     86.5408      2.6029      0.0912
  2400.5000      7.7074      2.7972     90.6311      2.6038      0.1178
  2400.6000      7.7056      3.1967     93.2342      2.5973      0.0604
  2400.7000      7.7029      3.0973     96.2256      2.5989      0.0982
  2400.8000      7.6995      2.5848     98.4849      2.6074      0.0893
  2400.9000      7.6957      2.2549     94.3741      2.6128      0.0760
  2401.0000      7.6919      2.5622     85.7369      2.6077      0.0958
  2401.1000      7.6887      3.5633     84.4073      2.5912      0.0493
  2401.2000      7.6862      4.4565     93.2025      2.5765      0.0670
  2401.3000      7.6846      4.5885     99.7861      2.5743      0.0358
  2401.4000      7.6837      4.1257     97.3691      2.5819      0.0968
  2401.5000      7.6835      3.8300     92.4771      2.5868      0.0370
  2401.6000      7.6837      4.1940     89.6408      2.5808      0.0650
  2401.7000      7.6844      4.7214     85.1827      2.5721      0.0570
  2401.8000      7.6855      4.5363     80.4796      2.5752      0.0509
  2401.9000      7.6868      3.7876     81.6182      2.5875      0.0844
  2402.0000      7.6877      3.3605     87.3554      2.5946      0.0828
  2402.1000      7.6881      3.2660     91.6252      2.5961      0.0661
  2402.2000      7.6880      2.9738     89.3336      2.6009      0.0653
  2402.3000      7.6877      2.7011     81.3742      2.6054      0.0393
  2402.4000      7.6875      2.6771     76.9659      2.6058      0.0392
  2402.5000      7.6877      2.7129     80.4476      2.6052      0.0779
  2402.6000      7.6882      3.0463     86.7432      2.5997      0.0353
  2402.7000      7.6891      3.5264     92.5429      2.5918      0.0234
  2402.8000      7.6902      3.4521     92.4735      2.5930      0.0543
  2402.9000      7.6912      3.1183     84.3912      2.5985      0.0520
  2403.0000      7.6921      3.0307     77.0213      2.6000      0.0299
  2403.1000      7.6926      3.0049     77.1000      2.6004      0.0727
  2403.2000      7.6930      3.0747     85.4313      2.5993      0.0430
  2403.3000      7.6931      3.2618     97.4106      2.5962      0.0584
  2403.4000      7.6932      3.1693    104.8033      2.5977      0.0363
  2403.5000      7.6930      2.5670    106.0233      2.6076      0.0296
  2403.6000      7.6926      1.8343    105.2996      2.6197      0.0816
  2403.7000      7.6917      1.5410    103.8376      2.6246      0.0612
  2403.8000      7.6907      1.6577    100.7590      2.6226      0.0364
  2403.9000      7.6895      1.8333     97.3229      2.6198      0.0660
  2404.0000      7.6884      2.1353     96.1405      2.6148      0.0576
  2404.1000      7.6876      2.6410     96.9554      2.6064      0.0444
  2404.2000      7.6872      2.9523     95.7348      2.6013      0.0235
  2404.3000      7.6874      2.8538     91.2808      2.6029      0.0289
  2404.4000      7.6879      2.4880     90.2697      2.6089      0.0518
  2404.5000      7.6889      2.2464     95.0425      2.6129      0.1014
  2404.6000      7.6901      2.8275     97.1469      2.6033      0.0632
  2404.7000      7.6915      4.1442     92.3235      2.5816      0.0290
  2404.8000      7.6927      4.9306     87.9295      2.5686      0.0227
  2404.9000      7.6937      4.1993     86.9425      2.5807      0.0033
  2405.0000      7.6942      2.3839     85.1309      2.6107      0.0638
