~Version Information
VERS.                      2.0: CWLS Log ASCII Standard - VERSION 2.0
WRAP.                       NO: One line per depth step
~Well Information Block
STRT.FT                -9.7500: 
STOP.FT              2612.5000: 
STEP.FT                 0.2500: 
NULL.                -999.2500: 
COMP.                         : COMPANY
WELL.                         : WELL
FLD.                          : FIELD
LOC.                          : LOCATION
CNTY.                         : COUNTY
SRVC.                         : SERVICE COMPANY
DATE.          Mon Nov 17 14:56:03 2003: LOG DATE
UWI.                          : UNIQUE WELL ID
STAT.                         : STATE
~Curve Information Block
DEPT.FT            0 000 00 00: Depth
CCL.                          : Casing Collar Locator
TT3.usec                      : CBL 3' Travel Time
AMP3.mV                       : CBL 3' Amplitude
GR.GAPI                       : Gamma Ray
~Parameter Information Block
~A  Depth       CCL         TT3         AMP3         GR     
# ...
   492.7500      0.0000    260.0711     86.2558    124.8439
   493.0000      0.0000    260.0746     86.1628    124.1064
   493.2500      0.0000    260.0755     86.1133    122.7955
   493.5000      0.0000    260.0745     86.1070    123.2400
   493.7500      0.0000    260.0652     86.1522    125.8033
   494.0000      0.0000    260.0439     86.2394    129.0209
   494.2500      0.0000    260.0155     86.3370    131.1575
   494.5000      0.0000    259.9875     86.4241    131.2933
   494.7500      0.0000    259.9656     86.4956    129.4617
   495.0000      0.0000    259.9559     86.5343    126.3599
   495.2500      0.0000    259.9659     86.5147    122.9028
   495.5000      0.0000    260.0028     86.4285    119.8089
   495.7500      0.0000    260.0735     86.2785    117.5046
   496.0000      0.0000    260.1782     86.0674    116.1619
   496.2500      0.0000    260.3021     85.8194    115.3916
   496.5000      0.0000    260.4161     85.5953    113.9339
   496.7500      0.0000    260.4899     85.4646    110.3101
   497.0000      0.0000    260.5041     85.4650    104.1894
   497.2500      0.0000    260.4601     85.5780     97.1211
   497.5000      0.0000    260.3810     85.7350     91.8810
   497.7500      0.0000    260.3026     85.8564     90.7353
   498.0000      0.0000    260.2572     85.8971     93.7805
   498.2500      0.0000    260.2591     85.8579     98.8132
   498.5000      0.0000    260.3001     85.7650    103.0526
   498.7500      0.0000    260.3578     85.6517    105.2376
   499.0000      0.0000    260.4081     85.5501    106.3034
   499.2500      0.0000    260.4381     85.4741    108.1298
   499.5000      0.0000    260.4502     85.4057    111.5835
   499.7500      0.0000    260.4541     85.3150    115.7679
   500.0000      0.0000    260.4538     85.2003    119.2008
   500.2500      0.0000    260.4420     85.0999    121.4310
   500.5000      0.0000    260.4108     85.0536    123.3404
   500.7500      0.0000    260.3717     85.0485    126.2573
   501.0000      0.0000    260.3688     84.9964    130.9889
   501.2500      0.0000    260.5119     84.7196    137.2279
   501.5000      0.0000    261.0730     83.9243    143.4924
   501.7500      0.0000    262.6314     82.2270    147.8507
   502.0000      0.0000    266.0620     79.3169    148.9700
   502.2500      0.0000    272.0800     75.1992    146.6461
   502.5000      0.0000    280.4499     70.3383    141.6822
   502.7500      0.0000    289.6385     65.5617    135.4947
   503.0000      0.0000    297.5765     61.7119    129.5771
   503.2500      0.0000    302.9649     59.2310    124.9696
   503.5000      0.0000    305.8418     58.0142    122.1605
   503.7500      0.0000    307.0486     57.6246    121.3354
   504.0000     -2.0000    307.3821     57.5805    122.5026
   504.2500     -2.0000    307.1373     57.4941    125.3456
   504.5000      0.0000    306.0250     57.2103    129.1187
   504.7500      0.0000    303.2882     57.0669    132.9186
   505.0000      0.0000    298.1252     57.9747    136.1833
   505.2500      0.0000    290.4592     60.8989    138.6195
   505.5000      0.0000    281.4577     65.9893    139.7320
   505.7500      0.0000    273.0642     72.2309    139.3069
   506.0000      0.0000    266.8134     78.0464    138.5345
   506.2500      0.0000    263.0719     82.2766    139.6081
   506.5000      0.0000    261.2619     84.6823    143.7505
   506.7500      0.0000    260.5466     85.7193    150.1827
   507.0000      0.0000    260.3042     86.0065    156.9482
   507.2500      0.0000    260.2231     85.9830    162.1979
   507.5000      0.0000    260.1976     85.8657    165.0233
   507.7500      0.0000    260.2086     85.7317    165.7543
   508.0000      0.0000    260.2520     85.6028    165.3318
   508.2500      0.0000    260.3144     85.5067    164.0443
   508.5000      0.0000    260.3683     85.4940    161.1091
   508.7500      0.0000    260.3821     85.5955    155.5797
   509.0000      0.0000    260.3397     85.7819    147.4208
   509.2500      0.0000    260.2554     85.9813    137.7995
   509.5000      0.0000    260.1672     86.1354    128.5937
   509.7500      0.0000    260.1115     86.2277    121.4249
   510.0000      0.0000    260.1034     86.2578    116.8140
   510.2500      0.0000    260.1419     86.2085    114.1242
   510.5000      0.0000    260.2215     86.0552    112.4440
   510.7500      0.0000    260.3297     85.8089    111.6174
   511.0000      0.0000    260.4375     85.5388    112.2939
   511.2500      0.0000    260.5056     85.3438    114.7810
   511.5000      0.0000    260.5083     85.2976    118.1066
   511.7500      0.0000    260.4512     85.4052    120.6704
   512.0000      0.0000    260.3688     85.5947    121.5884
   512.2500      0.0000    260.3052     85.7533    120.8818
   512.5000      0.0000    260.2906     85.7983    118.7838
   512.7500      0.0000    260.3235     85.7374    115.4903
   513.0000      0.0000    260.3728     85.6573    111.2133
   513.2500      0.0000    260.4009     85.6425    106.0119
   513.5000      0.0000    260.3869     85.7052     99.8826
   513.7500      0.0000    260.3338     85.7886     93.3308
   514.0000      0.0000    260.2656     85.8192     87.6452
   514.2500      0.0000    260.2203     85.7505     84.2272
   514.5000      0.0000    260.2321     85.5828     83.4020
   514.7500      0.0000    260.3058     85.3644     83.8394
   515.0000      0.0000    260.4064     85.1804     83.3939
   515.2500      0.0000    260.4801     85.1167     80.7979
   515.5000      0.0000    260.4916     85.2042     76.6731
   515.7500      0.0000    260.4437     85.3928     72.9042
   516.0000      0.0000    260.3683     85.5874     71.1760
   516.2500      0.0000    260.3053     85.7118     72.0891
   516.5000      0.0000    260.2825     85.7498     75.2007
   516.7500      0.0000    260.3008     85.7418     79.3906
   517.0000      0.0000    260.3339     85.7515     83.2472
   517.2500      0.0000    260.3463     85.8213     85.4917
   517.5000      0.0000    260.3215     85.9403     85.3815
   517.7500      0.0000    260.2715     86.0500     83.0661
   518.0000      0.0000    260.2215     86.0908     79.6701
   518.2500      0.0000    260.1887     86.0531     76.7373
   518.5000      0.0000    260.1717     85.9855     75.3245
   518.7500      0.0000    260.1577     85.9440     75.5029
   519.0000      0.0000    260.1387     85.9375     76.5192
   519.2500      0.0000    260.1215     85.9287     77.2768
   519.5000      0.0000    260.1242     85.8825     76.8887
   519.7500      0.0000    260.1598     85.8011     75.1288
   520.0000      0.0000    260.2223     85.7137     72.4468
   520.2500      0.0000    260.2918     85.6514     69.4056
   520.5000      0.0000    260.3485     85.6396     66.1584
   520.7500      0.0000    260.3784     85.6937     62.5973
   521.0000      0.0000    260.3731     85.8027     58.9159
   521.2500      0.0000    260.3364     85.9253     55.8350
   521.5000      0.0000    260.2867     86.0172     54.2468
   521.7500      0.0000    260.2450     86.0635     54.6633
   522.0000      0.0000    260.2222     86.0709     56.8803
   522.2500      0.0000    260.2203     86.0292     60.0384
   522.5000      0.0000    260.2388     85.9061     62.9517
   522.7500      0.0000    260.2721     85.7031     64.5644
   523.0000      0.0000    260.3034     85.4980     64.4646
   523.2500      0.0000    260.3112     85.3951     63.2234
   523.5000      0.0000    260.2865     85.4340     62.1300
   523.7500      0.0000    260.2451     85.5600     62.1917
   524.0000      0.0000    260.2231     85.6739     63.2046
   524.2500      0.0000    260.2611     85.6919     63.9992
   524.5000      0.0000    260.4188     85.5571     63.6820
   524.7500      0.0000    260.8678     85.1757     62.5005
   525.0000      0.0000    262.0378     84.2953     61.5339
   525.2500      0.0000    264.6390     82.4293     61.5976
   525.5000      0.0000    269.2626     79.0822     62.3294
   525.7500      0.0000    275.6710     74.3181     62.4588
   526.0000      0.0000    282.6308     69.0964     61.2314
