~Version Information
VERS.                      2.0: CWLS Log ASCII Standard - VERSION 2.0
WRAP.                       NO: One line per depth step
~Well Information Block
STRT.FT                -9.7500: 
STOP.FT              2612.5000: 
STEP.FT                 0.2500: 
NULL.                -999.2500: 
COMP.                         : COMPANY
WELL.                         : WELL
FLD.                          : FIELD
LOC.                          : LOCATION
CNTY.                         : COUNTY
SRVC.                         : SERVICE COMPANY
DATE.          Mon Nov 17 14:56:03 2003: LOG DATE
UWI.                          : UNIQUE WELL ID
STAT.                         : STATE
~Curve Information Block
DEPT.FT            0 000 00 00: Depth
CCL.                          : Casing Collar Locator
TT3.usec                      : CBL 3' Travel Time
AMP3.mV                       : CBL 3' Amplitude
GR.GAPI                       : Gamma Ray
~Parameter Information Block
~A  Depth       CCL         TT3         AMP3         GR     
# ...
   325.2500      0.0000    301.5129     55.0108    116.1139
   325.5000      0.0000    297.2661     56.4884    112.2038
   325.7500      0.0000    292.4550     59.4588    111.2893
   326.0000      0.0000    287.1684     63.8636    114.7344
   326.2500      0.0000    281.1154     69.3057    121.0897
   326.5000      0.0000    274.5130     74.9521    126.9234
   326.7500      0.0000    268.4667     79.7171    129.4759
   327.0000      0.0000    264.1222     82.8955    128.8969
   327.2500      0.0000    261.7383     84.5613    127.8018
   327.5000      0.0000    260.7552     85.2877    128.6904
   327.7500      0.0000    260.4500     85.6214    131.8777
   328.0000      0.0000    260.3574     85.8493    135.5616
   328.2500      0.0000    260.2853     86.0720    137.3765
   328.5000      0.0000    260.1940     86.3113    136.0884
   328.7500      0.0000    260.1007     86.5510    132.4204
   329.0000      0.0000    260.0277     86.7580    128.2728
   329.2500      0.0000    259.9750     86.9181    125.0447
   329.5000      0.0000    259.9218     87.0475    123.0081
   329.7500      0.0000    259.8529     87.1650    122.1482
   330.0000      0.0000    259.7760     87.2706    122.8882
   330.2500      0.0000    259.7118     87.3535    125.6551
   330.5000      0.0000    259.6743     87.4054    129.9162
   330.7500      0.0000    259.6643     87.4181    133.8529
   331.0000      0.0000    259.6778     87.3738    135.2381
   331.2500      0.0000    259.7135     87.2461    133.0551
   331.5000      0.0000    259.7716     87.0249    128.4834
   331.7500      0.0000    259.8470     86.7488    123.9906
   332.0000      0.0000    259.9284     86.4962    121.1459
   332.2500      0.0000    260.0056     86.3268    119.4519
   332.5000      0.0000    260.0749     86.2406    117.3525
   332.7500      0.0000    260.1352     86.2018    114.0800
   333.0000      0.0000    260.1829     86.1908    110.4386
   333.2500      0.0000    260.2117     86.2207    108.2267
   333.5000      0.0000    260.2155     86.3147    109.2322
   333.7500      0.0000    260.1921     86.4744    114.5035
   334.0000      0.0000    260.1469     86.6700    123.7318
   334.2500      0.0000    260.0924     86.8618    134.6770
   334.5000      0.0000    260.0406     87.0307    143.7337
   334.7500      0.0000    259.9960     87.1778    148.1732
   335.0000      0.0000    259.9556     87.3010    147.9993
   335.2500      0.0000    259.9135     87.3878    145.1791
   335.5000      0.0000    259.8669     87.4306    141.3153
   335.7500      0.0000    259.8193     87.4367    136.7263
   336.0000      0.0000    259.7776     87.4198    131.5333
   336.2500      0.0000    259.7468     87.3866    126.7616
   336.5000      0.0000    259.7272     87.3303    124.0747
   336.7500      0.0000    259.7157     87.2398    124.6230
   337.0000      0.0000    259.7092     87.1135    128.1055
   337.2500      0.0000    259.7066     86.9678    132.7831
   337.5000      0.0000    259.7071     86.8328    136.3905
   337.7500      0.0000    259.7084     86.7402    137.2946
   338.0000      0.0000    259.7064     86.7102    135.2779
   338.2500      0.0000    259.6971     86.7422    131.4896
   338.5000      0.0000    259.6809     86.8146    127.4017
   338.7500      0.0000    259.6637     86.8976    123.6572
   339.0000      0.0000    259.6551     86.9693    120.1475
   339.2500      0.0000    259.6643     87.0233    117.1429
   339.5000      0.0000    259.6968     87.0551    115.7776
   339.7500      0.0000    259.7548     87.0384    117.0863
   340.0000      0.0000    259.8389     86.9265    120.7366
   340.2500      0.0000    259.9484     86.6977    124.9846
   340.5000      0.0000    260.0752     86.4021    127.8790
   340.7500      0.0000    260.1981     86.1497    128.6015
   341.0000      0.0000    260.2841     86.0412    127.8828
   341.2500      0.0000    260.3049     86.1042    127.2128
   341.5000      0.0000    260.2561     86.2851    127.6681
   341.7500      0.0000    260.1602     86.4917    129.5405
   342.0000      0.0000    260.0487     86.6505    132.6913
   342.2500      0.0000    259.9451     86.7360    136.5570
   342.5000      0.0000    259.8649     86.7530    139.7271
   342.7500      0.0000    259.8228     86.7049    140.3649
   343.0000      0.0000    259.8305     86.5892    137.7838
   343.2500      0.0000    259.8885     86.4174    133.6168
   343.5000      0.0000    259.9835     86.2275    130.9813
   343.7500      0.0000    260.0938     86.0738    131.9586
   344.0000      0.0000    260.1994     86.0003    135.5572
   344.2500      0.0000    260.2900     86.0103    138.2613
   344.5000      0.0000    260.4034     86.0243    136.9309
   344.7500      0.0000    260.6970     85.8334    131.5145
   345.0000      0.0000    261.5510     85.0420    125.0240
   345.2500      0.0000    263.5721     83.1122    120.6769
   345.5000      0.0000    267.3372     79.6641    119.1943
   345.7500      0.0000    272.9744     74.9007    119.2704
   346.0000      0.0000    279.9986     69.6532    120.1639
   346.2500      0.0000    287.5442     64.8668    122.6023
   346.5000      0.0000    294.6391     61.0839    126.9571
   346.7500      0.0000    300.3863     58.3960    131.7261
   347.0000      0.0000    304.2623     56.6632    134.6669
   347.2500      0.0000    306.3616     55.6705    135.0840
   347.5000      0.0000    307.1912     55.2179    134.3330
   347.7500     -2.0000    307.1767     55.1929    134.1323
   348.0000     -2.0000    306.3173     55.6582    134.9902
   348.2500      0.0000    304.2106     56.8971    136.3417
   348.5000      0.0000    300.4119     59.2616    137.4433
   348.7500      0.0000    294.8649     62.8303    137.7439
   349.0000      0.0000    288.0248     67.2411    137.0565
   349.2500      0.0000    280.6347     71.9473    135.8866
   349.5000      0.0000    273.5604     76.4749    135.2709
   349.7500      0.0000    267.7028     80.3695    135.9472
   350.0000      0.0000    263.6741     83.1998    137.6377
   350.2500      0.0000    261.4543     84.8200    139.1991
   350.5000      0.0000    260.5059     85.4796    139.6459
   350.7500      0.0000    260.2173     85.5866    139.0279
   351.0000      0.0000    260.1939     85.4462    138.2049
   351.2500      0.0000    260.2580     85.2194    138.0073
   351.5000      0.0000    260.3379     85.0047    138.8902
   351.7500      0.0000    260.4023     84.8720    141.1456
   352.0000      0.0000    260.4416     84.8438    144.8470
   352.2500      0.0000    260.4682     84.8784    149.3416
   352.5000      0.0000    260.5020     84.9088    153.2814
   352.7500      0.0000    260.5534     84.8997    155.7208
   353.0000      0.0000    260.6180     84.8646    157.0557
   353.2500      0.0000    260.6854     84.8331    158.3914
   353.5000      0.0000    260.7498     84.8122    160.1790
   353.7500      0.0000    260.8106     84.7887    161.9254
   354.0000      0.0000    260.8634     84.7650    162.7986
   354.2500      0.0000    260.8940     84.7814    161.7615
   354.5000      0.0000    260.8815     84.8920    157.5841
   354.7500      0.0000    260.8115     85.1165    149.7419
   355.0000      0.0000    260.6866     85.4182    139.2664
   355.2500      0.0000    260.5320     85.7194    128.1211
   355.5000      0.0000    260.3921     85.9290    117.7929
   355.7500      0.0000    260.3127     85.9760    108.8229
   356.0000      0.0000    260.3112     85.8532    101.6550
   356.2500      0.0000    260.3618     85.6454     97.5736
   356.5000      0.0000    260.4122     85.4925     98.3982
   356.7500      0.0000    260.4180     85.4956    104.9550
   357.0000      0.0000    260.3651     85.6515    115.7097
   357.2500      0.0000    260.2715     85.8735    126.9387
   357.5000      0.0000    260.1726     86.0652    134.6375
   357.7500      0.0000    260.0994     86.1712    136.8808
   358.0000      0.0000    260.0640     86.1806    134.7821
   358.2500      0.0000    260.0629     86.1103    131.2652
   358.5000      0.0000    260.0869     85.9889    128.7146
