~Version Information
VERS.                      2.0: CWLS Log ASCII Standard - VERSION 2.0
WRAP.                       NO: One line per depth step
~Well Information Block
STRT.FT               260.0000: 
STOP.FT              1199.2000: 
STEP.FT                 0.1000: 
NULL.                -999.2500: 
COMP.          Evergreen Operating Corporation: COMPANY
WELL.             Justin 32-10: WELL
FLD.           Purgatorie River: FIELD
LOC.           2994' FNL & 1449' FEL: LOCATION
PROV.                 Colorado: PROVINCE
CNTY.               Las Animas: COUNTRY
SRVC.                         : SERVICE COMPANY
DATE.          Mon Aug 30 07:14:35 2004: LOG DATE
UWI.           05 071 08053 00: UNIQUE WELL ID
~Curve Information Block
DEPT.FT            0 000 00 00: Depth
LTEN.lb                       : Surface Line Tension
DCAL.in                       : CDL Caliper
RHOB.g/cc                     : CDL Bulk Density
RHOC.g/cc                     : CDL Density Correction
DPOR.pu                       : CDL Density Porosity
GR.GAPI                       : Gamma Ray
NPOR.pu                       : Neutron Porosity
~Parameter Information Block
~A  Depth       LTEN        DCAL        RHOB        RHOC        DPOR         GR         NPOR    
# ...
  1007.6000    856.8090      7.9072      2.4648      0.0875     11.2243     95.0135     28.4476
  1007.7000    856.8090      7.9072      2.4996      0.1304      9.1151    101.4676     28.4488
  1007.8000    885.5535      7.9027      2.5177      0.1391      8.0160    107.9033     28.3739
  1007.9000    885.5535      7.9027      2.5044      0.1261      8.8265    113.4550     28.3136
  1008.0000    933.7614      7.9365      2.4693      0.1229     10.9522    115.8436     28.4210
  1008.1000    933.7614      7.9365      2.4333      0.0812     13.1326    117.0734     28.4896
  1008.2000    933.7614      7.9365      2.4164      0.0700     14.1600    118.4629     28.0766
  1008.3000    907.2226      7.9232      2.4247      0.1040     13.6516    116.3109     27.7198
  1008.4000    907.2226      7.9232      2.4425      0.1365     12.5748    107.7158     28.0042
  1008.5000    898.7902      7.9205      2.4516      0.1173     12.0271     96.3342     28.2240
  1008.6000    898.7902      7.9205      2.4571      0.1162     11.6897     91.0084     28.1677
  1008.7000    898.7902      7.9205      2.4705      0.1326     10.8780     94.0355     28.4550
  1008.8000    866.2667      7.8962      2.4840      0.1677     10.0610     97.0694     28.8564
  1008.9000    866.2667      7.8962      2.4869      0.1321      9.8875     96.9468     28.7759
  1009.0000    898.4748      7.9207      2.4820      0.1564     10.1827     95.3167     28.4354
  1009.1000    898.4748      7.9207      2.4702      0.1676     10.8958     92.1703     27.8478
  1009.2000    898.4748      7.9207      2.4468      0.1325     12.3166     91.5255     27.0139
  1009.3000    902.6695      7.9386      2.4188      0.0813     14.0101     93.3385     26.6287
  1009.4000    902.6695      7.9386      2.4063      0.0600     14.7725     90.9910     27.2024
  1009.5000    910.0692      7.9309      2.4201      0.0695     13.9340     85.7683     28.1032
  1009.6000    910.0692      7.9309      2.4507      0.1031     12.0810     83.9825     28.5113
  1009.7000    910.0692      7.9309      2.4808      0.1268     10.2535     85.2698     28.5840
  1009.8000    846.9432      7.9342      2.5018      0.1338      8.9831     88.9870     28.3729
  1009.9000    846.9432      7.9342      2.5090      0.1394      8.5447     95.2150     27.7588
  1010.0000    948.5401      7.9064      2.4973      0.1316      9.2555     98.3039     26.9177
  1010.1000    948.5401      7.9064      2.4742      0.1045     10.6565     97.4609     26.1912
  1010.2000    948.5401      7.9064      2.4634      0.0637     11.3100     97.8382     26.0042
  1010.3000    915.8964      7.9132      2.4767      0.0972     10.5024     99.2922     26.0269
  1010.4000    915.8964      7.9132      2.4971      0.1120      9.2656     98.5426     25.6252
  1010.5000    928.4393      7.9421      2.5105      0.0749      8.4551     93.9770     25.0723
  1010.6000    928.4393      7.9421      2.5210      0.1017      7.8200     85.8171     25.1584
  1010.7000    928.4393      7.9421      2.5280      0.0951      7.3964     79.7525     25.9121
  1010.8000    920.1755      7.9215      2.5233      0.1013      7.6804     82.0567     26.5799
  1010.9000    920.1755      7.9215      2.5063      0.1164      8.7121     87.9974     26.8265
  1011.0000    876.6468      7.9174      2.4901      0.0652      9.6886     90.0812     26.9055
  1011.1000    876.6468      7.9174      2.4835      0.0855     10.0923     89.9707     27.1065
  1011.2000    876.6468      7.9174      2.4824      0.0528     10.1547     91.0269     27.6439
  1011.3000    933.5406      7.9227      2.4847      0.0807     10.0191     92.8849     28.2755
  1011.4000    933.5406      7.9227      2.4814      0.0683     10.2202     95.0681     28.2838
  1011.5000    937.8443      7.9221      2.4682      0.0157     11.0210     95.5181     27.7387
  1011.6000    937.8443      7.9221      2.4570      0.0430     11.6954     94.0719     27.3673
  1011.7000    937.8443      7.9221      2.4547      0.0370     11.8368     94.3197     27.3630
  1011.8000    860.3632      7.9151      2.4563      0.0412     11.7410     93.5379     27.2175
  1011.9000    860.3632      7.9151      2.4568      0.0737     11.7098     90.1470     26.8748
  1012.0000    880.2000      7.9322      2.4592      0.0365     11.5637     93.5217     26.9505
  1012.1000    880.2000      7.9322      2.4672      0.0678     11.0805    104.8837     27.5723
  1012.2000    880.2000      7.9322      2.4693      0.1167     10.9507    110.9250     28.1946
  1012.3000    923.3864      7.9172      2.4580      0.0610     11.6359    108.1496     28.4639
  1012.4000    923.3864      7.9172      2.4475      0.0577     12.2714    103.8195     27.9809
  1012.5000    911.6392      7.9378      2.4504      0.0773     12.0981     99.6067     26.8599
  1012.6000    911.6392      7.9378      2.4611      0.0851     11.4474     93.7206     26.0374
  1012.7000    911.6392      7.9378      2.4689      0.1240     10.9772     91.2738     25.9493
  1012.8000    922.1793      7.9234      2.4699      0.1168     10.9162     96.4577     26.0396
  1012.9000    922.1793      7.9234      2.4668      0.1188     11.1043    104.4842     26.0037
  1013.0000    940.1331      7.9192      2.4573      0.1198     11.6800    107.8399     26.0481
  1013.1000    940.1331      7.9192      2.4413      0.1171     12.6497    106.4338     26.0396
  1013.2000    940.1331      7.9192      2.4301      0.0816     13.3295    105.3215     26.0027
  1013.3000    908.0486      7.9348      2.4337      0.0623     13.1076    105.7997     26.0601
  1013.4000    908.0486      7.9348      2.4426      0.1087     12.5668    105.9868     25.8212
  1013.5000    866.8065      7.9187      2.4450      0.0541     12.4267    104.1084     25.3716
  1013.6000    866.8065      7.9187      2.4479      0.1128     12.2462    100.4612     25.4157
  1013.7000    866.8065      7.9187      2.4511      0.0924     12.0559     95.6765     25.7798
  1013.8000    872.1846      7.9414      2.4448      0.0762     12.4369     92.1885     26.1350
  1013.9000    872.1846      7.9414      2.4343      0.0669     13.0721     93.4889     26.8282
  1014.0000    915.4583      7.9449      2.4267      0.0857     13.5350     96.2724     27.6759
  1014.1000    915.4583      7.9449      2.4202      0.0394     13.9260     95.6180     28.0024
  1014.2000    915.4583      7.9449      2.4198      0.0505     13.9545     92.6636     27.5747
  1014.3000    885.2562      7.9316      2.4314      0.0668     13.2467     90.9251     26.6459
  1014.4000    885.2562      7.9316      2.4434      0.1003     12.5226     89.5644     25.7541
  1014.5000    899.2333      7.9277      2.4366      0.0872     12.9319     86.8440     25.8167
  1014.6000    899.2333      7.9277      2.4128      0.0789     14.3784     85.4591     27.1861
  1014.7000    899.2333      7.9277      2.3953      0.0573     15.4349     85.7730     28.7467
  1014.8000    898.9198      7.9253      2.4076      0.0566     14.6936     85.0039     29.5997
  1014.9000    898.9198      7.9253      2.4460      0.1285     12.3646     84.4444     29.5326
  1015.0000    938.6194      7.9253      2.4834      0.1636     10.0967     88.2424     28.7652
  1015.1000    938.6194      7.9253      2.5026      0.1723      8.9360     91.8101     28.2333
  1015.2000    938.6194      7.9253      2.5069      0.1403      8.6704     86.8786     28.2607
  1015.3000    882.1586      7.9435      2.5022      0.1713      8.9567     76.8457     27.8750
  1015.4000    882.1586      7.9435      2.4872      0.1305      9.8641     69.3532     26.8779
  1015.5000    869.6554      7.9272      2.4649      0.1376     11.2205     65.5998     26.0409
  1015.6000    869.6554      7.9272      2.4489      0.0570     12.1868     65.6927     25.6666
  1015.7000    869.6554      7.9272      2.4528      0.0681     11.9490     67.1530     25.6681
  1015.8000    965.6314      7.9193      2.4629      0.1240     11.3422     65.1470     25.5759
  1015.9000    965.6314      7.9193      2.4561      0.0640     11.7499     60.0536     25.1747
