~Version Information
VERS.                      2.0: CWLS Log ASCII Standard - VERSION 2.0
WRAP.                       NO: One line per depth step
~Well Information Block
STRT.FT               260.0000: 
STOP.FT              2269.5000: 
STEP.FT                 0.1000: 
NULL.                -999.2500: 
COMP.          Pioneer Natural Resources: COMPANY
WELL.            Moo Moo 31-36: WELL
FLD.           Purgatoire River: FIELD
LOC.           612' FNL & 2326' FEL: LOCATION
PROV.                 Colorado: PROVINCE
CNTY.               Las Animas: COUNTRY
SRVC.                Patterson: SERVICE COMPANY
DATE.          Fri Jun 17 07:04:43 2005: LOG DATE
UWI.           05 071 08395 00: UNIQUE WELL ID
~Curve Information Block
DEPT.FT            0 000 00 00: Depth
DCAL.in                       : CDL Caliper
RHOB.g/cc                     : CDL Bulk Density
RHOC.g/cc                     : CDL Density Correction
DPOR.pu                       : CDL Density Porosity
GR.GAPI                       : Gamma Ray
NPOR.pu                       : Neutron Porosity
~Parameter Information Block
~A  Depth       DCAL        RHOB        RHOC        DPOR         GR         NPOR    
# ...
   394.4000      8.1236      2.5986      0.0544      3.1154    122.0994     25.8094
   394.5000      8.0966      2.5527      0.0144      5.8973    121.7382     25.8334
   394.6000      8.0966      2.5226     -0.0328      7.7189    123.2890     25.8516
   394.7000      8.0966      2.5187      0.0001      7.9547    121.7636     25.6267
   394.8000      8.0900      2.5351     -0.0174      6.9667    120.4955     25.4965
   394.9000      8.0900      2.5709     -0.0297      4.7951    121.0790     25.7568
   395.0000      8.1040      2.6169      0.0798      2.0082    117.9867     26.1673
   395.1000      8.1040      2.6420      0.0959      0.4854    112.4002     26.4356
   395.2000      8.1040      2.6371      0.0812      0.7840    107.9725     26.5599
   395.3000      8.1172      2.6244      0.0975      1.5539    103.1076     26.5629
   395.4000      8.1172      2.6254      0.0276      1.4906     96.8131     26.4163
   395.5000      8.1132      2.6360      0.0601      0.8494     91.9652     26.2279
   395.6000      8.1132      2.6419     -0.0148      0.4884     91.4078     26.1120
   395.7000      8.1132      2.6470      0.0728      0.1834     91.3680     25.9893
   395.8000      8.1154      2.6544      0.0581     -0.2647     88.6960     25.8298
   395.9000      8.1154      2.6573      0.0645     -0.4397     86.2917     25.7428
   396.0000      8.1140      2.6480      0.0942      0.1214     85.4307     25.6848
   396.1000      8.1140      2.6300      0.0394      1.2110     87.6771     25.5915
   396.2000      8.1140      2.6163      0.0553      2.0433     94.7969     25.6203
   396.3000      8.1106      2.6097      0.0452      2.4438    103.0790     25.6239
   396.4000      8.1106      2.6047      0.0563      2.7450    107.4080     25.0761
   396.5000      8.0809      2.6032      0.0393      2.8379    107.7477     24.2551
   396.6000      8.0809      2.6138      0.0462      2.1930    107.4651     23.8504
   396.7000      8.0809      2.6278      0.1229      1.3433    107.2809     23.8031
   396.8000      8.0805      2.6186      0.1229      1.9005    106.0570     23.7717
   396.9000      8.0805      2.5794      0.0694      4.2760    102.8893     23.5311
   397.0000      8.0746      2.5298      0.0475      7.2830    100.6581     23.1181
   397.1000      8.0746      2.4920      0.0410      9.5735    104.3440     23.0111
   397.2000      8.0746      2.4837      0.0028     10.0788    112.5435     23.5378
   397.3000      8.1073      2.5143      0.0310      8.2243    120.1344     24.6790
   397.4000      8.1073      2.5740      0.1044      4.6091    126.7877     25.8491
   397.5000      8.1095      2.6423      0.1324      0.4677    135.0348     26.2872
   397.6000      8.1095      2.7111      0.1837     -3.7011    142.3968     26.0879
   397.7000      8.1095      2.7770      0.2453     -7.6981    144.4882     25.8671
   397.8000      8.1184      2.8299      0.2671    -10.9015    141.7209     25.8148
   397.9000      8.1184      2.8607      0.2396    -12.7709    136.8960     25.9514
   398.0000      8.1203      2.8692      0.2445    -13.2873    130.6189     26.3669
   398.1000      8.1203      2.8600      0.2168    -12.7269    124.5982     26.6953
   398.2000      8.1203      2.8340      0.1566    -11.1505    123.0477     26.7814
   398.3000      8.1273      2.7890      0.1799     -8.4249    126.7532     27.1396
   398.4000      8.1273      2.7265      0.1438     -4.6354    134.4698     27.8028
   398.5000      8.1416      2.6552      0.1349     -0.3143    141.8196     28.1897
   398.6000      8.1416      2.5943      0.0639      3.3753    142.8284     28.3451
   398.7000      8.1416      2.5708      0.0750      4.8014    140.9657     28.6297
   398.8000      8.1428      2.5927      0.0824      3.4740    142.6721     28.9864
   398.9000      8.1428      2.6426      0.0943      0.4483    146.6372     29.3988
   399.0000      8.1406      2.6958      0.1739     -2.7735    150.6450     29.6873
   399.1000      8.1406      2.7335      0.1886     -5.0586    150.8453     29.4597
   399.2000      8.1406      2.7575      0.2159     -6.5166    143.8416     28.8088
   399.3000      8.1294      2.7738      0.2708     -7.5036    134.6563     28.3339
   399.4000      8.1294      2.7677      0.3117     -7.1345    129.6964     28.1010
   399.5000      8.1104      2.7272      0.2060     -4.6760    131.7982     27.7813
   399.6000      8.1104      2.6661      0.0769     -0.9732    136.8311     27.6540
   399.7000      8.1104      2.6050      0.0058      2.7272    135.6951     27.8933
   399.8000      8.1005      2.5602     -0.0198      5.4444    128.7739     28.1775
   399.9000      8.1005      2.5504      0.0396      6.0375    123.3658     28.4242
   400.0000      8.1441      2.5853      0.0871      3.9196    121.5309     28.6531
   400.1000      8.1441      2.6479      0.1969      0.1261    118.1406     28.7839
   400.2000      8.1441      2.7022      0.2056     -3.1621    110.3639     28.9053
   400.3000      8.1609      2.7173      0.2431     -4.0790    105.7582     28.9302
   400.4000      8.1609      2.6879      0.1594     -2.2960    108.4555     28.2277
   400.5000      8.0899      2.6406      0.0981      0.5697    111.0494     26.5953
   400.6000      8.0899      2.6048      0.0955      2.7393    109.0799     24.9197
   400.7000      8.0899      2.5901      0.0908      3.6288    105.9892     24.2834
   400.8000      8.0918      2.5956      0.0530      3.2981    107.1356     24.6592
   400.9000      8.0918      2.6090      0.0419      2.4841    113.5980     25.1150
   401.0000      8.1062      2.6083      0.0497      2.5269    121.5537     25.2878
   401.1000      8.1062      2.5820      0.0293      4.1236    130.3976     25.4032
   401.2000      8.1062      2.5447      0.0047      6.3794    140.4445     25.5653
   401.3000      8.0622      2.5151      0.0486      8.1737    149.4610     25.9058
   401.4000      8.0622      2.4985     -0.0141      9.1837    154.6915     26.3801
   401.5000      8.0455      2.5093     -0.0004      8.5265    154.9438     26.6136
   401.6000      8.0455      2.5487      0.1146      6.1391    154.5961     26.6873
   401.7000      8.0455      2.5801      0.1001      4.2360    157.7518     26.8751
   401.8000      8.0905      2.5721      0.0870      4.7220    162.8011     26.8071
   401.9000      8.0905      2.5364      0.0207      6.8830    165.5850     26.3427
   402.0000      8.2095      2.5162     -0.0202      8.1099    163.8128     26.2360
   402.1000      8.2095      2.5321      0.0449      7.1442    160.0636     26.7007
   402.2000      8.2095      2.5596      0.0715      5.4758    158.7288     26.8978
   402.3000      8.2212      2.5671      0.0507      5.0227    158.7061     26.4528
   402.4000      8.2212      2.5469      0.0439      6.2487    158.7935     25.5733
   402.5000      8.2378      2.5131     -0.0072      8.2976    158.9612     24.7385
   402.6000      8.2378      2.4833     -0.0179     10.1047    157.5247     24.4803
   402.7000      8.2378      2.4608      0.0015     11.4644    158.0956     24.6802
   402.8000      8.3300      2.4322      0.0615     13.1992    163.3307     24.8459
   402.9000      8.3300      2.3905      0.0150     15.7266    167.7645     24.9030
   403.0000      8.3932      2.3519     -0.0048     18.0649    165.6470     25.2150
   403.1000      8.3932      2.3308      0.0461     19.3448    160.1602     25.7856
   403.2000      8.3932      2.3246      0.0120     19.7221    159.0221     26.3087
   403.3000      8.4213      2.3296      0.0046     19.4180    164.0574     26.7689
   403.4000      8.4213      2.3480      0.0119     18.3053    167.0592     27.3456
   403.5000      8.3731      2.3783      0.0344     16.4653    158.8396     27.7986
   403.6000      8.3731      2.4142      0.0891     14.2887    143.9743     27.8142
   403.7000      8.3731      2.4491      0.0861     12.1782    134.7046     27.7596
   403.8000      8.3906      2.4793      0.1380     10.3442    134.1446     28.2671
   403.9000      8.3906      2.5056      0.0882      8.7543    137.9598     29.1055
