~Version Information
 VERS.                                  2.0 : CWLS LAS VERSION
 WRAP.                                   NO : WRAPING MODE
 SWARE .                 MController 2.5.0J : SOFTWARE VERSION
~Well Information
 WELL.                         Leier 17-24R : WELL
 COMP.                Petrogulf Corporation : COMPANY
 FLD.                      Purgatoire River : FIELD
 LOC.                SE/NE Sec 17 T33S R67W : LOCATION
 DATE.                          10/17-18/05 : DATE(S) LOGGED
 SRVC.       BLANCO Geological Services LLC : SERVICE COMPANY
 STAT.                                   CO : STATE
 CNTY.                           Las Animas : COUNTY
 CTRY.                                  USA : COUNTRY
 API.                       05-071-08410-00 : API NUMBER
 STRT.FT                              31.00 : START DEPTH
 STOP.FT                            1390.00 : STOP DEPTH
 STEP.FT                               1.00 : DEPTH INCREMENT
 NULL.                                -9999 : NULL VALUE
~Curve information
 DEPTH.FT                                   :
 ROP.MIN/FT                                 :
 GAS.UNITS                                  :
~ASCII Log data
# ...
      1231.0         0.17         13.0 
      1232.0         0.20         12.7 
      1233.0         0.20         13.2 
      1234.0         0.20         12.9 
      1235.0         0.13         12.4 
      1236.0         0.10         12.9 
      1237.0         0.13         12.4 
      1238.0         0.18         12.1 
      1239.0         0.27         10.8 
      1240.0         0.37          9.7 
      1241.0         0.43          9.0 
      1242.0         0.37          8.3 
      1243.0         0.17          8.8 
      1244.0         0.17          8.7 
      1245.0         0.20          8.9 
      1246.0         0.20          8.8 
      1247.0         0.20          8.3 
      1248.0         0.17          8.9 
      1249.0         0.20          8.9 
      1250.0         0.23          9.1 
      1251.0         0.25          9.0 
      1252.0         0.23          7.7 
      1253.0         0.20          6.2 
      1254.0         0.17          5.8 
      1255.0         0.20          6.0 
      1256.0         3.45         50.0 
      1257.0         0.37         31.2 
      1258.0         0.43         20.7 
      1259.0         0.50         14.0 
      1260.0         0.40         10.5 
      1261.0         0.33         11.4 
      1262.0         0.42         11.0 
      1263.0         0.27          8.5 
      1264.0         0.27          7.8 
      1265.0         0.40          8.3 
      1266.0         0.20          8.0 
      1267.0         0.20          7.1 
      1268.0         0.23          7.6 
      1269.0         0.50          8.2 
      1270.0         0.37         10.0 
      1271.0         0.33         12.0 
      1272.0         0.32         11.2 
      1273.0         0.33          9.0 
      1274.0         0.33          8.1 
      1275.0         0.27          7.7 
      1276.0         0.37          8.1 
      1277.0         0.30          8.0 
      1278.0         0.30          7.2 
      1279.0         0.27          6.4 
      1280.0         0.37          6.5 
      1281.0         0.33          6.8 
      1282.0         0.30          7.2 
      1283.0         0.28          7.1 
      1284.0         0.27          6.4 
      1285.0         0.27          9.1 
      1286.0         1.80         49.5 
      1287.0         0.33         31.0 
      1288.0         0.20         22.4 
      1289.0         0.22         18.5 
      1290.0         0.23         14.1 
      1291.0         0.17         12.1 
      1292.0         0.27         11.0 
      1293.0         0.30         11.2 
      1294.0         0.27         11.3 
      1295.0         0.23         10.0 
      1296.0         0.17          9.5 
      1297.0         0.17          9.4 
      1298.0         0.20          8.6 
      1299.0         0.20          8.4 
      1300.0         0.20          8.5 
      1301.0         0.20          8.7 
      1302.0         0.20          9.2 
      1303.0         0.23          8.8 
      1304.0         0.25          9.1 
      1305.0         0.30          8.5 
      1306.0         0.30          8.0 
      1307.0         0.40          7.7 
      1308.0         0.30          7.8 
      1309.0         0.30          7.7 
      1310.0         0.43          8.1 
      1311.0         0.32          8.0 
      1312.0         0.27          7.3 
      1313.0         0.30          6.6 
      1314.0         0.20          5.7 
      1315.0         0.20          6.6 
      1316.0         2.38         45.4 
      1317.0         0.30         14.8 
      1318.0         0.30         12.8 
      1319.0         0.23         16.4 
      1320.0         0.17         18.4 
      1321.0         0.13         18.7 
      1322.0         0.20         19.8 
      1323.0         0.23         18.9 
      1324.0         0.33         18.4 
      1325.0         0.33         15.2 
      1326.0         0.30         11.6 
      1327.0         0.43          9.5 
      1328.0         0.48          9.2 
      1329.0         0.43          9.2 
      1330.0         0.40          9.0 
      1331.0         0.43          8.7 
      1332.0         0.43          8.2 
      1333.0         0.40          8.6 
      1334.0         0.40          8.6 
      1335.0         0.37          9.1 
      1336.0         0.45          9.3 
      1337.0         0.40          9.3 
      1338.0         0.40          9.1 
      1339.0         0.30          9.1 
      1340.0         0.37          8.9 
      1341.0         0.30          9.2 
      1342.0         0.33          9.0 
      1343.0         0.30          8.4 
      1344.0         0.37          7.1 
      1345.0         0.32         12.8 
      1346.0         2.40         43.1 
      1347.0         0.43         12.3 
      1348.0         0.42         10.1 
      1349.0         0.40          9.7 
      1350.0         0.40          9.4 
      1351.0         0.33          8.5 
      1352.0         0.30          8.0 
      1353.0         0.37          7.9 
      1354.0         0.33          7.4 
      1355.0         0.30          6.8 
      1356.0         0.30          7.1 
      1357.0         0.33          7.1 
      1358.0         0.32          7.4 
      1359.0         0.37          7.4 
      1360.0         0.40          7.8 
      1361.0         0.40          7.9 
      1362.0         0.47          8.0 
      1363.0         0.40          7.4 
      1364.0         0.27          7.4 
      1365.0         0.30          7.4 
      1366.0         0.27          7.0 
      1367.0         0.32          7.6 
      1368.0         0.30          7.4 
      1369.0         0.27          7.9 
      1370.0         0.33          8.0 
      1371.0         0.30          8.1 
      1372.0         0.30          7.7 
      1373.0         0.30          7.3 
      1374.0         0.37          6.4 
      1375.0         0.50         19.0 
      1376.0         2.42         50.2 
      1377.0         0.33         10.4 
      1378.0         0.27          8.3 
      1379.0         0.33          8.4 
      1380.0         0.45          8.6 
      1381.0         0.47          8.7 
      1382.0         0.47          7.9 
      1383.0         0.40          7.0 
      1384.0         0.30          6.0 
      1385.0         0.23          6.2 
      1386.0         0.23          6.0 
      1387.0         0.23          5.2 
      1388.0         0.23          5.1 
      1389.0         0.33          5.7 
      1390.0         0.27          6.4 
