~Version Information
VERS.                      2.0: CWLS Log ASCII Standard - VERSION 2.0
WRAP.                       NO: One line per depth step
~Well Information Block
STRT.FT               362.0000: 
STOP.FT               983.0000: 
STEP.FT                 0.1000: 
NULL.                -999.2500: 
COMP.          Pioneer Natural Resources: COMPANY
WELL.             Tomcat 32-10: WELL
FLD.           Purgatoire River: FIELD
LOC.           2286' FNL & 2463' FEL: LOCATION
PROV.                 Colorado: PROVINCE
CNTY.               Las Animas: COUNTRY
SRVC.                Patterson: SERVICE COMPANY
DATE.          Tue Mar 22 11:24:45 2005: LOG DATE
UWI.           05 071 08301 00: UNIQUE WELL ID
~Curve Information Block
DEPT.FT            0 000 00 00: Depth
DCAL.in                       : CDL Caliper
RHOB.g/cc                     : CDL Bulk Density
RHOC.g/cc                     : CDL Density Correction
DPOR.pu                       : CDL Density Porosity
GR.GAPI                       : Gamma Ray
NPOR.pu                       : Neutron Porosity
~Parameter Information Block
~A  Depth       DCAL        RHOB        RHOC        DPOR         GR         NPOR    
# ...
   486.8000      8.0052      2.5444      0.0605      6.3996    116.3533     27.2910
   486.9000      8.0052      2.5267      0.0330      7.4754    115.4454     27.0364
   487.0000      8.0029      2.5118      0.0226      8.3735    113.7136     27.0270
   487.1000      8.0029      2.5049     -0.0199      8.7916    113.1737     26.9312
   487.2000      8.0029      2.5077      0.0032      8.6259    115.6810     26.5304
   487.3000      8.0220      2.5050      0.0123      8.7887    119.8436     26.1575
   487.4000      8.0220      2.4914      0.0135      9.6126    121.9801     26.0006
   487.5000      8.0618      2.4759      0.0505     10.5534    122.1030     25.8526
   487.6000      8.0618      2.4617      0.0711     11.4135    124.4098     25.6859
   487.7000      8.0618      2.4493      0.1017     12.1619    129.5579     25.7617
   487.8000      8.0254      2.4477      0.0181     12.2594    136.7884     26.1025
   487.9000      8.0254      2.4692      0.0723     10.9583    145.5951     26.5001
   488.0000      7.9524      2.5085      0.1461      8.5778    154.4034     26.7301
   488.1000      7.9524      2.5453      0.1329      6.3462    163.0101     26.7220
   488.2000      7.9524      2.5638      0.1825      5.2241    168.8580     26.8495
   488.3000      7.9845      2.5637      0.1382      5.2283    168.4772     27.2268
   488.4000      7.9845      2.5634      0.0954      5.2458    163.2331     27.4584
   488.5000      8.1228      2.5760      0.0805      4.4829    158.2912     27.3584
   488.6000      8.1228      2.5897      0.1589      3.6530    156.5271     27.1945
   488.7000      8.1228      2.5970      0.0999      3.2148    157.5025     27.1450
   488.8000      8.1168      2.6087      0.0702      2.5018    156.7493     27.1815
   488.9000      8.1168      2.6202      0.1240      1.8066    152.8731     27.2773
   489.0000      8.1318      2.6132      0.0828      2.2332    149.0481     27.4320
   489.1000      8.1318      2.5935      0.0685      3.4225    146.1488     27.5441
   489.2000      8.1318      2.5799      0.0593      4.2456    147.2510     27.4812
   489.3000      8.1401      2.5666      0.1410      5.0574    154.0683     27.3136
   489.4000      8.1401      2.5468      0.0989      6.2539    159.5845     27.2971
   489.5000      8.1374      2.5437      0.0588      6.4398    157.9446     27.4550
   489.6000      8.1374      2.5640      0.1075      5.2147    150.9709     27.4919
   489.7000      8.1374      2.5796      0.0739      4.2678    145.7056     27.2312
   489.8000      8.1198      2.5711      0.1017      4.7799    146.0658     26.9639
   489.9000      8.1198      2.5400      0.0472      6.6693    149.1473     27.1169
   490.0000      8.1308      2.5064      0.0369      8.7031    153.2394     27.6179
   490.1000      8.1308      2.4951      0.0389      9.3898    159.6046     27.9518
   490.2000      8.1308      2.4993      0.0671      9.1321    165.4771     27.8764
   490.3000      8.1433      2.4888      0.0459      9.7698    167.4942     27.6766
   490.4000      8.1433      2.4596      0.0099     11.5373    165.6187     27.6531
   490.5000      8.1674      2.4386     -0.0429     12.8132    159.8775     27.8190
   490.6000      8.1674      2.4429     -0.0240     12.5519    154.4329     27.9112
   490.7000      8.1674      2.4608      0.0334     11.4649    155.9250     27.7740
   490.8000      8.1076      2.4632      0.0884     11.3237    162.7435     27.5354
   490.9000      8.1076      2.4473     -0.0027     12.2853    166.3165     27.5200
   491.0000      8.1030      2.4481      0.0271     12.2357    163.5898     27.9933
   491.1000      8.1030      2.4765      0.0875     10.5134    161.2322     28.6121
   491.2000      8.1030      2.5093      0.1173      8.5274    163.6795     28.7271
   491.3000      8.1019      2.5293      0.1031      7.3172    168.1888     28.2847
   491.4000      8.1019      2.5375      0.1231      6.8191    174.4081     27.6802
   491.5000      8.1147      2.5447      0.1579      6.3817    179.4406     27.3301
   491.6000      8.1147      2.5539      0.1898      5.8255    179.4957     27.3669
   491.7000      8.1147      2.5546      0.1581      5.7848    177.7199     27.3848
   491.8000      8.1042      2.5409      0.1382      6.6127    175.3565     27.0922
   491.9000      8.1042      2.5223      0.1179      7.7398    171.5122     26.9289
   492.0000      8.1055      2.5081      0.0990      8.6014    168.2703     27.4040
   492.1000      8.1055      2.4931      0.0728      9.5115    164.4108     28.2657
   492.2000      8.1055      2.4820      0.0410     10.1844    158.6469     28.9603
   492.3000      8.1255      2.5011      0.0532      9.0266    156.1415     29.4302
   492.4000      8.1255      2.5476      0.1149      6.2048    159.0567     29.8027
   492.5000      8.1581      2.5840      0.1357      3.9988    162.0068     30.2066
   492.6000      8.1581      2.6088      0.0796      2.4977    161.8380     30.7023
   492.7000      8.1581      2.6589      0.1399     -0.5368    160.4442     31.1651
   492.8000      8.1085      2.7379      0.1794     -5.3268    158.4477     31.5877
   492.9000      8.1085      2.8171      0.2138    -10.1302    153.5645     32.0048
   493.0000      7.9942      2.8804      0.2059    -13.9641    145.5230     32.1908
   493.1000      7.9942      2.9204      0.2340    -16.3904    137.7767     31.9143
   493.2000      7.9942      2.9287      0.2230    -16.8906    130.7604     31.1686
   493.3000      7.9235      2.8966      0.2393    -14.9464    121.9374     30.0670
   493.4000      7.9235      2.8291      0.0956    -10.8531    114.7003     29.0288
   493.5000      7.9226      2.7622      0.0008     -6.8008    111.7129     28.3846
   493.6000      7.9226      2.7270     -0.0748     -4.6656    110.2035     28.1514
   493.7000      7.9226      2.7062     -0.0600     -3.4083    110.8616     28.2291
   493.8000      7.9133      2.6658     -0.0553     -0.9581    114.4862     28.2404
   493.9000      7.9133      2.6101     -0.1024      2.4183    119.2407     27.8157
   494.0000      7.9280      2.5657     -0.0021      5.1115    124.4873     27.0647
   494.1000      7.9280      2.5443     -0.0126      6.4054    129.1378     26.3877
   494.2000      7.9280      2.5395      0.0456      6.6988    132.7011     26.0504
   494.3000      8.0299      2.5297      0.0078      7.2880    134.4444     26.0799
   494.4000      8.0299      2.5110      0.0230      8.4257    134.6956     26.2574
   494.5000      8.0642      2.5007     -0.0167      9.0495    135.0408     26.3524
   494.6000      8.0642      2.5057      0.0106      8.7465    134.1252     26.5020
   494.7000      8.0642      2.5175      0.0341      8.0328    132.9283     26.5946
   494.8000      8.0647      2.5309      0.0466      7.2189    134.1610     26.4753
   494.9000      8.0647      2.5470      0.0424      6.2412    135.7373     26.3695
   495.0000      8.0785      2.5557      0.1042      5.7146    133.0711     26.3052
   495.1000      8.0785      2.5471      0.0702      6.2359    125.4721     26.2015
   495.2000      8.0785      2.5378      0.0449      6.7981    118.7214     26.1869
   495.3000      8.0897      2.5449      0.0536      6.3678    116.7099     26.3482
   495.4000      8.0897      2.5592      0.0740      5.5013    118.4676     26.6200
   495.5000      8.0711      2.5643      0.0650      5.1951    122.0215     26.8373
   495.6000      8.0711      2.5513      0.0761      5.9840    124.5243     26.9069
   495.7000      8.0711      2.5290      0.0192      7.3337    125.5759     26.9466
   495.8000      8.0864      2.5269     -0.0069      7.4607    128.4585     26.9942
   495.9000      8.0864      2.5513      0.0368      5.9800    131.9297     26.8929
   496.0000      8.0529      2.5648      0.1041      5.1652    133.0436     26.8242
   496.1000      8.0529      2.5468      0.0289      6.2520    133.1461     26.9903
   496.2000      8.0529      2.5278      0.0063      7.4064    133.1369     26.9902
   496.3000      8.0527      2.5254      0.0161      7.5497    132.6470     26.6199
