~Version Information
VERS.                      2.0: CWLS Log ASCII Standard - VERSION 2.0
WRAP.                       NO: One line per depth step
~Well Information Block
STRT.FT               752.0000: 
STOP.FT              2474.2000: 
STEP.FT                 0.1000: 
NULL.                -999.2500: 
COMP.          Petrogulf Corporation: COMPANY
WELL.            Montoya 7-14V: WELL
FLD.           Purgatorie River: FIELD
LOC.           535' FSL & 491' FWL: LOCATION
CNTY.               Las Animas: COUNTY
SRVC.                         : SERVICE COMPANY
DATE.          Mon Aug 23 10:41:01 2004: LOG DATE
UWI.           05 071 08019 00: UNIQUE WELL ID
STAT.                 Colorado: STATE
~Curve Information Block
DEPT.FT            0 000 00 00: Depth
DCAL.in                       : CDL Caliper
RHOB.g/cc                     : CDL Bulk Density
RHOC.g/cc                     : CDL Density Correction
DPOR.pu                       : CDL Density Porosity
GR.GAPI                       : Gamma Ray
NPOR.pu                       : Neutron Porosity
~Parameter Information Block
~A  Depth       DCAL        RHOB        RHOC        DPOR         GR         NPOR    
# ...
  2124.8000      7.7509      1.5504      0.0728     66.6428     57.4948     33.2189
  2124.9000      7.7509      1.6629      0.1190     59.8246     63.2683     32.8914
  2125.0000      7.9487      1.7627      0.1483     53.7746     70.1208     31.7247
  2125.1000      7.9487      1.8691      0.1592     47.3260     76.5638     30.3828
  2125.2000      7.9487      1.9926      0.1721     39.8449     83.0246     29.7374
  2125.3000      8.0050      2.1194      0.1438     32.1594     87.9183     29.7076
  2125.4000      8.0050      2.2369      0.1485     25.0371     89.6444     29.6260
  2125.5000      7.6486      2.3405      0.1459     18.7550     89.2638     29.2608
  2125.6000      7.6486      2.4262      0.1118     13.5665     87.1684     28.5782
  2125.7000      7.6486      2.4861      0.1135      9.9344     83.9414     27.2674
  2125.8000      7.6079      2.5127      0.0940      8.3207     83.1387     25.8488
  2125.9000      7.6079      2.5150      0.0745      8.1799     85.9390     25.2280
  2126.0000      7.6087      2.5119      0.0971      8.3672     92.7790     25.2932
  2126.1000      7.6087      2.5072      0.0517      8.6546    100.9045     25.5087
  2126.2000      7.6087      2.4940      0.0565      9.4520    104.5216     25.6719
  2126.3000      7.6090      2.4759      0.0120     10.5500    103.1479     25.6541
  2126.4000      7.6090      2.4681      0.0274     11.0242     98.5328     25.5606
  2126.5000      7.6086      2.4789      0.0186     10.3714     91.0863     25.6000
  2126.6000      7.6086      2.5034      0.0348      8.8848     85.0684     25.8155
  2126.7000      7.6086      2.5281      0.0404      7.3904     85.5262     26.2243
  2126.8000      7.6083      2.5416      0.0563      6.5721     90.2030     26.3166
  2126.9000      7.6083      2.5435      0.0782      6.4530     94.1989     25.8836
  2127.0000      7.6088      2.5394      0.0626      6.7015     96.4845     25.7592
  2127.1000      7.6088      2.5315      0.0460      7.1788     98.7053     26.2143
  2127.2000      7.6088      2.5209      0.0230      7.8223     98.9085     26.5668
  2127.3000      7.6081      2.5135      0.0539      8.2736     95.2085     26.4296
  2127.4000      7.6081      2.5124      0.0421      8.3402     91.3576     25.7236
  2127.5000      7.6094      2.5152      0.0419      8.1671     92.3422     24.6097
  2127.6000      7.6094      2.5200      0.0286      7.8788     97.5645     23.8079
  2127.7000      7.6094      2.5240      0.0762      7.6367    101.7100     23.7440
  2127.8000      7.6074      2.5190      0.0582      7.9365    102.7304     23.7615
  2127.9000      7.6074      2.5067      0.0350      8.6858    100.4022     23.4942
  2128.0000      7.6090      2.5015      0.0100      9.0013     95.5524     23.4370
  2128.1000      7.6090      2.5054      0.0234      8.7661     91.4953     23.7667
  2128.2000      7.6090      2.5048      0.0451      8.8015     93.2858     24.3284
  2128.3000      7.6081      2.4986      0.0209      9.1742    100.5410     24.9880
  2128.4000      7.6081      2.4977      0.0210      9.2290    104.9888     25.5429
  2128.5000      7.6092      2.5005      0.0544      9.0596    102.8718     25.7095
  2128.6000      7.6092      2.4965      0.0740      9.3050     97.3611     25.2844
  2128.7000      7.6092      2.4892      0.0139      9.7476     90.3337     24.5185
  2128.8000      7.6087      2.4954      0.0361      9.3678     85.6751     23.9505
  2128.9000      7.6087      2.5129      0.0672      8.3067     85.6600     23.7534
  2129.0000      7.6087      2.5234      0.0364      7.6755     85.6564     24.0443
  2129.1000      7.6087      2.5242      0.0073      7.6240     84.3012     24.8437
  2129.2000      7.6087      2.5240      0.0388      7.6360     84.9424     25.5601
  2129.3000      7.6098      2.5205      0.0754      7.8474     86.8898     25.7291
  2129.4000      7.6098      2.5091      0.0249      8.5386     89.0131     25.4862
  2129.5000      7.6093      2.4974      0.0237      9.2476     91.3744     25.3074
  2129.6000      7.6093      2.4926      0.0444      9.5374     90.7879     25.5024
  2129.7000      7.6093      2.4915      0.0305      9.6060     85.5603     25.7459
  2129.8000      7.6103      2.4901      0.0183      9.6910     80.6222     25.6209
  2129.9000      7.6103      2.4905      0.0547      9.6690     81.5658     25.2808
  2130.0000      7.6098      2.4911      0.0547      9.6326     87.7343     25.1654
  2130.1000      7.6098      2.4880     -0.0011      9.8205     94.7757     25.2434
  2130.2000      7.6098      2.4866      0.0135      9.9030     98.4100     25.0922
  2130.3000      7.6092      2.4950      0.0001      9.3951     97.1222     24.6140
  2130.4000      7.6092      2.5095      0.0398      8.5141     92.2104     24.1108
  2130.5000      7.6204      2.5152      0.0517      8.1669     85.9762     23.9251
  2130.6000      7.6204      2.5101      0.0315      8.4789     81.4243     24.0272
  2130.7000      7.6204      2.5090      0.0280      8.5448     80.8265     23.8669
  2130.8000      7.6089      2.5197      0.0360      7.8940     82.9120     23.4648
  2130.9000      7.6089      2.5353      0.0646      6.9527     82.8931     23.3843
  2131.0000      7.5926      2.5466      0.0617      6.2674     80.6067     23.6066
  2131.1000      7.5926      2.5537      0.0329      5.8349     80.5740     23.7471
  2131.2000      7.5926      2.5576      0.0694      5.6013     82.3813     23.6454
  2131.3000      7.5945      2.5568      0.0586      5.6489     83.7417     23.5949
  2131.4000      7.5945      2.5576      0.0392      5.5985     85.4094     23.7780
  2131.5000      7.5902      2.5657      0.0541      5.1073     86.8325     23.6481
  2131.6000      7.5902      2.5765      0.0582      4.4572     85.0797     22.8878
  2131.7000      7.5902      2.5790      0.0629      4.3039     81.1170     22.2790
  2131.8000      7.5961      2.5651      0.0515      5.1476     78.4491     22.5305
  2131.9000      7.5961      2.5420      0.0055      6.5481     77.7975     23.2907
  2132.0000      7.5947      2.5272      0.0008      7.4406     78.3522     23.9233
  2132.1000      7.5947      2.5297     -0.0025      7.2925     79.2444     24.1556
  2132.2000      7.5947      2.5449      0.0434      6.3678     81.0437     24.0621
  2132.3000      7.5937      2.5585      0.0731      5.5429     83.6763     23.7618
  2132.4000      7.5937      2.5591      0.0420      5.5074     84.2204     23.2358
  2132.5000      7.5933      2.5494      0.0283      6.0994     81.0535     22.5908
  2132.6000      7.5933      2.5419      0.0022      6.5504     77.0710     22.2238
  2132.7000      7.5933      2.5466      0.0087      6.2685     78.0459     22.1785
  2132.8000      7.5904      2.5580      0.0332      5.5755     84.8467     22.0952
  2132.9000      7.5904      2.5587      0.0795      5.5313     91.5054     22.0143
  2133.0000      7.5856      2.5420      0.0322      6.5446     92.1507     22.1977
  2133.1000      7.5856      2.5243      0.0214      7.6212     87.3224     22.4984
  2133.2000      7.5856      2.5209      0.0295      7.8270     84.0223     22.6501
  2133.3000      7.5874      2.5252      0.0486      7.5617     86.3176     22.6092
  2133.4000      7.5874      2.5229      0.0367      7.7021     90.9396     22.5379
  2133.5000      7.5900      2.5195     -0.0092      7.9086     91.8877     22.6092
  2133.6000      7.5900      2.5313      0.0245      7.1930     87.6407     22.7486
  2133.7000      7.5900      2.5520      0.0514      5.9409     84.1979     22.7218
  2133.8000      7.5929      2.5643      0.0610      5.1918     84.9719     22.6694
  2133.9000      7.5929      2.5705      0.0607      4.8168     86.2333     23.1532
  2134.0000      7.5883      2.5762      0.0512      4.4712     86.4178     24.1613
  2134.1000      7.5883      2.5691      0.0860      4.9031     86.0832     24.6102
  2134.2000      7.5883      2.5411      0.0317      6.5975     84.4251     23.9432
  2134.3000      7.5875      2.5085      0.0105      8.5772     82.7969     22.8659
