~Version Information
VERS.                      2.0: CWLS Log ASCII Standard - VERSION 2.0
WRAP.                       NO: One line per depth step
~Well Information Block
STRT.FT              2983.0000: 
STOP.FT              3214.7500: 
STEP.FT                 0.0500: 
NULL.                -999.2500: 
COMP.          Pioner Natural Resources: COMPANY
WELL.              Vespar 43-7: WELL
FLD.           Purgatoire River: FIELD
LOC.           2338' FSL & 1141' FEL------: LOCATION
PROV.                 Colorado: PROVINCE
CNTY.               Las Animas: COUNTRY
SRVC.                         : SERVICE COMPANY
DATE.          Fri Apr 15 15:31:19 2005: LOG DATE
UWI.                          : UNIQUE WELL ID
~Curve Information Block
DEPT.FT            0 000 00 00: Depth
GR.GAPI                       : Gamma Ray
CCL.                          : Casing Collar Locator
TT3.usec                      : CBL 3' Travel Time
AMP3.mV                       : CBL 3' Amplitude
AMP5.mV                       : CBL 5' Amplitude
~Parameter Information Block
~A  Depth        GR         CCL         TT3         AMP3        AMP5    
# ...
  3128.6000     59.0204      0.0000    748.7953      5.8813      0.3307
  3128.6500     59.0204      0.0000    748.7953      5.8813      0.3307
  3128.7000     59.0204      0.0000    748.7953      5.8813      0.3307
  3128.7500     59.3230      0.0000    715.3289      6.1528      0.3669
  3128.8000     59.3230      0.0000    715.3289      6.1528      0.3669
  3128.8500     59.3230      0.0000    715.3289      6.1528      0.3669
  3128.9000     59.3230      0.0000    715.3289      6.1528      0.3669
  3128.9500     59.3230      0.0000    715.3289      6.1528      0.3669
  3129.0000     60.1913      0.0000    656.3897      6.7972      0.4365
  3129.0500     60.1913      1.3013    656.3897      6.7972      0.4365
  3129.1000     60.1913      1.2793    656.3897      6.7972      0.4365
  3129.1500     60.1913      0.0000    656.3897      6.7972      0.4365
  3129.2000     60.1913     -2.0000    656.3897      6.7972      0.4365
  3129.2500     61.0638     -2.0000    582.4094      7.6716      0.5364
  3129.3000     61.0638     -2.0000    582.4094      7.6716      0.5364
  3129.3500     61.0638      0.0000    582.4094      7.6716      0.5364
  3129.4000     61.0638      1.9263    582.4094      7.6716      0.5364
  3129.4500     61.0638      2.0000    582.4094      7.6716      0.5364
  3129.5000     61.2388      2.0000    509.6257      8.6042      0.6510
  3129.5500     61.2388      0.0000    509.6257      8.6042      0.6510
  3129.6000     61.2388     -2.0000    509.6257      8.6042      0.6510
  3129.6500     61.2388     -2.0000    509.6257      8.6042      0.6510
  3129.7000     61.2388      0.0000    509.6257      8.6042      0.6510
  3129.7500     60.8105      1.6357    451.6593      9.4814      0.7572
  3129.8000     60.8105      0.0000    451.6593      9.4814      0.7572
  3129.8500     60.8105      0.0000    451.6593      9.4814      0.7572
  3129.9000     60.8105      0.0000    451.6593      9.4814      0.7572
  3129.9500     60.8105      0.0000    451.6593      9.4814      0.7572
  3130.0000     60.9091      0.0000    416.2634     10.2978      0.8436
  3130.0500     60.9091      0.0000    416.2634     10.2978      0.8436
  3130.1000     60.9091      0.0000    416.2634     10.2978      0.8436
  3130.1500     60.9091      0.0000    416.2634     10.2978      0.8436
  3130.2000     60.9091      0.0000    416.2634     10.2978      0.8436
  3130.2500     62.6231      0.0000    407.0270     11.1319      0.9246
  3130.3000     62.6231      0.0000    407.0270     11.1319      0.9246
  3130.3500     62.6231      0.0000    407.0270     11.1319      0.9246
  3130.4000     62.6231      0.0000    407.0270     11.1319      0.9246
  3130.4500     62.6231      0.0000    407.0270     11.1319      0.9246
  3130.5000     65.7025      0.0000    424.3614     12.0174      1.0264
  3130.5500     65.7025      0.0000    424.3614     12.0174      1.0264
  3130.6000     65.7025      0.0000    424.3614     12.0174      1.0264
  3130.6500     65.7025      0.0000    424.3614     12.0174      1.0264
  3130.7000     65.7025      0.0000    424.3614     12.0174      1.0264
  3130.7500     68.7207      0.0000    462.8782     12.8457      1.1543
  3130.8000     68.7207      0.0000    462.8782     12.8457      1.1543
  3130.8500     68.7207      0.0000    462.8782     12.8457      1.1543
  3130.9000     68.7207      0.0000    462.8782     12.8457      1.1543
  3130.9500     68.7207      0.0000    462.8782     12.8457      1.1543
  3131.0000     70.5504      0.0000    509.9338     13.4728      1.2844
  3131.0500     70.5504      0.0000    509.9338     13.4728      1.2844
  3131.1000     70.5504      0.0000    509.9338     13.4728      1.2844
  3131.1500     70.5504      0.0000    509.9338     13.4728      1.2844
  3131.2000     70.5504      0.0000    509.9338     13.4728      1.2844
  3131.2500     71.3745      0.0000    550.8649     13.9023      1.3835
  3131.3000     71.3745      0.0000    550.8649     13.9023      1.3835
  3131.3500     71.3745      0.0000    550.8649     13.9023      1.3835
  3131.4000     71.3745      0.0000    550.8649     13.9023      1.3835
  3131.4500     71.3745      0.0000    550.8649     13.9023      1.3835
  3131.5000     72.1762      0.0000    577.4722     14.2526      1.4266
  3131.5500     72.1762      0.0000    577.4722     14.2526      1.4266
  3131.6000     72.1762      0.0000    577.4722     14.2526      1.4266
  3131.6500     72.1762      0.0000    577.4722     14.2526      1.4266
  3131.7000     72.1762      0.0000    577.4722     14.2526      1.4266
  3131.7500     73.4544      0.0000    591.0295     14.5340      1.3948
  3131.8000     73.4544      0.0000    591.0295     14.5340      1.3948
  3131.8500     73.4544      0.0000    591.0295     14.5340      1.3948
  3131.9000     73.4544      0.0000    591.0295     14.5340      1.3948
  3131.9500     73.4544      0.0000    591.0295     14.5340      1.3948
  3132.0000     74.5982      0.0000    597.9722     14.5451      1.2789
  3132.0500     74.5982      0.0000    597.9722     14.5451      1.2789
  3132.1000     74.5982      0.0000    597.9722     14.5451      1.2789
  3132.1500     74.5982      0.0000    597.9722     14.5451      1.2789
  3132.2000     74.5982      0.0000    597.9722     14.5451      1.2789
  3132.2500     74.5657      0.0000    604.0767     14.0171      1.1020
  3132.3000     74.5657      0.0000    604.0767     14.0171      1.1020
  3132.3500     74.5657      0.0000    604.0767     14.0171      1.1020
  3132.4000     74.5657      0.0000    604.0767     14.0171      1.1020
  3132.4500     74.5657      0.0000    604.0767     14.0171      1.1020
  3132.5000     73.0942      0.0000    611.6528     12.8471      0.9230
  3132.5500     73.0942      0.0000    611.6528     12.8471      0.9230
  3132.6000     73.0942      0.0000    611.6528     12.8471      0.9230
  3132.6500     73.0942      0.0000    611.6528     12.8471      0.9230
  3132.7000     73.0942      0.0000    611.6528     12.8471      0.9230
  3132.7500     71.0442      0.0000    619.6765     11.1992      0.8007
  3132.8000     71.0442      0.0000    619.6765     11.1992      0.8007
  3132.8500     71.0442      0.0000    619.6765     11.1992      0.8007
  3132.9000     71.0442      0.0000    619.6765     11.1992      0.8007
  3132.9500     71.0442      0.0000    619.6765     11.1992      0.8007
  3133.0000     69.5462      0.0000    626.0811      9.3922      0.7551
  3133.0500     69.5462      0.0000    626.0811      9.3922      0.7551
  3133.1000     69.5462      0.0000    626.0811      9.3922      0.7551
  3133.1500     69.5462      0.0000    626.0811      9.3922      0.7551
  3133.2000     69.5462      0.0000    626.0811      9.3922      0.7551
  3133.2500     69.1944      0.0000    631.0222      7.6981      0.7636
  3133.3000     69.1944      0.0000    631.0222      7.6981      0.7636
  3133.3500     69.1944      0.0000    631.0222      7.6981      0.7636
  3133.4000     69.1944      0.0000    631.0222      7.6981      0.7636
  3133.4500     69.1944      0.0000    631.0222      7.6981      0.7636
  3133.5000     70.0023      0.0000    637.6962      6.2372      0.7807
  3133.5500     70.0023      0.0000    637.6962      6.2372      0.7807
  3133.6000     70.0023      0.0000    637.6962      6.2372      0.7807
  3133.6500     70.0023      0.0000    637.6962      6.2372      0.7807
  3133.7000     70.0023      0.0000    637.6962      6.2372      0.7807
  3133.7500     71.4265      0.0000    648.9763      5.0068      0.7606
  3133.8000     71.4265      0.0000    648.9763      5.0068      0.7606
  3133.8500     71.4265      0.0000    648.9763      5.0068      0.7606
  3133.9000     71.4265      0.0000    648.9763      5.0068      0.7606
  3133.9500     71.4265      0.0000    648.9763      5.0068      0.7606
  3134.0000     72.2678      0.0000    663.8956      3.9652      0.6783
  3134.0500     72.2678      0.0000    663.8956      3.9652      0.6783
  3134.1000     72.2678      0.0000    663.8956      3.9652      0.6783
  3134.1500     72.2678      0.0000    663.8956      3.9652      0.6783
