~Version Information
VERS.                      2.0: CWLS Log ASCII Standard - VERSION 2.0
WRAP.                       NO: One line per depth step
~Well Information Block
STRT.FT                -8.0000: 
STOP.FT               973.2500: 
STEP.FT                 0.2500: 
NULL.                -999.2500: 
COMP.          Pioneer Natural Resources: COMPANY
WELL.              Oscar 41-31: WELL
FLD.           Purgatorie River: FIELD
LOC.           412' FNL & 1216' FEL--: LOCATION
PROV.                       CO: PROVINCE
CNTY.               Las Animas: COUNTRY
SRVC.          Patterson Wireline: SERVICE COMPANY
DATE.          Wed Mar 02 12:29:08 2005: LOG DATE
UWI.           05 071 08290 00: UNIQUE WELL ID
~Curve Information Block
DEPT.FT            0 000 00 00: Depth
CCL.                          : Casing Collar Locator
TT5.usec                      : CBL 5' Travel Time
AMP3.mV                       : CBL 3' Amplitude
GR.GAPI                       : Gamma Ray
~Parameter Information Block
~A  Depth       CCL         TT5         AMP3         GR     
# ...
   427.5000      0.0000   1200.0000      2.8596    123.3842
   427.7500      0.0000   1200.0000      2.8050    128.6453
   428.0000      0.0000   1200.0000      2.7543    130.1618
   428.2500      0.0000   1200.0000      2.7141    127.9103
   428.5000      0.0000   1200.0000      2.6872    122.8788
   428.7500      0.0000   1200.0000      2.6763    116.2206
   429.0000      0.0000   1200.0000      2.6850    108.9288
   429.2500      0.0000   1200.0000      2.7107    101.7978
   429.5000      0.0000   1200.0000      2.7412     95.3374
   429.7500      0.0000   1200.0000      2.7609     89.8510
   430.0000      0.0000   1200.0000      2.7622     85.8976
   430.2500      0.0000   1200.0000      2.7505     84.5955
   430.5000      0.0000   1200.0000      2.7355     86.9336
   430.7500      0.0000   1200.0000      2.7219     92.6261
   431.0000      0.0000   1200.0000      2.7115     99.9960
   431.2500      0.0000   1200.0000      2.7136    107.1205
   431.5000      0.0000   1200.0000      2.7477    112.8441
   431.7500      0.0000   1200.0000      2.8328    116.6656
   432.0000      0.0000   1200.0000      2.9711    118.2068
   432.2500      0.0000   1200.0000      3.1429    117.3279
   432.5000      0.0000   1200.0000      3.3187    114.8367
   432.7500      0.0000   1200.0000      3.4758    112.8280
   433.0000      0.0000   1200.0000      3.6006    113.8837
   433.2500      0.0000   1200.0000      3.6821    119.3135
   433.5000      0.0000   1200.0000      3.7090    127.9278
   433.7500      0.0000   1200.0000      3.6771    136.8206
   434.0000      0.0000   1200.0000      3.5952    143.5271
   434.2500      0.0000   1200.0000      3.4846    147.3937
   434.5000      0.0000   1200.0000      3.3756    149.2435
   434.7500      0.0000   1200.0000      3.3022    150.2166
   435.0000      0.0000   1200.0000      3.2907    150.9028
   435.2500      0.0000   1200.0000      3.3471    151.4563
   435.5000      0.0000   1200.0000      3.4539    152.3061
   435.7500      0.0000   1200.0000      3.5819    154.1227
   436.0000      0.0000   1200.0000      3.7038    156.8127
   436.2500      0.0000   1200.0000      3.8013    159.1227
   436.5000      0.0000   1200.0000      3.8650    159.7497
   436.7500      0.0000   1200.0000      3.8932    158.7322
   437.0000      0.0000   1200.0000      3.8903    157.6450
   437.2500      0.0000   1200.0000      3.8628    158.4358
   437.5000      0.0000   1200.0000      3.8155    161.7223
   437.7500      0.0000   1200.0000      3.7511    165.9429
   438.0000      0.0000   1200.0000      3.6716    168.4236
   438.2500      0.0000   1200.0000      3.5796    167.4143
   438.5000      0.0000   1200.0000      3.4764    162.9536
   438.7500      0.0000   1200.0000      3.3652    156.0824
   439.0000      0.0000   1200.0000      3.2559    147.7193
   439.2500      0.0000   1200.0000      3.1663    138.1804
   439.5000      0.0000   1200.0000      3.1099    127.3787
   439.7500      0.0000   1200.0000      3.0858    115.5624
   440.0000      0.0000   1200.0000      3.0846    103.9588
   440.2500      0.0000   1200.0000      3.1023     94.3462
   440.5000      0.0000   1200.0000      3.1454     87.6977
   440.7500      0.0000   1200.0000      3.2220     83.3931
   441.0000      0.0000   1200.0000      3.3287     79.9895
   441.2500      0.0000   1200.0000      3.4446     76.7965
   441.5000      0.0000   1200.0000      3.5341     74.6647
   441.7500      0.0000   1200.0000      3.5600     75.3200
   442.0000      0.0000   1200.0000      3.5032     79.8254
   442.2500      0.0000   1200.0000      3.3736     87.3973
   442.5000      0.0000   1200.0000      3.2021     95.7198
   442.7500      0.0000   1200.0000      3.0276    102.7355
   443.0000      0.0000   1200.0000      2.8861    108.1850
   443.2500      0.0000   1200.0000      2.8029    113.5863
   443.5000      0.0000   1200.0000      2.7878    121.1514
   443.7500      0.0000   1200.0000      2.8402    132.3769
   444.0000      0.0000   1200.0000      2.9529    146.4875
   444.2500      0.0000   1200.0000      3.1124    159.8932
   444.5000      0.0000   1200.0000      3.2976    168.1758
   444.7500      0.0000   1200.0000      3.4813    169.4393
   445.0000      0.0000   1200.0000      3.6359    165.4978
   445.2500      0.0000   1200.0000      3.7400    159.5863
   445.5000      0.0000   1200.0000      3.7830    153.4914
   445.7500      0.0000   1200.0000      3.7623    147.1015
   446.0000      0.0000   1200.0000      3.6788    139.8196
   446.2500      0.0000   1200.0000      3.5371    131.6078
   446.5000      0.0000   1200.0000      3.3563    122.8948
   446.7500      0.0000   1200.0000      3.1748    114.0428
   447.0000      0.0000   1200.0000      3.0379    105.2095
   447.2500      0.0000   1200.0000      2.9775     96.9639
   447.5000      0.0000   1200.0000      3.0020     90.8637
   447.7500      0.0000   1200.0000      3.0969     88.8425
   448.0000      0.0000   1200.0000      3.2343     91.6889
   448.2500      0.0000   1200.0000      3.3810     98.3071
   448.5000      0.0000   1200.0000      3.5025    106.5131
   448.7500      0.0000   1200.0000      3.5618    114.3125
   449.0000      0.0000   1200.0000      3.5266    120.4586
   449.2500      0.0000   1200.0000      3.3838    124.2844
   449.5000      0.0000   1200.0000      3.1557    125.4375
   449.7500      0.0000   1200.0000      2.9008    123.9997
   450.0000      0.0000   1200.0000      2.6942    121.0468
   450.2500      0.0000   1200.0000      2.5962    118.8592
   450.5000      0.0000   1200.0000      2.6334    119.9335
   450.7500      0.0000   1200.0000      2.8003    125.4654
   451.0000      0.0000   1200.0000      3.0644    134.8095
   451.2500      0.0000   1200.0000      3.3681    146.0692
   451.5000      0.0000   1200.0000      3.6392    156.7000
   451.7500      0.0000   1200.0000      3.8101    163.8293
   452.0000      0.0000   1200.0000      3.8379    164.9550
   452.2500      0.0000   1200.0000      3.7198    159.2265
   452.5000      0.0000   1200.0000      3.4984    148.4376
   452.7500      0.0000   1200.0000      3.2502    136.7305
   453.0000      0.0000   1200.0000      3.0575    128.9063
   453.2500      0.0000   1200.0000      2.9761    128.1961
   453.5000      0.0000   1200.0000      3.0175    134.6551
   453.7500      0.0000   1200.0000      3.1575    145.1931
   454.0000      0.0000   1200.0000      3.3575    155.4848
   454.2500      0.0000   1200.0000      3.5738    162.4257
   454.5000      0.0000   1200.0000      3.7550    165.2424
   454.7500      0.0000   1200.0000      3.8530    165.0033
   455.0000      0.0000   1200.0000      3.8478    163.6883
   455.2500      0.0000   1200.0000      3.7551    163.2459
   455.5000      0.0000   1200.0000      3.6094    164.4230
   455.7500      0.0000   1200.0000      3.4505    166.3587
   456.0000      0.0000   1200.0000      3.3235    167.7661
   456.2500      0.0000   1200.0000      3.2718    168.3320
   456.5000      0.0000   1200.0000      3.3102    168.5426
   456.7500      0.0000   1200.0000      3.4032    168.5344
   457.0000      0.0000   1200.0000      3.4809    167.7442
   457.2500      0.0000   1200.0000      3.4883    165.6638
   457.5000      0.0000   1200.0000      3.4239    162.5788
   457.7500      0.0000   1200.0000      3.3308    159.4385
   458.0000      0.0000   1200.0000      3.2538    157.0299
   458.2500      0.0000   1200.0000      3.2094    155.3060
   458.5000      0.0000   1200.0000      3.1901    153.6335
   458.7500      0.0000   1200.0000      3.1820    151.8796
   459.0000      0.0000   1200.0000      3.1759    151.1579
   459.2500      0.0000   1200.0000      3.1705    153.1154
   459.5000      0.0000   1200.0000      3.1722    158.3076
   459.7500      0.0000   1200.0000      3.1876    165.5364
   460.0000      0.0000   1200.0000      3.2102    172.7477
   460.2500      0.0000   1200.0000      3.2142    178.1724
   460.5000      0.0000   1200.0000      3.1677    180.6275
   460.7500      0.0000   1200.0000      3.0594    179.5228
