~Version Information
VERS.                      2.0: CWLS Log ASCII Standard - VERSION 2.0
WRAP.                       NO: One line per depth step
~Well Information Block
STRT.FT               250.0000: 
STOP.FT              2600.7500: 
STEP.FT                 0.2500: 
NULL.                -999.2500: 
COMP.          Pioneer Natural Resources: COMPANY
WELL.              Quack 22-24: WELL
FLD.           Purgatoire River: FIELD
LOC.           2492' FNL & 2459' FWL--: LOCATION
PROV.                 Colorado: PROVINCE
CNTY.               Las Animas: COUNTRY
SRVC.                Patterson: SERVICE COMPANY
DATE.          Sun Jun 12 09:02:01 2005: LOG DATE
UWI.            05 071 0840200: UNIQUE WELL ID
~Curve Information Block
DEPT.FT            0 000 00 00: Depth
SN.Ohm-m                      : IEL Short Normal
SP.mV                         : IEL Spontaneous Potential
DIR.Ohm-m                     : IEL Induction Resistivity
GR.GAPI                       : Gamma Ray
~Parameter Information Block
~A  Depth        SN          SP         DIR          GR     
# ...
  1958.5000      9.5612    -61.1289      8.7362    131.1490
  1958.7500      9.7742    -61.6522      8.7770    129.2136
  1959.0000      9.9155    -62.2640      8.8400    126.4643
  1959.2500      9.9857    -62.9462      8.9222    124.7714
  1959.5000      9.9851    -63.6769      9.0165    122.2844
  1959.7500      9.9128    -64.4323      9.1107    120.4314
  1960.0000      9.7732    -65.1889      9.1880    117.2216
  1960.2500      9.5825    -65.9252      9.2331    115.1382
  1960.5000      9.3664    -66.6224      9.2377    113.2354
  1960.7500      9.1508    -67.2640      9.2042    113.3419
  1961.0000      8.9503    -67.8354      9.1417    115.7307
  1961.2500      8.7654    -68.3233      9.0599    118.5066
  1961.5000      8.5915    -68.7161      8.9643    123.6430
  1961.7500      8.4374    -69.0062      8.8566    127.1154
  1962.0000      8.3366    -69.1920      8.7383    131.0508
  1962.2500      8.3396    -69.2823      8.6140    132.1257
  1962.5000      8.4854    -69.2969      8.4908    131.2918
  1962.7500      8.7711    -69.2669      8.3753    129.8220
  1963.0000      9.1405    -69.2293      8.2718    128.1518
  1963.2500      9.5054    -69.2205      8.1835    128.3598
  1963.5000      9.7854    -69.2689      8.1153    131.3828
  1963.7500      9.9417    -69.3893      8.0747    134.9510
  1964.0000      9.9823    -69.5828      8.0706    141.0904
  1964.2500      9.9437    -69.8398      8.1095    144.4321
  1964.5000      9.8638    -70.1455      8.1939    146.5326
  1964.7500      9.7644    -70.4856      8.3224    145.8074
  1965.0000      9.6488    -70.8495      8.4916    142.7822
  1965.2500      9.5145    -71.2298      8.6974    140.3509
  1965.5000      9.3794    -71.6199      8.9347    136.3258
  1965.7500      9.3033    -72.0105      9.1963    132.8206
  1966.0000      9.3812    -72.3876      9.4721    125.5530
  1966.2500      9.7000    -72.7334      9.7489    119.7366
  1966.5000     10.2817    -73.0298     10.0117    111.7480
  1966.7500     11.0520    -73.2637     10.2444    108.5279
  1967.0000     11.8608    -73.4319     10.4311    108.3735
  1967.2500     12.5480    -73.5438     10.5590    110.9035
  1967.5000     13.0147    -73.6205     10.6211    116.3152
  1967.7500     13.2492    -73.6913     10.6177    119.8755
  1968.0000     13.3024    -73.7873     10.5576    124.6714
  1968.2500     13.2419    -73.9351     10.4563    127.7248
  1968.5000     13.1217    -74.1514     10.3350    132.2208
  1968.7500     12.9781    -74.4405     10.2170    134.8524
  1969.0000     12.8314    -74.7936     10.1246    137.4301
  1969.2500     12.6835    -75.1904     10.0746    138.0012
  1969.5000     12.5127    -75.6011     10.0761    137.4397
  1969.7500     12.2832    -75.9874     10.1298    136.4050
  1970.0000     11.9711    -76.3029     10.2307    133.8769
  1970.2500     11.5935    -76.4927     10.3701    131.3006
  1970.5000     11.2173    -76.4942     10.5379    126.0929
  1970.7500     10.9348    -76.2414     10.7211    122.4058
  1971.0000     10.8156    -75.6723     10.9016    118.7970
  1971.2500     10.8629    -74.7412     11.0541    118.8935
  1971.5000     11.0031    -73.4302     11.1469    123.0825
  1971.7500     11.1196    -71.7598     11.1494    127.4785
  1972.0000     11.1159    -69.7925     11.0448    133.9392
  1972.2500     10.9737    -67.6289     10.8416    137.3952
  1972.5000     10.7712    -65.3962     10.5743    141.7065
  1972.7500     10.6525    -63.2322     10.2922    144.4999
  1973.0000     10.7648    -61.2675     10.0423    148.6092
  1973.2500     11.1905    -59.6101      9.8585    150.9829
  1973.5000     11.9059    -58.3342      9.7578    153.6156
  1973.7500     12.7925    -57.4746      9.7444    154.4752
  1974.0000     13.6997    -57.0257      9.8162    153.1549
  1974.2500     14.5208    -56.9462      9.9713    149.6232
  1974.5000     15.2312    -57.1672     10.2130    139.9189
  1974.7500     15.8766    -57.6040     10.5520    131.2326
  1975.0000     16.5357    -58.1690     11.0055    116.8316
  1975.2500     17.2853    -58.7841     11.5927    107.2662
  1975.5000     18.1803    -59.3886     12.3289     94.1459
  1975.7500     19.2409    -59.9429     13.2186     86.8224
  1976.0000     20.4434    -60.4250     14.2508     78.6455
  1976.2500     21.7192    -60.8245     15.3958     75.0355
  1976.5000     22.9721    -61.1354     16.6045     71.8042
  1976.7500     24.1095    -61.3509     17.8082     70.7359
  1977.0000     25.0700    -61.4629     18.9238     70.3489
  1977.2500     25.8317    -61.4652     19.8697     70.8388
  1977.5000     26.4039    -61.3571     20.5921     72.8584
  1977.7500     26.8116    -61.1477     21.0865     75.1238
  1978.0000     27.0791    -60.8569     21.3957     79.5274
  1978.2500     27.2194    -60.5127     21.5845     82.5988
  1978.5000     27.2359    -60.1483     21.7111     86.3289
  1978.7500     27.1400    -59.7966     21.8136     87.7895
  1979.0000     26.9704    -59.4868     21.9139     88.3937
  1979.2500     26.7966    -59.2415     22.0283     88.1496
  1979.5000     26.7002    -59.0747     22.1741     87.9032
  1979.7500     26.7416    -58.9919     22.3694     88.3206
  1980.0000     26.9310    -58.9903     22.6279     89.8205
  1980.2500     27.2202    -59.0603     22.9487     90.7820
  1980.5000     27.5227    -59.1879     23.3085     90.5785
  1980.7500     27.7526    -59.3580     23.6622     88.6834
  1981.0000     27.8622    -59.5586     23.9554     83.2521
  1981.2500     27.8647    -59.7844     24.1431     78.5720
  1981.5000     27.8272    -60.0396     24.2066     71.5151
  1981.7500     27.8352    -60.3394     24.1615     67.6047
  1982.0000     27.9412    -60.7091     24.0538     63.9254
  1982.2500     28.1304    -61.1806     23.9427     63.2174
  1982.5000     28.3230    -61.7864     23.8755     64.4892
  1982.7500     28.4151    -62.5520     23.8684     66.1273
  1983.0000     28.3316    -63.4895     23.9038     67.7882
  1983.2500     28.0620    -64.5926     23.9435     67.3830
  1983.5000     27.6587    -65.8367     23.9490     64.0404
  1983.7500     27.2055    -67.1827     23.8964     60.4878
  1984.0000     26.7767    -68.5848     23.7768     54.8650
  1984.2500     26.4107    -69.9979     23.5869     52.0481
  1984.5000     26.1041    -71.3851     23.3238     50.7573
  1984.7500     25.8207    -72.7211     22.9928     52.2592
  1985.0000     25.5086    -73.9930     22.6172     57.7765
  1985.2500     25.1232    -75.1986     22.2371     62.9309
  1985.5000     24.6472    -76.3437     21.8921     70.9047
  1985.7500     24.1031    -77.4389     21.6021     75.0928
  1986.0000     23.5520    -78.4959     21.3613     78.1841
  1986.2500     23.0808    -79.5234     21.1487     77.9605
  1986.5000     22.7762    -80.5244     20.9467     74.8167
  1986.7500     22.6896    -81.4940     20.7569     71.4130
  1987.0000     22.8138    -82.4204     20.6019     65.4835
  1987.2500     23.0861    -83.2874     20.5155     61.7537
  1987.5000     23.4212    -84.0783     20.5282     57.5892
  1987.7500     23.7521    -84.7796     20.6565     55.9000
  1988.0000     24.0566    -85.3832     20.8986     54.2221
  1988.2500     24.3536    -85.8852     21.2358     53.0820
  1988.5000     24.6726    -86.2852     21.6381     51.0736
  1988.7500     25.0188    -86.5825     22.0736     49.8666
  1989.0000     25.3575    -86.7750     22.5170     48.8157
  1989.2500     25.6294    -86.8587     22.9515     48.6533
  1989.5000     25.7817    -86.8290     23.3622     49.1644
  1989.7500     25.7935    -86.6843     23.7307     50.1429
  1990.0000     25.6805    -86.4293     24.0392     52.6515
  1990.2500     25.4845    -86.0782     24.2836     54.6418
  1990.5000     25.2642    -85.6564     24.4780     56.9707
  1990.7500     25.0950    -85.2002     24.6410     57.5190
  1991.0000     25.0716    -84.7537     24.7789     56.3515
  1991.2500     25.2965    -84.3635     24.8858     54.2875
  1991.5000     25.8444    -84.0724     24.9596     50.1221
  1991.7500     26.7146    -83.9124     25.0175     47.5587
