~Version Information
VERS.                      2.0: CWLS Log ASCII Standard - VERSION 2.0
WRAP.                       NO: One line per depth step
~Well Information Block
STRT.FT               375.0000: 
STOP.FT              2637.2500: 
STEP.FT                 0.2500: 
NULL.                -999.2500: 
COMP.          Pioneer Natural Resources: COMPANY
WELL.            Cortina 23-25: WELL
FLD.           Purgatoire River: FIELD
LOC.           2344' FWL & 2526' FSL----: LOCATION
PROV.                 Colorado: PROVINCE
CNTY.               Las Animas: COUNTRY
SRVC.                Patterson: SERVICE COMPANY
DATE.          Wed Mar 23 19:09:49 2005: LOG DATE
UWI.           05 071 08340 00: UNIQUE WELL ID
~Curve Information Block
DEPT.FT            0 000 00 00: Depth
DIR.Ohm-m                     : IEL Induction Resistivity
SN.Ohm-m                      : IEL Short Normal
SP.mV                         : IEL Spontaneous Potential
GR.GAPI                       : Gamma Ray
~Parameter Information Block
~A  Depth       DIR          SN          SP          GR     
# ...
  2184.0000      0.0030      5.6439   -289.0779    126.7606
  2184.2500      0.0036     11.0819   -291.8056    116.1328
  2184.5000      0.0052     19.7676   -291.7189    103.6869
  2184.7500      0.0092     31.7396   -289.5869     97.9284
  2185.0000      0.0210     46.1770   -286.1508     92.5826
  2185.2500      0.0594     61.7088   -282.0462     90.6747
  2185.5000      0.1776     76.9663   -277.7591     89.9340
  2185.7500      0.4694     90.9802   -273.6214     90.8556
  2186.0000      1.1926    103.2585   -269.8349     94.0106
  2186.2500      3.5623    113.6653   -266.5109     96.7983
  2186.5000     14.5519    122.2703   -263.7111    101.1810
  2186.7500     35.4152    129.2397   -261.4783    104.0978
  2187.0000     14.0092    134.7647   -259.8490    108.6654
  2187.2500      6.6466    139.0145   -258.8511    111.6617
  2187.5000      4.4568    142.1058   -258.4891    114.9776
  2187.7500      3.8751    144.0861   -258.7252    115.9404
  2188.0000      4.2888    144.9347   -259.4637    115.7195
  2188.2500      6.4483    144.5811   -260.5440    114.5750
  2188.5000     20.6071    142.9238   -261.7454    110.8203
  2188.7500 100000.0000    139.8441   -262.8076    106.9039
  2189.0000 100000.0000    135.2193   -263.4629    100.6963
  2189.2500 100000.0000    128.9282   -263.4758     98.0798
  2189.5000 100000.0000    120.8348   -262.6775     98.4467
  2189.7500 100000.0000    110.7679   -260.9826    101.3678
  2190.0000 100000.0000     98.5726   -258.3796    107.3840
  2190.2500 100000.0000     84.3087   -254.8928    110.7157
  2190.5000 100000.0000     68.5616   -250.5258    112.7129
  2190.7500 100000.0000     52.6216   -245.2038    111.9812
  2191.0000 100000.0000     38.2108   -238.7377    108.9432
  2191.2500     15.0209     26.7565   -230.8274    106.2637
  2191.5000      5.0856     18.7179   -221.1093    101.8034
  2191.7500      3.0314     13.5341   -209.2410     99.0507
  2192.0000      2.2296     10.1887   -195.0023     96.9811
  2192.2500      1.8518      7.8483   -178.3836     97.7422
  2192.5000      1.6652      6.1282   -159.6362    101.7429
  2192.7500      1.5804      4.9957   -139.2693    105.7009
  2193.0000      1.5604      4.5648   -117.9909    113.1786
  2193.2500      1.5961      4.9370    -96.6089    118.9079
  2193.5000      1.6963      6.0967    -75.9164    126.6626
  2193.7500      1.8844      7.8609    -56.5897    129.6392
  2194.0000      2.1961      9.9212    -39.1181    129.3159
  2194.2500      2.6808     11.9625    -23.7765    126.4109
  2194.5000      3.3965     13.7674    -10.6383    120.6357
  2194.7500      4.3860     15.2398      0.3845    117.5401
  2195.0000      5.6147     16.3663      9.4879    115.8384
  2195.2500      6.8874     17.1751     16.9244    116.7444
  2195.5000      7.8767     17.7192     22.9606    119.7672
  2195.7500      8.3663     18.0747     27.8479    121.6677
  2196.0000      8.4433     18.3322     31.8078    123.1298
  2196.2500      8.3690     18.5750     35.0254    123.5102
  2196.5000      8.3680     18.8583     37.6506    124.5743
  2196.7500      8.5635     19.2028     39.8021    125.8416
  2197.0000      9.0059     19.5994     41.5737    127.3754
  2197.2500      9.7039     20.0177     43.0391    127.1648
  2197.5000     10.6344     20.4153     44.2575    124.0386
  2197.7500     11.7362     20.7499     45.2768    120.0996
  2198.0000     12.9048     20.9879     46.1363    112.3429
  2198.2500     14.0081     21.1058     46.8689    107.2531
  2198.5000     14.9315     21.0885     47.5022    103.2320
  2198.7500     15.6232     20.9241     48.0592    104.7928
  2199.0000     16.0966     20.5948     48.5587    113.7144
  2199.2500     16.3827     20.0719     49.0157    121.9327
  2199.5000     16.4760     19.3251     49.4410    132.0500
  2199.7500     16.3197     18.3477     49.8419    134.8994
  2200.0000     15.8488     17.1833     50.2219    133.3639
  2200.2500     15.0640     15.9311     50.5815    130.6477
  2200.5000     14.0650     14.7179     50.9182    128.0875
  2200.7500     13.0060     13.6526     51.2274    128.3390
  2201.0000     12.0211     12.7918     51.5032    131.1267
  2201.2500     11.1826     12.1413     51.7392    134.1125
  2201.5000     10.5058     11.6801     51.9296    139.9228
  2201.7500      9.9720     11.3794     52.0703    144.4046
  2202.0000      9.5511     11.2030     52.1594    151.4191
  2202.2500      9.2144     11.1048     52.1972    156.1622
  2202.5000      8.9409     11.0348     52.1857    163.4647
  2202.7500      8.7193     10.9547     52.1283    168.2693
  2203.0000      8.5462     10.8458     52.0281    174.4476
  2203.2500      8.4239     10.7078     51.8876    177.3002
  2203.5000      8.3564     10.5507     51.7078    179.2343
  2203.7500      8.3473     10.3878     51.4882    179.0694
  2204.0000      8.3984     10.2350     51.2275    176.9387
  2204.2500      8.5098     10.1124     50.9242    174.3276
  2204.5000      8.6787     10.0456     50.5775    169.3333
  2204.7500      8.8984     10.0619     50.1891    166.3189
  2205.0000      9.1577     10.1821     49.7636    163.5961
  2205.2500      9.4397     10.4083     49.3096    162.5311
  2205.5000      9.7244     10.7175     48.8394    159.8754
  2205.7500      9.9937     11.0725     48.3690    156.4222
  2206.0000     10.2384     11.4506     47.9166    148.3373
  2206.2500     10.4626     11.8761     47.5013    141.3889
  2206.5000     10.6823     12.4259     47.1417    130.2997
  2206.7500     10.9175     13.1827     46.8543    124.0194
  2207.0000     11.1812     14.1539     46.6527    119.1118
  2207.2500     11.4697     15.2155     46.5466    119.7066
  2207.5000     11.7605     16.1351     46.5417    125.3116
  2207.7500     12.0166     16.6686     46.6398    130.5126
  2208.0000     12.1973     16.6653     46.8387    138.2318
  2208.2500     12.2713     16.1216     47.1322    142.8813
  2208.5000     12.2280     15.1690     47.5110    148.3094
  2208.7500     12.0782     14.0179     47.9618    149.6777
  2209.0000     11.8471     12.8864     48.4684    146.5630
  2209.2500     11.5608     11.9377     49.0117    141.8196
  2209.5000     11.2378     11.2471     49.5708    135.4884
  2209.7500     10.8880     10.8046     50.1243    134.5593
  2210.0000     10.5170     10.5469     50.6521    138.9131
  2210.2500     10.1316     10.3986     51.1367    143.7566
  2210.5000      9.7419     10.3060     51.5652    149.4175
  2210.7500      9.3618     10.2461     51.9296    150.2004
  2211.0000      9.0071     10.2123     52.2270    146.4313
  2211.2500      8.6935     10.1941     52.4586    142.2082
  2211.5000      8.4344     10.1719     52.6282    137.3131
  2211.7500      8.2388     10.1295     52.7410    136.3651
  2212.0000      8.1105     10.0672     52.8024    137.6302
  2212.2500      8.0482      9.9998     52.8162    138.8061
  2212.5000      8.0465      9.9471     52.7846    139.3637
  2212.7500      8.0970      9.9246     52.7074    139.0345
  2213.0000      8.1893      9.9411     52.5824    138.7283
  2213.2500      8.3128      9.9979     52.4052    139.0095
  2213.5000      8.4573     10.0900     52.1701    139.2863
  2213.7500      8.6148     10.2108     51.8699    138.6189
  2214.0000      8.7805     10.3585     51.4959    136.6363
  2214.2500      8.9542     10.5388     51.0385    135.7917
  2214.5000      9.1407     10.7618     50.4863    136.2254
  2214.7500      9.3478     11.0339     49.8268    136.6670
  2215.0000      9.5846     11.3555     49.0464    135.4200
  2215.2500      9.8588     11.7249     48.1309    133.6757
  2215.5000     10.1766     12.1434     47.0667    132.5239
  2215.7500     10.5428     12.6157     45.8413    133.5512
  2216.0000     10.9616     13.1480     44.4441    135.8677
  2216.2500     11.4380     13.7510     42.8676    136.1726
  2216.5000     11.9792     14.4440     41.1076    133.6941
  2216.7500     12.5958     15.2541     39.1642    130.6378
  2217.0000     13.2980     16.2134     37.0423    124.8245
  2217.2500     14.0915     17.3544     34.7525    120.0141
