~Version Information
VERS.                      2.0: CWLS Log ASCII Standard - VERSION 2.0
WRAP.                       NO: One line per depth step
~Well Information Block
STRT.FT               580.0000: 
STOP.FT              2729.7000: 
STEP.FT                 0.1000: 
NULL.                -999.2500: 
COMP.          Pioneer Natural Resources: COMPANY
WELL.          Sand Pebbles 13-33: WELL
FLD.           Purgatoire River: FIELD
LOC.           1883' FSL & 63' FWL----: LOCATION
PROV.                 Colorado: PROVINCE
CNTY.               Las Animas: COUNTRY
SRVC.                Patterson: SERVICE COMPANY
DATE.          Mon Mar 14 07:33:33 2005: LOG DATE
UWI.           05 071 08224 00: UNIQUE WELL ID
~Curve Information Block
DEPT.FT            0 000 00 00: Depth
DCAL.in                       : CDL Caliper
RHOB.g/cc                     : CDL Bulk Density
RHOC.g/cc                     : CDL Density Correction
DPOR.pu                       : CDL Density Porosity
NPOR.pu                       : Neutron Porosity
GR.GAPI                       : Gamma Ray
~Parameter Information Block
~A  Depth       DCAL        RHOB        RHOC        DPOR        NPOR         GR     
# ...
   724.0000      8.3149      2.4817      0.0388     10.1982     33.0665    149.5414
   724.1000      8.3149      2.4759      0.0464     10.5516     33.5149    151.0524
   724.2000      8.3149      2.4502      0.0478     12.1109     33.5315    145.7807
   724.3000      8.3146      2.3952      0.0308     15.4453     32.9737    138.1814
   724.4000      8.3146      2.3148     -0.0237     20.3158     32.0787    138.4973
   724.5000      8.3074      2.2155     -0.0249     26.3316     31.3819    146.4388
   724.6000      8.3074      2.1018     -0.0871     33.2255     31.1229    152.5322
   724.7000      8.3074      1.9938     -0.1534     39.7674     31.1784    153.2067
   724.8000      8.3002      1.9225     -0.1696     44.0899     31.4797    150.7575
   724.9000      8.3002      1.9026     -0.1673     45.2965     32.3330    146.6148
   725.0000      8.3131      1.9348     -0.0537     43.3479     33.1752    141.9038
   725.1000      8.3131      2.0165      0.0235     38.3962     32.8300    139.0852
   725.2000      8.3131      2.1407      0.2101     30.8667     31.6287    140.2899
   725.3000      8.3899      2.2815      0.3831     22.3340     30.8169    142.2266
   725.4000      8.3899      2.3969      0.4546     15.3390     30.7317    139.7550
   725.5000      8.5689      2.4621      0.3880     11.3857     30.9325    134.0276
   725.6000      8.5689      2.4816      0.3299     10.2066     30.7744    129.2939
   725.7000      8.5689      2.4695      0.2902     10.9391     30.0980    128.2368
   725.8000      8.7579      2.4471      0.1621     12.2968     29.5075    129.5847
   725.9000      8.7579      2.4344      0.1299     13.0674     29.2389    132.8642
   726.0000      8.7164      2.4377      0.0865     12.8678     29.0100    136.9209
   726.1000      8.7164      2.4660      0.0508     11.1540     28.6737    135.1877
   726.2000      8.7164      2.5169      0.1022      8.0661     28.1905    126.6485
   726.3000      8.4470      2.5551      0.1509      5.7526     27.7856    120.1626
   726.4000      8.4470      2.5535      0.0923      5.8479     28.1195    119.7701
   726.5000      8.2600      2.5306      0.0197      7.2381     29.1008    122.5525
   726.6000      8.2600      2.5133      0.0578      8.2854     29.5553    125.0069
   726.7000      8.2600      2.5120      0.0001      8.3636     28.9266    123.7872
   726.8000      8.2127      2.5257      0.0990      7.5328     27.9298    120.2449
   726.9000      8.2127      2.5405      0.0667      6.6337     27.3802    120.0686
   727.0000      8.2035      2.5453      0.0951      6.3453     27.4539    123.9097
   727.1000      8.2035      2.5372      0.0897      6.8343     27.6369    129.3005
   727.2000      8.2035      2.5221      0.0447      7.7495     27.5490    132.2358
   727.3000      8.2024      2.5098      0.0574      8.4942     27.4718    129.2269
   727.4000      8.2024      2.5005      0.0428      9.0595     27.8053    122.9915
   727.5000      8.2044      2.4914      0.0291      9.6105     28.2050    119.0916
   727.6000      8.2044      2.4875      0.0143      9.8456     28.1803    120.6186
   727.7000      8.2044      2.4948      0.0101      9.4038     28.1055    127.4694
   727.8000      8.2019      2.5073      0.0348      8.6496     28.3786    134.1587
   727.9000      8.2019      2.5085      0.0560      8.5733     28.9307    136.3924
   728.0000      8.1980      2.4900      0.0309      9.6946     29.5197    139.6221
   728.1000      8.1980      2.4610      0.0229     11.4562     30.1314    148.9748
   728.2000      8.1980      2.4426      0.0072     12.5700     30.6118    160.3097
   728.3000      8.1978      2.4445      0.0151     12.4569     30.7735    166.1879
   728.4000      8.1978      2.4538      0.0219     11.8936     30.9466    163.7766
   728.5000      8.1999      2.4566      0.0200     11.7215     31.0620    154.9914
   728.6000      8.1999      2.4529      0.0122     11.9431     30.7921    144.1181
   728.7000      8.1999      2.4489      0.0172     12.1890     30.2114    138.7231
   728.8000      8.2021      2.4458      0.0234     12.3768     29.4607    137.3468
   728.9000      8.2021      2.4463     -0.0054     12.3482     28.7737    132.5635
   729.0000      8.2035      2.4564      0.0461     11.7312     28.4185    127.8103
   729.1000      8.2035      2.4721      0.0703     10.7844     28.3773    128.2214
   729.2000      8.2035      2.4820      0.0587     10.1817     28.6161    133.8471
   729.3000      8.2047      2.4786      0.0752     10.3890     28.9671    141.0084
   729.4000      8.2047      2.4628      0.0092     11.3444     29.2480    142.3710
   729.5000      8.2044      2.4496      0.0172     12.1449     29.8537    139.3500
   729.6000      8.2044      2.4534      0.0059     11.9145     30.7467    139.3109
   729.7000      8.2044      2.4714      0.0270     10.8256     31.2710    139.4808
   729.8000      8.2011      2.4821      0.0747     10.1763     31.1286    135.1202
   729.9000      8.2011      2.4681     -0.0045     11.0239     30.4345    129.4061
   730.0000      8.2046      2.4301      0.0241     13.3263     29.8968    126.0604
   730.1000      8.2046      2.3739     -0.0249     16.7324     30.1710    125.4340
   730.2000      8.2046      2.3140     -0.1038     20.3615     31.0109    127.9663
   730.3000      8.2243      2.2782     -0.0799     22.5339     31.7087    133.2891
   730.4000      8.2243      2.2831     -0.0457     22.2365     31.6620    138.4344
   730.5000      8.2762      2.3086      0.0361     20.6890     31.1268    144.1453
   730.6000      8.2762      2.3165      0.0654     20.2118     30.9889    152.1633
   730.7000      8.2762      2.3146      0.0146     20.3289     31.1924    155.7720
   730.8000      8.3828      2.3468      0.1269     18.3774     31.0784    148.3842
   730.9000      8.3828      2.4106      0.2595     14.5106     30.7792    136.3532
   731.0000      8.5026      2.4629      0.2797     11.3374     30.7241    127.6271
   731.1000      8.5026      2.4785      0.3077     10.3947     30.9064    123.5970
   731.2000      8.5026      2.4618      0.2647     11.4049     30.9097    124.9346
   731.3000      8.5836      2.4288      0.2877     13.4063     30.4720    130.6855
   731.4000      8.5836      2.3831      0.2758     16.1788     30.1439    136.3776
   731.5000      8.6388      2.3322      0.2089     19.2596     30.3400    140.8358
   731.6000      8.6388      2.3049      0.1679     20.9158     30.3256    144.8819
   731.7000      8.6388      2.3241      0.1811     19.7494     29.5879    142.2056
   731.8000      8.6410      2.3846      0.2173     16.0822     28.9114    129.2383
   731.9000      8.6410      2.4567      0.2798     11.7126     28.9592    116.8039
   732.0000      8.5909      2.5130      0.2825      8.3032     29.2111    112.3600
   732.1000      8.5909      2.5517      0.2707      5.9598     28.7305    112.6692
   732.2000      8.5909      2.5788      0.2827      4.3142     27.5052    115.8800
   732.3000      8.5013      2.5876      0.2962      3.7789     26.6849    121.0984
   732.4000      8.5013      2.5725      0.2597      4.6962     26.9914    124.9852
   732.5000      8.3979      2.5469      0.2410      6.2461     27.6267    127.9622
   732.6000      8.3979      2.5338      0.1914      7.0434     27.6964    131.2388
   732.7000      8.3979      2.5399      0.1778      6.6741     27.3596    135.7357
   732.8000      8.2915      2.5533      0.1796      5.8582     27.2417    140.4204
   732.9000      8.2915      2.5633      0.1577      5.2519     27.4346    137.3237
   733.0000      8.2022      2.5668      0.1412      5.0428     27.4667    129.2101
   733.1000      8.2022      2.5637      0.1102      5.2292     27.1694    126.9851
   733.2000      8.2022      2.5623      0.1242      5.3179     26.8004    129.1309
   733.3000      8.1586      2.5650      0.1435      5.1541     26.8487    128.3286
   733.4000      8.1586      2.5606      0.1292      5.4196     27.2253    122.7254
   733.5000      8.1357      2.5481      0.1463      6.1773     27.0868    117.5534
