~Version Information
VERS.                      2.0: CWLS Log ASCII Standard - VERSION 2.0
WRAP.                       NO: One line per depth step
~Well Information Block
STRT.FT               545.0000: 
STOP.FT              1920.5000: 
STEP.FT                 0.1000: 
NULL.                -999.2500: 
COMP.          Pioneer Natural Resources: COMPANY
WELL.            Summers 21-19: WELL
FLD.           Purgatoire River: FIELD
LOC.           900' FNL & 1950' FWL: LOCATION
PROV.                 Colorado: PROVINCE
CNTY.               Las Animas: COUNTRY
SRVC.                Patterson: SERVICE COMPANY
DATE.          Mon Oct 17 07:05:22 2005: LOG DATE
UWI.           05 071 08315 00: UNIQUE WELL ID
~Curve Information Block
DEPT.FT            0 000 00 00: Depth
DCAL.in                       : CDL Caliper
RHOB.g/cc                     : CDL Bulk Density
RHOC.g/cc                     : CDL Density Correction
DPOR.pu                       : CDL Density Porosity
GR.GAPI                       : Gamma Ray
NPOR.pu                       : Neutron Porosity
~Parameter Information Block
~A  Depth       DCAL        RHOB        RHOC        DPOR         GR         NPOR    
# ...
  1178.6000      8.1069      2.4721     -0.0260     10.7844     83.2123     18.2593
  1178.7000      8.1069      2.4517     -0.0411     12.0160     82.1591     19.5259
  1178.8000      8.0793      2.4602     -0.0207     11.5001     83.6624     19.8699
  1178.9000      8.0793      2.4838      0.0240     10.0744     89.4768     18.7116
  1179.0000      8.0743      2.5012     -0.0205      9.0173     94.8078     17.5226
  1179.1000      8.0743      2.5126     -0.0450      8.3286     96.2963     17.2098
  1179.2000      8.0743      2.5231      0.0506      7.6881     98.3904     17.3859
  1179.3000      8.0759      2.5273      0.0598      7.4364    104.5906     18.0926
  1179.4000      8.0759      2.5270      0.0105      7.4534    111.3970     19.4075
  1179.5000      8.0728      2.5222      0.0593      7.7456    113.9808     20.0085
  1179.6000      8.0728      2.5121      0.0117      8.3582    113.4877     19.4642
  1179.7000      8.0728      2.5059      0.0567      8.7344    112.6035     19.1662
  1179.8000      8.0767      2.5019      0.0541      8.9772    110.7389     19.6061
  1179.9000      8.0767      2.4939      0.0628      9.4601    108.1414     20.1305
  1180.0000      8.0727      2.4888      0.0596      9.7712    104.8137     19.9228
  1180.1000      8.0727      2.4941      0.0269      9.4498    100.0844     18.8999
  1180.2000      8.0727      2.5061      0.0426      8.7187     95.0413     17.9737
  1180.3000      8.0714      2.5175      0.0527      8.0298     92.4132     18.1054
  1180.4000      8.0714      2.5274      0.0484      7.4304     93.2068     19.4264
  1180.5000      8.0707      2.5364      0.0264      6.8838     97.0347     20.8215
  1180.6000      8.0707      2.5415      0.0447      6.5741    101.6581     20.6416
  1180.7000      8.0707      2.5367      0.0627      6.8663    104.5140     19.0489
  1180.8000      8.0756      2.5186      0.0197      7.9621    106.2309     17.8974
  1180.9000      8.0756      2.4979      0.0130      9.2202    105.7771     17.2905
  1181.0000      8.0729      2.4942     -0.0049      9.4432    103.5266     16.3853
  1181.1000      8.0729      2.5120      0.0073      8.3666    104.9389     15.9112
  1181.2000      8.0729      2.5289      0.0342      7.3405    110.9150     16.4979
  1181.3000      8.0748      2.5277      0.0235      7.4146    116.9044     17.5456
  1181.4000      8.0748      2.5204      0.0011      7.8574    117.6504     18.3321
  1181.5000      8.0756      2.5239      0.0180      7.6449    112.0062     18.6649
  1181.6000      8.0756      2.5370      0.0639      6.8515    106.3742     18.5478
  1181.7000      8.0756      2.5522      0.0435      5.9272    105.1197     18.1332
  1181.8000      8.0765      2.5646      0.0559      5.1729    104.2353     18.0083
  1181.9000      8.0765      2.5640      0.0371      5.2111    102.7274     18.4872
  1182.0000      8.0787      2.5453     -0.0140      6.3481    105.7295     19.3150
  1182.1000      8.0787      2.5196      0.0165      7.9044    110.6265     19.9134
  1182.2000      8.0787      2.5024     -0.0269      8.9478    110.3546     20.1282
  1182.3000      8.0733      2.4986     -0.0062      9.1748    105.7954     20.0983
  1182.4000      8.0733      2.4997     -0.0092      9.1095    101.7955     19.4833
  1182.5000      8.0684      2.5081     -0.0498      8.5972    100.4559     18.5913
  1182.6000      8.0684      2.5321      0.0222      7.1438    103.0916     18.3260
  1182.7000      8.0684      2.5542      0.0347      5.8053    105.6771     18.6689
  1182.8000      8.0742      2.5513      0.0519      5.9795    100.1502     19.0821
  1182.9000      8.0742      2.5262      0.0371      7.5055     91.9007     19.1180
  1183.0000      8.0785      2.5058     -0.0468      8.7394     89.9709     18.6855
  1183.1000      8.0785      2.5104      0.0206      8.4617     92.8530     18.1731
  1183.2000      8.0785      2.5274     -0.0031      7.4328     97.5277     17.7887
  1183.3000      8.0756      2.5332      0.0207      7.0769    100.8828     17.8075
  1183.4000      8.0756      2.5235     -0.0057      7.6637     99.0255     18.1159
  1183.5000      8.0832      2.5062      0.0072      8.7155     93.3659     17.8531
  1183.6000      8.0832      2.4797     -0.0272     10.3233     88.6867     17.2442
  1183.7000      8.0832      2.4509     -0.0540     12.0665     89.0445     16.9786
  1183.8000      8.0861      2.4400     -0.0946     12.7252     92.6615     16.7193
  1183.9000      8.0861      2.4494     -0.0652     12.1559     94.0462     16.1552
  1184.0000      8.0787      2.4633     -0.0173     11.3140     93.5567     15.5105
  1184.1000      8.0787      2.4782     -0.0051     10.4138     95.5296     15.3553
  1184.2000      8.0787      2.5014      0.0268      9.0077    100.7922     16.0367
  1184.3000      8.0930      2.5236      0.0377      7.6592    104.6166     16.9019
  1184.4000      8.0930      2.5235      0.0414      7.6640    102.9558     17.4006
  1184.5000      8.0852      2.4974     -0.0174      9.2473     99.5529     17.7462
  1184.6000      8.0852      2.4629     -0.0147     11.3394    100.5610     17.8364
  1184.7000      8.0852      2.4332     -0.0407     13.1380    102.8796     17.5065
  1184.8000      8.0841      2.4125     -0.0220     14.3932     99.1612     17.0094
  1184.9000      8.0841      2.4084     -0.0579     14.6442     90.5443     16.6126
  1185.0000      8.0830      2.4236      0.0189     13.7184     83.0165     16.3893
  1185.1000      8.0830      2.4426      0.0687     12.5709     79.7608     16.3042
  1185.2000      8.0830      2.4554      0.0396     11.7949     80.6493     16.3804
  1185.3000      8.0879      2.4709      0.0451     10.8555     83.1142     16.5375
  1185.4000      8.0879      2.4841      0.0753     10.0561     85.0924     16.5232
  1185.5000      8.0895      2.4747      0.0833     10.6220     85.0191     16.1362
  1185.6000      8.0895      2.4408      0.0102     12.6789     81.6536     15.6575
  1185.7000      8.0895      2.4098     -0.0016     14.5585     77.4318     15.5689
  1185.8000      8.0890      2.4122     -0.0261     14.4144     75.2206     15.4254
  1185.9000      8.0890      2.4453      0.0503     12.4054     74.5801     15.0906
  1186.0000      8.0867      2.4700      0.1255     10.9103     75.2159     15.2304
  1186.1000      8.0867      2.4606      0.0741     11.4768     76.6476     15.3645
  1186.2000      8.0867      2.4420      0.0141     12.6072     78.0471     15.0610
  1186.3000      8.0809      2.4435      0.0310     12.5153     79.5393     14.9526
  1186.4000      8.0809      2.4492      0.0545     12.1673     80.2923     15.2615
  1186.5000      8.0833      2.4336     -0.0044     13.1163     79.9200     15.6162
  1186.6000      8.0833      2.4096     -0.0098     14.5726     81.2366     15.9301
  1186.7000      8.0833      2.4030      0.0082     14.9703     84.7932     16.2430
  1186.8000      8.0871      2.4200     -0.0110     13.9381     85.7833     16.1272
  1186.9000      8.0871      2.4496      0.0099     12.1427     82.0430     15.6471
  1187.0000      8.0901      2.4735      0.0515     10.6961     78.0738     15.5335
  1187.1000      8.0901      2.4789      0.0676     10.3697     77.3689     15.9219
  1187.2000      8.0901      2.4681      0.0252     11.0216     80.3983     16.1733
  1187.3000      8.0924      2.4551     -0.0041     11.8120     82.8915     15.9851
  1187.4000      8.0924      2.4469      0.0402     12.3074     79.8130     15.7253
  1187.5000      8.0724      2.4324      0.0211     13.1877     76.6808     15.7846
  1187.6000      8.0724      2.4107     -0.0514     14.5057     78.3401     16.0661
  1187.7000      8.0724      2.4031     -0.0702     14.9643     78.7007     16.3476
  1187.8000      8.0836      2.4175     -0.0139     14.0932     75.0339     16.2976
  1187.9000      8.0836      2.4462     -0.0046     12.3522     72.2580     16.0030
  1188.0000      8.0886      2.4817      0.0731     10.1983     72.9584     15.9580
  1188.1000      8.0886      2.5063      0.0824      8.7108     78.3051     16.2959
