~Version Information
VERS.                      2.0: CWLS Log ASCII Standard - VERSION 2.0
WRAP.                       NO: One line per depth step
~Well Information Block
STRT.FT               520.0000: 
STOP.FT              2183.5000: 
STEP.FT                 0.1000: 
NULL.                -999.2500: 
COMP.          Pioneer Natural Resources: COMPANY
WELL.             Enzo 43-8 Tr: WELL
FLD.           Purgatoire River: FIELD
LOC.           2303' FSL & 604' FEL: LOCATION
PROV.                 Colorado: PROVINCE
CNTY.               Las Animas: COUNTRY
SRVC.                Patterson: SERVICE COMPANY
DATE.          Sun Oct 31 15:10:54 2004: LOG DATE
UWI.           05 071 08213 00: UNIQUE WELL ID
~Curve Information Block
DEPT.FT            0 000 00 00: Depth
DCAL.in                       : CDL Caliper
RHOB.g/cc                     : CDL Bulk Density
RHOC.g/cc                     : CDL Density Correction
DPOR.pu                       : CDL Density Porosity
NPOR.pu                       : Neutron Porosity
GR.GAPI                       : Gamma Ray
~Parameter Information Block
~A  Depth       DCAL        RHOB        RHOC        DPOR        NPOR         GR     
# ...
  2046.4000      8.0595      2.4667      0.0310     11.1095     17.3412     55.9108
  2046.5000      8.0613      2.4666      0.0207     11.1174     17.6536     50.3762
  2046.6000      8.0613      2.4678      0.0674     11.0404     17.4291     47.9419
  2046.7000      8.0613      2.4611      0.0605     11.4482     16.7148     46.5832
  2046.8000      8.0613      2.4512      0.0328     12.0465     16.3029     46.2364
  2046.9000      8.0613      2.4550      0.0593     11.8173     16.7260     47.8877
  2047.0000      8.0620      2.4751      0.0346     10.6019     17.3454     48.8690
  2047.1000      8.0620      2.4929      0.0926      9.5196     17.3704     45.8517
  2047.2000      8.0620      2.4902      0.0521      9.6849     17.0296     40.6620
  2047.3000      8.0699      2.4710      0.0380     10.8467     17.0323     36.3119
  2047.4000      8.0699      2.4553      0.0066     11.8009     17.3602     32.9637
  2047.5000      8.0918      2.4594      0.0103     11.5535     17.5529     31.9467
  2047.6000      8.0918      2.4762      0.0477     10.5321     17.2957     33.4169
  2047.7000      8.0918      2.4879      0.0740      9.8222     16.5511     34.3451
  2047.8000      8.1177      2.5005      0.0344      9.0604     16.0785     34.6253
  2047.9000      8.1177      2.5238      0.1105      7.6478     16.3878     35.9526
  2048.0000      8.1303      2.5429      0.0761      6.4887     17.0099     37.8059
  2048.1000      8.1303      2.5450      0.0868      6.3648     17.5059     37.9587
  2048.2000      8.1303      2.5324      0.0698      7.1258     17.4339     36.3126
  2048.3000      8.1331      2.5142      0.0656      8.2301     16.6665     36.5168
  2048.4000      8.1331      2.4996      0.0183      9.1163     16.2259     39.3248
  2048.5000      8.1346      2.4897      0.0212      9.7157     17.0029     42.3955
  2048.6000      8.1346      2.4812      0.0152     10.2325     18.4804     46.4447
  2048.7000      8.1346      2.4808      0.0129     10.2554     19.4303     52.0228
  2048.8000      8.1352      2.4943      0.0780      9.4389     19.5453     56.6095
  2048.9000      8.1352      2.5088      0.0757      8.5583     19.1766     59.1260
  2049.0000      8.1356      2.5109      0.0914      8.4311     18.5631     61.4415
  2049.1000      8.1356      2.5073      0.0297      8.6469     18.0593     63.9038
  2049.2000      8.1356      2.5185      0.0347      7.9717     17.7014     64.7411
  2049.3000      8.1358      2.5443      0.0938      6.4084     17.3162     64.3429
  2049.4000      8.1358      2.5600      0.1086      5.4554     17.3841     66.9605
  2049.5000      8.1367      2.5581      0.0518      5.5706     18.2990     75.9100
  2049.6000      8.1367      2.5569      0.0526      5.6394     19.7038     85.7837
  2049.7000      8.1367      2.5682      0.0341      4.9604     20.9119     90.3825
  2049.8000      8.1376      2.5811      0.0813      4.1765     21.4548     89.9586
  2049.9000      8.1376      2.5760      0.0668      4.4857     21.4581     85.9756
  2050.0000      8.1392      2.5531      0.0622      5.8755     21.3847     82.3872
  2050.1000      8.1392      2.5305      0.0092      7.2423     21.7175     84.6530
  2050.2000      8.1392      2.5152      0.0247      8.1697     23.0590     88.3348
  2050.3000      8.1465      2.4912      0.0465      9.6231     25.3575     85.4659
  2050.4000      8.1465      2.4403      0.0411     12.7105     27.4116     79.5698
  2050.5000      8.1593      2.3652     -0.0266     17.2580     28.2932     78.6867
  2050.6000      8.1593      2.2887     -0.0179     21.8986     28.3871     84.3529
  2050.7000      8.1593      2.2304     -0.0269     25.4326     28.4180     93.7667
  2050.8000      8.1740      2.1990     -0.0447     27.3350     28.3662    101.8475
  2050.9000      8.1740      2.1992     -0.0577     27.3199     28.1665    106.1611
  2051.0000      8.1850      2.2307      0.0232     25.4130     27.9564    109.7077
  2051.1000      8.1850      2.2765      0.1330     22.6357     27.4602    113.6395
  2051.2000      8.1850      2.3160      0.1725     20.2427     26.6013    117.9472
  2051.3000      8.1866      2.3488      0.1768     18.2542     25.8853    122.7616
  2051.4000      8.1866      2.3824      0.2078     16.2194     25.6648    125.1802
  2051.5000      8.1926      2.4125      0.1916     14.3943     25.4551    123.9098
  2051.6000      8.1926      2.4344      0.0937     13.0652     24.6309    125.6828
  2051.7000      8.1926      2.4468      0.0670     12.3131     23.5339    132.2384
  2051.8000      8.2046      2.4510      0.0011     12.0605     23.2443    132.9131
  2051.9000      8.2046      2.4570      0.0329     11.6981     24.0497    122.8926
  2052.0000      8.2138      2.4698      0.0160     10.9198     25.2672    114.2659
  2052.1000      8.2138      2.4865      0.0398      9.9118     26.0256    116.0330
  2052.2000      8.2138      2.4997      0.0507      9.1115     25.8194    118.9295
  2052.3000      8.2240      2.5022      0.0424      8.9576     25.4252    116.2676
  2052.4000      8.2240      2.5018      0.0066      8.9825     25.6293    116.8275
  2052.5000      8.2380      2.5066      0.0753      8.6932     25.8857    123.5718
  2052.6000      8.2380      2.5058      0.0559      8.7404     25.6344    129.2603
  2052.7000      8.2380      2.4956      0.0439      9.3591     24.7952    131.5562
  2052.8000      8.2466      2.4918      0.0168      9.5871     24.2764    132.5304
  2052.9000      8.2466      2.4979      0.0707      9.2179     24.9112    133.1521
  2053.0000      8.2489      2.4964      0.0762      9.3110     25.9298    134.3807
  2053.1000      8.2489      2.4814      0.0418     10.2209     26.5373    136.4250
  2053.2000      8.2489      2.4620      0.0664     11.3915     26.8124    133.0124
  2053.3000      8.2554      2.4509      0.0041     12.0660     26.9337    125.5613
  2053.4000      8.2554      2.4617      0.0405     11.4121     26.9357    125.8809
  2053.5000      8.2665      2.4882      0.0378      9.8071     27.0383    134.2793
  2053.6000      8.2665      2.5036      0.1218      8.8723     27.4764    143.2180
  2053.7000      8.2665      2.4898      0.0582      9.7103     27.6829    147.8599
  2053.8000      8.2784      2.4599      0.0380     11.5185     27.2095    143.9180
  2053.9000      8.2784      2.4400      0.0090     12.7286     26.6181    135.3185
  2054.0000      8.2956      2.4339      0.0597     13.0991     26.1674    132.3735
  2054.1000      8.2956      2.4233      0.0479     13.7423     25.8476    135.6244
  2054.2000      8.2956      2.3982      0.0282     15.2612     26.1054    140.7779
  2054.3000      8.3038      2.3644      0.0542     17.3089     27.2228    146.4322
  2054.4000      8.3038      2.3289     -0.0177     19.4602     28.9570    149.0018
  2054.5000      8.2831      2.2873     -0.0077     21.9843     30.6414    145.9228
  2054.6000      8.2831      2.2193      0.0001     26.1051     31.6127    142.2930
  2054.7000      8.2831      2.1141     -0.0305     32.4795     32.0137    139.9380
  2054.8000      8.2567      1.9888     -0.0599     40.0747     32.4329    135.8577
  2054.9000      8.2567      1.8714     -0.1014     47.1860     32.8286    127.4053
  2055.0000      8.2458      1.7772     -0.1315     52.8952     32.7611    113.8108
  2055.1000      8.2458      1.6983     -0.1132     57.6788     32.4818    102.7875
  2055.2000      8.2458      1.6195     -0.1229     62.4540     32.9186    100.2892
  2055.3000      8.2465      1.5498     -0.0988     66.6767     34.0603    100.9283
  2055.4000      8.2465      1.5157     -0.0291     68.7437     34.8760     97.4790
  2055.5000      8.2562      1.5280      0.0172     67.9991     34.6678     90.8808
  2055.6000      8.2562      1.5844      0.0562     64.5797     33.4244     86.0982
  2055.7000      8.2562      1.6859      0.1233     58.4280     31.6679     85.5224
  2055.8000      8.2606      1.8244      0.2214     50.0342     29.8545     89.1047
  2055.9000      8.2606      1.9667      0.2674     41.4136     28.3504     94.8669
