~Version Information
 VERS.                                  2.0 : CWLS LAS VERSION
 WRAP.                                   NO : WRAPING MODE
 SWARE .                 MController 2.5.0J : SOFTWARE VERSION
~Well Information
 WELL.                      Warrior 33-1 Tr : WELL
 COMP.    Pioneer Natural Resources USA Inc : COMPANY
 FLD.                      Purgatoire River : FIELD
 LOC.                 NW/SE Sec 1 T33S R67W : LOCATION
 DATE.                            6/17/2005 : DATE(S) LOGGED
 SRVC.      Blanco Geological Services LLC  : SERVICE COMPANY
 STAT.                                   CO : STATE
 CNTY.                           Las Animas : COUNTY
 CTRY.                                  USA : COUNTRY
 API.                       05-071-08412-00 : API NUMBER
 STRT.FT                             383.00 : START DEPTH
 STOP.FT                            1751.00 : STOP DEPTH
 STEP.FT                               1.00 : DEPTH INCREMENT
 NULL.                                -9999 : NULL VALUE
~Curve information
 DEPTH.FT                                   :
 ROP.MIN/FT                                 :
 GAS.UNITS                                  :
~ASCII Log data
# ...
      1383.0         0.20        864.3 
      1384.0         0.17        854.6 
      1385.0         0.17        843.1 
      1386.0         0.17        832.7 
      1387.0         0.13        825.3 
      1388.0         0.17        816.2 
      1389.0         0.17        810.4 
      1390.0         0.17        804.0 
      1391.0         0.17        795.6 
      1392.0         0.17        786.9 
      1393.0         0.17        783.5 
      1394.0         0.17        776.7 
      1395.0         0.20        771.7 
      1396.0         0.17        773.4 
      1397.0         0.17        778.8 
      1398.0         0.20        780.8 
      1399.0         0.17        765.6 
      1400.0         0.22        732.9 
      1401.0         0.17        620.8 
      1402.0         0.20        480.9 
      1403.0         0.20        440.0 
      1404.0         0.27        116.6 
      1405.0         0.37        202.6 
      1406.0         2.55       3125.4 
      1407.0         0.10       1654.4 
      1408.0         0.27       1562.1 
      1409.0         0.37       1407.5 
      1410.0         0.33       1072.6 
      1411.0         0.23        914.2 
      1412.0         0.27        830.3 
      1413.0         0.30        773.7 
      1414.0         0.27        754.2 
      1415.0         0.23        744.4 
      1416.0         0.33        739.7 
      1417.0         0.35        737.7 
      1418.0         0.23        722.5 
      1419.0         0.30        720.1 
      1420.0         0.27        705.7 
      1421.0         0.20        701.3 
      1422.0         0.23        720.5 
      1423.0         0.23        732.3 
      1424.0         0.20        733.6 
      1425.0         0.20        742.0 
      1426.0         0.23        750.5 
      1427.0         0.27        760.9 
      1428.0         0.23        763.9 
      1429.0         0.27        763.9 
      1430.0         0.20        750.1 
      1431.0         0.25        723.2 
      1432.0         0.23        647.7 
      1433.0         0.17        506.2 
      1434.0         0.13        468.8 
      1435.0         0.17        476.9 
      1436.0         2.92       2835.0 
      1437.0         0.47       1776.0 
      1438.0         0.33       1316.1 
      1439.0         0.27       1089.7 
      1440.0         0.23        976.5 
      1441.0         0.23        902.4 
      1442.0         0.20        855.9 
      1443.0         0.20        828.3 
      1444.0         0.20        808.4 
      1445.0         0.17        802.4 
      1446.0         0.20        798.3 
      1447.0         0.17        793.6 
      1448.0         0.20        788.9 
      1449.0         0.18        778.1 
      1450.0         0.17        768.0 
      1451.0         0.17        768.0 
      1452.0         0.17        758.2 
      1453.0         0.20        750.5 
      1454.0         0.17        745.8 
      1455.0         0.17        743.1 
      1456.0         0.20        738.0 
      1457.0         0.17        730.9 
      1458.0         0.17        709.7 
      1459.0         0.20        640.6 
      1460.0         0.13        559.1 
      1461.0         0.17        518.7 
      1462.0         0.10        483.0 
      1463.0         0.13        477.2 
      1464.0         0.13        485.7 
      1465.0         0.10        508.2 
      1466.0         2.72       2770.3 
      1467.0         0.57       1589.7 
      1468.0         0.40       1122.1 
      1469.0         0.48        952.6 
      1470.0         0.33        684.8 
      1471.0         0.30        630.2 
      1472.0         0.27        656.8 
      1473.0         0.27        678.4 
      1474.0         0.23        702.0 
      1475.0         0.23        718.5 
      1476.0         0.23        735.0 
      1477.0         0.20        749.8 
      1478.0         0.23        761.6 
      1479.0         0.20        773.7 
      1480.0         0.23        779.1 
      1481.0         0.23        780.5 
      1482.0         0.23        777.1 
      1483.0         0.25        767.7 
      1484.0         0.23        752.5 
      1485.0         0.23        737.0 
      1486.0         0.23        725.9 
      1487.0         0.20        700.6 
      1488.0         0.20        684.8 
      1489.0         0.20        684.8 
      1490.0         0.20        682.4 
      1491.0         0.27        650.4 
      1492.0         0.23        496.8 
      1493.0         0.17        440.0 
      1494.0         0.20        104.0 
      1495.0         0.20         92.2 
      1496.0         2.42       2749.7 
      1497.0         0.27       2331.6 
      1498.0         0.40       1948.9 
      1499.0         0.43       1298.3 
      1500.0         0.23       1036.2 
      1501.0         0.38        920.6 
      1502.0         0.27        824.3 
      1503.0         0.27        775.4 
      1504.0         0.27        737.3 
      1505.0         0.23        732.3 
      1506.0         0.23        737.7 
      1507.0         0.27        740.7 
      1508.0         0.30        739.4 
      1509.0         0.27        730.3 
      1510.0         0.17        716.8 
      1511.0         0.17        700.6 
      1512.0         0.17        667.9 
      1513.0         0.13        658.2 
      1514.0         0.17        647.4 
      1515.0         0.13        651.1 
      1516.0         0.22        662.9 
      1517.0         0.13        671.0 
      1518.0         0.27        689.2 
      1519.0         0.13        688.1 
      1520.0         0.20        678.0 
      1521.0         0.20        614.4 
      1522.0         0.17        489.0 
      1523.0         0.17        474.5 
      1524.0         0.20        444.9 
      1525.0         0.17        457.0 
      1526.0         2.88       2615.3 
      1527.0         0.37       1140.6 
      1528.0         0.43       1067.2 
      1529.0         0.33        946.9 
      1530.0         0.20        901.4 
      1531.0         0.20        853.6 
      1532.0         0.27        802.0 
      1533.0         0.27        786.9 
      1534.0         0.28        763.6 
      1535.0         0.23        759.6 
      1536.0         0.20        756.5 
      1537.0         0.27        749.5 
      1538.0         0.23        738.7 
      1539.0         0.23        726.2 
      1540.0         0.20        716.8 
      1541.0         0.23        708.0 
      1542.0         0.20        684.4 
      1543.0         0.23        654.4 
      1544.0         0.20        637.9 
      1545.0         0.20        645.0 
      1546.0         0.27        644.0 
      1547.0         0.48        622.8 
      1548.0         0.30        665.6 
      1549.0         0.20        679.4 
      1550.0         0.20        676.0 
      1551.0         0.17        620.4 
      1552.0         0.17        562.5 
      1553.0         0.17        495.8 
      1554.0         0.17        472.2 
      1555.0         0.23        518.0 
      1556.0         1.95       2929.6 
      1557.0         0.23       2746.0 
      1558.0         0.23       1997.4 
      1559.0         0.83       1739.0 
      1560.0         0.23       1276.7 
      1561.0         0.23       1076.3 
      1562.0         0.33        846.5 
      1563.0         0.43        685.8 
      1564.0         0.33        735.0 
      1565.0         0.35        820.5 
      1566.0         0.27        825.6 
      1567.0         0.33        822.9 
      1568.0         0.47        799.0 
      1569.0         0.30        804.0 
      1570.0         0.13        804.7 
      1571.0         0.23        801.3 
      1572.0         0.13        783.5 
      1573.0         0.20        775.1 
      1574.0         0.27        758.6 
      1575.0         0.13        734.0 
      1576.0         0.13        728.2 
      1577.0         0.10        723.2 
      1578.0         0.10        715.4 
      1579.0         0.13        710.0 
      1580.0         0.20        664.9 
      1581.0         0.15        596.5 
      1582.0         0.23        534.5 
