~Version Information
VERS.                      2.0: CWLS Log ASCII Standard - VERSION 2.0
WRAP.                       NO: One line per depth step
~Well Information Block
STRT.FT               258.0000: 
STOP.FT              1001.0000: 
STEP.FT                 0.2500: 
NULL.                -999.2500: 
COMP.          Pioneer Natural Resources: COMPANY
WELL.          Piggyback 33-25: WELL
FLD.           Purgatoire River: FIELD
LOC.           1600' FSL & 1800' FEL: LOCATION
PROV.                 Colorado: PROVINCE
CNTY.               Las Animas: COUNTRY
SRVC.                Patterson: SERVICE COMPANY
DATE.          Fri Apr 29 14:22:38 2005: LOG DATE
UWI.           05 071 08233 00: UNIQUE WELL ID
~Curve Information Block
DEPT.FT            0 000 00 00: Depth
SN.Ohm-m                      : IEL Short Normal
SP.mV                         : IEL Spontaneous Potential
DIR.Ohm-m                     : IEL Induction Resistivity
GR.GAPI                       : Gamma Ray
~Parameter Information Block
~A  Depth        SN          SP         DIR          GR     
# ...
   693.5000     11.4631     58.6554      9.1295     76.0855
   693.7500     11.0860     58.5099      9.0965     76.1800
   694.0000     10.8802     58.4142      9.0847     76.2049
   694.2500     10.8558     58.3696      9.0887     75.9923
   694.5000     10.9429     58.3614      9.1036     75.1651
   694.7500     11.0615     58.3649      9.1262     74.4395
   695.0000     11.1579     58.3572      9.1538     73.5387
   695.2500     11.2097     58.3292      9.1839     73.0999
   695.5000     11.2374     58.2927      9.2151     72.4215
   695.7500     11.2915     58.2762      9.2498     71.9732
   696.0000     11.3971     58.3120      9.2961     71.8007
   696.2500     11.5294     58.4195      9.3665     72.2891
   696.5000     11.6836     58.5950      9.4754     74.1092
   696.7500     11.9310     58.8115      9.6350     76.2053
   697.0000     12.3046     59.0298      9.8522     81.0380
   697.2500     12.6835     59.2163     10.1265     85.1804
   697.5000     12.8987     59.3579     10.4502     91.1625
   697.7500     12.8837     59.4647     10.8126     93.8238
   698.0000     12.6877     59.5605     11.2047     94.9651
   698.2500     12.4265     59.6663     11.6227     94.2744
   698.5000     12.2434     59.7886     12.0667     92.4911
   698.7500     12.2886     59.9167     12.5394     91.3112
   699.0000     12.6924     60.0308     13.0470     89.3696
   699.2500     13.4982     60.1142     13.5995     87.5716
   699.5000     14.6181     60.1628     14.2064     84.0521
   699.7500     15.9221     60.1805     14.8641     81.6904
   700.0000     17.4342     60.1650     15.5456     79.1325
   700.2500     19.3846     60.0989     16.2033     78.0539
   700.5000     21.9559     59.9550     16.7899     76.3117
   700.7500     24.9999     59.7106     17.2807     74.5883
   701.0000     28.0508     59.3577     17.6761     71.5615
   701.2500     30.5183     58.9005     17.9840     69.9493
   701.5000     31.8846     58.3471     18.2045     69.0730
   701.7500     31.8779     57.7037     18.3322     69.6131
   702.0000     30.5203     56.9779     18.3674     71.6265
   702.2500     28.0796     56.1837     18.3191     73.2700
   702.5000     25.0795     55.3421     18.1949     75.3557
   702.7500     22.2540     54.4769     17.9931     76.2859
   703.0000     20.2581     53.6105     17.7060     77.3019
   703.2500     19.3150     52.7657     17.3355     78.0439
   703.5000     19.1743     51.9668     16.9037     79.3071
   703.7500     19.3876     51.2340     16.4521     79.9501
   704.0000     19.5973     50.5715     16.0296     80.2794
   704.2500     19.6529     49.9630     15.6814     80.3452
   704.5000     19.5763     49.3854     15.4457     81.1159
   704.7500     19.4705     48.8281     15.3543     82.3649
   705.0000     19.4421     48.3018     15.4332     85.1048
   705.2500     19.5670     47.8335     15.7003     87.1301
   705.5000     19.8903     47.4558     16.1638     89.4874
   705.7500     20.4133     47.1931     16.8215     89.7620
   706.0000     21.1022     47.0537     17.6614     86.8945
   706.2500     21.9540     47.0285     18.6630     82.7139
   706.5000     23.0220     47.0961     19.7951     74.4385
   706.7500     24.3972     47.2278     21.0098     68.7760
   707.0000     26.2095     47.3938     22.2423     61.4552
   707.2500     28.5746     47.5683     23.4347     57.4538
   707.5000     31.4879     47.7348     24.5786     52.0370
   707.7500     34.7446     47.8863     25.7384     48.4298
   708.0000     37.9535     48.0214     27.0204     43.3801
   708.2500     40.7544     48.1417     28.5107     40.9745
   708.5000     43.0773     48.2528     30.2328     39.7832
   708.7500     45.0762     48.3677     32.1473     40.5079
   709.0000     46.8249     48.5060     34.1718     42.6708
   709.2500     48.2335     48.6876     36.1897     43.9547
   709.5000     49.2327     48.9235     38.0482     44.6622
   709.7500     49.8756     49.2091     39.5806     44.2889
   710.0000     50.2675     49.5277     40.6761     43.1981
   710.2500     50.5133     49.8636     41.3516     42.6759
   710.5000     50.7418     50.2151     41.7519     42.7883
   710.7500     51.0687     50.5955     42.0733     43.4878
   711.0000     51.4622     51.0219     42.4628     45.1329
   711.2500     51.7266     51.4999     42.9565     46.3465
   711.5000     51.6673     52.0171     43.4727     47.8911
   711.7500     51.2466     52.5460     43.8558     48.5009
   712.0000     50.6067     53.0548     43.9485     48.5377
   712.2500     49.9459     53.5218     43.6576     48.0678
   712.5000     49.3689     53.9473     42.9794     47.1940
   712.7500     48.8860     54.3555     41.9771     46.8641
   713.0000     48.4844     54.7808     40.7401     47.0736
   713.2500     48.1124     55.2472     39.3523     47.6735
   713.5000     47.6204     55.7566     37.8818     49.0765
   713.7500     46.8072     56.2942     36.3886     50.3183
   714.0000     45.5743     56.8440     34.9352     53.0468
   714.2500     43.9856     57.3984     33.5836     55.9084
   714.5000     42.1504     57.9560     32.3774     62.4654
   714.7500     40.1559     58.5133     31.3261     68.4336
   715.0000     38.1219     59.0577     30.4029     79.0964
   715.2500     36.1872     59.5672     29.5605     86.4311
   715.5000     34.4307     60.0150     28.7537     95.7952
   715.7500     32.8707     60.3759     27.9583    100.0570
   716.0000     31.4925     60.6298     27.1769    102.9965
   716.2500     30.2832     60.7603     26.4306    102.8990
   716.5000     29.2927     60.7481     25.7455    100.6490
   716.7500     28.6198     60.5684     25.1438     98.5230
   717.0000     28.3099     60.2000     24.6451     95.6633
   717.2500     28.2923     59.6461     24.2713     94.4759
   717.5000     28.4297     58.9514     24.0465     94.3846
   717.7500     28.6281     58.1956     23.9888     95.7715
   718.0000     28.9015     57.4630     24.0972    100.0681
   718.2500     29.3374     56.8152     24.3422    103.7524
   718.5000     30.0031     56.2819     24.6655    108.2185
   718.7500     30.8851     55.8669     24.9926    108.9679
   719.0000     31.8844     55.5571     25.2537    105.0480
   719.2500     32.8746     55.3302     25.4021     99.0994
   719.5000     33.8400     55.1650     25.4195     87.0896
   719.7500     34.9291     55.0540     25.3116     78.8327
   720.0000     36.2231     55.0157     25.1022     69.0844
   720.2500     37.4552     55.0937     24.8281     65.4254
   720.5000     38.1189     55.3399     24.5318     64.4190
   720.7500     37.8508     55.7866     24.2500     66.0836
   721.0000     36.6122     56.4290     24.0037     70.2865
   721.2500     34.6089     57.2264     23.7946     73.0993
   721.5000     32.1866     58.1195     23.6076     75.8422
   721.7500     29.7414     59.0499     23.4155     76.3881
   722.0000     27.6193     59.9695     23.1875     75.9236
   722.2500     26.0869     60.8408     22.9020     75.5229
   722.5000     25.3236     61.6408     22.5601     75.8024
   722.7500     25.3261     62.3707     22.1918     76.5693
   723.0000     25.8183     63.0565     21.8435     77.4706
   723.2500     26.3386     63.7309     21.5554     76.9832
   723.5000     26.4784     64.4146     21.3414     73.5826
   723.7500     26.1076     65.1189     21.1855     69.6394
   724.0000     25.4604     65.8525     21.0567     62.6841
   724.2500     25.0287     66.6173     20.9333     58.5596
   724.5000     25.2904     67.3954     20.8191     54.5991
   724.7500     26.3404     68.1493     20.7380     53.5692
   725.0000     27.6429     68.8379     20.7089     53.7970
   725.2500     28.3255     69.4350     20.7223     54.7510
   725.5000     27.9507     69.9400     20.7366     57.2686
   725.7500     26.9228     70.3745     20.7015     59.7910
   726.0000     26.0477     70.7675     20.5913     64.6288
   726.2500     25.7810     71.1348     20.4200     67.9304
   726.5000     25.9201     71.4696     20.2258     71.5991
   726.7500     25.9375     71.7487     20.0419     72.7935
