~Version Information
VERS.                      2.0: CWLS Log ASCII Standard - VERSION 2.0
WRAP.                       NO: One line per depth step
~Well Information Block
STRT.FT                -2.7500: 
STOP.FT              2139.2500: 
STEP.FT                 0.2500: 
NULL.                -999.2500: 
COMP.          Petrogulf Corporation: COMPANY
WELL.             State 16-34V: WELL
FLD.           Purgatorie River: FIELD
LOC.           1146' FSL & 1393' FEL: LOCATION
PROV.                 Colorado: PROVINCE
CNTY.               Las Animas: COUNTRY
SRVC.          Patterson Wireline: SERVICE COMPANY
DATE.          Wed Jun 25 13:16:42 2003: LOG DATE
UWI.           05 071 07724 00: UNIQUE WELL ID
~Curve Information Block
DEPT.FT            0 000 00 00: Depth
CCL.                          : Casing Collar Locator
TT3.usec                      : CBL 3' Travel Time
AMP3.mV                       : CBL 3' Amplitude
GR.GAPI                       : Gamma Ray
~Parameter Information Block
~A  Depth       CCL         TT3         AMP3         GR     
# ...
  1270.2500      0.0000    724.7711      6.9715     97.9207
  1270.5000      0.0000    728.2289      6.8221    103.1082
  1270.7500      0.0000    726.8906      6.7180    107.2545
  1271.0000      0.0000    725.1511      6.5834    110.9191
  1271.2500      0.0000    725.9186      6.3565    114.7499
  1271.5000      0.0000    730.2197      6.0329    118.7725
  1271.7500      0.0000    738.0734      5.6470    122.5098
  1272.0000      0.0000    749.0851      5.2292    125.6918
  1272.2500      0.0000    761.9412      4.8100    128.5321
  1272.5000      0.0000    774.0868      4.4558    131.2255
  1272.7500      0.0000    782.8302      4.2425    133.3621
  1273.0000      0.0000    786.8539      4.1688    134.0439
  1273.2500      0.0000    786.4090      4.1417    132.7175
  1273.5000      0.0000    782.3757      4.0795    129.8665
  1273.7500      0.0000    775.8513      3.9963    126.6871
  1274.0000      0.0000    768.6368      3.9603    124.1523
  1274.2500      0.0000    763.0839      4.0078    122.5940
  1274.5000      0.0000    760.6425      4.1381    122.0962
  1274.7500      0.0000    760.6406      4.3637    122.8837
  1275.0000      0.0000    760.9938      4.7064    125.0722
  1275.2500      0.0000    760.3063      5.1454    128.1631
  1275.5000      0.0000    759.1849      5.6225    131.1115
  1275.7500      0.0000    759.4880      6.1163    133.0571
  1276.0000      0.0000    762.1474      6.6707    133.7858
  1276.2500      0.0000    764.8369      7.3351    133.4070
  1276.5000      0.0000    760.5081      8.1153    132.0437
  1276.7500      0.0000    738.5911      8.9892    130.2151
  1277.0000      0.0000    690.6259      9.9217    129.1573
  1277.2500      0.0000    618.1907     10.8565    130.1170
  1277.5000      0.0000    535.5699     11.7434    133.1008
  1277.7500      0.0000    462.0371     12.5861    136.6489
  1278.0000      0.0000    410.3904     13.4167    139.1418
  1278.2500      0.0000    383.1039     14.2116    140.1191
  1278.5000      0.0000    377.1740     14.8860    140.0530
  1278.7500      0.0000    388.6385     15.3973    139.2261
  1279.0000      0.0000    411.5747     15.8112    137.5311
  1279.2500      0.0000    436.3584     16.2222    135.1816
  1279.5000      0.0000    453.1479     16.6388    132.8353
  1279.7500      0.0000    457.4571     16.9928    130.9794
  1280.0000      0.0000    449.6026     17.2465    129.7421
  1280.2500      0.0000    430.4233     17.4308    129.3578
  1280.5000      0.0000    403.3440     17.5696    130.3401
  1280.7500      0.0000    380.1863     17.6140    133.0097
  1281.0000      0.0000    378.6129     17.4883    136.9066
  1281.2500      0.0000    411.0320     17.1778    140.7297
  1281.5000      0.0000    475.5144     16.7317    143.0381
  1281.7500      0.0000    555.2280     16.1867    143.3284
  1282.0000      0.0000    626.5917     15.5316    142.5270
  1282.2500      0.0000    672.4039     14.7597    142.3375
  1282.5000      0.0000    691.8774     13.9209    143.8621
  1282.7500      0.0000    699.2010     13.0881    146.6706
  1283.0000      0.0000    710.7674     12.2778    149.0845
  1283.2500      0.0000    732.3298     11.4351    149.2901
  1283.5000      0.0000    757.7414     10.5140    146.4369
  1283.7500      0.0000    778.0146      9.5540    141.2892
  1284.0000      0.0000    789.0235      8.6479    136.1045
  1284.2500      0.0000    791.5895      7.8465    133.2830
  1284.5000      0.0000    788.0480      7.1363    133.5450
  1284.7500      0.0000    780.6306      6.5158    135.6050
  1285.0000      0.0000    771.8582      6.0507    137.8820
  1285.2500      0.0000    764.6112      5.8211    140.1409
  1285.5000      0.0000    761.1701      5.8264    143.0558
  1285.7500      0.0000    762.0812      5.9756    146.3591
  1286.0000      0.0000    765.6686      6.1672    148.1026
  1286.2500      0.0000    768.7437      6.3379    146.2761
  1286.5000      0.0000    768.6591      6.4256    141.0307
  1286.7500      0.0000    765.3214      6.3479    134.8903
  1287.0000      0.0000    761.0839      6.0651    130.7574
  1287.2500      0.0000    758.6108      5.6377    129.8707
  1287.5000      0.0000    758.9666      5.1862    131.3055
  1287.7500      0.0000    761.4703      4.8041    132.9573
  1288.0000      0.0000    764.9630      4.5246    133.1444
  1288.2500      0.0000    769.0745      4.3448    131.8150
  1288.5000      0.0000    774.0593      4.2436    130.5465
  1288.7500      0.0000    779.3908      4.1795    131.1705
  1289.0000      0.0000    783.1725      4.1094    134.0153
  1289.2500      0.0000    783.5240      4.0339    137.3584
  1289.5000      0.0000    780.3330      3.9980    138.8018
  1289.7500      0.0000    775.1685      4.0285    137.2915
  1290.0000      0.0000    769.3156      4.0936    133.7246
  1290.2500      0.0000    762.1605      4.1415    129.7478
  1290.5000      0.0000    751.5775      4.1443    126.3261
  1290.7500      0.0000    735.4051      4.0930    123.4613
  1291.0000      0.0000    712.1531      3.9972    120.8333
  1291.2500      0.0000    681.5908      3.9059    118.4292
  1291.5000      0.0000    646.9990      3.8807    116.6862
  1291.7500      0.0000    617.2788      3.9282    116.1422
  1292.0000      0.0000    603.9030      3.9975    116.7545
  1292.2500      0.0000    612.7126      4.0582    117.5454
  1292.5000      0.0000    638.7261      4.1414    117.3956
  1292.7500      0.0000    669.9518      4.2929    116.4035
  1293.0000      0.0000    695.6801      4.5193    116.0799
  1293.2500      0.0000    711.3604      4.7900    117.9651
  1293.5000      0.0000    718.1159      5.0610    122.2041
  1293.7500      0.0000    719.6906      5.2938    127.3297
  1294.0000      0.0000    719.5219      5.4889    131.2095
  1294.2500      0.0000    719.0272      5.7087    132.5762
  1294.5000      0.0000    717.0764      6.0394    131.9560
  1294.7500      0.0000    710.1434      6.5263    130.9395
  1295.0000      0.0000    693.7597      7.1504    130.4727
  1295.2500      0.0000    666.3056      7.8286    130.2453
  1295.5000      0.0000    632.1531      8.4324    129.8396
  1295.7500      0.0000    598.6523      8.8756    129.9219
  1296.0000      0.0000    569.3860      9.2051    131.7201
  1296.2500      0.0000    543.6161      9.5585    135.3629
  1296.5000      0.0000    521.3809     10.0368    139.1674
  1296.7500      0.0000    502.6712     10.6716    140.6590
  1297.0000      0.0000    481.9489     11.4805    138.2138
  1297.2500      0.0000    451.4059     12.4768    132.0372
  1297.5000     -2.0000    411.0599     13.6235    124.1729
  1297.7500      0.0000    370.2628     14.8359    117.6002
  1298.0000      0.0000    338.7990     16.0456    114.6027
  1298.2500      0.0000    319.7805     17.2666    115.3912
  1298.5000      0.0000    310.3014     18.6090    118.2732
  1298.7500      0.0000    305.5611     20.2053    121.2059
  1299.0000      0.0000    302.1057     22.0193    122.9867
  1299.2500      0.0000    299.0165     23.6993    123.1669
  1299.5000      0.0000    297.1033     24.7446    121.6848
  1299.7500      0.0000    297.4455     24.8838    119.0788
  1300.0000      0.0000    301.4760     24.2247    116.5139
  1300.2500      0.0000    313.0127     23.0542    114.9990
  1300.5000      0.0000    339.6963     21.6016    114.6695
  1300.7500      0.0000    390.1549     19.9809    115.0484
  1301.0000      0.0000    466.4394     18.2624    115.7289
  1301.2500      0.0000    557.8668     16.5453    116.5737
  1301.5000      0.0000    644.3444     14.9482    117.6739
  1301.7500      0.0000    708.1470     13.5458    119.3593
  1302.0000      0.0000    743.5979     12.3449    121.6504
  1302.2500      0.0000    757.1365     11.3142    123.4415
  1302.5000      0.0000    760.4442     10.3922    122.9498
  1302.7500      0.0000    763.1618      9.4853    119.4270
  1303.0000      0.0000    768.8011      8.5197    113.9423
  1303.2500      0.0000    774.7049      7.5031    108.2579
  1303.5000      0.0000    775.6777      6.5026    103.4543
