~Version Information
 VERS.                                  2.0 : CWLS LAS VERSION
 WRAP.                                   NO : WRAPING MODE
 SWARE .                 MController 2.5.0E : SOFTWARE VERSION
~Well Information
 WELL.                                  N/A : WELL
 COMP.                                  N/A : COMPANY
 FLD.                                   N/A : FIELD
 LOC.                                   N/A : LOCATION
 DATE.                                  N/A : DATE(S) LOGGED
 SRVC.                                  N/A : SERVICE COMPANY
 STAT.                                  N/A : STATE
 CNTY.                                  N/A : COUNTY
 CTRY.                                  N/A : COUNTRY
 API.                                   N/A : API NUMBER
 STRT.FT                             838.00 : START DEPTH
 STOP.FT                            2499.00 : STOP DEPTH
 STEP.FT                               1.00 : DEPTH INCREMENT
 NULL.                                -9999 : NULL VALUE
~Curve information
 DEPTH.FT                                   :
 ROP.MIN/FT                                 :
 GAS.UNITS                                  :
~ASCII Log data
# ...
     1238.00        0.167          6.1 
     1239.00        0.167          6.1 
     1240.00        0.200          6.1 
     1241.00        0.233          5.8 
     1242.00        0.233          5.8 
     1243.00        0.167          5.8 
     1244.00        0.167          5.8 
     1245.00        0.133          5.7 
     1246.00        0.100          5.7 
     1247.00        0.100          5.7 
     1248.00        0.133          5.8 
     1249.00        0.117          5.8 
     1250.00        0.167          5.8 
     1251.00        0.200          5.5 
     1252.00        0.167          5.5 
     1253.00        0.267          5.5 
     1254.00        0.200          5.6 
     1255.00        0.267          5.4 
     1256.00        2.033          5.7 
     1257.00        0.683          5.5 
     1258.00        0.467          5.5 
     1259.00        0.267          5.5 
     1260.00        0.200          5.0 
     1261.00        0.167          5.4 
     1262.00        0.200          5.1 
     1263.00        0.167          5.3 
     1264.00        0.233          5.6 
     1265.00        0.167          5.3 
     1266.00        0.200          5.1 
     1267.00        0.200          4.8 
     1268.00        0.200          5.0 
     1269.00        0.167          4.9 
     1270.00        0.217          5.0 
     1271.00        0.167          5.1 
     1272.00        0.200          5.5 
     1273.00        0.133          5.5 
     1274.00        0.133          5.2 
     1275.00        0.133          5.2 
     1276.00        0.100          5.0 
     1277.00        0.167          5.0 
     1278.00        0.167          4.8 
     1279.00        0.167          4.8 
     1280.00        0.133          5.0 
     1281.00        0.167          4.9 
     1282.00        0.167          4.9 
     1283.00        0.167          4.7 
     1284.00        0.200          4.4 
     1285.00        0.133          4.4 
     1286.00        2.050          5.3 
     1287.00        0.433          4.9 
     1288.00        0.367          5.3 
     1289.00        0.333          4.9 
     1290.00        0.300          5.3 
     1291.00        0.300          4.9 
     1292.00        0.333          5.3 
     1293.00        0.217          4.9 
     1294.00        0.200          5.1 
     1295.00        0.233          5.2 
     1296.00        0.200          4.7 
     1297.00        0.167          4.9 
     1298.00        0.200          5.1 
     1299.00        0.200          5.3 
     1300.00        0.200          5.3 
     1301.00        0.167          5.0 
     1302.00        0.200          5.2 
     1303.00        0.200          5.3 
     1304.00        0.200          5.0 
     1305.00        0.200          5.3 
     1306.00        0.200          5.3 
     1307.00        0.167          5.0 
     1308.00        0.200          5.0 
     1309.00        0.167          5.0 
     1310.00        0.183          4.9 
     1311.00        0.167          5.2 
     1312.00        0.167          5.2 
     1313.00        0.167          5.3 
     1314.00        0.167          5.3 
     1315.00        0.167          4.9 
     1316.00        2.850          5.8 
     1317.00        0.400          5.4 
     1318.00        0.267          5.2 
     1319.00        0.267          5.4 
     1320.00        0.233          5.3 
     1321.00        0.233          5.0 
     1322.00        0.233          4.8 
     1323.00        0.200          4.7 
     1324.00        0.200          5.2 
     1325.00        0.200          4.8 
     1326.00        0.233          4.9 
     1327.00        0.200          5.2 
     1328.00        0.200          4.7 
     1329.00        0.217          4.7 
     1330.00        0.200          4.8 
     1331.00        0.200          4.9 
     1332.00        0.167          4.7 
     1333.00        0.133          4.6 
     1334.00        0.200          4.7 
     1335.00        0.167          4.7 
     1336.00        0.133          4.6 
     1337.00        0.167          4.5 
     1338.00        0.167          4.5 
     1339.00        0.233          4.7 
     1340.00        0.267          4.8 
     1341.00        0.300          4.6 
     1342.00        0.300          4.5 
     1343.00        0.133          4.8 
     1344.00        0.167          4.8 
     1345.00        0.167          5.1 
     1346.00        3.450          5.4 
     1347.00        0.283          5.3 
     1348.00        0.233          5.2 
     1349.00        0.233          5.5 
     1350.00        0.200          5.1 
     1351.00        0.233          5.3 
     1352.00        0.233          5.4 
     1353.00        0.233          5.3 
     1354.00        0.200          5.4 
     1355.00        0.233          5.4 
     1356.00        0.233          5.4 
     1357.00        0.233          5.3 
     1358.00        0.200          5.1 
     1359.00        0.200          5.1 
     1360.00        0.133          5.6 
     1361.00        0.200          5.8 
     1362.00        0.183          5.8 
     1363.00        0.200          5.3 
     1364.00        0.200          5.4 
     1365.00        0.233          5.3 
     1366.00        0.233          5.6 
     1367.00        0.233          5.3 
     1368.00        0.233          5.3 
     1369.00        0.233          5.1 
     1370.00        0.267          5.4 
     1371.00        0.267          5.5 
     1372.00        0.267          5.8 
     1373.00        0.300          5.6 
     1374.00        0.267          5.6 
     1375.00        0.267          6.0 
     1376.00        4.233          6.5 
     1377.00        0.333          6.3 
     1378.00        0.300          6.3 
     1379.00        0.300          6.1 
     1380.00        0.367          6.6 
     1381.00        0.267          6.4 
     1382.00        0.400          6.6 
     1383.00        0.267          6.4 
     1384.00        0.350          6.3 
     1385.00        0.333          6.5 
     1386.00        0.200          6.7 
     1387.00        0.300          6.4 
     1388.00        0.267          7.4 
     1389.00        0.200          6.7 
     1390.00        0.200          6.7 
     1391.00        0.233          6.5 
     1392.00        0.233          6.8 
     1393.00        0.233          6.4 
     1394.00        0.233          6.4 
     1395.00        0.233          6.4 
     1396.00        0.233          6.2 
     1397.00        0.200          6.4 
     1398.00        0.250          6.3 
     1399.00        0.233          6.3 
     1400.00        0.233          6.2 
     1401.00        0.233          6.4 
     1402.00        0.200          6.4 
     1403.00        0.200          6.4 
     1404.00        0.267          6.3 
     1405.00        0.267          6.5 
     1406.00        3.883          7.0 
     1407.00        0.633          6.8 
     1408.00        0.267          6.9 
     1409.00        0.450          7.3 
     1410.00        0.233          7.1 
     1411.00        0.233          7.0 
     1412.00        0.267          6.9 
     1413.00        0.267          6.9 
     1414.00        0.167          6.9 
     1415.00        0.200          7.0 
     1416.00        0.233          7.8 
     1417.00        0.267          7.1 
     1418.00        0.233          7.2 
     1419.00        0.233          7.1 
     1420.00        0.267          7.4 
     1421.00        0.233          7.3 
     1422.00        0.233          7.0 
     1423.00        0.217          7.0 
     1424.00        0.233          7.4 
     1425.00        0.233          7.4 
     1426.00        0.133          7.3 
     1427.00        0.200          7.2 
     1428.00        0.200          6.9 
     1429.00        0.167          7.3 
     1430.00        0.200          7.3 
     1431.00        0.233          7.2 
     1432.00        0.200          7.1 
     1433.00        0.233          7.1 
     1434.00        0.300          7.1 
     1435.00        0.267          7.3 
     1436.00        3.050          7.6 
     1437.00        0.600          7.5 
