~Version Information
VERS.                      2.0: CWLS Log ASCII Standard - VERSION 2.0
WRAP.                       NO: One line per depth step
~Well Information Block
STRT.FT               -12.5000: 
STOP.FT              2200.2500: 
STEP.FT                 0.2500: 
NULL.                -999.2500: 
COMP.          Pioneer Natural Resources: COMPANY
WELL.           Ogallela 44-12: WELL
FLD.           Purgatorie River: FIELD
LOC.           610' FSL & 671' FEL------: LOCATION
PROV.                       CO: PROVINCE
CNTY.               Las Animas: COUNTRY
SRVC.          Patterson Wireline: SERVICE COMPANY
DATE.          Tue Mar 22 17:18:22 2005: LOG DATE
UWI.           05 071 08283 00: UNIQUE WELL ID
~Curve Information Block
DEPT.FT            0 000 00 00: Depth
CCL.                          : Casing Collar Locator
TT3.usec                      : CBL 3' Travel Time
AMP3.mV                       : CBL 3' Amplitude
GR.GAPI                       : Gamma Ray
~Parameter Information Block
~A  Depth       CCL         TT3         AMP3         GR     
# ...
   724.5000      0.0000    267.5062     80.7117    123.9734
   724.7500      0.0000    267.5161     80.6268    117.3501
   725.0000      0.0000    267.5336     80.5054    109.0850
   725.2500      0.0000    267.5696     80.3937    100.6477
   725.5000      0.0000    267.6241     80.3812     93.3424
   725.7500      0.0000    267.6847     80.5163     88.4507
   726.0000      0.0000    267.7327     80.7775     87.0288
   726.2500      0.0000    267.7565     81.0960     89.2363
   726.5000      0.0000    267.7601     81.3944     93.9491
   726.7500      0.0000    267.7599     81.6234     99.1239
   727.0000      0.0000    267.7701     81.7790    102.7022
   727.2500      0.0000    267.7909     81.8868    103.6243
   727.5000      0.0000    267.8099     81.9726    102.3851
   727.7500      0.0000    267.8141     82.0478    100.4718
   728.0000      0.0000    267.8008     82.1117     99.1531
   728.2500      0.0000    267.7782     82.1573     98.9585
   728.5000      0.0000    267.7596     82.1777    100.0031
   728.7500      0.0000    267.7558     82.1801    102.0368
   729.0000      0.0000    267.7680     82.1950    104.1194
   729.2500      0.0000    267.7855     82.2550    105.0193
   729.5000      0.0000    267.7942     82.3601    104.3588
   729.7500      0.0000    267.7881     82.4739    103.0393
   730.0000      0.0000    267.7740     82.5538    102.1765
   730.2500      0.0000    267.7649     82.5798    101.8088
   730.5000      0.0000    267.7695     82.5697    101.0772
   730.7500      0.0000    267.7853     82.5724     99.6786
   731.0000      0.0000    267.7999     82.6291     98.6139
   731.2500      0.0000    267.8008     82.7200     99.2421
   731.5000      0.0000    267.7856     82.7583    101.8359
   731.7500      0.0000    267.7646     82.6540    105.2366
   732.0000      0.0000    267.7548     82.3902    107.9796
   732.2500      0.0000    267.7699     82.0350    109.7066
   732.5000      0.0000    267.8121     81.6795    111.3148
   732.7500      0.0000    267.8696     81.3681    113.7370
   733.0000      0.0000    267.9219     81.0861    116.7950
   733.2500      0.0000    267.9520     80.7941    119.3310
   733.5000      0.0000    267.9573     80.4649    120.3536
   733.7500      0.0000    267.9514     80.1126    120.0116
   734.0000      0.0000    267.9520     79.8117    119.5157
   734.2500      0.0000    267.9657     79.6747    120.0047
   734.5000      0.0000    267.9840     79.7747    121.2536
   734.7500      0.0000    267.9925     80.0778    121.5383
   735.0000      0.0000    267.9832     80.4537    119.0150
   735.2500      0.0000    267.9606     80.7499    113.3113
   735.5000      0.0000    267.9385     80.8655    105.7782
   735.7500      0.0000    267.9306     80.7823     98.4852
   736.0000      0.0000    267.9423     80.5476     93.1365
   736.2500      0.0000    267.9669     80.2276     90.4841
   736.5000      0.0000    267.9909     79.8649     90.3590
   736.7500      0.0000    268.0025     79.4649     92.3884
   737.0000      0.0000    267.9986     79.0180     96.7499
   737.2500      0.0000    267.9868     78.5420    103.8517
   737.5000      0.0000    267.9792     78.1075    113.0814
   737.7500      0.0000    267.9848     77.8094    122.2180
   738.0000      0.0000    268.0035     77.7155    128.6520
   738.2500      0.0000    268.0251     77.8453    131.4856
   738.5000      0.0000    268.0335     78.1760    132.2309
   738.7500      0.0000    268.0169     78.6391    133.1272
   739.0000      0.0000    267.9756     79.1247    134.9258
   739.2500      0.0000    267.9231     79.5266    136.6988
   739.5000      0.0000    267.8781     79.7974    137.5876
   739.7500      0.0000    267.8551     79.9603    137.8951
   740.0000      0.0000    267.8566     80.0737    138.1681
   740.2500      0.0000    267.8732     80.1786    138.0303
   740.5000      0.0000    267.8928     80.2684    136.6598
   740.7500      0.0000    267.9112     80.3136    134.0726
   741.0000      0.0000    267.9328     80.3163    131.3506
   741.2500      0.0000    267.9602     80.3162    129.5408
   741.5000      0.0000    267.9878     80.3305    128.4500
   741.7500      0.0000    268.0071     80.3182    126.5896
   742.0000      0.0000    268.0178     80.2156    122.5086
   742.2500      0.0000    268.0327     79.9407    116.2952
   742.5000      0.0000    268.0824     79.2895    109.7574
   742.7500      0.0000    268.2331     77.8381    105.2269
   743.0000      0.0000    268.6061     75.1316    104.2962
   743.2500      0.0000    269.3607     71.1524    107.2702
   743.5000      0.0000    270.6024     66.5315    113.1398
   743.7500      0.0000    272.2524     62.0919    119.9715
   744.0000      0.0000    273.9979     58.2781    125.7844
   744.2500      0.0000    275.4317     55.2347    129.4796
   744.5000      0.0000    276.3107     53.1671    131.1040
   744.7500      0.0000    276.6940     52.2188    131.3690
   745.0000      0.0000    276.8571     52.1445    131.2253
   745.2500     -2.0000    277.1367     52.4194    131.9452
   745.5000      2.0000    277.8812     52.6096    134.9035
   745.7500      0.0000    279.3720     52.5603    140.4334
   746.0000      0.0000    281.4839     52.4235    146.9860
   746.2500      0.0000    283.3353     52.6515    152.1693
   746.5000      0.0000    283.6282     53.8526    154.6183
   746.7500      0.0000    281.7202     56.4868    154.4856
   747.0000      0.0000    278.2717     60.6346    152.6727
   747.2500      0.0000    274.6501     65.8881    150.2537
   747.5000      0.0000    271.8619     71.3453    148.2117
   747.7500      0.0000    270.1505     75.9199    147.0770
   748.0000      0.0000    269.2835     78.9408    146.7731
   748.2500      0.0000    268.9304     80.4690    146.6945
   748.5000      0.0000    268.8357     81.0309    145.8945
   748.7500      0.0000    268.8433     81.1614    143.8412
   749.0000      0.0000    268.8748     81.1855    141.4633
   749.2500      0.0000    268.8968     81.2413    140.9138
   749.5000      0.0000    268.9016     81.3618    143.5902
   749.7500      0.0000    268.8905     81.5296    148.3767
   750.0000      0.0000    268.8662     81.7063    152.3168
   750.2500      0.0000    268.8319     81.8552    153.2670
   750.5000      0.0000    268.7922     81.9645    151.6275
   750.7500      0.0000    268.7530     82.0478    149.3943
   751.0000      0.0000    268.7196     82.1206    147.9911
   751.2500      0.0000    268.6964     82.1793    147.4185
   751.5000      0.0000    268.6853     82.2075    147.1242
   751.7500      0.0000    268.6869     82.1977    147.0495
   752.0000      0.0000    268.7005     82.1601    147.5814
   752.2500      0.0000    268.7237     82.1132    148.7527
   752.5000      0.0000    268.7517     82.0755    150.0296
   752.7500      0.0000    268.7777     82.0660    151.0294
   753.0000      0.0000    268.7953     82.1010    151.8724
   753.2500      0.0000    268.8005     82.1792    152.4229
   753.5000      0.0000    268.7937     82.2710    151.6568
   753.7500      0.0000    268.7790     82.3288    148.4557
   754.0000      0.0000    268.7620     82.3121    143.1213
   754.2500      0.0000    268.7468     82.2099    137.7617
   754.5000      0.0000    268.7350     82.0423    134.9383
   754.7500      0.0000    268.7268     81.8447    135.7676
   755.0000      0.0000    268.7219     81.6505    139.0824
   755.2500      0.0000    268.7198     81.4797    142.2761
   755.5000      0.0000    268.7207     81.3368    142.9575
   755.7500      0.0000    268.7245     81.2177    140.1051
   756.0000      0.0000    268.7323     81.1177    134.2146
   756.2500      0.0000    268.7459     81.0338    126.5736
   756.5000      0.0000    268.7684     80.9603    118.0617
   756.7500      0.0000    268.8018     80.8891    108.6405
   757.0000      0.0000    268.8442     80.8140     98.2444
   757.2500      0.0000    268.8892     80.7339     87.7916
   757.5000      0.0000    268.9295     80.6526     78.9750
   757.7500      0.0000    268.9609     80.5807     73.5559
