~Version Information
VERS.                      2.0: CWLS Log ASCII Standard - VERSION 2.0
WRAP.                       NO: One line per depth step
~Well Information Block
STRT.FT               483.0000: 
STOP.FT              1702.5000: 
STEP.FT                 0.2500: 
NULL.                -999.2500: 
COMP.          Pioneer Natural Resources: COMPANY
WELL.            Mad Dog 42-31: WELL
FLD.           Purgatorie River: FIELD
LOC.           2064' FNL & 479' FEL: LOCATION
PROV.                 Colorado: PROVINCE
CNTY.               Las Animas: COUNTRY
SRVC.                         : SERVICE COMPANY
DATE.          Sun Oct 10 04:26:24 2004: LOG DATE
UWI.           05 071 08195 00: UNIQUE WELL ID
~Curve Information Block
DEPT.FT            0 000 00 00: Depth
LTEN.lb                       : Surface Line Tension
SN.Ohm-m                      : IEL Short Normal
SP.mV                         : IEL Spontaneous Potential
DIR.Ohm-m                     : IEL Induction Resistivity
GR.GAPI                       : Gamma Ray
~Parameter Information Block
~A  Depth       LTEN         SN          SP         DIR          GR     
# ...
  1211.0000    705.2028     38.1231   -216.7544     36.5166     50.0668
  1211.2500    704.3860     37.4505   -217.4310     35.5518     54.1036
  1211.5000    705.7710     36.4814   -217.8603     34.1799     59.0845
  1211.7500    708.8297     35.1902   -217.9445     32.3738     60.8760
  1212.0000    712.0532     33.5869   -217.6371     30.2879     60.9893
  1212.2500    714.2906     31.7398   -216.9441     28.1666     60.3386
  1212.5000    715.4111     29.7721   -215.9212     26.2125     61.7042
  1212.7500    715.8182     27.8277   -214.6728     24.5373     66.2630
  1213.0000    715.7742     26.0273   -213.3438     23.1841     80.2205
  1213.2500    715.3887     24.4437   -212.1048     22.1609     93.5594
  1213.5000    714.8697     23.1046   -211.1307     21.4513    116.0621
  1213.7500    714.5288     22.0112   -210.5719     21.0066    130.0578
  1214.0000    714.7632     21.1554   -210.5338     20.7384    145.6956
  1214.2500    715.9740     20.5271   -211.0534     20.5241    151.6919
  1214.5000    718.2139     20.1147   -212.0958     20.2314    155.6274
  1214.7500    720.8311     19.9012   -213.5647     19.7720    156.7141
  1215.0000    722.6094     19.8650   -215.3209     19.1638    158.1046
  1215.2500    722.4332     19.9883   -217.2125     18.5467    158.9368
  1215.5000    720.0447     20.2698   -219.1004     18.1188    159.5896
  1215.7500    716.2753     20.7281   -220.8799     18.0420    159.8210
  1216.0000    712.4302     21.3874   -222.4861     18.3907    160.5474
  1216.2500    709.3691     22.2551   -223.8828     19.1539    161.0596
  1216.5000    707.2993     23.3093   -225.0531     20.2631    160.0381
  1216.7500    706.2893     24.5091   -225.9780     21.6229    157.0320
  1217.0000    706.5063     25.8142   -226.6242     23.1251    148.4908
  1217.2500    707.8924     27.1971   -226.9479     24.6476    140.5857
  1217.5000    710.0580     28.6367   -226.9063     26.0647    126.7219
  1217.7500    712.6645     30.1000   -226.4765     27.2874    116.9730
  1218.0000    715.6119     31.5293   -225.6680     28.3032    103.0771
  1218.2500    718.7980     32.8494   -224.5356     29.1760     95.0088
  1218.5000    722.0591     33.9911   -223.1738     30.0153     85.2629
  1218.7500    725.3940     34.9162   -221.6973     30.9443     80.3034
  1219.0000    729.0457     35.6253   -220.2278     32.0811     74.6412
  1219.2500    733.2197     36.1472   -218.8691     33.4961     71.4513
  1219.5000    737.5236     36.5185   -217.6994     35.1474     66.2395
  1219.7500    740.5305     36.7685   -216.7655     36.8337     62.0050
  1220.0000    740.3179     36.9161   -216.0847     38.2405     54.8700
  1220.2500    735.9846     36.9763   -215.6526     39.0836     50.3171
  1220.5000    728.7255     36.9695   -215.4478     39.2356     44.9496
  1220.7500    721.3073     36.9223   -215.4361     38.7247     42.6308
  1221.0000    716.3719     36.8558   -215.5709     37.6740     40.9694
  1221.2500    715.0800     36.7682   -215.8031     36.2764     40.9525
  1221.5000    717.0774     36.6300   -216.0829     34.7855     42.5053
  1221.7500    721.1151     36.4017   -216.3684     33.4641     44.6159
  1222.0000    725.3691     36.0651   -216.6309     32.5177     49.3076
  1222.2500    727.8646     35.6443   -216.8530     32.0607     53.2077
  1222.5000    727.4201     35.1967   -217.0231     32.1065     59.3990
  1222.7500    724.2725     34.7818   -217.1297     32.5395     63.2339
  1223.0000    719.6454     34.4335   -217.1553     33.0986     68.1536
  1223.2500    714.7516     34.1565   -217.0788     33.4450     71.0086
  1223.5000    710.3622     33.9431   -216.8803     33.3525     75.0572
  1223.7500    707.3115     33.7906   -216.5539     32.8689     77.7012
  1224.0000    706.8718     33.7006   -216.1133     32.2795     81.2753
  1224.2500    709.8978     33.6672   -215.5960     31.9275     83.0142
  1224.5000    715.5303     33.6685   -215.0487     32.0807     84.3496
  1224.7500    721.1940     33.6697   -214.5119     32.8767     84.6356
  1225.0000    724.2206     33.6337   -214.0057     34.2850     84.5345
  1225.2500    723.7549     33.5295   -213.5262     36.0342     83.9345
  1225.5000    721.4062     33.3381   -213.0509     37.5721     82.0525
  1225.7500    720.1006     33.0574   -212.5550     38.2369     80.6728
  1226.0000    721.8528     32.7039   -212.0320     37.7057     79.6674
  1226.2500    726.1468     32.3046   -211.5017     36.2947     79.6849
  1226.5000    730.5211     31.8846   -211.0073     34.7053     79.0770
  1226.7500    733.0779     31.4597   -210.6071     33.5265     77.1936
  1227.0000    734.1450     31.0377   -210.3571     32.9747     71.9699
  1227.2500    735.2318     30.6199   -210.2984     32.8853     67.8832
  1227.5000    737.0035     30.1993   -210.4510     32.8297     63.0997
  1227.7500    738.7607     29.7584   -210.8069     32.3589     61.5202
  1228.0000    739.3808     29.2771   -211.3283     31.3209     61.1370
  1228.2500    738.3202     28.7515   -211.9477     29.9561     61.3703
  1228.5000    735.9890     28.2056   -212.5750     28.6761     61.0784
  1228.7500    733.4399     27.6844   -213.1159     27.7906     60.0628
  1229.0000    731.5357     27.2301   -213.4955     27.4055     57.6079
  1229.2500    730.2466     26.8607   -213.6823     27.4488     55.8864
  1229.5000    728.8328     26.5660   -213.6977     27.7410     53.8941
  1229.7500    726.6805     26.3219   -213.6091     28.0863     53.0497
  1230.0000    723.8683     26.1081   -213.5063     28.3546     52.4284
  1230.2500    721.1056     25.9129   -213.4697     28.4996     52.4058
  1230.5000    719.3436     25.7258   -213.5511     28.5109     52.7286
  1230.7500    719.2605     25.5296   -213.7607     28.3841     52.9578
  1231.0000    720.8375     25.3071   -214.0703     28.1497     53.1495
  1231.2500    723.4127     25.0545   -214.4288     27.8990     53.2420
  1231.5000    726.1322     24.7837   -214.7726     27.7438     53.2733
  1231.7500    728.2017     24.5098   -215.0396     27.7246     52.9541
  1232.0000    728.8605     24.2347   -215.1774     27.7400     51.6158
  1232.2500    727.6599     23.9466   -215.1501     27.5771     50.4037
  1232.5000    724.9683     23.6369   -214.9472     27.0597     49.2386
  1232.7500    721.9385     23.3192   -214.5837     26.2145     49.4363
  1233.0000    719.9001     23.0331   -214.0979     25.2696     51.0270
  1233.2500    719.7604     22.8292   -213.5368     24.4940     52.2902
  1233.5000    721.5761     22.7428   -212.9430     24.0572     53.3641
  1233.7500    724.3450     22.7771   -212.3425     24.0033     53.2980
  1234.0000    726.4894     22.9053   -211.7380     24.2946     52.2332
  1234.2500    727.1177     23.0916   -211.1106     24.8566     51.0556
  1234.5000    726.9520     23.3113   -210.4308     25.5985     48.7239
  1234.7500    727.6446     23.5541   -209.6678     26.4052     46.8460
  1235.0000    730.1332     23.8117   -208.8019     27.1121     43.8796
  1235.2500    733.8870     24.0701   -207.8288     27.5115     42.1718
  1235.5000    737.5944     24.3134   -206.7621     27.4474     40.4289
  1235.7500    740.0966     24.5362   -205.6383     26.9599     39.6115
  1236.0000    740.7989     24.7440   -204.5141     26.3066     38.0988
  1236.2500    739.8673     24.9430   -203.4675     25.7947     36.6796
  1236.5000    738.1813     25.1275   -202.5878     25.5860     34.3324
  1236.7500    736.5250     25.2780   -201.9617     25.6232     33.0069
  1237.0000    734.6038     25.3703   -201.6543     25.7018     31.7896
  1237.2500    731.3692     25.3867   -201.6853     25.6369     31.6181
  1237.5000    726.6587     25.3222   -202.0148     25.4044     32.4333
  1237.7500    722.1132     25.1807   -202.5413     25.1274     33.5473
  1238.0000    719.9493     24.9666   -203.1211     24.9407     35.3752
  1238.2500    720.8965     24.6807   -203.6032     24.8834     36.3572
  1238.5000    723.7403     24.3275   -203.8748     24.8899     37.6245
  1238.7500    726.8354     23.9307   -203.8911     24.8619     38.6642
