~Version Information
 VERS.                      2.0: CWLS Log ASCII Standard - VERSION 2.0
 WRAP.                       NO: One line per depth step
 ~Well Information Block
 STRT.FT               462.4000: 
 STOP.FT              2260.5000: 
 STEP.FT                 0.1000: 
 NULL.                -999.2500: 
 COMP.          Petrogulf Corporation: COMPANY
 WELL.             McLeod 9-42V: WELL
 FLD.           Purgatorie River: FIELD
 LOC.           1658' FNL & 415' FEL: LOCATION
 CNTY.               Las Animas: COUNTY
 SRVC.                         : SERVICE COMPANY
 DATE.          Fri Nov 12 10:12:24 2004: LOG DATE
 UWI.           05 071 08071 00: UNIQUE WELL ID
 STAT.                 Colorado: STATE
 PROV.                         :Province
 ~Curve Information Block
 DEPT.FT            0 000 00 00: Depth
 DCAL.in                       : CDL Caliper
 RHOB.g/cc                     : CDL Bulk Density
 RHOC.g/cc                     : CDL Density Correction
 DPOR.pu                       : CDL Density Porosity
 GR.GAPI                       : Gamma Ray
 NPOR.pu                       : Neutron Porosity
 ~Parameter Information Block
 ~A  Depth       DCAL        RHOB        RHOC        DPOR         GR         NPOR    
# ...
  2132.8000      7.9311      2.5499      0.0522      6.0670     92.9701     18.9698
  2132.9000      7.9311      2.5706      0.0349      4.8097     90.2419     19.2598
  2133.0000      7.9301      2.5801      0.0321      4.2373     90.5997     19.5366
  2133.1000      7.9301      2.5767      0.0486      4.4400     90.2576     19.7334
  2133.2000      7.9301      2.5611      0.0152      5.3851     86.3188     19.9777
  2133.3000      7.9342      2.5401      0.0523      6.6581     80.2673     20.2510
  2133.4000      7.9342      2.5237     -0.0004      7.6536     76.6516     20.0896
  2133.5000      7.9348      2.5201     -0.0074      7.8726     78.9618     19.6024
  2133.6000      7.9348      2.5270      0.0289      7.4540     85.1349     19.4730
  2133.7000      7.9348      2.5335      0.0212      7.0615     90.7782     19.7174
  2133.8000      7.9346      2.5317      0.0358      7.1708     94.9266     19.8781
  2133.9000      7.9346      2.5238     -0.0289      7.6489     98.3386     20.1563
  2134.0000      7.9338      2.5171      0.0136      8.0520    101.3490     20.7817
  2134.1000      7.9338      2.5119     -0.0203      8.3717    103.5460     21.0710
  2134.2000      7.9338      2.5133     -0.0404      8.2879    102.7626     20.6264
  2134.3000      7.9352      2.5226      0.0379      7.7223     98.8872     20.0451
  2134.4000      7.9352      2.5291      0.0040      7.3280     96.1351     19.8409
  2134.5000      7.9316      2.5300      0.0369      7.2728     94.5722     19.9350
  2134.6000      7.9316      2.5319      0.0515      7.1560     91.9312     19.9344
  2134.7000      7.9316      2.5432      0.0210      6.4736     91.2265     19.6778
  2134.8000      7.9325      2.5588      0.0646      5.5294     91.5627     19.3343
  2134.9000      7.9325      2.5583      0.0655      5.5570     88.2847     18.8987
  2135.0000      7.9302      2.5364      0.0204      6.8876     84.4202     18.5441
  2135.1000      7.9302      2.5095      0.0181      8.5140     83.3936     18.7204
  2135.2000      7.9302      2.4983     -0.0295      9.1968     82.5287     19.4216
  2135.3000      7.9400      2.5112      0.0494      8.4105     81.7262     19.9385
  2135.4000      7.9400      2.5331      0.0744      7.0840     83.7793     19.8240
  2135.5000      7.9316      2.5450      0.0277      6.3645     86.9673     19.8315
  2135.6000      7.9316      2.5441      0.0276      6.4208     85.9767     20.5534
  2135.7000      7.9316      2.5349      0.0467      6.9781     80.9306     21.2675
  2135.8000      7.9268      2.5270      0.0503      7.4558     77.4811     21.4719
  2135.9000      7.9268      2.5323     -0.0135      7.1309     76.7046     21.7161
  2136.0000      7.9251      2.5496      0.0518      6.0839     77.4788     22.1994
  2136.1000      7.9251      2.5707      0.0708      4.8057     81.0805     22.5781
  2136.2000      7.9251      2.5932      0.0625      3.4411     86.2753     22.8933
  2136.3000      7.9312      2.6063      0.1009      2.6508     90.1970     23.0735
  2136.4000      7.9312      2.5991      0.1043      3.0873     91.9199     22.8107
  2136.5000      7.9302      2.5854      0.0764      3.9124     90.0456     22.4062
  2136.6000      7.9302      2.5883      0.0906      3.7390     84.9078     22.3412
  2136.7000      7.9302      2.6029      0.1035      2.8556     80.9692     22.4861
  2136.8000      7.9177      2.6067      0.1194      2.6230     80.4751     22.5402
  2136.9000      7.9177      2.5997      0.0458      3.0494     80.6267     22.5609
  2137.0000      7.9261      2.5896      0.0993      3.6584     80.2088     22.6760
  2137.1000      7.9261      2.5640      0.0654      5.2150     80.8405     22.8181
  2137.2000      7.9261      2.5292     -0.0299      7.3212     82.3516     22.7309
  2137.3000      7.9325      2.5188     -0.0052      7.9513     84.6110     22.2847
  2137.4000      7.9325      2.5355      0.0549      6.9373     86.5334     21.7933
  2137.5000      7.9322      2.5561      0.0323      5.6898     85.1902     21.5177
  2137.6000      7.9322      2.5681      0.0540      4.9617     81.5203     21.4211
  2137.7000      7.9322      2.5679      0.0418      4.9752     77.8878     21.4123
  2137.8000      7.9312      2.5599      0.0324      5.4606     75.6667     21.5856
  2137.9000      7.9312      2.5490      0.0364      6.1183     75.2569     21.9200
  2138.0000      7.9247      2.5378      0.0287      6.8000     75.7015     22.0216
  2138.1000      7.9247      2.5387     -0.0112      6.7448     78.3233     21.7490
  2138.2000      7.9247      2.5507      0.0394      6.0207     84.0646     21.4704
  2138.3000      7.9207      2.5555      0.0242      5.7272     92.0509     21.7084
  2138.4000      7.9207      2.5586     -0.0106      5.5403     99.5100     22.4563
  2138.5000      7.9044      2.5749      0.0345      4.5542    104.1682     22.9340
  2138.6000      7.9044      2.5942      0.0840      3.3840    109.2087     22.8998
  2138.7000      7.9044      2.6010      0.0832      2.9699    114.8548     22.9831
  2138.8000      7.8882      2.5961      0.0667      3.2643    119.0179     23.4251
  2138.9000      7.8882      2.5857      0.0659      3.8961    124.2191     23.8466
  2139.0000      7.8530      2.5740      0.0559      4.6035    130.7524     23.7412
  2139.1000      7.8530      2.5708      0.0554      4.7984    136.1951     23.5240
  2139.2000      7.8530      2.5792      0.1113      4.2931    139.1919     23.6498
  2139.3000      7.8455      2.5930      0.0705      3.4563    140.5209     23.4163
  2139.4000      7.8455      2.6084      0.1044      2.5213    142.1048     22.6897
  2139.5000      7.8143      2.6124      0.0508      2.2801    142.5152     22.2985
  2139.6000      7.8143      2.5978      0.0403      3.1640    139.6642     22.4742
  2139.7000      7.8143      2.5806      0.0208      4.2054    136.6230     22.9295
  2139.8000      7.8068      2.5780      0.0571      4.3648    137.2195     23.1829
  2139.9000      7.8068      2.5928      0.0669      3.4671    137.6558     22.7668
  2140.0000      7.8682      2.6252      0.0368      1.5013    134.4422     22.0360
  2140.1000      7.8682      2.6668      0.0879     -1.0205    127.9312     21.5877
  2140.2000      7.8682      2.6870      0.1181     -2.2426    119.9926     21.4976
  2140.3000      7.8943      2.6682      0.0816     -1.1023    114.3497     21.7612
  2140.4000      7.8943      2.6317      0.0341      1.1062    112.7866     22.2168
  2140.5000      7.8992      2.6119     -0.0180      2.3097    114.5954     22.6329
  2140.6000      7.8992      2.6233      0.0142      1.6200    116.9858     22.8141
  2140.7000      7.8992      2.6474      0.0520      0.1563    118.7004     22.8283
  2140.8000      7.9258      2.6598      0.0729     -0.5948    120.5414     22.9756
  2140.9000      7.9258      2.6561      0.0515     -0.3721    123.0145     23.2241
  2141.0000      7.9394      2.6462      0.0356      0.2307    125.8388     23.4222
  2141.1000      7.9394      2.6378      0.0300      0.7378    128.7580     23.4646
  2141.2000      7.9394      2.6253      0.0536      1.4973    134.2800     23.4364
  2141.3000      7.9447      2.6046      0.0082      2.7504    143.4880     23.4611
  2141.4000      7.9447      2.5889      0.0074      3.7013    153.7779     23.4206
  2141.5000      7.9439      2.5895      0.0011      3.6660    164.6614     23.4394
  2141.6000      7.9439      2.6021      0.0007      2.9055    175.7847     23.9726
  2141.7000      7.9439      2.6137      0.0153      2.2014    184.0502     24.8834
  2141.8000      7.9483      2.6140      0.0353      2.1832    188.9158     25.5673
  2141.9000      7.9483      2.6058      0.0496      2.6817    191.5565     25.8029
  2142.0000      7.9449      2.6037      0.0166      2.8056    191.5313     25.7007
  2142.1000      7.9449      2.6112      0.0311      2.3493    186.6165     25.4601
  2142.2000      7.9449      2.6121      0.0700      2.2946    175.7963     25.2551
  2142.3000      7.9456      2.6023      0.0457      2.8887    165.5648     25.0676
