~Version Information
VERS.                      2.0: CWLS Log ASCII Standard - VERSION 2.0
WRAP.                       NO: One line per depth step
~Well Information Block
STRT.FT               830.0000: 
STOP.FT              3122.7500: 
STEP.FT                 0.2500: 
NULL.                -999.2500: 
COMP.          Pioneer Natural Resources: COMPANY
WELL.              Stones 24-8: WELL
FLD.           Purgatoire River: FIELD
LOC.           648' FSL & 2264' FWL: LOCATION
PROV.                 Colorado: PROVINCE
CNTY.               Las Animas: COUNTRY
SRVC.                Patterson: SERVICE COMPANY
DATE.          Wed Jan 19 12:44:32 2005: LOG DATE
UWI.           05 071 07945 00: UNIQUE WELL ID
~Curve Information Block
DEPT.FT            0 000 00 00: Depth
SN.Ohm-m                      : IEL Short Normal
SP.mV                         : IEL Spontaneous Potential
DIR.Ohm-m                     : IEL Induction Resistivity
GR.GAPI                       : Gamma Ray
~Parameter Information Block
~A  Depth        SN          SP         DIR          GR     
# ...
  2471.5000     13.5367   -186.4328     12.9227    135.9059
  2471.7500     13.3892   -186.3403     12.8673    136.7874
  2472.0000     13.2547   -186.3345     12.8362    134.4095
  2472.2500     13.1550   -186.4108     12.8250    131.1195
  2472.5000     13.1262   -186.5591     12.8473    125.2043
  2472.7500     13.2029   -186.7659     12.9246    121.1395
  2473.0000     13.4014   -187.0161     13.0734    115.2600
  2473.2500     13.7083   -187.2937     13.2988    111.7104
  2473.5000     14.0880   -187.5825     13.5949    107.2300
  2473.7500     14.5034   -187.8683     13.9496    104.8024
  2474.0000     14.9318   -188.1415     14.3480    102.0227
  2474.2500     15.3636   -188.3997     14.7735    100.9605
  2474.5000     15.7915   -188.6481     15.2073    100.8941
  2474.7500     16.2096   -188.8969     15.6305    101.6799
  2475.0000     16.6229   -189.1555     16.0300    103.0305
  2475.2500     17.0528   -189.4279     16.4036    103.3731
  2475.5000     17.5303   -189.7095     16.7583    102.6285
  2475.7500     18.0781   -189.9898     17.1031    101.5186
  2476.0000     18.6978   -190.2573     17.4419     99.6674
  2476.2500     19.3727   -190.5054     17.7767     98.6902
  2476.5000     20.0818   -190.7339     18.1173     97.7763
  2476.7500     20.8060   -190.9476     18.4865     97.2854
  2477.0000     21.5176   -191.1509     18.9113     96.4208
  2477.2500     22.1800   -191.3424     19.4081     96.0588
  2477.5000     22.7640   -191.5125     19.9713     96.6533
  2477.7500     23.2528   -191.6445     20.5721     97.8274
  2478.0000     23.6162   -191.7187     21.1610     99.7807
  2478.2500     23.7878   -191.7165     21.6641    100.5153
  2478.5000     23.6835   -191.6212     21.9818    100.3430
  2478.7500     23.2506   -191.4170     22.0048     99.7934
  2479.0000     22.5046   -191.0888     21.6602     99.6450
  2479.2500     21.5315   -190.6251     20.9550    100.6043
  2479.5000     20.4602   -190.0263     19.9790    104.0039
  2479.7500     19.4156   -189.3129     18.8628    107.5753
  2480.0000     18.4754   -188.5280     17.7306    114.6761
  2480.2500     17.6559   -187.7314     16.6751    120.1878
  2480.5000     16.9287   -186.9859     15.7512    128.5086
  2480.7500     16.2514   -186.3434     14.9798    133.4202
  2481.0000     15.5946   -185.8359     14.3549    138.8535
  2481.2500     14.9586   -185.4736     13.8551    140.4982
  2481.5000     14.3719   -185.2487     13.4554    138.6941
  2481.7500     13.8749   -185.1393     13.1382    134.4797
  2482.0000     13.5018   -185.1126     12.8995    125.4044
  2482.2500     13.2724   -185.1275     12.7473    119.2937
  2482.5000     13.1871   -185.1389     12.6915    112.3756
  2482.7500     13.2173   -185.1048     12.7300    109.6223
  2483.0000     13.2946   -184.9942     12.8369    107.7245
  2483.2500     13.3196   -184.7930     12.9574    107.6074
  2483.5000     13.2027   -184.5047     13.0161    109.1131
  2483.7500     12.9145   -184.1462     12.9405    111.3438
  2484.0000     12.4992   -183.7401     12.6945    116.4283
  2484.2500     12.0374   -183.3080     12.2966    120.7204
  2484.5000     11.5929   -182.8653     11.8077    127.9597
  2484.7500     11.1872   -182.4203     11.2972    132.9930
  2485.0000     10.8122   -181.9760     10.8143    140.1990
  2485.2500     10.4616   -181.5330     10.3800    144.2901
  2485.5000     10.1495   -181.0926      9.9948    148.3728
  2485.7500      9.9010   -180.6597      9.6511    149.2505
  2486.0000      9.7285   -180.2423      9.3431    147.9139
  2486.2500      9.6185   -179.8504      9.0708    146.1543
  2486.5000      9.5460   -179.4930      8.8391    144.4164
  2486.7500      9.4956   -179.1767      8.6551    144.5847
  2487.0000      9.4694   -178.9061      8.5256    146.2902
  2487.2500      9.4814   -178.6861      8.4561    147.5330
  2487.5000      9.5494   -178.5232      8.4495    148.4057
  2487.7500      9.6914   -178.4259      8.5064    148.0896
  2488.0000      9.9218   -178.4027      8.6282    146.4877
  2488.2500     10.2492   -178.4594      8.8209    144.9672
  2488.5000     10.6744   -178.5981      9.0977    142.0489
  2488.7500     11.1928   -178.8174      9.4742    139.0910
  2489.0000     11.7978   -179.1135      9.9590    131.6521
  2489.2500     12.4898   -179.4813     10.5466    124.3790
  2489.5000     13.2901   -179.9135     11.2189    111.3321
  2489.7500     14.2505   -180.3998     11.9567    102.7719
  2490.0000     15.4434   -180.9259     12.7537     92.7117
  2490.2500     16.9211   -181.4741     13.6189     88.5831
  2490.5000     18.6601   -182.0257     14.5677     85.7313
  2490.7500     20.5315   -182.5635     15.6073     85.0816
  2491.0000     22.3370   -183.0739     16.7245     84.1529
  2491.2500     23.8954   -183.5472     17.8800     82.6878
  2491.5000     25.1197   -183.9762     19.0105     78.3869
  2491.7500     26.0268   -184.3543     20.0412     74.2699
  2492.0000     26.6894   -184.6759     20.9096     67.6508
  2492.2500     27.1816   -184.9377     21.5886     64.0740
  2492.5000     27.5542   -185.1428     22.0928     61.4134
  2492.7500     27.8376   -185.3016     22.4638     61.6735
  2493.0000     28.0479   -185.4313     22.7438     64.6389
  2493.2500     28.1839   -185.5510     22.9558     67.9121
  2493.5000     28.2226   -185.6761     23.0993     74.0798
  2493.7500     28.1233   -185.8125     23.1651     78.4923
  2494.0000     27.8438   -185.9531     23.1591     84.3867
  2494.2500     27.3617   -186.0761     23.1122     87.2685
  2494.5000     26.6933   -186.1479     23.0568     89.5933
  2494.7500     25.8962   -186.1284     22.9857     89.8848
  2495.0000     25.0517   -185.9817     22.8381     89.3347
  2495.2500     24.2330   -185.6869     22.5326     89.3132
  2495.5000     23.4787   -185.2465     22.0260     91.4698
  2495.7500     22.7860   -184.6863     21.3446     94.6666
  2496.0000     22.1249   -184.0498     20.5636    101.3629
  2496.2500     21.4604   -183.3872     19.7636    106.4750
  2496.5000     20.7714   -182.7462     19.0041    114.2908
  2496.7500     20.0623   -182.1660     18.3238    118.9821
  2497.0000     19.3700   -181.6733     17.7477    123.7469
  2497.2500     18.7632   -181.2789     17.2878    124.8903
  2497.5000     18.3197   -180.9743     16.9380    124.2291
  2497.7500     18.0890   -180.7322     16.6725    123.0050
  2498.0000     18.0582   -180.5125     16.4548    120.4859
  2498.2500     18.1446   -180.2734     16.2510    118.0804
  2498.5000     18.2192   -179.9841     16.0360    113.2170
  2498.7500     18.1609   -179.6312     15.7875    109.6841
  2499.0000     17.9150   -179.2171     15.4804    105.7750
  2499.2500     17.5149   -178.7529     15.0916    105.1542
  2499.5000     17.0425   -178.2506     14.6133    107.7498
  2499.7500     16.5585   -177.7206     14.0628    111.0982
  2500.0000     16.0613   -177.1734     13.4767    116.3217
  2500.2500     15.5088   -176.6215     12.8929    118.9777
  2500.5000     14.8743   -176.0792     12.3358    121.5697
  2500.7500     14.1801   -175.5585     11.8155    122.9284
  2501.0000     13.4843   -175.0650     11.3361    125.4308
  2501.2500     12.8431   -174.5969     10.9037    127.6220
  2501.5000     12.2834   -174.1475     10.5267    131.2582
  2501.7500     11.7998   -173.7103     10.2104    133.5115
  2502.0000     11.3724   -173.2831      9.9545    136.4899
  2502.2500     10.9925   -172.8699      9.7544    138.5283
  2502.5000     10.6759   -172.4801      9.6048    142.1486
  2502.7500     10.4520   -172.1250      9.5012    144.7755
  2503.0000     10.3393   -171.8152      9.4381    148.0290
  2503.2500     10.3303   -171.5573      9.4086    149.0509
  2503.5000     10.3982   -171.3532      9.4049    148.1897
  2503.7500     10.5142   -171.2002      9.4225    146.1531
  2504.0000     10.6586   -171.0931      9.4635    141.9536
  2504.2500     10.8224   -171.0268      9.5368    139.1270
  2504.5000     11.0040   -170.9986      9.6530    135.8422
  2504.7500     11.2061   -171.0098      9.8186    134.7382
