~Version Information
 VERS.                                  2.0 : CWLS LAS VERSION
 WRAP.                                   NO : WRAPING MODE
 SWARE .                 MController 2.5.0E : SOFTWARE VERSION
~Well Information
 WELL.                        Rangely 22-28 : WELL
 COMP.             Evergreen Operating Corp : COMPANY
 FLD.                      Purgatorie River : FIELD
 LOC.                SE/NW Sec 28 T32S R67W : LOCATION
 DATE.                09/14/2004-09/15/2004 : DATE(S) LOGGED
 SRVC.       Blanco Geological Services LLC : SERVICE COMPANY
 STAT.                                   CO : STATE
 CNTY.                           Las Animas : COUNTY
 CTRY.                                  USA : COUNTRY
 API.                       05-071-08044-00 : API NUMBER
 STRT.FT                             858.00 : START DEPTH
 STOP.FT                            2847.00 : STOP DEPTH
 STEP.FT                               1.00 : DEPTH INCREMENT
 NULL.                                -9999 : NULL VALUE
~Curve information
 DEPTH.FT                                   :
 ROP.MIN/FT                                 :
 GAS.UNITS                                  :
~ASCII Log data
# ...
     1058.00        0.400        842.8 
     1059.00        0.133        769.3 
     1060.00        0.400        749.8 
     1061.00        0.200        718.1 
     1062.00        0.167        696.9 
     1063.00        0.267        685.4 
     1064.00        0.267        659.5 
     1065.00        0.283        665.9 
     1066.00        0.367        671.3 
     1067.00        0.400        656.8 
     1068.00        0.333        649.1 
     1069.00        0.367        640.6 
     1070.00        0.167        625.8 
     1071.00        0.267        611.0 
     1072.00        0.267        637.9 
     1073.00        0.267        867.4 
     1074.00        0.267       1370.4 
     1075.00        0.267       1557.0 
     1076.00        0.283       1621.7 
     1077.00        0.533       1606.6 
     1078.00        0.267       1390.9 
     1079.00        0.367       1019.3 
     1080.00        0.167        918.9 
     1081.00        0.200        910.2 
     1082.00        0.233        817.5 
     1083.00        0.267        766.6 
     1084.00        0.333        766.3 
     1085.00        0.333        733.6 
     1086.00        0.267        726.2 
     1087.00        0.300        714.4 
     1088.00        0.283        704.3 
     1089.00        0.333        705.3 
     1090.00        0.267        707.7 
     1091.00        0.267        711.1 
     1092.00        0.367        716.1 
     1093.00        0.533        708.4 
     1094.00        0.267        707.3 
     1095.00        0.267        713.4 
     1096.00        0.267        707.0 
     1097.00        0.267        698.9 
     1098.00        0.267        686.5 
     1099.00        0.283        666.2 
     1100.00        0.267        660.2 
     1101.00        0.267        617.1 
     1102.00        0.267        664.9 
     1103.00        0.267       1084.7 
     1104.00        0.267       1408.5 
     1105.00        0.267       1637.9 
     1106.00        0.533       1737.6 
     1107.00        0.633       1689.1 
     1108.00        0.267       1367.7 
     1109.00        0.117       1256.9 
     1110.00        0.267       1167.9 
     1111.00        0.267       1091.1 
     1112.00        0.267       1040.2 
     1113.00        0.167        948.6 
     1114.00        0.200        948.6 
     1115.00        0.167        941.8 
     1116.00        0.200        901.7 
     1117.00        0.200        892.3 
     1118.00        0.200        867.7 
     1119.00        0.233        859.6 
     1120.00        0.200        849.2 
     1121.00        0.200        847.5 
     1122.00        0.167        834.0 
     1123.00        0.267        826.6 
     1124.00        0.267        808.4 
     1125.00        0.150        782.5 
     1126.00        0.133        782.5 
     1127.00        0.100        767.0 
     1128.00        0.167        767.0 
     1129.00        0.200        762.6 
     1130.00        0.200        750.8 
     1131.00        0.133        734.0 
     1132.00        0.167        734.0 
     1133.00        0.133        701.6 
     1134.00        0.267        684.8 
     1135.00        0.267        714.4 
     1136.00        0.267        866.4 
     1137.00        1.683       1830.3 
     1138.00        0.300       1440.1 
     1139.00        0.233       1239.7 
     1140.00        0.200       1127.5 
     1141.00        0.200       1068.9 
     1142.00        0.233        981.3 
     1143.00        0.167        900.4 
     1144.00        0.200        878.5 
     1145.00        0.167        868.1 
     1146.00        0.167        840.4 
     1147.00        0.200        815.2 
     1148.00        0.200        795.3 
     1149.00        0.183        774.7 
     1150.00        0.200        754.8 
     1151.00        0.167        739.4 
     1152.00        0.133        739.4 
     1153.00        0.167        748.4 
     1154.00        0.133        766.0 
     1155.00        0.167        777.1 
     1156.00        0.200        796.0 
     1157.00        0.167        796.3 
     1158.00        0.200        796.3 
     1159.00        0.200        792.6 
     1160.00        0.167        771.4 
     1161.00        0.200        771.4 
     1162.00        0.167        748.8 
     1163.00        0.167        728.2 
     1164.00        0.167        728.2 
     1165.00        0.167        710.0 
     1166.00        0.200        674.3 
     1167.00        0.167        669.9 
     1168.00        0.283        774.1 
     1169.00        1.500       1377.5 
     1170.00        0.267       1269.3 
     1171.00        0.300       1231.2 
     1172.00        0.367       1100.2 
     1173.00        0.200        991.0 
     1174.00        0.200        985.3 
     1175.00        0.200        928.0 
     1176.00        0.217        908.1 
     1177.00        0.167        884.6 
     1178.00        0.167        878.5 
     1179.00        0.200        843.1 
     1180.00        0.200        827.6 
     1181.00        0.233        817.2 
     1182.00        0.233        808.1 
     1183.00        0.200        795.6 
     1184.00        0.167        783.1 
     1185.00        0.167        785.2 
     1186.00        0.167        785.2 
     1187.00        0.133        792.9 
     1188.00        0.167        806.7 
     1189.00        0.167        806.7 
     1190.00        0.167        790.6 
     1191.00        0.167        790.6 
     1192.00        0.200        772.4 
     1193.00        0.250        756.2 
     1194.00        0.200        722.8 
     1195.00        0.200        713.7 
     1196.00        0.200        683.4 
     1197.00        0.267        719.8 
     1198.00        0.267        790.2 
     1199.00        1.700       1385.9 
     1200.00        0.267       1165.9 
     1201.00        0.283       1043.9 
     1202.00        0.267        936.8 
     1203.00        0.267        859.0 
     1204.00        0.267        818.9 
     1205.00        0.300        799.3 
     1206.00        0.233        801.7 
     1207.00        0.267        802.7 
     1208.00        0.383        796.0 
     1209.00        0.333        777.4 
     1210.00        0.300        777.4 
     1211.00        0.300        767.0 
     1212.00        0.267        783.1 
     1213.00        0.233        791.6 
     1214.00        0.300        780.8 
     1215.00        0.267        762.9 
     1216.00        0.267        753.8 
     1217.00        0.333        751.8 
     1218.00        0.233        758.9 
     1219.00        0.200        758.9 
     1220.00        0.217        815.5 
     1221.00        0.200        821.2 
     1222.00        0.233        802.0 
     1223.00        0.233        775.4 
     1224.00        0.267        747.1 
     1225.00        0.233        747.1 
     1226.00        0.233        738.3 
     1227.00        1.983       1516.6 
     1228.00        0.233       1473.5 
     1229.00        0.233       1385.2 
     1230.00        0.267       1280.1 
     1231.00        0.300       1169.9 
     1232.00        0.200       1019.3 
     1233.00        0.267       1008.5 
     1234.00        0.233        913.9 
     1235.00        0.233        806.4 
     1236.00        0.200        779.1 
     1237.00        0.233        772.0 
     1238.00        0.200        749.8 
     1239.00        0.200        738.7 
     1240.00        0.200        736.3 
     1241.00        0.217        726.2 
     1242.00        0.200        722.2 
     1243.00        0.200        732.6 
     1244.00        0.200        742.4 
     1245.00        0.233        734.6 
     1246.00        0.333        725.5 
     1247.00        0.333          0.0 
     1248.00        0.300          0.0 
     1249.00        0.200          0.0 
     1250.00        0.167          0.0 
     1251.00        0.133          0.0 
     1252.00        0.200          0.0 
     1253.00        0.233          0.0 
     1254.00        0.233          0.0 
     1255.00        0.167          0.0 
     1256.00       12.783       1184.1 
     1257.00        0.267        871.4 
