~Version Information
VERS.                      2.0: CWLS Log ASCII Standard - VERSION 2.0
WRAP.                       NO: One line per depth step
~Well Information Block
STRT.FT               -12.0000: 
STOP.FT              2137.5000: 
STEP.FT                 0.2500: 
NULL.                -999.2500: 
COMP.          Pioneer Natural Resources: COMPANY
WELL.           Ogallela 44-12: WELL
FLD.           Purgatorie River: FIELD
LOC.           610' FSL & 671' FEL------------: LOCATION
PROV.                       CO: PROVINCE
CNTY.               Las Animas: COUNTRY
SRVC.          Patterson Wireline: SERVICE COMPANY
DATE.          Thu Apr 07 14:25:46 2005: LOG DATE
UWI.           05 071 08283 00: UNIQUE WELL ID
~Curve Information Block
DEPT.FT            0 000 00 00: Depth
CCL.                          : Casing Collar Locator
TT3.usec                      : CBL 3' Travel Time
AMP3.mV                       : CBL 3' Amplitude
ATT3.db/ft                    : CBL 3' Attenuation
GR.GAPI                       : Gamma Ray
~Parameter Information Block
~A  Depth       CCL         TT3         AMP3        ATT3         GR     
# ...
   688.0000      0.0000    264.5919     67.2965     -0.9924    103.5905
   688.2500      0.0000    264.6135     67.3505     -0.9901    101.5020
   688.5000      0.0000    264.6255     67.4261     -0.9869     98.8050
   688.7500      0.0000    264.6295     67.5024     -0.9836     96.3174
   689.0000      0.0000    264.6300     67.5646     -0.9809     94.9187
   689.2500      0.0000    264.6326     67.6124     -0.9789     95.0848
   689.5000      0.0000    264.6398     67.6549     -0.9770     96.3017
   689.7500      0.0000    264.6483     67.7037     -0.9750     97.5166
   690.0000      0.0000    264.6511     67.7689     -0.9722     98.3664
   690.2500      0.0000    264.6451     67.8546     -0.9685     99.4602
   690.5000      0.0000    264.6363     67.9560     -0.9642    101.3922
   690.7500      0.0000    264.6343     68.0611     -0.9597    104.0149
   691.0000      0.0000    264.6434     68.1565     -0.9557    106.6520
   691.2500      0.0000    264.6608     68.2319     -0.9525    108.4400
   691.5000      0.0000    264.6799     68.2840     -0.9502    108.6869
   691.7500      0.0000    264.6934     68.3221     -0.9486    107.5194
   692.0000      0.0000    264.6956     68.3654     -0.9468    105.9817
   692.2500      0.0000    264.6853     68.4258     -0.9442    105.1052
   692.5000      0.0000    264.6666     68.4958     -0.9413    105.0781
   692.7500      0.0000    264.6454     68.5587     -0.9386    105.3541
   693.0000      0.0000    264.6254     68.6061     -0.9366    105.1237
   693.2500      0.0000    264.6068     68.6372     -0.9353    103.6604
   693.5000      0.0000    264.5911     68.6479     -0.9349    100.7247
   693.7500      0.0000    264.5815     68.6303     -0.9356     96.8852
   694.0000      0.0000    264.5797     68.5840     -0.9376     93.2809
   694.2500      0.0000    264.5833     68.5223     -0.9402     90.9270
   694.5000      0.0000    264.5876     68.4638     -0.9426     90.0953
   694.7500      0.0000    264.5891     68.4207     -0.9445     90.0613
   695.0000      0.0000    264.5874     68.3951     -0.9455     89.4633
   695.2500      0.0000    264.5841     68.3778     -0.9463     87.3079
   695.5000      0.0000    264.5811     68.3528     -0.9473     83.8134
   695.7500      0.0000    264.5807     68.3067     -0.9493     80.1443
   696.0000      0.0000    264.5859     68.2382     -0.9522     77.4043
   696.2500      0.0000    264.5967     68.1555     -0.9557     75.9627
   696.5000      0.0000    264.6069     68.0674     -0.9594     75.4624
   696.7500      0.0000    264.6067     67.9844     -0.9630     75.0490
   697.0000      0.0000    264.5918     67.9257     -0.9655     73.6552
   697.2500      0.0000    264.5687     67.9131     -0.9660     70.5327
   697.5000      0.0000    264.5488     67.9507     -0.9644     65.8225
   697.7500      0.0000    264.5401     68.0184     -0.9615     60.6207
   698.0000      0.0000    264.5436     68.0893     -0.9585     56.3001
   698.2500      0.0000    264.5575     68.1477     -0.9560     53.6359
   698.5000      0.0000    264.5813     68.1897     -0.9542     52.4498
   698.7500      0.0000    264.6160     68.2152     -0.9532     51.9091
   699.0000      0.0000    264.6619     68.2274     -0.9526     51.1793
   699.2500      0.0000    264.7147     68.2377     -0.9522     50.0975
   699.5000      0.0000    264.7637     68.2631     -0.9511     49.3736
   699.7500      0.0000    264.7950     68.3132     -0.9490     50.0507
   700.0000      0.0000    264.7986     68.3830     -0.9461     52.5966
   700.2500      0.0000    264.7738     68.4568     -0.9429     56.2867
   700.5000      0.0000    264.7303     68.5220     -0.9402     59.3999
   700.7500      0.0000    264.6831     68.5764     -0.9379     60.3244
   701.0000      0.0000    264.6571     68.6248     -0.9358     58.8671
   701.2500      0.0000    264.7077     68.6544     -0.9346     56.5876
   701.5000      0.0000    265.0626     68.5709     -0.9381     55.7366
   701.7500      0.0000    266.4255     68.0831     -0.9588     57.8031
   702.0000      0.0000    270.3214     66.5983     -1.0226     62.8597
   702.2500      0.0000    278.7550     63.3601     -1.1669     69.8633
   702.5000      0.0000    292.4137     58.0116     -1.4223     77.2367
   702.7500      0.0000    308.4812     51.2436     -1.7814     83.3972
   703.0000      0.0000    321.2472     44.7372     -2.1746     87.3213
   703.2500      0.0000    326.3987     40.1693     -2.4864     88.9803
   703.5000      0.0000    324.5448     38.1494     -2.6358     89.2497
   703.7500      0.0000    319.8167     38.0710     -2.6417     89.3642
   704.0000      0.0000    315.8112     38.8251     -2.5850     90.3631
   704.2500      2.0000    313.6286     39.5597     -2.5307     92.6787
   704.5000      0.0000    312.7110     39.9354     -2.5033     95.8553
   704.7500      0.0000    312.1337     39.9958     -2.4989     98.6612
   705.0000      0.0000    310.9852     40.0860     -2.4924     99.8383
   705.2500      0.0000    308.2418     40.9186     -2.4329     99.2332
   705.5000      0.0000    302.9818     43.3864     -2.2633     98.2340
   705.7500      0.0000    295.1140     47.8536     -1.9796     98.6652
   706.0000      0.0000    285.9129     53.5368     -1.6547    101.0987
   706.2500      0.0000    277.4511     58.8572     -1.3804    104.4407
   706.5000      0.0000    271.2961     62.5007     -1.2065    106.9210
   706.7500      0.0000    267.7491     64.0463     -1.1357    107.1819
   707.0000      0.0000    266.1659     63.7656     -1.1485    104.8920
   707.2500      0.0000    265.7005     62.1801     -1.2214    101.0032
   707.5000      0.0000    265.7468     59.8384     -1.3325     97.2699
   707.7500      0.0000    265.9956     57.2337     -1.4614     94.9208
   708.0000      0.0000    266.3408     54.7147     -1.5917     93.7328
   708.2500      0.0000    266.8146     52.4344     -1.7149     92.6249
   708.5000      0.0000    267.6028     50.3978     -1.8296     91.0458
   708.7500      0.0000    269.1375     48.5524     -1.9376     89.4447
   709.0000      0.0000    272.1100     46.8572     -2.0405     88.5648
   709.2500      0.0000    277.1440     45.3049     -2.1381     88.7225
   709.5000      0.0000    284.1331     43.9009     -2.2292     89.5958
   709.7500      0.0000    291.8731     42.6204     -2.3149     90.2013
   710.0000      0.0000    298.6350     41.4084     -2.3985     89.2484
   710.2500      0.0000    303.2790     40.2463     -2.4809     86.0784
   710.5000      0.0000    305.7883     39.2028     -2.5569     81.3078
   710.7500      0.0000    306.8622     38.3764     -2.6186     76.3614
   711.0000      0.0000    307.2366     37.7825     -2.6638     72.5030
   711.2500      0.0000    307.3585     37.3172     -2.6996     70.2673
   711.5000      0.0000    307.4179     36.8302     -2.7377     69.3016
   711.7500      0.0000    307.4798     36.2224     -2.7859     68.6304
   712.0000      0.0000    307.5667     35.4864     -2.8453     67.6357
   712.2500      0.0000    307.6855     34.6658     -2.9130     66.8618
   712.5000      0.0000    307.8338     33.7777     -2.9882     67.3461
   712.7500      0.0000    308.0081     32.7804     -3.0749     69.1174
   713.0000      0.0000    308.2040     31.6222     -3.1791     70.8028
   713.2500      0.0000    308.4082     30.3124     -3.3016     70.6584
   713.5000      0.0000    308.6000     28.9350     -3.4362     67.8065
   713.7500      0.0000    308.7622     27.5996     -3.5730     62.8070
   714.0000      0.0000    308.8885     26.3866     -3.7031     57.3429
   714.2500      0.0000    308.9791     25.3343     -3.8210     53.1352
   714.5000      0.0000    309.0340     24.4549     -3.9233     50.9158
   714.7500      0.0000    309.0525     23.7497     -4.0080     50.3171
   715.0000      0.0000    309.0376     23.2090     -4.0747     50.4938
   715.2500      0.0000    308.9992     22.8142     -4.1243     50.6593
   715.5000      0.0000    308.9498     22.5542     -4.1575     50.2908
   715.7500      0.0000    308.8962     22.4397     -4.1723     49.3126
