~Version Information
VERS.                      2.0: CWLS Log ASCII Standard - VERSION 2.0
WRAP.                       NO: One line per depth step
~Well Information Block
STRT.FT               946.8000: 
STOP.FT              2134.5000: 
STEP.FT                 0.1000: 
NULL.                -999.2500: 
COMP.          Petrogulf Corporation: COMPANY
WELL.             Valejo 8-12R: WELL
FLD.           Purgatorie River: FIELD
LOC.           1351'' FNL & 1562' FWL: LOCATION
CNTY.               Las Animas: COUNTY
SRVC.                         : SERVICE COMPANY
DATE.          Wed Apr 28 13:22:45 2004: LOG DATE
UWI.           05 071 08038 00: UNIQUE WELL ID
STAT.                 Colorado: STATE
~Curve Information Block
DEPT.FT            0 000 00 00: Depth
DCAL.in                       : CDL Caliper
RHOB.g/cc                     : CDL Bulk Density
RHOC.g/cc                     : CDL Density Correction
DPOR.pu                       : CDL Density Porosity
NPOR.pu                       : Neutron Porosity
GR.GAPI                       : Gamma Ray
~Parameter Information Block
~A  Depth       DCAL        RHOB        RHOC        DPOR        NPOR         GR     
# ...
  1110.0000      8.0183      2.6185      0.0408      1.9093     21.7627    107.7558
  1110.1000      8.0183      2.6091      0.0482      2.4778     22.1611    106.2697
  1110.2000      8.0183      2.6097      0.0400      2.4442     22.3179    105.1195
  1110.3000      8.0146      2.6262      0.0292      1.4454     21.9202    101.6143
  1110.4000      8.0146      2.6643      0.0436     -0.8644     21.4073     99.0805
  1110.5000      8.0158      2.7182      0.0778     -4.1310     21.2741     97.6599
  1110.6000      8.0158      2.7725      0.0676     -7.4265     21.3149     94.6751
  1110.7000      8.0158      2.8062      0.1204     -9.4656     21.1413     89.1343
  1110.8000      8.0149      2.8078      0.0890     -9.5652     21.0333     84.5618
  1110.9000      8.0149      2.7890      0.1149     -8.4257     21.5136     83.6610
  1111.0000      8.0158      2.7690      0.0363     -7.2117     22.5107     82.0493
  1111.1000      8.0158      2.7590      0.0354     -6.6033     23.1033     80.6217
  1111.2000      8.0158      2.7532     -0.0431     -6.2575     22.5853     85.6859
  1111.3000      8.0145      2.7350      0.0331     -5.1503     21.6652     93.4108
  1111.4000      8.0145      2.7039     -0.0684     -3.2662     21.5207     97.3603
  1111.5000      8.0178      2.6787      0.0188     -1.7375     22.3295     98.1862
  1111.6000      8.0178      2.6591      0.0071     -0.5536     23.2507     97.9809
  1111.7000      8.0178      2.6372      0.0418      0.7782     23.5768     99.3636
  1111.8000      8.0211      2.6168     -0.0090      2.0116     23.5235    104.5196
  1111.9000      8.0211      2.5998      0.0110      3.0395     23.7489    111.2304
  1112.0000      8.0241      2.5791      0.0388      4.2975     24.3134    115.0334
  1112.1000      8.0241      2.5593     -0.0208      5.4982     24.5778    114.8200
  1112.2000      8.0241      2.5571      0.0130      5.6324     24.4326    114.0239
  1112.3000      8.0234      2.5634      0.0703      5.2506     24.5981    117.8259
  1112.4000      8.0234      2.5552      0.0332      5.7445     25.2823    126.4688
  1112.5000      8.0130      2.5355      0.0431      6.9388     25.8823    133.4371
  1112.6000      8.0130      2.5277     -0.0105      7.4094     26.0120    134.5062
  1112.7000      8.0130      2.5433      0.0595      6.4695     25.8093    130.1555
  1112.8000      8.0234      2.5610      0.1053      5.3970     25.6616    124.6952
  1112.9000      8.0234      2.5677      0.0590      4.9864     25.7471    122.1326
  1113.0000      8.0245      2.5794      0.0667      4.2804     25.6947    123.5807
  1113.1000      8.0245      2.6003      0.0955      3.0147     25.2868    125.4652
  1113.2000      8.0245      2.6177      0.1214      1.9555     24.5940    123.4461
  1113.3000      8.0245      2.6274      0.0816      1.3672     23.7414    123.2477
  1113.4000      8.0245      2.6302      0.1471      1.2018     23.1442    129.8271
  1113.5000      8.0253      2.6266      0.1074      1.4180     22.8543    134.6091
  1113.6000      8.0253      2.6230      0.0855      1.6365     22.4759    129.6054
  1113.7000      8.0253      2.6208      0.0703      1.7669     21.8064    119.6000
  1113.8000      8.0267      2.6130      0.0865      2.2416     21.2468    112.5057
  1113.9000      8.0267      2.5993      0.0436      3.0730     21.4731    111.3180
  1114.0000      8.0277      2.5881      0.0398      3.7495     22.0744    114.3357
  1114.1000      8.0277      2.5819      0.0399      4.1269     21.9697    114.0199
  1114.2000      8.0277      2.5826      0.0416      4.0867     21.1232    105.3561
  1114.3000      8.0282      2.5941      0.0692      3.3898     20.4710     93.2127
  1114.4000      8.0282      2.6113      0.0350      2.3460     20.7656     87.7235
  1114.5000      8.0225      2.6245      0.0817      1.5430     21.6494     94.0999
  1114.6000      8.0225      2.6339      0.0602      0.9732     22.2275    105.3155
  1114.7000      8.0225      2.6445      0.1277      0.3319     22.6748    109.2313
  1114.8000      8.0283      2.6437      0.1019      0.3845     23.5520    105.6325
  1114.9000      8.0283      2.6211      0.0700      1.7487     24.4358    106.7762
  1115.0000      8.0475      2.5896      0.0451      3.6609     24.8695    116.5489
  1115.1000      8.0475      2.5673      0.0248      5.0125     25.2480    123.8121
  1115.2000      8.0475      2.5674      0.0130      5.0086     25.8948    124.7421
  1115.3000      8.0372      2.5949      0.0049      3.3400     26.2736    127.2250
  1115.4000      8.0372      2.6307      0.1025      1.1686     25.9134    135.9479
  1115.5000      8.0337      2.6446      0.0906      0.3298     25.3704    146.4891
  1115.6000      8.0337      2.6304      0.0609      1.1894     25.2493    149.5948
  1115.7000      8.0337      2.6035      0.0799      2.8206     25.1222    144.0779
  1115.8000      8.0343      2.5831      0.0467      4.0553     24.4261    138.2181
  1115.9000      8.0343      2.5813      0.0538      4.1639     23.5104    134.5454
  1116.0000      8.0362      2.5909      0.0517      3.5789     23.0962    130.3127
  1116.1000      8.0362      2.5951      0.0721      3.3299     23.2527    128.2308
  1116.2000      8.0362      2.5862      0.0606      3.8649     23.1878    128.4507
  1116.3000      8.0351      2.5725      0.0193      4.6959     22.7585    124.6917
  1116.4000      8.0351      2.5690      0.0112      4.9117     22.7936    118.6578
  1116.5000      8.0347      2.5814      0.0439      4.1546     23.3082    117.6041
  1116.6000      8.0347      2.6051      0.0758      2.7192     23.5215    122.2067
  1116.7000      8.0347      2.6280      0.0896      1.3348     23.6658    127.0126
  1116.8000      8.0326      2.6362      0.0818      0.8383     24.3413    128.4454
  1116.9000      8.0326      2.6299      0.0721      1.2171     25.0077    126.2169
  1117.0000      8.0309      2.6233      0.0158      1.6182     25.0317    120.1273
  1117.1000      8.0309      2.6231      0.0449      1.6274     24.7586    114.7929
  1117.2000      8.0309      2.6205      0.0423      1.7873     24.6121    115.0899
  1117.3000      8.0298      2.6135      0.0078      2.2095     24.6227    115.9618
  1117.4000      8.0298      2.6091      0.0102      2.4810     24.7503    112.2179
  1117.5000      8.0326      2.6019      0.0525      2.9124     24.9518    109.1929
  1117.6000      8.0326      2.5901     -0.0311      3.6276     25.0458    111.6085
  1117.7000      8.0326      2.5809      0.0209      4.1881     24.8868    116.0366
  1117.8000      8.0357      2.5753     -0.0128      4.5256     24.6660    117.4220
  1117.9000      8.0357      2.5809      0.0064      4.1863     24.5838    116.4801
  1118.0000      8.0332      2.6030      0.0202      2.8486     24.6267    117.3925
  1118.1000      8.0332      2.6341      0.0545      0.9645     24.9740    121.4644
  1118.2000      8.0332      2.6650      0.0764     -0.9121     25.6492    128.3643
  1118.3000      8.0346      2.6809      0.1228     -1.8702     26.3447    137.5200
  1118.4000      8.0346      2.6723      0.1042     -1.3535     26.6427    143.8494
  1118.5000      8.0344      2.6587      0.0247     -0.5266     26.4751    141.4450
  1118.6000      8.0344      2.6639      0.0873     -0.8415     26.2686    131.8219
  1118.7000      8.0344      2.6762      0.1099     -1.5864     26.3505    121.2093
  1118.8000      8.0358      2.6724      0.0460     -1.3590     26.4200    114.1334
  1118.9000      8.0358      2.6569      0.0500     -0.4190     25.8182    113.9221
  1119.0000      8.0368      2.6454      0.0440      0.2768     24.5268    119.5127
  1119.1000      8.0368      2.6448      0.0226      0.3121     23.4201    123.7657
  1119.2000      8.0368      2.6528      0.0376     -0.1708     23.0786    120.1106
  1119.3000      8.0339      2.6570      0.0532     -0.4263     23.0536    111.9937
  1119.4000      8.0339      2.6505     -0.0023     -0.0323     22.7561    110.0234
  1119.5000      8.0336      2.6460     -0.0263      0.2429     22.3232    116.4386
