~Version Information
VERS.                      2.0: CWLS Log ASCII Standard - VERSION 2.0
WRAP.                       NO: One line per depth step
~Well Information Block
STRT.FT               -11.0000: 
STOP.FT              2634.5000: 
STEP.FT                 0.2500: 
NULL.                -999.2500: 
COMP.          Evergreen Operating Corporation: COMPANY
WELL.          Sand PebbleS 13-33: WELL
FLD.           Purgatorie River: FIELD
LOC.           1883' FSL & 63' FWL--: LOCATION
PROV.                 Colorado: PROVINCE
CNTY.               Las Animas: COUNTRY
SRVC.          Patterson Wireline: SERVICE COMPANY
DATE.          Fri Mar 18 09:37:20 2005: LOG DATE
UWI.          005 071 08224 : UNIQUE WELL ID
~Curve Information Block
DEPT.FT            0 000 00 00: Depth
CCL.                          : Casing Collar Locator
TT3.usec                      : CBL 3' Travel Time
AMP3.mV                       : CBL 3' Amplitude
GR.GAPI                       : Gamma Ray
~Parameter Information Block
~A  Depth       CCL         TT3         AMP3         GR     
# ...
  1195.0000      0.0000    713.9626      4.8176    156.7297
  1195.2500      0.0000    710.9166      4.8727    159.7079
  1195.5000      0.0000    710.5930      4.9182    158.5445
  1195.7500      0.0000    711.6597      4.9414    153.9489
  1196.0000      0.0000    712.3109      4.9521    148.0869
  1196.2500      0.0000    711.8306      4.9689    142.5736
  1196.5000      0.0000    711.1539      5.0024    137.7964
  1196.7500      0.0000    711.5806      5.0534    133.7307
  1197.0000      0.0000    712.8110      5.1175    130.9228
  1197.2500      0.0000    712.9171      5.1799    130.4149
  1197.5000      0.0000    710.6895      5.2045    132.6307
  1197.7500      0.0000    707.4692      5.1508    136.3745
  1198.0000      0.0000    706.0142      5.0180    139.2136
  1198.2500      0.0000    707.6503      4.8625    139.3591
  1198.5000      0.0000    710.9465      4.7455    137.1627
  1198.7500      0.0000    713.2107      4.6694    134.4370
  1199.0000      0.0000    712.8019      4.5961    132.3290
  1199.2500      0.0000    709.7304      4.5147    130.2444
  1199.5000      0.0000    704.5010      4.4501    126.9515
  1199.7500      0.0000    697.4749      4.4156    122.4492
  1200.0000     -2.0000    690.0395      4.3948    118.5308
  1200.2500      0.0000    685.6384      4.3674    117.3437
  1200.5000      0.0000    687.8708      4.3371    119.3321
  1200.7500      0.0000    696.8176      4.3377    122.7742
  1201.0000      0.0000    708.1479      4.4102    125.4534
  1201.2500      0.0000    716.4751      4.5564    126.5135
  1201.5000      0.0000    719.1210      4.7213    126.5843
  1201.7500      0.0000    716.7621      4.8440    126.4841
  1202.0000      0.0000    711.6140      4.9181    126.3420
  1202.2500      0.0000    705.6341      4.9821    126.0628
  1202.5000      0.0000    700.0076      5.0647    125.9267
  1202.7500      0.0000    695.4839      5.1581    126.1202
  1203.0000      0.0000    692.5602      5.2371    126.1962
  1203.2500      0.0000    691.4076      5.2833    125.9076
  1203.5000      0.0000    692.0450      5.2908    126.3013
  1203.7500      0.0000    694.7280      5.2635    128.7815
  1204.0000      0.0000    699.8129      5.2147    132.7308
  1204.2500      0.0000    706.9092      5.1682    135.1553
  1204.5000      0.0000    714.1978      5.1530    133.5837
  1204.7500      0.0000    719.0038      5.1867    128.9579
  1205.0000      0.0000    719.4790      5.2605    125.0495
  1205.2500      0.0000    716.0715      5.3409    125.0915
  1205.5000      0.0000    711.4524      5.3931    129.1441
  1205.7500      0.0000    708.6214      5.4040    134.5414
  1206.0000      0.0000    708.4724      5.3851    138.5688
  1206.2500      0.0000    709.1122      5.3587    140.4399
  1206.5000      0.0000    707.8815      5.3419    140.9356
  1206.7500      0.0000    704.0016      5.3373    140.9865
  1207.0000      0.0000    699.0310      5.3321    140.9739
  1207.2500      0.0000    695.1522      5.3115    140.8699
  1207.5000      0.0000    693.7174      5.2757    140.5939
  1207.7500      0.0000    695.2356      5.2377    140.2518
  1208.0000      0.0000    699.7239      5.2052    139.9363
  1208.2500      0.0000    706.3869      5.1748    139.3414
  1208.5000      0.0000    713.3212      5.1454    138.0973
  1208.7500      0.0000    718.4606      5.1242    136.6679
  1209.0000      0.0000    721.1102      5.1125    136.2950
  1209.2500      0.0000    722.0562      5.0984    137.7332
  1209.5000      0.0000    721.8258      5.0680    140.4434
  1209.7500      0.0000    719.5640      5.0207    143.2932
  1210.0000      0.0000    714.5575      4.9701    145.6347
  1210.2500      0.0000    708.6080      4.9346    147.2214
  1210.5000      0.0000    705.4258      4.9268    147.3011
  1210.7500      0.0000    706.8862      4.9472    144.7050
  1211.0000      0.0000    710.8751      4.9825    139.4538
  1211.2500      0.0000    713.6852      5.0119    133.8499
  1211.5000      0.0000    713.7048      5.0207    131.1235
  1211.7500      0.0000    712.1464      5.0118    132.9239
  1212.0000      0.0000    711.0575      5.0055    138.5296
  1212.2500      0.0000    711.1741      5.0254    145.9021
  1212.5000      0.0000    711.2936      5.0783    152.5604
  1212.7500      0.0000    709.6663      5.1451    155.9506
  1213.0000      0.0000    706.2092      5.1910    154.4440
  1213.2500      0.0000    703.0405      5.1900    148.4247
  1213.5000      0.0000    702.5037      5.1401    139.9077
  1213.7500      0.0000    704.8828      5.0561    131.0010
  1214.0000      0.0000    708.3186      4.9528    123.0961
  1214.2500      0.0000    711.0188      4.8410    117.2348
  1214.5000      0.0000    713.1732      4.7356    114.3918
  1214.7500      0.0000    716.1656      4.6566    115.1398
  1215.0000      0.0000    720.0436      4.6200    119.3336
  1215.2500      0.0000    722.5188      4.6346    126.1503
  1215.5000      0.0000    720.6178      4.6996    134.3519
  1215.7500      0.0000    712.8633      4.7966    142.7975
  1216.0000      0.0000    699.9984      4.8891    150.9805
  1216.2500      0.0000    684.7138      4.9402    158.9382
  1216.5000      0.0000    671.5570      4.9362    166.5727
  1216.7500      0.0000    666.1812      4.8919    173.1954
  1217.0000      0.0000    672.2951      4.8407    177.6230
  1217.2500      0.0000    688.1865      4.8188    178.6316
  1217.5000      0.0000    707.2711      4.8453    175.7846
  1217.7500      0.0000    722.9032      4.9080    170.0725
  1218.0000      0.0000    732.3895      4.9707    163.5697
  1218.2500      0.0000    736.8158      5.0001    158.5135
  1218.5000      0.0000    738.4764      4.9866    156.5545
  1218.7500      0.0000    739.0202      4.9438    157.9038
  1219.0000      0.0000    739.1566      4.8937    160.7880
  1219.2500      0.0000    739.0818      4.8510    162.7016
  1219.5000      0.0000    738.8531      4.8200    162.6510
  1219.7500      0.0000    738.5228      4.8007    161.4835
  1220.0000      0.0000    738.1519      4.7910    159.9104
  1220.2500      0.0000    737.8091      4.7827    157.4302
  1220.5000      0.0000    737.5599      4.7625    153.7698
  1220.7500      0.0000    737.4429      4.7200    150.4484
  1221.0000      0.0000    737.4607      4.6563    149.7423
  1221.2500      0.0000    737.5984      4.5834    152.0566
  1221.5000      0.0000    737.8367      4.5151    155.2623
  1221.7500      0.0000    738.1344      4.4590    157.0537
  1222.0000      0.0000    738.4157      4.4149    157.0487
  1222.2500      0.0000    738.6062      4.3797    155.8460
  1222.5000      0.0000    738.6816      4.3524    153.0189
  1222.7500      0.0000    738.6658      4.3360    147.2331
  1223.0000      0.0000    738.5861      4.3353    138.0774
  1223.2500      0.0000    738.4472      4.3502    126.9066
  1223.5000      0.0000    738.2481      4.3690    115.6385
  1223.7500      0.0000    738.0092      4.3694    105.0971
  1224.0000      0.0000    737.7394      4.3312     94.7466
  1224.2500      0.0000    737.3315      4.2537     83.7240
  1224.5000      0.0000    736.4606      4.1628     71.7376
  1224.7500      0.0000    734.6708      4.0927     59.3448
  1225.0000      0.0000    731.7713      4.0612     47.8490
  1225.2500      0.0000    728.1598      4.0630     38.7535
  1225.5000      0.0000    724.4362      4.0831     32.9220
  1225.7500      0.0000    720.6213      4.1111     30.1755
  1226.0000      0.0000    716.3695      4.1415     29.6666
  1226.2500      0.0000    712.2053      4.1683     30.5588
  1226.5000      0.0000    709.8083      4.1863     32.4025
  1226.7500      0.0000    710.6024      4.2000     34.9330
  1227.0000      0.0000    714.5414      4.2269     37.5154
  1227.2500      0.0000    720.4423      4.2840     39.0062
  1227.5000      0.0000    726.8807      4.3674     38.4880
  1227.7500      0.0000    732.6127      4.4472     36.1388
  1228.0000      0.0000    736.7935      4.4859     33.1206
  1228.2500      0.0000    739.2228      4.4643     30.6370
