~Version Information
VERS.                      2.0: CWLS Log ASCII Standard - VERSION 2.0
WRAP.                       NO: One line per depth step
~Well Information Block
STRT.FT               575.0000: 
STOP.FT              2016.2000: 
STEP.FT                 0.1000: 
NULL.                -999.2500: 
COMP.          Pioneer Natural Resources: COMPANY
WELL.          Bucksnort 41-35: WELL
FLD.           Purgatoire River: FIELD
LOC.           117' FNL & 463' FEL--: LOCATION
PROV.                 Colorado: PROVINCE
CNTY.               Las Animas: COUNTRY
SRVC.                Patterson: SERVICE COMPANY
DATE.          Thu Jul 21 15:01:23 2005: LOG DATE
UWI.           05 071 08401 00: UNIQUE WELL ID
~Curve Information Block
DEPT.FT            0 000 00 00: Depth
DCAL.in                       : CDL Caliper
RHOB.g/cc                     : CDL Bulk Density
RHOC.g/cc                     : CDL Density Correction
DPOR.pu                       : CDL Density Porosity
NPOR.pu                       : Neutron Porosity
GR.GAPI                       : Gamma Ray
~Parameter Information Block
~A  Depth       DCAL        RHOB        RHOC        DPOR        NPOR         GR     
# ...
  1323.8000      7.8668      2.6174      0.0464      1.9777     21.8022     82.5526
  1323.9000      7.8668      2.5968      0.0325      3.2216     22.1866     87.7966
  1324.0000      7.8683      2.5919      0.0235      3.5186     23.2397     92.1920
  1324.1000      7.8683      2.5995      0.0446      3.0581     24.3882     97.0264
  1324.2000      7.8683      2.6046      0.0279      2.7536     25.0786    102.0590
  1324.3000      7.8706      2.5979      0.0429      3.1602     25.4079    106.8175
  1324.4000      7.8706      2.5785      0.0504      4.3363     25.4073    113.9500
  1324.5000      7.8726      2.5566      0.0274      5.6578     25.3071    124.6255
  1324.6000      7.8726      2.5445      0.0137      6.3912     25.7670    130.0679
  1324.7000      7.8726      2.5425      0.0245      6.5148     26.5935    126.9483
  1324.8000      7.8749      2.5488      0.0171      6.1315     26.9910    123.4359
  1324.9000      7.8749      2.5660      0.0434      5.0891     26.8623    122.2816
  1325.0000      7.8806      2.5895      0.0550      3.6688     26.5928    123.8584
  1325.1000      7.8806      2.6054      0.0369      2.7031     26.6686    131.4424
  1325.2000      7.8806      2.6086      0.0055      2.5061     27.2659    140.3398
  1325.3000      7.8906      2.6098      0.0717      2.4391     27.7773    142.9872
  1325.4000      7.8906      2.6141      0.0562      2.1747     27.9359    143.3056
  1325.5000      7.8993      2.6152      0.0647      2.1064     28.2754    148.5887
  1325.6000      7.8993      2.6056      0.0867      2.6927     28.8586    152.6847
  1325.7000      7.8993      2.5917      0.0500      3.5343     29.2245    148.0474
  1325.8000      7.9032      2.5915      0.0619      3.5477     29.2493    140.3560
  1325.9000      7.9032      2.6061      0.0468      2.6603     29.4169    136.3282
  1326.0000      7.9017      2.6181      0.0546      1.9324     30.0079    136.5121
  1326.1000      7.9017      2.6161      0.0232      2.0515     30.2951    138.8867
  1326.2000      7.9017      2.6022      0.0722      2.8972     29.7017    141.1438
  1326.3000      7.8971      2.5829      0.0780      4.0644     29.0670    145.1144
  1326.4000      7.8971      2.5696      0.0584      4.8713     29.2600    150.9505
  1326.5000      7.8956      2.5673      0.0716      5.0094     29.7205    153.1738
  1326.6000      7.8956      2.5681      0.0821      4.9635     29.8149    154.1515
  1326.7000      7.8956      2.5647      0.0547      5.1685     29.5667    156.6553
  1326.8000      7.8977      2.5607      0.0589      5.4099     29.0678    153.5815
  1326.9000      7.8977      2.5589      0.0655      5.5217     28.8411    142.4981
  1327.0000      7.8993      2.5540      0.0432      5.8203     29.3471    130.1586
  1327.1000      7.8993      2.5476      0.0281      6.2049     30.1785    124.6363
  1327.2000      7.8993      2.5512      0.0229      5.9863     30.5428    131.2650
  1327.3000      7.8993      2.5672      0.0588      5.0175     30.2863    146.6489
  1327.4000      7.8993      2.5815      0.1024      4.1520     29.9984    157.6897
  1327.5000      7.8992      2.5796      0.0886      4.2675     30.1228    156.2224
  1327.6000      7.8992      2.5695      0.0297      4.8774     30.4147    149.1053
  1327.7000      7.8992      2.5697      0.0564      4.8641     30.2488    143.8517
  1327.8000      7.8979      2.5785      0.0876      4.3335     29.6856    141.9818
  1327.9000      7.8979      2.5824      0.0770      4.0952     29.3219    145.0324
  1328.0000      7.8929      2.5795      0.0474      4.2748     29.3932    152.3459
  1328.1000      7.8929      2.5743      0.0524      4.5903     29.6138    159.3981
  1328.2000      7.8929      2.5649      0.0513      5.1567     29.5611    162.8656
  1328.3000      7.8848      2.5476      0.0127      6.2043     29.2897    162.9388
  1328.4000      7.8848      2.5260     -0.0146      7.5158     29.2723    161.7716
  1328.5000      7.8771      2.5023      0.0082      8.9535     29.6971    157.8504
  1328.6000      7.8771      2.4849     -0.0207     10.0083     30.1899    150.4363
  1328.7000      7.8771      2.4927      0.0212      9.5324     30.5193    144.3142
  1328.8000      7.8739      2.5194      0.0729      7.9151     30.9210    143.3131
  1328.9000      7.8739      2.5376      0.0819      6.8099     31.2730    148.6547
  1329.0000      7.8746      2.5475      0.0411      6.2138     31.1301    157.8832
  1329.1000      7.8746      2.5683      0.0754      4.9506     30.6157    164.2041
  1329.2000      7.8746      2.5996      0.0647      3.0542     30.0579    165.2864
  1329.3000      7.8755      2.6250      0.0981      1.5144     29.6280    162.5699
  1329.4000      7.8755      2.6283      0.1136      1.3168     29.6795    154.1454
  1329.5000      7.8753      2.6120      0.0824      2.3026     30.1134    143.5806
  1329.6000      7.8753      2.6025      0.0720      2.8800     30.4024    139.6634
  1329.7000      7.8753      2.6126      0.0784      2.2638     30.2747    140.5519
  1329.8000      7.8736      2.6244      0.0520      1.5495     30.0103    141.5118
  1329.9000      7.8736      2.6190      0.0777      1.8789     30.2213    145.2129
  1330.0000      7.8726      2.6002      0.0661      3.0203     30.7305    151.3047
  1330.1000      7.8726      2.5858      0.0248      3.8887     30.6467    154.9733
  1330.2000      7.8726      2.5872     -0.0006      3.8055     29.9617    157.8603
  1330.3000      7.8785      2.5942      0.0228      3.3816     29.6108    162.4711
  1330.4000      7.8785      2.5930      0.0118      3.4527     30.0004    160.1642
  1330.5000      7.8893      2.5878      0.0593      3.7711     30.4770    149.5815
  1330.6000      7.8893      2.5781      0.0560      4.3567     30.5109    147.5077
  1330.7000      7.8893      2.5499      0.0516      6.0693     30.3789    160.3482
  1330.8000      7.8980      2.5067     -0.0139      8.6837     30.4460    175.9072
  1330.9000      7.8980      2.4713      0.0031     10.8278     30.6887    184.4272
  1331.0000      7.9049      2.4478      0.0233     12.2542     30.8950    182.2324
  1331.1000      7.9049      2.4352     -0.0483     13.0163     30.8683    171.9339
  1331.2000      7.9049      2.4468      0.0270     12.3177     30.6662    163.1158
  1331.3000      7.9115      2.4749      0.0470     10.6145     30.6411    160.0114
  1331.4000      7.9115      2.4938      0.0920      9.4653     30.9911    161.6840
  1331.5000      7.9126      2.4972      0.0514      9.2618     31.5202    167.3488
  1331.6000      7.9126      2.4996      0.0891      9.1147     31.8337    174.1326
  1331.7000      7.9126      2.5117      0.0965      8.3789     31.5314    178.7964
  1331.8000      7.9078      2.5334      0.0760      7.0691     30.5403    179.2829
  1331.9000      7.9078      2.5544      0.1151      5.7963     29.2012    176.2906
  1332.0000      7.9021      2.5680      0.0680      4.9677     28.1236    170.9433
  1332.1000      7.9021      2.5789      0.0941      4.3085     27.7192    168.4465
  1332.2000      7.9021      2.5814      0.0928      4.1602     27.6019    171.5528
  1332.3000      7.8976      2.5718      0.0468      4.7401     27.2147    169.7286
  1332.4000      7.8976      2.5689      0.0170      4.9123     26.6389    159.8243
  1332.5000      7.8953      2.5818      0.0851      4.1354     26.1419    151.9603
  1332.6000      7.8953      2.5923      0.0747      3.4970     25.6635    149.6630
  1332.7000      7.8953      2.5899      0.0681      3.6447     25.1478    148.2947
  1332.8000      7.8947      2.5828      0.0588      4.0738     24.6923    145.8587
  1332.9000      7.8947      2.5827      0.0217      4.0787     24.3366    141.9131
  1333.0000      7.8906      2.5876      0.0494      3.7819     23.8319    133.8887
  1333.1000      7.8906      2.5842      0.0670      3.9883     23.1728    122.3640
  1333.2000      7.8906      2.5736      0.0393      4.6288     22.9068    110.4529
  1333.3000      7.8835      2.5680      0.0540      4.9691     23.0371    101.2777
