~Version Information
VERS.                      2.0: CWLS Log ASCII Standard - VERSION 2.0
WRAP.                       NO: One line per depth step
~Well Information Block
STRT.FT               555.6000: 
STOP.FT              2132.0000: 
STEP.FT                 0.1000: 
NULL.                -999.2500: 
COMP.          Petrogulf Corporation: COMPANY
WELL.           Montoya 12-41R: WELL
FLD.           Purgatorie River: FIELD
LOC.           1086' FNL & 610' FEL: LOCATION
CNTY.               Las Animas: COUNTY
SRVC.                         : SERVICE COMPANY
DATE.          Thu Nov 18 08:45:51 2004: LOG DATE
UWI.           05 071 08241 00: UNIQUE WELL ID
STAT.                 Colorado: STATE
~Curve Information Block
DEPT.FT            0 000 00 00: Depth
DCAL.in                       : CDL Caliper
RHOB.g/cc                     : CDL Bulk Density
RHOC.g/cc                     : CDL Density Correction
DPOR.pu                       : CDL Density Porosity
GR.GAPI                       : Gamma Ray
NPOR.pu                       : Neutron Porosity
~Parameter Information Block
~A  Depth       DCAL        RHOB        RHOC        DPOR         GR         NPOR    
# ...
  1189.2000      8.0166      2.5742      0.0329      4.5916    120.2882     14.7831
  1189.3000      8.0161      2.5849      0.0347      3.9443    120.6608     14.3908
  1189.4000      8.0161      2.6065      0.0697      2.6383    121.1162     14.5460
  1189.5000      8.0241      2.6265      0.0925      1.4222    119.3060     15.0403
  1189.6000      8.0241      2.6364      0.0535      0.8263    118.6598     15.8619
  1189.7000      8.0241      2.6392      0.0657      0.6541    118.7752     17.2230
  1189.8000      8.0280      2.6355      0.0708      0.8803    113.7020     18.3944
  1189.9000      8.0280      2.6226      0.0684      1.6592    106.0356     18.5182
  1190.0000      8.0233      2.6039      0.0360      2.7918    104.9832     18.1263
  1190.1000      8.0233      2.5861      0.0394      3.8751    111.3932     17.5208
  1190.2000      8.0233      2.5735      0.0162      4.6368    116.0917     16.7928
  1190.3000      8.0176      2.5658      0.0587      5.1003    114.8887     16.5423
  1190.4000      8.0176      2.5550      0.0514      5.7596    113.0889     16.2084
  1190.5000      8.0177      2.5356      0.0237      6.9328    114.4267     15.7821
  1190.6000      8.0177      2.5146      0.0055      8.2038    116.5678     16.2611
  1190.7000      8.0177      2.5056     -0.0076      8.7533    117.9507     17.2264
  1190.8000      8.0201      2.5154      0.0186      8.1592    118.1650     17.7855
  1190.9000      8.0201      2.5354      0.0861      6.9426    117.0478     17.5247
  1191.0000      8.0206      2.5550      0.0767      5.7577    117.4141     16.8343
  1191.1000      8.0206      2.5783      0.0764      4.3475    120.9547     16.6560
  1191.2000      8.0206      2.6071      0.1367      2.5980    125.0018     17.3124
  1191.3000      8.0294      2.6275      0.1620      1.3646    127.4972     18.2130
  1191.4000      8.0294      2.6318      0.1347      1.1042    129.2479     18.4884
  1191.5000      8.0470      2.6274      0.1453      1.3679    128.7498     18.0592
  1191.6000      8.0470      2.6232      0.1099      1.6238    125.0273     17.5751
  1191.7000      8.0470      2.6213      0.1430      1.7373    122.9669     17.6114
  1191.8000      8.0636      2.6192      0.1142      1.8662    126.1857     18.2741
  1191.9000      8.0636      2.6191      0.1242      1.8743    132.5230     19.4946
  1192.0000      8.0671      2.6214      0.1343      1.7356    136.0626     20.9518
  1192.1000      8.0671      2.6189      0.1046      1.8872    133.8601     21.7391
  1192.2000      8.0671      2.6081      0.1063      2.5412    131.6514     21.3339
  1192.3000      8.0560      2.5994      0.0719      3.0655    132.9337     20.0602
  1192.4000      8.0560      2.6023      0.0599      2.8885    133.5299     18.6535
  1192.5000      8.0477      2.6047      0.1124      2.7431    133.0434     17.8057
  1192.6000      8.0477      2.5935      0.0566      3.4217    132.3058     17.6268
  1192.7000      8.0477      2.5749      0.0473      4.5486    129.8128     17.5293
  1192.8000      8.0518      2.5562      0.0740      5.6868    127.0859     17.1699
  1192.9000      8.0518      2.5404      0.0090      6.6437    125.7331     17.2237
  1193.0000      8.0547      2.5388      0.0089      6.7409    125.5359     18.0409
  1193.1000      8.0547      2.5538      0.0765      5.8324    125.7598     18.7260
  1193.2000      8.0547      2.5658      0.1009      5.1039    123.3808     18.6066
  1193.3000      8.0520      2.5594      0.0741      5.4926    119.7075     18.0931
  1193.4000      8.0520      2.5463      0.0628      6.2857    123.1502     17.8379
  1193.5000      8.0568      2.5479      0.0386      6.1863    130.0997     17.6384
  1193.6000      8.0568      2.5619      0.0925      5.3364    127.7758     17.1095
  1193.7000      8.0568      2.5712      0.1052      4.7733    119.0023     16.7887
  1193.8000      8.0708      2.5734      0.1161      4.6451    114.4914     16.9602
  1193.9000      8.0708      2.5729      0.0996      4.6740    116.8380     17.0859
  1194.0000      8.0822      2.5651      0.1115      5.1476    120.0128     16.9764
  1194.1000      8.0822      2.5505      0.0648      6.0288    118.4407     16.6131
  1194.2000      8.0822      2.5455      0.0505      6.3343    115.2269     15.7719
  1194.3000      8.0953      2.5568      0.0606      5.6476    113.4936     14.8759
  1194.4000      8.0953      2.5676      0.1129      4.9945    111.3231     14.8330
  1194.5000      8.1372      2.5667      0.0261      5.0514    109.4749     15.8754
  1194.6000      8.1372      2.5616      0.0842      5.3560    111.4161     17.2437
  1194.7000      8.1372      2.5563      0.0482      5.6785    116.1309     17.6511
  1194.8000      8.2056      2.5554      0.0445      5.7363    117.8628     16.7173
  1194.9000      8.2056      2.5645      0.0733      5.1845    116.2772     15.5064
  1195.0000      8.2315      2.5787      0.0682      4.3219    113.7855     15.0922
  1195.1000      8.2315      2.5899      0.0689      3.6432    110.1146     15.9243
  1195.2000      8.2315      2.5923      0.0536      3.4941    107.6992     17.2246
  1195.3000      8.1824      2.5863      0.0409      3.8592    108.1818     17.5224
  1195.4000      8.1824      2.5854      0.0343      3.9132    109.3251     16.6561
  1195.5000      8.0880      2.5971      0.0765      3.2054    111.2353     15.7091
  1195.6000      8.0880      2.6060      0.0773      2.6655    115.0452     15.7181
  1195.7000      8.0880      2.5997      0.0672      3.0512    118.5381     16.5597
  1195.8000      8.0086      2.5852      0.0317      3.9301    117.7158     17.3084
  1195.9000      8.0086      2.5772      0.0118      4.4126    112.4715     17.6562
  1196.0000      7.9751      2.5820      0.0310      4.1234    107.4244     17.9012
  1196.1000      7.9751      2.5935      0.0591      3.4271    105.1747     18.0456
  1196.2000      7.9751      2.6009      0.0477      2.9787    104.8310     17.8800
  1196.3000      7.9653      2.5990      0.0541      3.0924    103.8493     17.4630
  1196.4000      7.9653      2.5909      0.0756      3.5800    100.5803     16.7667
  1196.5000      7.9565      2.5803      0.0628      4.2236     96.9541     16.0279
  1196.6000      7.9565      2.5681      0.0087      4.9632     95.1710     15.7216
  1196.7000      7.9565      2.5621      0.0169      5.3278     95.3136     15.8141
  1196.8000      7.9521      2.5721      0.0225      4.7227     96.8555     16.2394
  1196.9000      7.9521      2.5967      0.0558      3.2328     97.7152     17.1380
  1197.0000      7.9551      2.6204      0.0805      1.7950     97.9841     18.2201
  1197.1000      7.9551      2.6304      0.0861      1.1851    100.0189     18.8883
  1197.2000      7.9551      2.6254      0.0964      1.4897    104.4846     19.2061
  1197.3000      7.9616      2.6097      0.1080      2.4414    110.1565     19.4447
  1197.4000      7.9616      2.5914      0.0779      3.5487    113.0783     19.2978
  1197.5000      7.9642      2.5812      0.0711      4.1704    111.4236     19.1269
  1197.6000      7.9642      2.5841      0.0584      3.9951    108.9450     19.4667
  1197.7000      7.9642      2.5932      0.0681      3.4398    110.2278     19.7957
  1197.8000      7.9617      2.5974      0.0799      3.1870    114.5528     19.5514
  1197.9000      7.9617      2.5951      0.0581      3.3293    116.9947     18.8590
  1198.0000      7.9542      2.5986      0.0715      3.1151    115.5252     18.3559
  1198.1000      7.9542      2.6102      0.1210      2.4103    113.5787     18.4282
  1198.2000      7.9542      2.6151      0.1152      2.1143    113.2197     18.8477
  1198.3000      7.9495      2.6104      0.0840      2.4002    109.4082     19.1592
  1198.4000      7.9495      2.6037      0.0923      2.8069    100.9186     19.3777
  1198.5000      7.9593      2.5894      0.1038      3.6719     98.0691     19.5035
  1198.6000      7.9593      2.5670      0.0116      5.0333    104.0293     18.9706
  1198.7000      7.9593      2.5552      0.0427      5.7451    109.3540     17.8601
