~Version Information
 VERS.                                  2.0 : CWLS LAS VERSION
 WRAP.                                   NO : WRAPING MODE
 SWARE .                 MController 2.5.0E : SOFTWARE VERSION
~Well Information
 WELL.                                  N/A : WELL
 COMP.                                  N/A : COMPANY
 FLD.                                   N/A : FIELD
 LOC.                                   N/A : LOCATION
 DATE.                                  N/A : DATE(S) LOGGED
 SRVC.                                  N/A : SERVICE COMPANY
 STAT.                                  N/A : STATE
 CNTY.                                  N/A : COUNTY
 CTRY.                                  N/A : COUNTRY
 API.                                   N/A : API NUMBER
 STRT.FT                            1016.00 : START DEPTH
 STOP.FT                            2595.00 : STOP DEPTH
 STEP.FT                               1.00 : DEPTH INCREMENT
 NULL.                                -9999 : NULL VALUE
~Curve information
 DEPTH.FT                                   :
 ROP.MIN/FT                                 :
 GAS.UNITS                                  :
~ASCII Log data
# ...
     2016.00        0.333         43.7 
     2017.00        0.300         32.5 
     2018.00        0.333         20.6 
     2019.00        0.300         11.1 
     2020.00        0.383          2.3 
     2021.00        0.400         -1.0 
     2022.00        0.333         -1.7 
     2023.00        0.300         -1.3 
     2024.00        0.400          0.0 
     2025.00        0.367          1.9 
     2026.00        5.867          1.9 
     2027.00        0.500          3.3 
     2028.00        0.533          1.7 
     2029.00        0.600         -2.1 
     2030.00        0.550         -4.5 
     2031.00        0.400         -6.0 
     2032.00        0.400         -5.9 
     2033.00        0.467         -5.1 
     2034.00        0.400         -3.4 
     2035.00        0.400         -1.9 
     2036.00        0.400          3.2 
     2037.00        0.400          6.3 
     2038.00        0.383         47.2 
     2039.00        0.300         84.7 
     2040.00        0.300         88.5 
     2041.00        0.300         83.6 
     2042.00        0.333         70.4 
     2043.00        0.300         37.4 
     2044.00        0.333         25.8 
     2045.00        0.300         16.4 
     2046.00        0.300          9.2 
     2047.00        0.267          3.8 
     2048.00        0.300          0.7 
     2049.00        0.317          0.3 
     2050.00        0.300          0.3 
     2051.00        0.333          0.5 
     2052.00        0.267          2.3 
     2053.00        0.267          3.6 
     2054.00        0.533          4.4 
     2055.00        0.533          4.5 
     2056.00        3.883         57.7 
     2057.00        0.367         55.6 
     2058.00        0.383         54.6 
     2059.00        0.400         54.2 
     2060.00        0.467         54.1 
     2061.00        0.367         54.0 
     2062.00        0.300         54.4 
     2063.00        0.300         55.3 
     2064.00        0.300         56.1 
     2065.00        0.267         57.9 
     2066.00        0.267         68.6 
     2067.00        0.167         84.3 
     2068.00        0.133         90.3 
     2069.00        0.167         98.2 
     2070.00        0.250         92.2 
     2071.00        0.467         87.3 
     2072.00        0.300         75.4 
     2073.00        0.267         66.2 
     2074.00        0.433         57.6 
     2075.00        0.300         47.3 
     2076.00        0.200         43.7 
     2077.00        0.200         42.5 
     2078.00        0.233         40.9 
     2079.00        0.300         41.1 
     2080.00        0.450         41.3 
     2081.00        0.200         41.1 
     2082.00        0.200         41.8 
     2083.00        0.200         42.3 
     2084.00        0.233         42.4 
     2085.00        0.533         41.8 
     2086.00        5.017         44.7 
     2087.00        0.350         43.2 
     2088.00        0.300         44.0 
     2089.00        0.300         45.1 
     2090.00        0.267         45.2 
     2091.00        0.300         45.8 
     2092.00        0.267         44.9 
     2093.00        0.267         44.6 
     2094.00        0.233         43.0 
     2095.00        0.267         43.0 
     2096.00        0.300         42.7 
     2097.00        0.233         42.4 
     2098.00        0.233         42.3 
     2099.00        0.317         41.7 
     2100.00        0.333         41.6 
     2101.00        0.333         41.5 
     2102.00        0.333         41.9 
     2103.00        0.333         44.5 
     2104.00        0.300         62.8 
     2105.00        0.267         71.9 
     2106.00        0.133         86.0 
     2107.00        0.233         93.3 
     2108.00        0.300         86.7 
     2109.00        0.233         84.3 
     2110.00        0.300         67.9 
     2111.00        0.350         63.3 
     2112.00        0.267         52.1 
     2113.00        0.267         43.5 
     2114.00        0.267         40.0 
     2115.00        0.267         38.8 
     2116.00        5.767         42.8 
     2117.00        0.500         43.4 
     2118.00        0.400         44.3 
     2119.00        0.333         44.4 
     2120.00        0.333         45.9 
     2121.00        0.350         46.6 
     2122.00        0.300         46.1 
     2123.00        0.333         45.9 
     2124.00        0.367         45.1 
     2125.00        0.233         45.1 
     2126.00        0.167         44.4 
     2127.00        0.300         43.5 
     2128.00        0.267         43.5 
     2129.00        0.267         42.9 
     2130.00        0.333         42.7 
     2131.00        0.333         42.3 
     2132.00        0.417         41.4 
     2133.00        0.400         40.9 
     2134.00        0.433         40.8 
     2135.00        0.400         40.6 
     2136.00        0.567         40.7 
     2137.00        0.567         39.4 
     2138.00        0.500          9.5 
     2139.00        0.483         21.4 
     2140.00        0.467         31.9 
     2141.00        0.500         28.9 
     2142.00        0.467         26.7 
     2143.00        0.500         23.5 
     2144.00        0.500         18.8 
     2145.00        0.533         15.8 
     2146.00        5.333         13.7 
     2147.00        0.533         11.9 
     2148.00        0.533         13.1 
     2149.00        0.583         14.1 
     2150.00        0.567         13.9 
     2151.00        0.633         12.6 
     2152.00        0.633         12.3 
     2153.00        0.333         10.7 
     2154.00        0.300         10.7 
     2155.00        0.267          8.7 
     2156.00        0.267          8.6 
     2157.00        0.283          8.0 
     2158.00        0.300          8.1 
     2159.00        0.267          8.5 
     2160.00        0.233          8.8 
     2161.00        0.133          9.5 
     2162.00        0.267         14.7 
     2163.00        0.300         20.0 
     2164.00        0.333         22.5 
     2165.00        0.533         23.5 
     2166.00        0.367         22.0 
     2167.00        0.233         18.4 
     2168.00        0.417         17.0 
     2169.00        0.433         14.2 
     2170.00        0.400         12.9 
     2171.00        0.433         12.7 
     2172.00        0.167         12.6 
     2173.00        0.267         13.2 
     2174.00        0.267         13.0 
     2175.00        0.300         14.4 
     2176.00        4.500         17.5 
     2177.00        0.233         15.8 
     2178.00        0.500         11.4 
     2179.00        0.550         12.4 
     2180.00        0.500         12.2 
     2181.00        0.633         11.6 
     2182.00        0.567         12.5 
     2183.00        0.333         13.8 
     2184.00        0.433         14.8 
     2185.00        0.517         14.9 
     2186.00        0.467         13.7 
     2187.00        0.467         11.8 
     2188.00        0.433         11.1 
     2189.00        0.400         10.6 
     2190.00        0.517         11.7 
     2191.00        0.433         12.1 
     2192.00        0.433         12.1 
     2193.00        0.467         11.3 
     2194.00        0.467          9.9 
     2195.00        0.367          9.4 
     2196.00        0.433          8.9 
     2197.00        0.450          9.0 
     2198.00        0.400          9.5 
     2199.00        0.433         13.3 
     2200.00        0.400         21.4 
     2201.00        0.400         21.9 
     2202.00        0.467         21.7 
     2203.00        0.400         19.3 
     2204.00        0.400         17.9 
     2205.00        0.383         17.4 
     2206.00        6.700         16.7 
     2207.00        0.133         14.5 
     2208.00        0.267         16.0 
     2209.00        0.367         17.3 
     2210.00        0.400         17.5 
     2211.00        0.433         17.0 
     2212.00        0.483         15.2 
     2213.00        0.467         14.2 
     2214.00        0.433         13.6 
     2215.00        0.367         14.7 
