~Version Information
VERS.                      2.0: CWLS Log ASCII Standard - VERSION 2.0
WRAP.                       NO: One line per depth step
~Well Information Block
STRT.FT               258.0000: 
STOP.FT               998.2000: 
STEP.FT                 0.1000: 
NULL.                -999.2500: 
COMP.          Pioneer Natural Resources: COMPANY
WELL.          Piggyback 33-25: WELL
FLD.           Purgatoire River: FIELD
LOC.           1600' FSL & 1800' FEL: LOCATION
PROV.                 Colorado: PROVINCE
CNTY.               Las Animas: COUNTRY
SRVC.                Patterson: SERVICE COMPANY
DATE.          Fri Apr 29 16:11:48 2005: LOG DATE
UWI.           05 071 08233 00: UNIQUE WELL ID
~Curve Information Block
DEPT.FT            0 000 00 00: Depth
DCAL.in                       : CDL Caliper
RHOB.g/cc                     : CDL Bulk Density
RHOC.g/cc                     : CDL Density Correction
DPOR.pu                       : CDL Density Porosity
GR.GAPI                       : Gamma Ray
NPOR.pu                       : Neutron Porosity
~Parameter Information Block
~A  Depth       DCAL        RHOB        RHOC        DPOR         GR         NPOR    
# ...
   306.0000      7.9728      2.4989      0.0279      9.1602    152.5276     25.9367
   306.1000      7.9728      2.5218      0.0997      7.7673    152.2497     25.1329
   306.2000      7.9728      2.5236      0.0734      7.6588    149.2618     24.2789
   306.3000      7.9760      2.5081      0.0355      8.5982    147.8267     23.9740
   306.4000      7.9760      2.4953      0.0306      9.3787    148.1041     24.4429
   306.5000      7.9724      2.5008      0.0412      9.0446    150.9512     25.1061
   306.6000      7.9724      2.5267      0.0511      7.4733    156.6202     25.3266
   306.7000      7.9724      2.5593      0.0701      5.4962    160.3153     25.1770
   306.8000      7.9466      2.5811      0.1290      4.1767    160.8727     25.0882
   306.9000      7.9466      2.5815      0.0827      4.1485    159.7868     25.3231
   307.0000      7.9448      2.5669      0.0861      5.0384    155.7864     25.7619
   307.1000      7.9448      2.5485      0.0925      6.1545    151.8654     25.8449
   307.2000      7.9448      2.5281      0.0990      7.3897    150.6876     25.3485
   307.3000      7.9519      2.5023      0.0876      8.9502    146.9142     24.7378
   307.4000      7.9519      2.4736      0.1096     10.6925    138.2167     24.3257
   307.5000      7.9437      2.4535      0.0509     11.9116    130.5801     23.8326
   307.6000      7.9437      2.4566      0.0256     11.7185    125.9955     23.1699
   307.7000      7.9437      2.4750      0.0838     10.6044    121.0083     22.7937
   307.8000      7.9508      2.4855      0.0788      9.9695    114.2769     22.8893
   307.9000      7.9508      2.4908      0.0777      9.6508    108.2706     23.0291
   308.0000      7.9545      2.5009      0.0895      9.0389    104.4843     22.9414
   308.1000      7.9545      2.4978      0.1483      9.2237    101.4347     22.7696
   308.2000      7.9545      2.4621      0.1450     11.3903     99.1259     22.3704
   308.3000      7.9216      2.4159     -0.0019     14.1899     97.9983     21.5116
   308.4000      7.9216      2.4004      0.0081     15.1301     96.4043     20.5127
   308.5000      7.9340      2.4226      0.0408     13.7818     91.7637     19.7524
   308.6000      7.9340      2.4515      0.0971     12.0310     85.7434     19.3437
   308.7000      7.9340      2.4583      0.0794     11.6191     84.2944     19.1947
   308.8000      7.9411      2.4533      0.0639     11.9211     86.5072     19.2884
   308.9000      7.9411      2.4570      0.0921     11.6995     84.6964     19.5627
   309.0000      7.9567      2.4550      0.1331     11.8193     79.4084     19.5522
   309.1000      7.9567      2.4329      0.1227     13.1574     76.8501     19.2249
   309.2000      7.9567      2.4101      0.0903     14.5400     77.2808     19.1748
   309.3000      7.9640      2.4070      0.0987     14.7260     76.8489     19.4460
   309.4000      7.9640      2.4192      0.1155     13.9907     74.2430     19.4500
   309.5000      7.9663      2.4372      0.0679     12.8963     72.6430     19.0483
   309.6000      7.9663      2.4629      0.1003     11.3393     74.2068     18.5502
   309.7000      7.9663      2.4879      0.1118      9.8223     75.6407     18.1525
   309.8000      7.9684      2.4953      0.1616      9.3774     74.6660     18.2543
   309.9000      7.9684      2.4873      0.0852      9.8628     72.5452     19.0742
   310.0000      7.9723      2.4801      0.1068     10.2975     70.9141     19.8632
   310.1000      7.9723      2.4757      0.1086     10.5641     70.7933     19.7302
   310.2000      7.9723      2.4681      0.0688     11.0252     72.4643     19.0502
   310.3000      7.9713      2.4532      0.1071     11.9292     75.9366     18.6623
   310.4000      7.9713      2.4328      0.0385     13.1618     78.0633     18.5993
   310.5000      7.9636      2.4198      0.0623     13.9528     76.9791     18.5077
   310.6000      7.9636      2.4149      0.0863     14.2469     75.6236     18.2304
   310.7000      7.9636      2.4119      0.0660     14.4326     74.4144     17.7931
   310.8000      7.9670      2.4104      0.0978     14.5198     71.5666     17.3929
   310.9000      7.9670      2.4049      0.0590     14.8571     69.3607     17.3013
   311.0000      7.9814      2.3893      0.0663     15.8016     68.5843     17.4922
   311.1000      7.9814      2.3692      0.0428     17.0210     68.5439     17.6417
   311.2000      7.9814      2.3624      0.0333     17.4330     69.7895     17.5744
   311.3000      7.9714      2.3790      0.0872     16.4225     71.9540     17.4401
   311.4000      7.9714      2.3989      0.1365     15.2153     74.8797     17.4640
   311.5000      7.9839      2.3986      0.0694     15.2389     77.7655     17.4949
   311.6000      7.9839      2.3870      0.0604     15.9391     79.5149     17.3208
   311.7000      7.9839      2.3879      0.0714     15.8856     80.5074     17.3059
   311.8000      8.0106      2.4110      0.0857     14.4828     79.3325     17.7354
   311.9000      8.0106      2.4460      0.1329     12.3619     74.7801     18.0780
   312.0000      8.0113      2.4691      0.1419     10.9651     69.5095     17.7813
   312.1000      8.0113      2.4676      0.1345     11.0545     67.9099     17.4203
   312.2000      8.0113      2.4564      0.0981     11.7320     70.9470     17.7143
   312.3000      8.0215      2.4576      0.0778     11.6609     74.2118     18.1507
   312.4000      8.0215      2.4624      0.1449     11.3680     74.6987     18.2157
   312.5000      8.0253      2.4504      0.0744     12.0999     74.3051     18.4390
   312.6000      8.0253      2.4365      0.0627     12.9414     74.4043     19.0494
   312.7000      8.0253      2.4395      0.0621     12.7548     73.8267     19.4856
   312.8000      8.0170      2.4531      0.0760     11.9344     72.6353     19.2876
   312.9000      8.0170      2.4697      0.0864     10.9293     74.5560     18.6963
   313.0000      8.0254      2.4831      0.0769     10.1153     80.7868     18.2986
   313.1000      8.0254      2.4825      0.1057     10.1544     87.1757     18.2836
   313.2000      8.0254      2.4713      0.0377     10.8307     89.6349     18.4996
   313.3000      8.0483      2.4663      0.1051     11.1343     88.1191     18.8080
   313.4000      8.0483      2.4670      0.0657     11.0914     83.5786     19.3259
   313.5000      8.0881      2.4647      0.0713     11.2317     77.1645     20.0952
   313.6000      8.0881      2.4606      0.0197     11.4811     72.6419     20.7393
   313.7000      8.0881      2.4574      0.0580     11.6710     72.3625     20.7715
   313.8000      8.0625      2.4552      0.0557     11.8037     75.0409     20.1637
   313.9000      8.0625      2.4546      0.0463     11.8447     78.9988     19.2821
   314.0000      7.9819      2.4481      0.0636     12.2364     82.6308     18.6265
   314.1000      7.9819      2.4361      0.0419     12.9664     85.2295     18.4853
   314.2000      7.9819      2.4391      0.0582     12.7799     86.5007     18.7207
   314.3000      7.9638      2.4601      0.0975     11.5069     85.4689     18.8723
   314.4000      7.9638      2.4716      0.0708     10.8151     83.7965     18.7738
   314.5000      7.9500      2.4517      0.0644     12.0191     82.8221     18.5166
   314.6000      7.9500      2.4100      0.0193     14.5477     80.5745     18.1797
   314.7000      7.9500      2.3856     -0.0101     16.0228     78.0587     18.0890
   314.8000      7.9395      2.4060      0.0472     14.7866     79.6248     18.3646
   314.9000      7.9395      2.4528      0.0936     11.9517     84.4410     18.4893
   315.0000      7.9399      2.4860      0.1298      9.9386     86.8380     18.1882
   315.1000      7.9399      2.4823      0.1072     10.1606     84.1278     17.9265
   315.2000      7.9399      2.4524      0.0696     11.9730     80.0159     18.0100
   315.3000      7.9557      2.4249      0.0264     13.6416     77.7716     18.1962
   315.4000      7.9557      2.4097      0.0851     14.5663     77.7797     18.2604
   315.5000      7.9578      2.3947      0.0408     15.4711     78.3552     18.2386
