~Version Information
VERS.                      2.0: CWLS Log ASCII Standard - VERSION 2.0
WRAP.                       NO: One line per depth step
~Well Information Block
STRT.FT               521.6000: 
STOP.FT              1490.2000: 
STEP.FT                 0.1000: 
NULL.                -999.2500: 
COMP.          Petrogulf Corporation: COMPANY
WELL.          Robinson 15-11R: WELL
FLD.           Purgatorie River: FIELD
LOC.           324' FNL & 570' FWL: LOCATION
CNTY.               Las Animas: COUNTY
SRVC.                         : SERVICE COMPANY
DATE.          Sat Nov 06 22:43:15 2004: LOG DATE
UWI.           05 071 08029 00: UNIQUE WELL ID
STAT.                 Colorado: STATE
~Curve Information Block
DEPT.FT            0 000 00 00: Depth
DCAL.in                       : CDL Caliper
RHOB.g/cc                     : CDL Bulk Density
RHOC.g/cc                     : CDL Density Correction
DPOR.pu                       : CDL Density Porosity
GR.GAPI                       : Gamma Ray
NPOR.pu                       : Neutron Porosity
~Parameter Information Block
~A  Depth       DCAL        RHOB        RHOC        DPOR         GR         NPOR    
# ...
   608.0000      7.8863      2.5488      0.0236      6.1316    123.1702     28.0046
   608.1000      7.8863      2.5555      0.0601      5.7289    123.8093     27.7411
   608.2000      7.8863      2.5559      0.0518      5.7015    125.8941     27.9637
   608.3000      7.9219      2.5446      0.0398      6.3887    126.8405     28.7425
   608.4000      7.9219      2.5324      0.0076      7.1300    130.4205     29.5773
   608.5000      7.8769      2.5260      0.0441      7.5140    134.5067     29.9378
   608.6000      7.8769      2.5299      0.0344      7.2813    134.4402     29.7285
   608.7000      7.8769      2.5552      0.0894      5.7425    131.6758     29.1511
   608.8000      7.8749      2.5932      0.1324      3.4412    129.9217     28.4379
   608.9000      7.8749      2.6167      0.1314      2.0177    130.4986     28.0636
   609.0000      7.8900      2.6204      0.1018      1.7963    131.1797     28.3451
   609.1000      7.8900      2.6182      0.0717      1.9258    128.1962     28.8616
   609.2000      7.8900      2.6216      0.0697      1.7242    120.3956     28.9483
   609.3000      7.8826      2.6316      0.1378      1.1147    112.4665     28.4005
   609.4000      7.8826      2.6346      0.1209      0.9335    109.8063     27.4139
   609.5000      7.8814      2.6238      0.0912      1.5871    112.6692     26.4672
   609.6000      7.8814      2.6126      0.0947      2.2668    115.8708     25.9438
   609.7000      7.8814      2.6066      0.0720      2.6280    114.3019     25.7752
   609.8000      7.9243      2.5955      0.0857      3.3051    108.4781     25.6014
   609.9000      7.9243      2.5748      0.0556      4.5591    102.3888     25.3733
   610.0000      7.8928      2.5585      0.0497      5.5440    100.8312     25.3663
   610.1000      7.8928      2.5528      0.0634      5.8879    104.6030     25.6009
   610.2000      7.8928      2.5416      0.0736      6.5693    110.5871     25.9205
   610.3000      7.9396      2.5232      0.0373      7.6850    115.3883     26.1051
   610.4000      7.9396      2.5219      0.0157      7.7641    118.0833     26.0625
   610.5000      7.9374      2.5486      0.0281      6.1450    118.3987     25.9701
   610.6000      7.9374      2.5801      0.1214      4.2366    117.0773     25.9964
   610.7000      7.9374      2.5956      0.0520      3.2980    117.5985     26.3347
   610.8000      7.9318      2.6019      0.0819      2.9151    118.8703     26.9203
   610.9000      7.9318      2.5968      0.1035      3.2243    116.8239     27.4006
   611.0000      7.9196      2.5785      0.0341      4.3340    115.4920     27.7113
   611.1000      7.9196      2.5750      0.0426      4.5459    119.9604     28.1249
   611.2000      7.9196      2.6052      0.0244      2.7174    126.6844     28.8580
   611.3000      7.9144      2.6449      0.1040      0.3093    126.7595     29.6400
   611.4000      7.9144      2.6631      0.0980     -0.7910    117.6316     29.9636
   611.5000      7.9271      2.6658      0.0917     -0.9597    110.1296     29.7196
   611.6000      7.9271      2.6713      0.0920     -1.2880    110.0949     29.2111
   611.7000      7.9271      2.6784      0.0882     -1.7236    110.6659     28.7134
   611.8000      7.9245      2.6842      0.0904     -2.0712    108.5941     28.2214
   611.9000      7.9245      2.6903      0.1324     -2.4409    106.0988     27.5393
   612.0000      7.9611      2.6856      0.1149     -2.1589    105.4399     26.8451
   612.1000      7.9611      2.6612      0.0849     -0.6811    106.7331     26.4801
   612.2000      7.9611      2.6277      0.0452      1.3526    106.5124     26.1908
   612.3000      7.9476      2.6055      0.0237      2.6973    103.5782     25.6835
   612.4000      7.9476      2.6046      0.0676      2.7517     99.5135     25.3554
   612.5000      7.9360      2.6153      0.0698      2.1005     97.1380     25.6175
   612.6000      7.9360      2.6232      0.0995      1.6228     97.2658     26.3251
   612.7000      7.9360      2.6201      0.1243      1.8141     99.6499     26.9263
   612.8000      7.9310      2.6080      0.1085      2.5480    104.4868     26.9295
   612.9000      7.9310      2.5995      0.1246      3.0590    111.7289     26.6148
   613.0000      7.9397      2.6035      0.0868      2.8173    121.4499     26.7016
   613.1000      7.9397      2.6126      0.1375      2.2655    133.6526     27.2990
   613.2000      7.9397      2.6091      0.1557      2.4796    147.7309     27.8340
   613.3000      7.9802      2.5842      0.1475      3.9882    157.3630     27.9126
   613.4000      7.9802      2.5428      0.0677      6.4982    157.9504     27.7525
   613.5000      7.9800      2.4993      0.0252      9.1348    157.0772     27.8004
   613.6000      7.9800      2.4707      0.0031     10.8692    157.8710     28.3944
   613.7000      7.9800      2.4651      0.0211     11.2044    157.1315     29.4910
   613.8000      7.9534      2.4765      0.0616     10.5161    155.5412     30.7080
   613.9000      7.9534      2.4968      0.0252      9.2831    151.8266     31.9425
   614.0000      7.9026      2.5349      0.0207      6.9758    144.0492     33.2411
   614.1000      7.9026      2.5981      0.0829      3.1438    133.0474     34.1631
   614.2000      7.9026      2.6759      0.1487     -1.5667    121.2427     34.1537
   614.3000      7.8698      2.7460      0.2289     -5.8188    110.0205     33.4594
   614.4000      7.8698      2.7869      0.2355     -8.2951    101.4842     32.7975
   614.5000      7.8576      2.7984      0.1764     -8.9927     98.5907     32.4001
   614.6000      7.8576      2.7884      0.1875     -8.3887     99.8395     31.9419
   614.7000      7.8576      2.7495      0.1235     -6.0331     99.8956     30.9730
   614.8000      7.8651      2.6849      0.0812     -2.1166     95.5824     29.5709
   614.9000      7.8651      2.6261     -0.0818      1.4481     88.8872     28.1968
   615.0000      7.8995      2.6042     -0.0297      2.7744     85.2543     27.1925
   615.1000      7.8995      2.6068      0.0322      2.6176     88.2081     26.5548
   615.2000      7.8995      2.5999      0.0345      3.0343     95.0453     25.8568
   615.3000      7.9793      2.5802      0.0140      4.2306     98.7728     25.0347
   615.4000      7.9793      2.5687     -0.0115      4.9270    100.4104     24.4723
   615.5000      7.9503      2.5725      0.0441      4.6990    102.4139     24.0901
   615.6000      7.9503      2.5754      0.0796      4.5216    100.9240     23.8020
   615.7000      7.9503      2.5660      0.0738      5.0935     98.6640     24.0321
   615.8000      7.9095      2.5523      0.0575      5.9206    101.2807     24.6992
   615.9000      7.9095      2.5457      0.0675      6.3185    106.8379     25.2843
   616.0000      7.8878      2.5456      0.0788      6.3249    114.1567     25.7798
   616.1000      7.8878      2.5494      0.0536      6.0985    123.4821     26.3147
   616.2000      7.8878      2.5619      0.0331      5.3367    128.3730     26.7609
   616.3000      7.8907      2.5804      0.0666      4.2203    123.2817     27.0634
   616.4000      7.8907      2.5887      0.1102      3.7141    114.9740     27.0120
   616.5000      7.8908      2.5865      0.0455      3.8499    112.5563     26.4361
   616.6000      7.8908      2.5917      0.0716      3.5324    110.2189     25.6075
   616.7000      7.8908      2.6130      0.0915      2.2399    102.2607     25.1164
   616.8000      7.8630      2.6417      0.0958      0.5060     94.8221     25.0773
   616.9000      7.8630      2.6671      0.0904     -1.0351     91.4832     24.9728
   617.0000      7.8945      2.6829      0.1198     -1.9951     91.5790     24.7552
   617.1000      7.8945      2.6786      0.1031     -1.7349     92.5369     24.5580
   617.2000      7.8945      2.6498      0.1178      0.0111     89.6971     24.2828
   617.3000      7.9235      2.6141      0.0523      2.1750     83.6514     23.8609
   617.4000      7.9235      2.5932      0.0855      3.4452     78.8077     23.4094
   617.5000      7.9045      2.5848      0.0517      3.9509     76.2702     23.2464
