~Version Information
 VERS.                      2.0: CWLS Log ASCII Standard - VERSION 2.0
 WRAP.                       NO: One line per depth step
 ~Well Information Block
 STRT.FT               762.3000: 
 STOP.FT              2573.7000: 
 STEP.FT                 0.1000: 
 NULL.                -999.2500: 
 COMP.          Petrogulf Corporation: COMPANY
 WELL.               J&P 12-33V: WELL
 FLD.           Purgatorie River: FIELD
 LOC.           2005' FSL & 1928' FEL: LOCATION
 CNTY.               Las Animas: COUNTY
 SRVC.                         : SERVICE COMPANY
 DATE.          Sat Aug 28 11:34:36 2004: LOG DATE
 UWI.           05 071 08092 00: UNIQUE WELL ID
 STAT.                 Colorado: STATE
 PROV.                         :Province
 ~Curve Information Block
 DEPT.FT            0 000 00 00: Depth
 GR.GAPI                       : Gamma Ray
 DCAL.in                       : CDL Caliper
 DPOR.pu                       : CDL Density Porosity
 NPOR.pu                       : Neutron Porosity
 RHOB.g/cc                     : CDL Bulk Density
 RHOC.g/cc                     : CDL Density Correction
 ~Parameter Information Block
 ~A  Depth        GR         DCAL        DPOR        NPOR        RHOB        RHOC    
# ...
  2451.9000     76.3816      7.5656     14.0438     17.1854      2.4183      0.0271
  2452.0000     76.0165      7.5631     13.7865     17.5949      2.4225      0.0263
  2452.1000     69.0031      7.5631     12.2591     17.6532      2.4477      0.0422
  2452.2000     62.5252      7.5631     10.9435     17.7246      2.4694      0.0883
  2452.3000     61.3565      7.5418     11.2968     17.8839      2.4636      0.0983
  2452.4000     62.7262      7.5418     12.8035     18.0447      2.4387      0.0715
  2452.5000     64.6512      7.5408     13.9162     18.2628      2.4204      0.0569
  2452.6000     66.0450      7.5408     13.9467     18.5931      2.4199      0.0588
  2452.7000     63.5696      7.5408     13.1437     19.2564      2.4331      0.0650
  2452.8000     59.3032      7.5414     11.9564     20.1677      2.4527      0.0734
  2452.9000     58.4020      7.5414     11.2020     20.7120      2.4652      0.0971
  2453.0000     60.0220      7.5411     11.7580     20.5876      2.4560      0.0729
  2453.1000     60.6475      7.5411     12.9303     19.8600      2.4367      0.0404
  2453.2000     59.9465      7.5411     13.2215     18.7283      2.4318      0.0718
  2453.3000     59.7466      7.5409     12.6619     17.7585      2.4411      0.0773
  2453.4000     60.5180      7.5409     12.3592     17.4068      2.4461      0.0836
  2453.5000     60.8674      7.5379     12.9006     17.4509      2.4371      0.0714
  2453.6000     57.4411      7.5379     13.8747     17.6092      2.4211      0.0180
  2453.7000     50.4923      7.5379     14.2535     18.0743      2.4148      0.0227
  2453.8000     46.1924      7.5423     13.6330     18.8072      2.4251      0.0530
  2453.9000     49.3564      7.5423     12.7578     19.3295      2.4395      0.0955
  2454.0000     57.2096      7.5439     12.5068     19.2046      2.4436      0.0863
  2454.1000     62.7423      7.5439     12.8719     18.5127      2.4376      0.0742
  2454.2000     64.4246      7.5439     13.0503     17.9492      2.4347      0.0582
  2454.3000     64.4745      7.5460     12.8336     17.6291      2.4382      0.1094
  2454.4000     63.6770      7.5460     13.1565     17.2316      2.4329      0.0724
  2454.5000     62.3925      7.5508     14.2671     17.0715      2.4146      0.0562
  2454.6000     62.0424      7.5508     15.0149     17.5351      2.4023      0.0336
  2454.7000     63.0450      7.5508     14.4705     18.1351      2.4112      0.0667
  2454.8000     63.5429      7.5590     13.0353     18.2490      2.4349      0.1119
  2454.9000     62.3350      7.5590     11.8225     17.9594      2.4549      0.0826
  2455.0000     59.5763      7.5437     11.2823     17.4742      2.4638      0.0938
  2455.1000     55.7849      7.5437     11.0266     16.9430      2.4681      0.0907
  2455.2000     54.9003      7.5437     10.7443     16.6329      2.4727      0.1092
  2455.3000     58.0291      7.5409     10.5537     16.5382      2.4759      0.1173
  2455.4000     58.8398      7.5409     10.5809     16.2791      2.4754      0.0736
  2455.5000     56.9784      7.5400     10.7602     15.8580      2.4725      0.1018
  2455.6000     57.7543      7.5400     11.1768     15.3687      2.4656      0.0810
  2455.7000     59.9356      7.5400     12.0039     14.9047      2.4519      0.0765
  2455.8000     59.6622      7.5417     13.1172     15.1356      2.4336      0.0697
  2455.9000     57.5299      7.5417     13.8322     16.0593      2.4218      0.0220
  2456.0000     55.4403      7.5445     13.6516     16.4606      2.4247      0.0449
  2456.1000     54.9249      7.5445     13.2881     16.1841      2.4307      0.0892
  2456.2000     57.4568      7.5445     13.6402     16.3721      2.4249      0.0698
  2456.3000     60.6437      7.5614     14.7404     17.3102      2.4068      0.0719
  2456.4000     60.3811      7.5614     16.1002     18.3410      2.3843      0.0358
  2456.5000     56.4943      7.5492     16.7001     19.1677      2.3744      0.0102
  2456.6000     52.3396      7.5492     15.7916     19.5638      2.3894      0.0301
  2456.7000     51.2236      7.5492     13.7857     19.3591      2.4225      0.0651
  2456.8000     53.0973      7.5476     11.6243     19.0259      2.4582      0.0464
  2456.9000     54.7870      7.5476     10.3761     18.9328      2.4788      0.1278
  2457.0000     54.6749      7.5629     10.6704     18.9324      2.4739      0.0864
  2457.1000     56.1370      7.5629     11.8338     18.8237      2.4547      0.0921
  2457.2000     59.1853      7.5629     12.7391     18.5452      2.4398      0.0645
  2457.3000     59.2707      7.5441     12.9498     18.4253      2.4363      0.0830
  2457.4000     56.9490      7.5441     12.8834     18.7766      2.4374      0.0737
  2457.5000     55.6895      7.5400     13.0816     19.1773      2.4342      0.0845
  2457.6000     56.0905      7.5400     13.7129     19.1256      2.4237      0.1050
  2457.7000     56.8039      7.5400     14.5609     18.8604      2.4097      0.0757
  2457.8000     56.7434      7.5413     15.3033     18.6753      2.3975      0.0557
  2457.9000     56.2963      7.5413     15.5494     18.7485      2.3934      0.0565
  2458.0000     55.4990      7.5418     14.7418     18.8082      2.4068      0.0474
  2458.1000     54.3060      7.5418     12.9039     18.3606      2.4371      0.0709
  2458.2000     52.8725      7.5418     11.3195     17.4748      2.4632      0.1077
  2458.3000     50.8788      7.5439     11.1949     16.5735      2.4653      0.1001
  2458.4000     49.1388      7.5439     12.1409     15.7690      2.4497      0.0596
  2458.5000     47.9050      7.5645     13.1514     15.0404      2.4330      0.0723
  2458.6000     49.2135      7.5645     13.8907     14.9294      2.4208      0.0596
  2458.7000     55.4243      7.5645     14.0663     15.4916      2.4179      0.0180
  2458.8000     62.0502      7.5674     13.6977     16.1971      2.4240      0.0564
  2458.9000     63.2980      7.5674     13.5225     16.7754      2.4269      0.0531
  2459.0000     61.0399      7.5680     13.7964     17.1386      2.4224      0.0649
  2459.1000     59.4064      7.5680     14.1671     17.2108      2.4162      0.0591
  2459.2000     57.7589      7.5680     14.5654     17.0581      2.4097      0.0365
  2459.3000     55.8636      7.5671     15.2794     16.7304      2.3979      0.0438
  2459.4000     54.0690      7.5671     16.0674     16.1876      2.3849      0.0026
  2459.5000     54.1261      7.5676     16.0194     15.6367      2.3857      0.0199
  2459.6000     61.2342      7.5676     14.9136     15.6701      2.4039      0.0807
  2459.7000     70.8131      7.5676     13.5452     16.6554      2.4265      0.0436
  2459.8000     73.7605      7.5673     12.5864     17.9349      2.4423      0.0764
  2459.9000     72.7442      7.5673     12.3353     18.4765      2.4465      0.0862
  2460.0000     71.8861      7.5675     13.0262     18.3196      2.4351      0.0916
  2460.1000     69.6859      7.5675     14.4145     18.0526      2.4122      0.0532
  2460.2000     66.8661      7.5675     15.5355     18.0242      2.3937      0.0131
  2460.3000     65.5188      7.5686     15.9515     18.1005      2.3868      0.0516
  2460.4000     62.5778      7.5686     16.0095     17.8162      2.3858      0.0278
  2460.5000     57.8770      7.5686     15.6792     17.3336      2.3913      0.0229
  2460.6000     58.0726      7.5686     14.8918     16.9776      2.4043      0.0543
  2460.7000     61.4674      7.5686     13.9295     16.6510      2.4202      0.0632
  2460.8000     60.7846      7.5674     12.9963     16.3726      2.4356      0.0764
  2460.9000     59.4437      7.5674     12.4146     16.1543      2.4452      0.0657
  2461.0000     62.0705      7.5668     12.3921     16.1138      2.4455      0.0623
  2461.1000     64.4927      7.5668     12.5062     16.4388      2.4436      0.0673
  2461.2000     63.2808      7.5668     12.3650     17.1228      2.4460      0.1067
  2461.3000     61.2935      7.5688     12.1945     17.9658      2.4488      0.0599
  2461.4000     62.0862      7.5688     12.1019     18.5045      2.4503      0.0717
