~Version Information
VERS.                      2.0: CWLS Log ASCII Standard - VERSION 2.0
WRAP.                       NO: One line per depth step
~Well Information Block
STRT.FT               745.0000: 
STOP.FT              2945.7000: 
STEP.FT                 0.1000: 
NULL.                -999.2500: 
COMP.          Pioneer Natural Resources: COMPANY
WELL.          Old Yeller 31-32: WELL
FLD.           Purgatoire River: FIELD
LOC.           1832' FEL & 793' FNL--: LOCATION
STAT.                 Colorado: State
CNTY.               Las Animas: COUNTY
CTRY. USA : Country
SECT. 32 : Section
TOWN. 32S : Township
RANG. 67W : Range
SRVC.                Patterson: SERVICE COMPANY
DATE.          Mon Aug 29 11:12:35 2005: LOG DATE
API.           05 071 08356 00: UNIQUE WELL ID
~Curve Information Block
DEPT.FT            0 000 00 00: Depth
DCAL.in                       : CDL Caliper
RHOB.g/cc                     : CDL Bulk Density
RHOC.g/cc                     : CDL Density Correction
DPOR.pu                       : CDL Density Porosity
NPOR.pu                       : Neutron Porosity
GR.GAPI                       : Gamma Ray
~Parameter Information Block
~A  Depth       DCAL        RHOB        RHOC        DPOR        NPOR         GR     
# ...
  2482.6000      8.0575      2.5648      0.0300      5.1650     20.9443     81.6586
  2482.7000      8.0575      2.5784      0.0429      4.3418     21.0311     83.0203
  2482.8000      8.0572      2.5878      0.0489      3.7703     20.6483     79.7839
  2482.9000      8.0572      2.5921      0.0877      3.5101     19.8106     74.3698
  2483.0000      8.0550      2.5890      0.0628      3.6977     19.4045     69.7073
  2483.1000      8.0550      2.5850      0.0514      3.9392     19.8487     66.5443
  2483.2000      8.0550      2.5856      0.0778      3.9054     20.4279     65.1199
  2483.3000      8.0525      2.5821      0.0384      4.1125     20.3280     63.4151
  2483.4000      8.0525      2.5682      0.0067      4.9575     20.0137     59.3603
  2483.5000      8.0510      2.5482      0.0054      6.1720     20.3015     55.9654
  2483.6000      8.0510      2.5367     -0.0097      6.8642     21.0081     56.3041
  2483.7000      8.0510      2.5478     -0.0135      6.1946     21.6092     58.6536
  2483.8000      8.0525      2.5739      0.0557      4.6112     21.8516     59.7604
  2483.9000      8.0525      2.5973      0.0490      3.1943     21.7806     57.8082
  2484.0000      8.0552      2.6159      0.0109      2.0644     21.6327     54.5335
  2484.1000      8.0552      2.6311      0.0926      1.1447     21.6689     52.6697
  2484.2000      8.0552      2.6297      0.0530      1.2292     21.8930     53.0315
  2484.3000      8.0570      2.6072      0.0414      2.5913     22.0522     56.1009
  2484.4000      8.0570      2.5827      0.0155      4.0775     22.0593     60.1702
  2484.5000      8.0573      2.5790      0.0081      4.3006     21.9398     62.8314
  2484.6000      8.0573      2.5948      0.0743      3.3470     21.9643     64.5462
  2484.7000      8.0573      2.6080      0.0427      2.5464     22.4068     64.7867
  2484.8000      8.0574      2.6096      0.0468      2.4468     22.8590     63.5699
  2484.9000      8.0574      2.6088      0.0297      2.4966     22.8619     62.6940
  2485.0000      8.0591      2.6148      0.0343      2.1333     22.4921     61.6613
  2485.1000      8.0591      2.6274      0.0487      1.3719     22.0145     61.1145
  2485.2000      8.0591      2.6370      0.0864      0.7879     21.8252     64.1430
  2485.3000      8.0612      2.6292      0.0819      1.2608     22.0093     68.9783
  2485.4000      8.0612      2.6021      0.0425      2.9020     22.2981     72.8657
  2485.5000      8.0664      2.5718      0.0352      4.7407     22.7377     77.1960
  2485.6000      8.0664      2.5494      0.0525      6.1000     23.4632     82.2853
  2485.7000      8.0664      2.5379      0.0240      6.7960     24.0733     88.5753
  2485.8000      8.0729      2.5380      0.0210      6.7905     24.1163     95.6024
  2485.9000      8.0729      2.5377      0.0471      6.8044     23.8804    100.2149
  2486.0000      8.0777      2.5316      0.0011      7.1765     23.9507    102.3334
  2486.1000      8.0777      2.5322      0.0199      7.1381     24.2088    106.3416
  2486.2000      8.0777      2.5434      0.0496      6.4616     24.2405    111.8194
  2486.3000      8.0823      2.5525      0.0801      5.9068     24.3004    111.3614
  2486.4000      8.0823      2.5536      0.0290      5.8425     24.7030    104.7796
  2486.5000      8.0857      2.5581      0.0639      5.5668     25.0761    100.9421
  2486.6000      8.0857      2.5691      0.0652      4.9020     24.9539    104.8494
  2486.7000      8.0857      2.5699      0.1260      4.8571     24.5839    115.3690
  2486.8000      8.0864      2.5515      0.0819      5.9700     24.5579    125.3695
  2486.9000      8.0864      2.5315      0.0447      7.1793     24.8462    126.6284
  2487.0000      8.0891      2.5277      0.0204      7.4107     24.9331    120.4356
  2487.1000      8.0891      2.5334      0.0989      7.0690     24.8367    116.3669
  2487.2000      8.0891      2.5368      0.0774      6.8608     24.7561    118.6354
  2487.3000      8.0946      2.5394      0.0918      6.7009     24.6579    124.9271
  2487.4000      8.0946      2.5317      0.0870      7.1694     24.5861    131.1202
  2487.5000      8.0985      2.5069      0.0140      8.6757     24.5251    131.9017
  2487.6000      8.0985      2.4846     -0.0185     10.0244     24.7073    128.1890
  2487.7000      8.0985      2.4803     -0.0194     10.2849     25.3370    124.9831
  2487.8000      8.1010      2.4881      0.0241      9.8112     26.2766    124.4574
  2487.9000      8.1010      2.4966      0.0493      9.2967     27.0617    126.2256
  2488.0000      8.0986      2.5012      0.0509      9.0196     27.0201    127.4152
  2488.1000      8.0986      2.5038      0.0941      8.8636     26.6211    126.3783
  2488.2000      8.0986      2.5060      0.0834      8.7269     26.8062    126.4471
  2488.3000      8.0931      2.5133      0.1177      8.2871     27.4098    130.0618
  2488.4000      8.0931      2.5336      0.1109      7.0525     27.8328    131.4314
  2488.5000      8.0902      2.5635      0.1686      5.2438     27.8455    125.1604
  2488.6000      8.0902      2.5834      0.1578      4.0350     27.2928    117.4364
  2488.7000      8.0902      2.5890      0.1189      3.6942     26.4646    113.5419
  2488.8000      8.0873      2.6019      0.0906      2.9178     26.2269    110.0358
  2488.9000      8.0873      2.6348      0.1384      0.9231     26.4286    108.2161
  2489.0000      8.0855      2.6685      0.1852     -1.1203     25.7857    112.9494
  2489.1000      8.0855      2.6763      0.1540     -1.5927     24.2634    118.7725
  2489.2000      8.0855      2.6627      0.1287     -0.7719     22.9965    117.7657
  2489.3000      8.0844      2.6541      0.0976     -0.2493     22.5544    113.0623
  2489.4000      8.0844      2.6613      0.1057     -0.6840     23.0532    113.3897
  2489.5000      8.0819      2.6709      0.1189     -1.2678     24.0653    120.0344
  2489.6000      8.0819      2.6641      0.0971     -0.8534     24.7400    123.8291
  2489.7000      8.0819      2.6356      0.0896      0.8718     24.9693    117.3626
  2489.8000      8.0819      2.5984      0.0439      3.1260     25.0541    105.6723
  2489.9000      8.0819      2.5744      0.0365      4.5812     24.9046     97.1535
  2490.0000      8.0831      2.5759      0.0141      4.4937     24.6921     94.5810
  2490.1000      8.0831      2.5947      0.0322      3.3540     25.0617     96.0419
  2490.2000      8.0831      2.6063      0.0524      2.6466     25.7233     98.6867
  2490.3000      8.0815      2.5948      0.0577      3.3445     25.8262    103.2002
  2490.4000      8.0815      2.5766      0.0015      4.4491     25.4010    109.2419
  2490.5000      8.0781      2.5732      0.0207      4.6555     24.8141    112.6413
  2490.6000      8.0781      2.5779      0.0416      4.3709     24.2428    113.0785
  2490.7000      8.0781      2.5787      0.0108      4.3209     23.7948    114.1531
  2490.8000      8.0765      2.5735      0.0380      4.6393     23.3643    117.4073
  2490.9000      8.0765      2.5642     -0.0092      5.1982     23.1523    118.7216
  2491.0000      8.0776      2.5592      0.0291      5.5057     23.6459    114.0012
  2491.1000      8.0776      2.5596      0.0532      5.4795     24.6578    109.1287
  2491.2000      8.0776      2.5620      0.0299      5.3317     25.2938    111.8447
  2491.3000      8.0793      2.5634      0.0587      5.2470     25.1489    119.4766
  2491.4000      8.0793      2.5626     -0.0202      5.2974     24.6418    125.5943
  2491.5000      8.0802      2.5689      0.0004      4.9160     24.1948    128.6122
  2491.6000      8.0802      2.5777      0.0582      4.3789     24.3672    130.8557
  2491.7000      8.0802      2.5737      0.0459      4.6223     25.4600    131.6918
  2491.8000      8.0801      2.5613      0.0056      5.3782     26.7306    130.0142
  2491.9000      8.0801      2.5562     -0.0074      5.6836     27.1663    128.7524
  2492.0000      8.0796      2.5644      0.0183      5.1896     26.7759    129.0692
  2492.1000      8.0796      2.5754      0.0234      4.5195     26.4216    127.4917
