~Version Information
VERS.                      2.0: CWLS Log ASCII Standard - VERSION 2.0
WRAP.                       NO: One line per depth step
~Well Information Block
STRT.FT               395.0000: 
STOP.FT              1998.0000: 
STEP.FT                 0.2500: 
NULL.                -999.2500: 
COMP.          Pioneer Natural Resources: COMPANY
WELL.          Easton 12-30 Tr: WELL
FLD.           Purgatoire River: FIELD
LOC.           549' FWL & 2416' FNL--: LOCATION
PROV.                 Colorado: PROVINCE
CNTY.               Las Animas: COUNTRY
SRVC.                Patterson: SERVICE COMPANY
DATE.          Wed Jun 01 17:36:02 2005: LOG DATE
UWI.           05 071 08379 00: UNIQUE WELL ID
~Curve Information Block
DEPT.FT            0 000 00 00: Depth
SN.Ohm-m                      : IEL Short Normal
SP.mV                         : IEL Spontaneous Potential
DIR.Ohm-m                     : IEL Induction Resistivity
GR.GAPI                       : Gamma Ray
~Parameter Information Block
~A  Depth        SN          SP         DIR          GR     
# ...
  1969.5000     13.1618     23.5473     10.4649   -999.2500
  1969.7500     13.7517     23.8777     10.7762   -999.2500
  1970.0000     14.1672     24.2515     11.0663   -999.2500
  1970.2500     14.5139     24.6858     11.3345   -999.2500
  1970.5000     14.8442     25.1832     11.5849   -999.2500
  1970.7500     15.1516     25.7337     11.8255   -999.2500
  1971.0000     15.4257     26.3122     12.0683   -999.2500
  1971.2500     15.6900     26.8794     12.3259   -999.2500
  1971.5000     15.9820     27.3907     12.6058   -999.2500
  1971.7500     16.3049     27.8063     12.9017   -999.2500
  1972.0000     16.6036     28.0902     13.1902   -999.2500
  1972.2500     16.7829     28.2110     13.4356   -999.2500
  1972.5000     16.7362     28.1555     13.6020   -999.2500
  1972.7500     16.3793     27.9543     13.6669   -999.2500
  1973.0000     15.6958     27.6988     13.6292   -999.2500
  1973.2500     14.7747     27.5317     13.5064   -999.2500
  1973.5000     13.8277     27.5995     13.3255   -999.2500
  1973.7500     13.1422     27.9851     13.1131   -999.2500
  1974.0000     12.9158     28.6580     12.8905   -999.2500
  1974.2500     13.1085     29.4869     12.6719   -999.2500
  1974.5000     13.4903     30.3150     12.4663   -999.2500
  1974.7500     13.8203     31.0478     12.2791   -999.2500
  1975.0000     13.9641     31.6854     12.1151   -999.2500
  1975.2500     13.9015     32.2825     11.9785   -999.2500
  1975.5000     13.6940     32.8807     11.8730   -999.2500
  1975.7500     13.4441     33.4755     11.8003   -999.2500
  1976.0000     13.2301     34.0356     11.7598   -999.2500
  1976.2500     13.0563     34.5426     11.7487   -999.2500
  1976.5000     12.8920     35.0095     11.7625   -999.2500
  1976.7500     12.7410     35.4709     11.7934   -999.2500
  1977.0000     12.6495     35.9602     11.8296   -999.2500
  1977.2500     12.6621     36.4915     11.8566   -999.2500
  1977.5000     12.7683     37.0469     11.8607   -999.2500
  1977.7500     12.8871     37.5756     11.8323   -999.2500
  1978.0000     12.9173     38.0200     11.7672   -999.2500
  1978.2500     12.8017     38.3536     11.6656   -999.2500
  1978.5000     12.5427     38.5896     11.5312   -999.2500
  1978.7500     12.1901     38.7508     11.3713   -999.2500
  1979.0000     11.8194     38.8400     11.1950   -999.2500
  1979.2500     11.4902     38.8449     11.0098   -999.2500
  1979.5000     11.2179     38.7560     10.8189   -999.2500
  1979.7500     10.9798     38.5688     10.6206   -999.2500
  1980.0000     10.7303     38.2805     10.4099   -999.2500
  1980.2500     10.4351     37.8997     10.1820   -999.2500
  1980.5000     10.1057     37.4547      9.9343   -999.2500
  1980.7500      9.7825     36.9852      9.6684   -999.2500
  1981.0000      9.4964     36.5309      9.3895   -999.2500
  1981.2500      9.2564     36.1304      9.1045   -999.2500
  1981.5000      9.0552     35.8175      8.8211   -999.2500
  1981.7500      8.8769     35.5995      8.5466   -999.2500
  1982.0000      8.7118     35.4398      8.2878   -999.2500
  1982.2500      8.5672     35.2797      8.0520   -999.2500
  1982.5000      8.4510     35.0804      7.8461   -999.2500
  1982.7500      8.3526     34.8371      7.6751   -999.2500
  1983.0000      8.2494     34.5554      7.5408   -999.2500
  1983.2500      8.1328     34.2324      7.4407   -999.2500
  1983.5000      8.0165     33.8604      7.3695   -999.2500
  1983.7500      7.9107     33.4361      7.3215   -999.2500
  1984.0000      7.8099     32.9619      7.2914   -999.2500
  1984.2500      7.7128     32.4521      7.2755   -999.2500
  1984.5000      7.6359     31.9373      7.2712   -999.2500
  1984.7500      7.5982     31.4501      7.2777   -999.2500
  1985.0000      7.6011     30.9976      7.3151   -999.2500
  1985.2500      7.6283     30.5499      7.3498   -999.2500
  1985.5000      7.6580     30.0588      7.4037   -999.2500
  1985.7500      7.6841     29.4883      7.4779   -999.2500
  1986.0000      7.7206     28.8356      7.5715   -999.2500
  1986.2500      7.7840     28.1254      7.6826   -999.2500
  1986.5000      7.8821     27.3887      7.8122   -999.2500
  1986.7500      8.0147     26.6466      7.9646   -999.2500
  1987.0000      8.1767     25.9089      8.1487   -999.2500
  1987.2500      8.3607     25.1751      8.3802   -999.2500
  1987.5000      8.5578     24.4266      8.6911   -999.2500
  1987.7500      8.7625     23.6234      9.1492   -999.2500
  1988.0000      8.9787     22.7165      9.8891   -999.2500
  1988.2500      9.2188     21.6729     11.1592   -999.2500
  1988.5000      9.5031     20.4942     13.3502   -999.2500
  1988.7500      9.8461     19.2163     17.4824   -999.2500
  1989.0000     10.2344     17.8925     25.5781   -999.2500
  1989.2500     10.6225     16.5695     43.2704   -999.2500
  1989.5000     10.9651     15.2718     91.2103   -999.2500
  1989.7500     11.2515     14.0035    331.7488   -999.2500
  1990.0000     11.4895     12.7593 100000.0000   -999.2500
  1990.2500     11.6601     11.5305 100000.0000   -999.2500
  1990.5000     11.7077     10.3025 100000.0000   -999.2500
  1990.7500     11.5788      9.0557 100000.0000   -999.2500
  1991.0000     11.2743      7.7726 100000.0000   -999.2500
  1991.2500     10.8643      6.4454 100000.0000   -999.2500
  1991.5000     10.4419      5.0759 100000.0000   -999.2500
  1991.7500     10.0745      3.6740 100000.0000   -999.2500
  1992.0000      9.7994      2.2632 100000.0000   -999.2500
  1992.2500      9.6205      0.8844 100000.0000   -999.2500
  1992.5000      9.5029     -0.4167 100000.0000   -999.2500
  1992.7500      9.3940     -1.6180 100000.0000   -999.2500
  1993.0000      9.2517     -2.7360 100000.0000   -999.2500
  1993.2500      9.0578     -3.8095 100000.0000   -999.2500
  1993.5000      8.8105     -4.8780 100000.0000   -999.2500
  1993.7500      8.5248     -5.9769 100000.0000   -999.2500
  1994.0000      8.2393     -7.1141 100000.0000   -999.2500
  1994.2500      7.9495     -8.1743 100000.0000   -999.2500
  1994.5000      7.4524     -8.8215 100000.0000   -999.2500
  1994.7500      6.2915     -8.6007 100000.0000   -999.2500
  1995.0000      4.1623     -7.2923 100000.0000   -999.2500
  1995.2500      1.5553     -5.2135 100000.0000   -999.2500
  1995.5000     -0.5131     -3.0720 100000.0000   -999.2500
  1995.7500     -1.5695     -1.4680 100000.0000   -999.2500
  1996.0000     -1.9162     -0.5624 100000.0000   -999.2500
  1996.2500     -1.9893     -0.1714 100000.0000   -999.2500
  1996.5000     -1.9991     -0.0413   8315.2373   -999.2500
  1996.7500   -999.2500     -0.0078   4408.5151   -999.2500
  1997.0000   -999.2500     -0.0011   3692.0530   -999.2500
  1997.2500   -999.2500   -999.2500   3492.1709   -999.2500
  1997.5000   -999.2500   -999.2500   3436.3333   -999.2500
  1997.7500   -999.2500   -999.2500   3422.3242   -999.2500
  1998.0000   -999.2500   -999.2500 100000.0000   -999.2500
