~Version Information
VERS.                      2.0: CWLS Log ASCII Standard - VERSION 2.0
WRAP.                       NO: One line per depth step
~Well Information Block
STRT.FT               491.0000: 
STOP.FT              1056.0000: 
STEP.FT                 0.2500: 
NULL.                -999.2500: 
COMP.          Evergreen Operating Corporation: COMPANY
WELL.              Sunset 24-3: WELL
FLD.           Purgatorie River: FIELD
LOC.           467' FSL & 2262' FWL: LOCATION
PROV.                 Colorado: PROVINCE
CNTY.               Las Animas: COUNTRY
SRVC.                         : SERVICE COMPANY
DATE.          Wed Sep 22 11:23:45 2004: LOG DATE
UWI.           05 071 08158 00: UNIQUE WELL ID
~Curve Information Block
DEPT.FT            0 000 00 00: Depth
SN.Ohm-m                      : IEL Short Normal
SP.mV                         : IEL Spontaneous Potential
DIR.Ohm-m                     : IEL Induction Resistivity
GR.GAPI                       : Gamma Ray
~Parameter Information Block
~A  Depth        SN          SP         DIR          GR     
# ...
   524.5000     28.5393    -76.1351     24.2749    112.7196
   524.7500     29.5079    -75.6265     26.1057    112.2086
   525.0000     30.3719    -75.4160     28.0235    107.2780
   525.2500     31.1601    -75.3576     29.8633    101.7307
   525.5000     31.8938    -75.2657     31.3043     92.3252
   525.7500     32.5803    -74.9782     31.9857     86.7610
   526.0000     33.2148    -74.4084     31.7725     80.8038
   526.2500     33.7859    -73.5631     30.9290     78.4229
   526.5000     34.2795    -72.5296     29.9845     76.5473
   526.7500     34.6760    -71.4401     29.4338     76.0365
   527.0000     34.9457    -70.4299     29.5375     76.0018
   527.2500     35.0502    -69.6069     30.2596     76.3664
   527.5000     34.9557    -69.0373     31.2672     77.3657
   527.7500     34.6509    -68.7425     32.0149     78.1741
   528.0000     34.1526    -68.7116     32.0073     79.1059
   528.2500     33.4937    -68.9126     31.1271     79.3847
   528.5000     32.6986    -69.3041     29.6810     79.9898
   528.7500     31.7686    -69.8475     28.1013     81.4055
   529.0000     30.6883    -70.5122     26.6422     86.0583
   529.2500     29.4465    -71.2798     25.2985     90.6080
   529.5000     28.0546    -72.1308     23.9029     98.6242
   529.7500     26.5542    -73.0323     22.3015    104.6970
   530.0000     25.0065    -73.9274     20.4933    115.5689
   530.2500     23.4714    -74.7319     18.6303    123.9556
   530.5000     21.9870    -75.3534     16.8991    136.8596
   530.7500     20.5599    -75.7212     15.4182    144.7224
   531.0000     19.1759    -75.8169     14.2166    154.3369
   531.2500     17.8236    -75.6941     13.2647    158.6753
   531.5000     16.5164    -75.4693     12.5121    160.5957
   531.7500     15.2999    -75.2906     11.9145    158.2806
   532.0000     14.2354    -75.2936     11.4407    150.4783
   532.2500     13.3709    -75.5518     11.0662    144.1876
   532.5000     12.7171    -76.0560     10.7645    136.6505
   532.7500     12.2473    -76.7053     10.5036    134.2568
   533.0000     11.9184    -77.3323     10.2518    135.0645
   533.2500     11.6938    -77.7414      9.9877    137.8444
   533.5000     11.5499    -77.7627      9.7089    143.1681
   533.7500     11.4667    -77.2945      9.4332    146.1003
   534.0000     11.4167    -76.3352      9.1913    148.1151
   534.2500     11.3701    -74.9884      9.0149    147.9219
   534.5000     11.3112    -73.4404      8.9225    146.6397
   534.7500     11.2497    -71.9208      8.9093    145.9486
   535.0000     11.2117    -70.6503      8.9460    145.4655
   535.2500     11.2180    -69.7947      8.9907    144.9760
   535.5000     11.2673    -69.4443      9.0110    142.9406
   535.7500     11.3394    -69.6105      9.0024    140.6307
   536.0000     11.4127    -70.2483      8.9874    136.4697
   536.2500     11.4805    -71.2756      8.9998    133.7341
   536.5000     11.5533    -72.5956      9.0685    130.2542
   536.7500     11.6491    -74.1048      9.2112    128.6116
   537.0000     11.7833    -75.6920      9.4320    127.6782
   537.2500     11.9622    -77.2425      9.7196    128.2795
   537.5000     12.1814    -78.6429     10.0446    130.7856
   537.7500     12.4275    -79.7944     10.3669    133.0157
   538.0000     12.6826    -80.6209     10.6546    136.1757
   538.2500     12.9343    -81.0779     10.9071    137.8037
   538.5000     13.1860    -81.1502     11.1581    139.2955
   538.7500     13.4616    -80.8382     11.4553    139.3466
   539.0000     13.8025    -80.1536     11.8340    136.8339
   539.2500     14.2562    -79.1157     12.3056    132.8517
   539.5000     14.8601    -77.7608     12.8590    124.0161
   539.7500     15.6213    -76.1527     13.4614    117.6368
   540.0000     16.5003    -74.3894     14.0519    110.1597
   540.2500     17.4094    -72.6034     14.5450    107.4528
   540.5000     18.2296    -70.9511     14.8632    106.3257
   540.7500     18.8396    -69.5884     14.9771    106.5289
   541.0000     19.1457    -68.6530     14.9083    106.7621
   541.2500     19.1038    -68.2431     14.6919    106.6517
   541.5000     18.7306    -68.4011     14.3503    106.9330
   541.7500     18.0973    -69.1057     13.9033    108.2826
   542.0000     17.3048    -70.2711     13.3901    113.1931
   542.2500     16.4488    -71.7524     12.8703    118.4303
   542.5000     15.5938    -73.3672     12.4020    128.1210
   542.7500     14.7713    -74.9201     12.0158    134.8429
   543.0000     13.9982    -76.2396     11.7016    144.0319
   543.2500     13.2951    -77.2092     11.4172    149.1619
   543.5000     12.6879    -77.7918     11.1162    154.8022
   543.7500     12.1950    -78.0269     10.7793    156.8788
   544.0000     11.8157    -78.0093     10.4197    157.6881
   544.2500     11.5329    -77.8521     10.0667    157.3908
   544.5000     11.3262    -77.6464      9.7466    156.8121
   544.7500     11.1824    -77.4278      9.4771    156.3817
   545.0000     11.0958    -77.1728      9.2680    155.0048
   545.2500     11.0610    -76.8091      9.1206    153.3070
   545.5000     11.0681    -76.2517      9.0263    149.7365
   545.7500     11.1028    -75.4379      8.9678    147.0132
   546.0000     11.1468    -74.3594      8.9255    142.9045
   546.2500     11.1764    -73.0771      8.8835    140.1536
   546.5000     11.1639    -71.7063      8.8335    135.6881
   546.7500     11.0834    -70.3920      8.7747    132.4870
   547.0000     10.9193    -69.2734      8.7102    128.3150
   547.2500     10.6700    -68.4507      8.6434    127.0059
   547.5000     10.3466    -67.9678      8.5764    128.9254
   547.7500      9.9690    -67.8182      8.5106    133.0068
   548.0000      9.5635    -67.9611      8.4469    141.7135
   548.2500      9.1619    -68.3445      8.3846    147.5632
   548.5000      8.8006    -68.9230      8.3246    153.9651
   548.7500      8.5145    -69.6640      8.2747    156.0354
   549.0000      8.3295    -70.5438      8.2504    156.0782
   549.2500      8.2557    -71.5363      8.2671    154.8412
   549.5000      8.2903    -72.6083      8.3294    153.1238
   549.7500      8.4241    -73.7173      8.4279    152.9563
   550.0000      8.6477    -74.8129      8.5453    153.9774
   550.2500      8.9498    -75.8436      8.6669    154.6382
   550.5000      9.3130    -76.7580      8.7859    154.2244
   550.7500      9.7148    -77.5053      8.9042    152.7365
   551.0000     10.1323    -78.0325      9.0284    149.0625
   551.2500     10.5456    -78.2847      9.1629    146.1366
   551.5000     10.9359    -78.2121      9.3054    142.0093
   551.7500     11.2814    -77.7754      9.4464    139.9421
   552.0000     11.5601    -76.9640      9.5749    138.0860
   552.2500     11.7588    -75.8061      9.6849    137.1854
   552.5000     11.8775    -74.3741      9.7771    135.0887
   552.7500     11.9269    -72.7854      9.8524    132.9307
   553.0000     11.9224    -71.1888      9.9059    129.3565
   553.2500     11.8825    -69.7430      9.9262    127.5241
   553.5000     11.8293    -68.5968      9.9010    126.5397
   553.7500     11.7843    -67.8592      9.8283    127.2929
   554.0000     11.7563    -67.5817      9.7231    130.6298
   554.2500     11.7326    -67.7453      9.6170    134.1052
   554.5000     11.6838    -68.2606      9.5435    139.8798
   554.7500     11.5812    -68.9838      9.5196    143.0251
   555.0000     11.4159    -69.7476      9.5347    145.8037
   555.2500     11.2020    -70.3988      9.5590    146.8423
   555.5000     10.9668    -70.8342      9.5675    148.5799
   555.7500     10.7370    -71.0234      9.5607    150.0914
   556.0000     10.5304    -71.0043      9.5595    152.0627
   556.2500     10.3538    -70.8713      9.5787    152.6322
   556.5000     10.2025    -70.7395      9.6082    152.2738
   556.7500     10.0635    -70.7135      9.6157    151.5413
   557.0000      9.9288    -70.8623      9.5705    149.9406
   557.2500      9.8074    -71.2088      9.4649    148.1989
   557.5000      9.7257    -71.7342      9.3190    143.7735
   557.7500      9.7111    -72.3948      9.1657    139.7784
