~Version Information
VERS.                      2.0: CWLS Log ASCII Standard - VERSION 2.0
WRAP.                       NO: One line per depth step
~Well Information Block
STRT.FT               671.6000: 
STOP.FT              1890.7000: 
STEP.FT                 0.1000: 
NULL.                -999.2500: 
COMP.          Petrogulf Corporation: COMPANY
WELL.             State 16-14R: WELL
FLD.           Purgatorie River: FIELD
LOC.           598' FSL & 682' FWL: LOCATION
CNTY.               Las Animas: COUNTY
SRVC.                         : SERVICE COMPANY
DATE.          Fri Nov 05 07:21:30 2004: LOG DATE
UWI.           05 071 08034 00: UNIQUE WELL ID
STAT.                 Colorado: STATE
~Curve Information Block
DEPT.FT            0 000 00 00: Depth
DCAL.in                       : CDL Caliper
RHOB.g/cc                     : CDL Bulk Density
RHOC.g/cc                     : CDL Density Correction
DPOR.pu                       : CDL Density Porosity
GR.GAPI                       : Gamma Ray
NPOR.pu                       : Neutron Porosity
~Parameter Information Block
~A  Depth       DCAL        RHOB        RHOC        DPOR         GR         NPOR    
# ...
   690.8000   -999.2500   -999.2500   -999.2500   -999.2500     91.0904     49.6601
   690.9000   -999.2500   -999.2500   -999.2500   -999.2500     95.3956     49.6710
   691.0000   -999.2500   -999.2500   -999.2500   -999.2500     96.8394     49.3197
   691.1000   -999.2500   -999.2500   -999.2500   -999.2500     95.3835     49.2418
   691.2000   -999.2500   -999.2500   -999.2500   -999.2500     94.2414     49.4105
   691.3000   -999.2500   -999.2500   -999.2500   -999.2500     94.0499     49.5057
   691.4000   -999.2500   -999.2500   -999.2500   -999.2500     93.1090     49.6088
   691.5000   -999.2500   -999.2500   -999.2500   -999.2500     89.1750     49.6635
   691.6000   -999.2500   -999.2500   -999.2500   -999.2500     81.7669     49.7886
   691.7000   -999.2500   -999.2500   -999.2500   -999.2500     74.8741     50.0556
   691.8000   -999.2500   -999.2500   -999.2500   -999.2500     71.6436     50.0094
   691.9000   -999.2500   -999.2500   -999.2500   -999.2500     73.8454     49.4641
   692.0000   -999.2500   -999.2500   -999.2500   -999.2500     79.8521     48.7903
   692.1000   -999.2500   -999.2500   -999.2500   -999.2500     83.3047     48.4425
   692.2000   -999.2500   -999.2500   -999.2500   -999.2500     82.9579     48.4792
   692.3000   -999.2500   -999.2500   -999.2500   -999.2500     81.6692     48.7479
   692.4000   -999.2500   -999.2500   -999.2500   -999.2500     81.8302     49.3547
   692.5000   -999.2500   -999.2500   -999.2500   -999.2500     83.2297     50.1681
   692.6000   -999.2500   -999.2500   -999.2500   -999.2500     81.8054     50.6061
   692.7000   -999.2500   -999.2500   -999.2500   -999.2500     78.6328     50.3934
   692.8000   -999.2500   -999.2500   -999.2500   -999.2500     77.1941     49.8018
   692.9000   -999.2500   -999.2500   -999.2500   -999.2500     76.8257     49.3421
   693.0000   -999.2500   -999.2500   -999.2500   -999.2500     77.6172     49.4770
   693.1000   -999.2500   -999.2500   -999.2500   -999.2500     77.8152     50.2151
   693.2000   -999.2500   -999.2500   -999.2500   -999.2500     74.3939     51.0470
   693.3000   -999.2500   -999.2500   -999.2500   -999.2500     69.1506     51.2811
   693.4000   -999.2500   -999.2500   -999.2500   -999.2500     65.8577     50.8177
   693.5000   -999.2500   -999.2500   -999.2500   -999.2500     63.1953     50.4074
   693.6000   -999.2500   -999.2500   -999.2500   -999.2500     57.3939     50.5669
   693.7000   -999.2500   -999.2500   -999.2500   -999.2500     50.1915     50.9872
   693.8000   -999.2500   -999.2500   -999.2500   -999.2500     45.2311     51.1644
   693.9000   -999.2500   -999.2500   -999.2500   -999.2500     42.9316     51.0211
   694.0000   -999.2500   -999.2500   -999.2500   -999.2500     43.3172     51.0095
   694.1000   -999.2500   -999.2500   -999.2500   -999.2500     44.7200     51.4564
   694.2000   -999.2500   -999.2500   -999.2500   -999.2500     44.4853     51.9602
   694.3000   -999.2500   -999.2500   -999.2500   -999.2500     44.1068     51.9591
   694.4000   -999.2500   -999.2500   -999.2500   -999.2500     46.4410     51.6342
   694.5000   -999.2500   -999.2500   -999.2500   -999.2500     50.6014     51.2851
   694.6000   -999.2500   -999.2500   -999.2500   -999.2500     52.6087     50.8971
   694.7000   -999.2500   -999.2500   -999.2500   -999.2500     51.6659     50.6755
   694.8000   -999.2500   -999.2500   -999.2500   -999.2500     52.6135     50.6563
   694.9000   -999.2500   -999.2500   -999.2500   -999.2500     58.6751     50.5798
   695.0000   -999.2500   -999.2500   -999.2500   -999.2500     67.0938     50.5504
   695.1000   -999.2500   -999.2500   -999.2500   -999.2500     71.8279     50.6274
   695.2000   -999.2500   -999.2500   -999.2500   -999.2500     71.5556     50.4727
   695.3000   -999.2500   -999.2500   -999.2500   -999.2500     72.2802     50.3018
   695.4000   -999.2500   -999.2500   -999.2500   -999.2500     76.6441     50.6207
   695.5000   -999.2500   -999.2500   -999.2500   -999.2500     79.6452     50.8828
   695.6000   -999.2500   -999.2500   -999.2500   -999.2500     79.6364     50.5699
   695.7000   -999.2500   -999.2500   -999.2500   -999.2500     79.7011     50.4954
   695.8000   -999.2500   -999.2500   -999.2500   -999.2500     79.6437     50.9735
   695.9000   -999.2500   -999.2500   -999.2500   -999.2500     79.2374     51.2308
   696.0000   -999.2500   -999.2500   -999.2500   -999.2500     78.7199     50.9938
   696.1000   -999.2500   -999.2500   -999.2500   -999.2500     77.9865     50.7411
   696.2000   -999.2500   -999.2500   -999.2500   -999.2500     79.7316     50.8528
   696.3000   -999.2500   -999.2500   -999.2500   -999.2500     83.4623     51.1933
   696.4000   -999.2500   -999.2500   -999.2500   -999.2500     85.3241     51.3691
   696.5000   -999.2500   -999.2500   -999.2500   -999.2500     84.5925     51.1752
   696.6000   -999.2500   -999.2500   -999.2500   -999.2500     84.9229     50.6633
   696.7000   -999.2500   -999.2500     -0.2956   -999.2500     87.1585     50.1762
   696.8000   -999.2500   -999.2500     -0.2633   -999.2500     86.3067     49.9783
   696.9000   -999.2500   -999.2500     -0.2522   -999.2500     81.8980     49.8404
   697.0000      4.5126   -999.2500     -0.2685   -999.2500     79.7657     49.7236
   697.1000      4.5126   -999.2500     -0.1969   -999.2500     79.9485     50.0897
   697.2000      4.5126      2.3480     -0.1651     18.3018     78.2445     50.6661
   697.3000      4.4893      2.3945     -0.1186     15.4875     75.8793     50.7774
   697.4000      4.4893      2.4237     -0.0775     13.7180     75.1173     50.5711
   697.5000      4.3927      2.4339     -0.1814     13.0944     74.9947     50.6126
   697.6000      4.3927      2.4463     -0.0908     12.3461     76.0822     50.7423
   697.7000      4.3927      2.4546     -0.0880     11.8401     79.0404     50.6529
   697.8000      4.3374      2.4561     -0.1833     11.7541     83.8248     50.4835
   697.9000      4.3374      2.4608     -0.1646     11.4675     89.4091     50.1990
   698.0000      4.3132      2.4461     -0.2007     12.3554     92.9543     49.7695
   698.1000      4.3132      2.4019     -0.1998     15.0349     91.6874     49.4531
   698.2000      4.3132      2.3652     -0.2971     17.2597     85.4169     49.3593
   698.3000      4.2881      2.3624     -0.1541     17.4300     80.2093     49.4732
   698.4000      4.2881      2.3780     -0.1742     16.4852     78.5581     49.7399
   698.5000      4.3824      2.3996     -0.1773     15.1769     77.7365     49.9884
   698.6000      4.3824      2.4246     -0.1414     13.6622     78.5547     50.0978
   698.7000      4.3824      2.4418     -0.1586     12.6206     78.4797     49.8456
   698.8000      4.5277      2.4455     -0.1321     12.3930     74.4204     49.1973
   698.9000      4.5277      2.4451     -0.1933     12.4165     71.5474     48.6957
   699.0000      4.5014      2.4519     -0.1199     12.0036     72.1229     48.7033
   699.1000      4.5014      2.4561     -0.1768     11.7498     74.0014     48.9598
   699.2000      4.5014      2.4408     -0.1588     12.6778     78.7919     49.5123
   699.3000      4.5846      2.4151     -0.2363     14.2383     84.2328     50.2874
   699.4000      4.5846      2.4038     -0.2576     14.9210     84.8189     50.5543
   699.5000      4.5422      2.4102     -0.1737     14.5333     82.7025     50.2215
   699.6000      4.5422      2.4279     -0.2022     13.4621     79.8578     50.0491
   699.7000      4.5422      2.4537     -0.1726     11.8978     74.5955     50.2964
   699.8000      4.5754      2.4648     -0.1710     11.2232     71.4918     50.3960
   699.9000      4.5754      2.4432     -0.2158     12.5338     75.4518     50.0840
   700.0000      4.5930      2.4052     -0.2935     14.8375     83.1244     49.8002
   700.1000      4.5930      2.3668     -0.2542     17.1639     85.5310     49.7596
   700.2000      4.5930      2.3270     -0.2779     19.5758     80.3687     49.8335
   700.3000      4.4743      2.2996     -0.2802     21.2375     75.4575     49.8780
