~Version Information
VERS.                      2.0: CWLS Log ASCII Standard - VERSION 2.0
WRAP.                       NO: One line per depth step
~Well Information Block
STRT.FT               420.0000: 
STOP.FT              1527.5000: 
STEP.FT                 0.1000: 
NULL.                -999.2500: 
COMP.          Evergreen Operating Corporation: COMPANY
WELL.              Chase 21-10: WELL
FLD.           Purgatoire River: FIELD
LOC.           1122' FNL & 1544' FWL: LOCATION
PROV.                       CO: PROVINCE
CNTY.               Las Animas: COUNTRY
SRVC.                         : SERVICE COMPANY
DATE.          Tue May 25 08:18:37 2004: LOG DATE
UWI.           05 071 08006 00: UNIQUE WELL ID
~Curve Information Block
DEPT.FT            0 000 00 00: Depth
DCAL.in                       : CDL Caliper
RHOB.g/cc                     : CDL Bulk Density
RHOC.g/cc                     : CDL Density Correction
DPOR.pu                       : CDL Density Porosity
GR.GAPI                       : Gamma Ray
NPOR.pu                       : Neutron Porosity
~Parameter Information Block
~A  Depth       DCAL        RHOB        RHOC        DPOR         GR         NPOR    
# ...
   564.0000      7.9323      2.4917      0.0070      9.5931    138.3981     28.8815
   564.1000      7.9323      2.4848      0.1135     10.0146    137.7834     28.8485
   564.2000      7.9323      2.4989      0.0778      9.1585    139.7930     28.5646
   564.3000      7.9582      2.5017      0.1139      8.9881    142.1449     28.3300
   564.4000      7.9582      2.4688      0.0362     10.9802    142.9654     28.3712
   564.5000      7.9708      2.4343     -0.0857     13.0739    144.5299     28.6185
   564.6000      7.9708      2.4451      0.0306     12.4194    147.6579     28.7948
   564.7000      7.9708      2.4828      0.0625     10.1311    147.7510     28.6359
   564.8000      7.9953      2.5113      0.0653      8.4073    139.4353     28.1221
   564.9000      7.9953      2.5346      0.0691      6.9957    128.4650     27.6201
   565.0000      7.9730      2.5560      0.1157      5.6998    123.2964     27.6132
   565.1000      7.9730      2.5583      0.0793      5.5581    121.3210     28.0475
   565.2000      7.9730      2.5441      0.0006      6.4174    118.2933     28.3726
   565.3000      7.9759      2.5250      0.0305      7.5776    114.6466     28.4067
   565.4000      7.9759      2.5011      0.0381      9.0220    108.9165     28.4975
   565.5000      7.9737      2.4752      0.0107     10.5964    100.9018     28.5563
   565.6000      7.9737      2.4559      0.0326     11.7625     95.5489     28.2645
   565.7000      7.9737      2.4533     -0.0427     11.9197     96.3133     27.8218
   565.8000      7.9368      2.4691     -0.0067     10.9619     99.7834     27.2010
   565.9000      7.9368      2.4856      0.0507      9.9630    100.4439     26.1876
   566.0000      7.9084      2.4829      0.0132     10.1262     99.9636     25.2074
   566.1000      7.9084      2.4464      0.0904     12.3397    103.7062     24.5281
   566.2000      7.9084      2.3598      0.0657     17.5885    109.1360     23.7549
   566.3000      7.9116      2.2378     -0.0044     24.9815    109.0586     22.9117
   566.4000      7.9116      2.1325     -0.0475     31.3665    103.5888     22.4513
   566.5000      7.9086      2.0757     -0.0680     34.8066    101.8604     22.4604
   566.6000      7.9086      2.0491      0.0447     36.4161    108.9528     22.5882
   566.7000      7.9086      2.0211     -0.0365     38.1141    117.4473     22.7714
   566.8000      7.9402      1.9954      0.0365     39.6745    123.1315     23.3615
   566.9000      7.9402      1.9959      0.0868     39.6436    130.1801     24.2412
   567.0000      7.9305      2.0341      0.1726     37.3253    137.9930     24.9979
   567.1000      7.9305      2.1030      0.2763     33.1544    140.5010     25.6273
   567.2000      7.9305      2.1748      0.3424     28.8015    133.1237     26.4651
   567.3000      7.9237      2.2270      0.2390     25.6371    123.8938     27.5852
   567.4000      7.9237      2.2624      0.1988     23.4920    121.2797     28.5615
   567.5000      7.9083      2.2971      0.1134     21.3853    119.2326     29.1914
   567.6000      7.9083      2.3425      0.1705     18.6337    115.4172     29.9638
   567.7000      7.9083      2.3853      0.1960     16.0446    113.0492     31.0987
   567.8000      8.0101      2.4050      0.1659     14.8493    111.3635     31.9624
   567.9000      8.0101      2.4145      0.0911     14.2715    110.9616     32.2155
   568.0000      8.0096      2.4588      0.0758     11.5865    113.2890     32.2252
   568.1000      8.0096      2.5456      0.2120      6.3265    116.1810     32.1197
   568.2000      8.0096      2.6276      0.2993      1.3590    114.0342     31.7952
   568.3000      8.0027      2.6717      0.2751     -1.3135    104.8865     31.4204
   568.4000      8.0027      2.6809      0.3124     -1.8711     95.0216     31.2149
   568.5000      7.9129      2.6750      0.2058     -1.5132     92.6173     31.0176
   568.6000      7.9129      2.6698      0.2813     -1.1991     97.6110     30.7479
   568.7000      7.9129      2.6498      0.2260      0.0140    103.6880     30.5193
   568.8000      7.9148      2.6016      0.1314      2.9311    104.8541     30.1632
   568.9000      7.9148      2.5535      0.0430      5.8477     99.1678     29.6880
   569.0000      7.9155      2.5337      0.0655      7.0487     92.3100     29.2936
   569.1000      7.9155      2.5294      0.0957      7.3115     89.3402     28.9508
   569.2000      7.9155      2.5213      0.0924      7.8013     89.3662     28.7326
   569.3000      7.8906      2.5144      0.0145      8.2198     92.1759     28.7669
   569.4000      7.8906      2.5132      0.0991      8.2903     99.2018     28.8082
   569.5000      7.8995      2.5233      0.0210      7.6759    106.2792     28.6147
   569.6000      7.8995      2.5649      0.0690      5.1598    108.0789     28.2776
   569.7000      7.8995      2.6248      0.2068      1.5292    108.3635     28.0570
   569.8000      7.8919      2.6498      0.2275      0.0097    109.9315     28.0323
   569.9000      7.8919      2.6211      0.1569      1.7527    109.3159     27.9775
   570.0000      7.8117      2.5737      0.1272      4.6217    107.2417     27.6806
   570.1000      7.8117      2.5434      0.0601      6.4621    106.6990     27.3943
   570.2000      7.8117      2.5359      0.0510      6.9155    110.8219     27.4610
   570.3000      7.8451      2.5358      0.0578      6.9194    119.9978     27.6917
   570.4000      7.8451      2.5335      0.0088      7.0618    129.7811     27.6984
   570.5000      7.8670      2.5367     -0.0514      6.8652    135.3836     27.4792
   570.6000      7.8670      2.5298      0.1245      7.2873    135.0622     27.4164
   570.7000      7.8670      2.4757      0.0045     10.5654    131.5974     27.5711
   570.8000      7.9296      2.3880      0.0212     15.8804    129.5647     27.5894
   570.9000      7.9296      2.3173     -0.0818     20.1658    128.9852     27.3929
   571.0000      7.9724      2.2918      0.0189     21.7097    125.6972     27.0821
   571.1000      7.9724      2.3020      0.0295     21.0919    119.2850     26.8208
   571.2000      7.9724      2.3324      0.1241     19.2465    115.3706     26.9876
   571.3000      7.9709      2.3804      0.1739     16.3423    118.9128     27.5300
   571.4000      7.9709      2.4438      0.3074     12.4955    127.5413     27.8840
   571.5000      7.9487      2.5032      0.4610      8.8992    138.1506     27.7258
   571.6000      7.9487      2.5334      0.5252      7.0653    151.1630     27.2296
   571.7000      7.9487      2.5336      0.5142      7.0524    160.5035     26.8653
   571.8000      7.9077      2.5207      0.5259      7.8359    160.6159     26.9672
   571.9000      7.9077      2.5165      0.4871      8.0932    160.8938     27.4241
   572.0000      7.8166      2.5461      0.4423      6.2946    167.1267     27.8693
   572.1000      7.8166      2.6144      0.5417      2.1585    171.3084     28.0781
   572.2000      7.8166      2.6979      0.5623     -2.9026    169.7502     28.0857
   572.3000      7.7986      2.7738      0.6239     -7.5060    164.3843     28.1625
   572.4000      7.7986      2.8214      0.6330    -10.3907    152.6402     28.3520
   572.5000      7.8481      2.8212      0.5826    -10.3768    138.6166     28.4080
   572.6000      7.8481      2.7732      0.4594     -7.4691    136.2826     28.4460
   572.7000      7.8481      2.7067      0.3050     -3.4369    145.1989     28.6979
   572.8000      7.9391      2.6544      0.2768     -0.2667    150.6720     29.0375
   572.9000      7.9391      2.6219      0.1778      1.7048    147.4700     29.2440
   573.0000      7.9583      2.5960      0.1732      3.2731    144.0197     29.3238
   573.1000      7.9583      2.5649      0.1577      5.1562    145.9858     29.3773
   573.2000      7.9583      2.5373      0.1123      6.8314    148.0210     29.4076
   573.3000      7.9932      2.5374      0.0658      6.8268    145.3140     29.4141
   573.4000      7.9932      2.5587      0.1418      5.5305    138.8852     29.5434
   573.5000      7.9256      2.5609      0.0883      5.3987    134.0035     29.9493
