~Version Information
VERS.                      2.0: CWLS Log ASCII Standard - VERSION 2.0
WRAP.                       NO: One line per depth step
~Well Information Block
STRT.FT               765.4000: 
STOP.FT              2581.2000: 
STEP.FT                 0.1000: 
NULL.                -999.2500: 
COMP.          Petrogulf Corporation: COMPANY
WELL.            Montoya 7-12V: WELL
FLD.           Purgatorie River: FIELD
LOC.           728' FWL & 1764' FNL: LOCATION
CNTY.               Las Animas: COUNTY
SRVC.                         : SERVICE COMPANY
DATE.          Fri Feb 20 09:23:58 2004: LOG DATE
UWI.           05-071-07887-00: UNIQUE WELL ID
STAT.                 Colorado: STATE
~Curve Information Block
DEPT.FT            0 000 00 00: Depth
DCAL.in                       : CDL Caliper
RHOB.g/cc                     : CDL Bulk Density
RHOC.g/cc                     : CDL Density Correction
DPOR.pu                       : CDL Density Porosity
GR.GAPI                       : Gamma Ray
NPOR.pu                       : Neutron Porosity
~Parameter Information Block
~A  Depth       DCAL        RHOB        RHOC        DPOR         GR         NPOR    
# ...
  1255.0000      7.9922      2.6704      0.0418     -1.2344     32.1752     16.9822
  1255.1000      7.9922      2.6693      0.0796     -1.1702     33.9472     17.0069
  1255.2000      7.9922      2.6521      0.0808     -0.1272     37.5973     17.2023
  1255.3000      7.9992      2.6236      0.0011      1.6014     40.5500     17.2221
  1255.4000      7.9992      2.6120     -0.0337      2.3045     41.8191     17.3666
  1255.5000      7.9911      2.6293      0.0247      1.2554     43.4657     18.1973
  1255.6000      7.9911      2.6470      0.0990      0.1801     46.5521     19.7247
  1255.7000      7.9911      2.6387      0.0783      0.6845     50.8346     20.9970
  1255.8000      7.9899      2.6268      0.0152      1.4071     53.4024     20.8030
  1255.9000      7.9899      2.6470      0.0155      0.1814     52.1045     19.9384
  1256.0000      7.9790      2.6830      0.1434     -1.9985     50.5517     20.5683
  1256.1000      7.9790      2.6958      0.1205     -2.7748     52.1437     22.7506
  1256.2000      7.9790      2.6840      0.1079     -2.0590     57.0508     24.5391
  1256.3000      7.9954      2.6669      0.0782     -1.0219     61.1134     25.2556
  1256.4000      7.9954      2.6497      0.1503      0.0164     58.9456     25.4877
  1256.5000      7.9914      2.6297      0.0892      1.2307     55.7888     25.1721
  1256.6000      7.9914      2.6169      0.0913      2.0075     55.8472     24.0750
  1256.7000      7.9914      2.6153      0.0760      2.1006     54.5052     22.8256
  1256.8000      7.9959      2.6120      0.0483      2.3031     53.8223     22.7374
  1256.9000      7.9959      2.6018      0.0147      2.9241     57.2864     24.2821
  1257.0000      7.9963      2.6002      0.0452      3.0157     58.9832     26.0702
  1257.1000      7.9963      2.6216      0.1183      1.7204     55.4716     26.6002
  1257.2000      7.9963      2.6530      0.1240     -0.1842     51.5017     26.0858
  1257.3000      7.9931      2.6786      0.1620     -1.7345     50.0341     25.4498
  1257.4000      7.9931      2.7050      0.0943     -3.3354     50.3027     24.5994
  1257.5000      7.9877      2.7410      0.1070     -5.5167     53.0453     23.1852
  1257.6000      7.9877      2.7732      0.1940     -7.4642     56.0167     21.7006
  1257.7000      7.9877      2.7849      0.2030     -8.1741     54.0313     20.2317
  1257.8000      7.9693      2.7803      0.2123     -7.8949     47.8176     18.3299
  1257.9000      7.9693      2.7738      0.1491     -7.5015     43.1345     16.6294
  1258.0000      7.9629      2.7727      0.1502     -7.4344     44.3041     15.9884
  1258.1000      7.9629      2.7658      0.1226     -7.0176     49.9293     16.0708
  1258.2000      7.9629      2.7383      0.0886     -5.3499     51.3448     16.2155
  1258.3000      7.9634      2.6952      0.0989     -2.7389     45.7487     16.1558
  1258.4000      7.9634      2.6625     -0.0411     -0.7597     42.2537     16.0046
  1258.5000      7.9956      2.6592      0.0647     -0.5604     44.2639     16.1623
  1258.6000      7.9956      2.6708      0.0403     -1.2601     47.4403     16.7966
  1258.7000      7.9956      2.6844     -0.0050     -2.0819     52.2121     17.4825
  1258.8000      8.0359      2.7020      0.0711     -3.1489     59.9061     17.7922
  1258.9000      8.0359      2.7109      0.0390     -3.6904     64.0321     18.1345
  1259.0000      8.0391      2.6921      0.0970     -2.5497     62.1980     19.0692
  1259.1000      8.0391      2.6499      0.0242      0.0066     61.0889     20.5050
  1259.2000      8.0391      2.6084     -0.0158      2.5197     65.1025     22.0163
  1259.3000      8.0302      2.5753      0.0574      4.5278     71.0481     22.9105
  1259.4000      8.0302      2.5544      0.0035      5.7929     75.2180     22.9210
  1259.5000      8.0114      2.5656      0.0066      5.1157     78.5732     22.5712
  1259.6000      8.0114      2.6049      0.0672      2.7311     80.6652     22.4440
  1259.7000      8.0114      2.6332      0.1167      1.0201     81.0233     23.0564
  1259.8000      8.0086      2.6354      0.0970      0.8821     79.6067     24.5122
  1259.9000      8.0086      2.6373      0.0625      0.7717     75.0439     25.6252
  1260.0000      8.0387      2.6516      0.0537     -0.0988     67.5143     25.4727
  1260.1000      8.0387      2.6578      0.1032     -0.4714     61.2836     24.7972
  1260.2000      8.0387      2.6406      0.0252      0.5667     61.2883     24.4566
  1260.3000      8.0889      2.6115      0.0505      2.3343     66.1456     24.8278
  1260.4000      8.0889      2.5842      0.0458      3.9885     68.7403     25.9441
  1260.5000      8.0803      2.5665      0.0371      5.0607     66.8839     27.2238
  1260.6000      8.0803      2.5563      0.0561      5.6795     70.3194     27.9461
  1260.7000      8.0803      2.5452      0.0041      6.3519     81.9569     27.9370
  1260.8000      8.1079      2.5364      0.0658      6.8879     91.1864     27.6774
  1260.9000      8.1079      2.5508     -0.0038      6.0131     93.8887     27.7045
  1261.0000      8.1120      2.5879      0.0370      3.7633     93.3330     27.9029
  1261.1000      8.1120      2.6042      0.1098      2.7774     89.3616     27.7893
  1261.2000      8.1120      2.5849     -0.0045      3.9428     84.7962     27.6625
  1261.3000      8.0733      2.5625     -0.0025      5.3055     81.5462     28.3203
  1261.4000      8.0733      2.5586     -0.0275      5.5399     75.9358     29.1953
  1261.5000      8.0697      2.5752      0.0335      4.5364     70.8070     29.2291
  1261.6000      8.0697      2.5936      0.0938      3.4172     72.2329     29.1840
  1261.7000      8.0697      2.5974     -0.0008      3.1894     76.7465     29.6481
  1261.8000      8.0859      2.5940     -0.0051      3.3934     77.8058     29.3343
  1261.9000      8.0859      2.5890     -0.0037      3.6998     79.0196     27.7568
  1262.0000      8.1129      2.5769     -0.0005      4.4309     80.7423     25.9852
  1262.1000      8.1129      2.5556     -0.0729      5.7239     79.8094     24.7567
  1262.2000      8.1129      2.5290     -0.0325      7.3349     81.1771     24.1988
  1262.3000      8.1157      2.5139     -0.1017      8.2501     84.9652     24.5122
  1262.4000      8.1157      2.5314     -0.0354      7.1881     84.5261     25.5973
  1262.5000      8.0859      2.5715      0.0581      4.7563     83.7403     26.6769
  1262.6000      8.0859      2.6030      0.0287      2.8475     87.8898     26.9810
  1262.7000      8.0859      2.6117      0.0477      2.3215     88.6363     26.4386
  1262.8000      8.0887      2.6091      0.0571      2.4761     84.5387     25.9819
  1262.9000      8.0887      2.6186      0.0481      1.9012     85.6313     26.4331
  1263.0000      8.0946      2.6343      0.0699      0.9510     91.0702     27.2177
  1263.1000      8.0946      2.6325      0.0550      1.0590     95.8871     27.7200
  1263.2000      8.0946      2.6112      0.1025      2.3543    103.0139     28.0921
  1263.3000      8.0982      2.5828      0.0354      4.0757    112.2662     28.4253
  1263.4000      8.0982      2.5674      0.0486      5.0069    116.2497     28.7191
  1263.5000      8.0918      2.5781      0.0442      4.3605    111.7567     29.0863
  1263.6000      8.0918      2.5957      0.1275      3.2889    104.1112     29.4889
  1263.7000      8.0918      2.5892      0.0973      3.6834     98.3171     29.5592
  1263.8000      8.0819      2.5674      0.0628      5.0057     93.3631     29.2295
  1263.9000      8.0819      2.5678      0.0179      4.9820     87.0083     28.7662
  1264.0000      8.0880      2.6064      0.0877      2.6421     78.4171     28.1251
  1264.1000      8.0880      2.6638      0.0714     -0.8336     69.9992     27.2248
  1264.2000      8.0880      2.7023      0.1402     -3.1676     67.9603     26.4089
  1264.3000      8.0897      2.6899      0.0983     -2.4206     72.3234     25.6897
  1264.4000      8.0897      2.6358     -0.0018      0.8584     75.6057     24.7528
  1264.5000      8.0919      2.5828      0.0258      4.0746     72.0784     24.0241
