~Version Information
VERS.                      2.0: CWLS Log ASCII Standard - VERSION 2.0
WRAP.                       NO: One line per depth step
~Well Information Block
STRT.FT               454.0000: 
STOP.FT              1392.0000: 
STEP.FT                 0.2500: 
NULL.                -999.2500: 
COMP.          Pioneer Natural Resources: COMPANY
WELL.          Lorencito 6-3-34-66: WELL
FLD.           Purgatoire River: FIELD
LOC.           2545' FNL & 1914' FWL: LOCATION
STAT.                 Colorado: State
CNTY.               Las Animas: COUNTY
CTRY. USA : Country
SECT. 3 : Section
TOWN. 34S : Township
RANG. 66W : Range
SRVC.                Patterson: SERVICE COMPANY
DATE.          Fri Sep 09 22:07:39 2005: LOG DATE
API.           05 071 08369 00: UNIQUE WELL ID
~Curve Information Block
DEPT.FT            0 000 00 00: Depth
SN.Ohm-m                      : IEL Short Normal
SP.mV                         : IEL Spontaneous Potential
DIR.Ohm-m                     : IEL Induction Resistivity
GR.GAPI                       : Gamma Ray
~Parameter Information Block
~A  Depth        SN          SP         DIR          GR     
# ...
   889.5000     10.4916    -24.9598      9.3103    151.7721
   889.7500     10.4222    -24.8791      9.3825    150.7088
   890.0000     10.2643    -24.7254      9.4457    148.7626
   890.2500     10.0554    -24.5175      9.4935    148.0495
   890.5000      9.8565    -24.3083      9.5206    148.3981
   890.7500      9.7225    -24.1401      9.5249    149.0539
   891.0000      9.6746    -24.0119      9.5087    149.0822
   891.2500      9.6922    -23.8646      9.4783    147.8096
   891.5000      9.7245    -23.5976      9.4427    144.1573
   891.7500      9.7157    -23.1382      9.4109    141.4578
   892.0000      9.6409    -22.5154      9.3890    138.8653
   892.2500      9.5373    -21.8621      9.3791    138.5598
   892.5000      9.5015    -21.3506      9.3773    139.4501
   892.7500      9.6328    -21.1210      9.3756    140.1588
   893.0000      9.9570    -21.2269      9.3638    140.6776
   893.2500     10.3954    -21.6068      9.3330    140.5843
   893.5000     10.8077    -22.1069      9.2789    139.7722
   893.7500     11.0751    -22.5581      9.2038    138.9174
   894.0000     11.1592    -22.8592      9.1161    137.7721
   894.2500     11.1035    -23.0106      9.0280    137.3428
   894.5000     10.9867    -23.0845      8.9521    136.9779
   894.7500     10.8651    -23.1387      8.8987    136.8111
   895.0000     10.7430    -23.1325      8.8736    137.5192
   895.2500     10.5884    -22.9359      8.8778    139.4649
   895.5000     10.3794    -22.4438      8.9079    144.9604
   895.7500     10.1399    -21.6827      8.9578    149.4771
   896.0000      9.9380    -20.8114      9.0203    155.2424
   896.2500      9.8465    -20.0371      9.0896    157.4507
   896.5000      9.8932    -19.5185      9.1627    157.8096
   896.7500     10.0422    -19.3060      9.2405    156.2224
   897.0000     10.2212    -19.3473      9.3282    151.6913
   897.2500     10.3841    -19.5495      9.4339    147.7933
   897.5000     10.5544    -19.8385      9.5682    141.8616
   897.7500     10.8099    -20.1665      9.7432    138.3690
   898.0000     11.2162    -20.4830      9.9713    133.8118
   898.2500     11.7694    -20.7210     10.2650    130.9440
   898.5000     12.4039    -20.8170     10.6362    126.8848
   898.7500     13.0650    -20.7483     11.0958    124.6807
   899.0000     13.7777    -20.5494     11.6527    122.7426
   899.2500     14.6496    -20.2931     12.3129    122.5532
   899.5000     15.7994    -20.0621     13.0780    123.8081
   899.7500     17.2792    -19.9393     13.9438    125.1822
   900.0000     19.0538    -19.9973     14.8989    126.4911
   900.2500     21.0474    -20.2477     15.9260    125.8416
   900.5000     23.2147    -20.5929     17.0022    121.3096
   900.7500     25.5817    -20.8700     18.1061    115.7778
   901.0000     28.2421    -20.9790     19.2211    104.9296
   901.2500     31.3123    -20.9713     20.3416     97.3441
   901.5000     34.8681    -21.0037     21.4727     87.5236
   901.7500     38.8871    -21.2040     22.6268     82.5726
   902.0000     43.2189    -21.5765     23.8138     77.5674
   902.2500     47.5968    -22.0135     25.0340     75.6442
   902.5000     51.6851    -22.3685     26.2675     74.3397
   902.7500     55.1515    -22.5204     27.4727     74.1664
   903.0000     57.7438    -22.4125     28.5907     74.5936
   903.2500     59.3454    -22.0693     29.5536     75.2963
   903.5000     59.9816    -21.5824     30.2991     76.8524
   903.7500     59.7691    -21.0681     30.7817     78.0801
   904.0000     58.8451    -20.6223     30.9818     80.0864
   904.2500     57.3298    -20.2946     30.9084     81.5904
   904.5000     55.3450    -20.0856     30.5969     84.2862
   904.7500     53.0517    -19.9619     30.1041     86.4349
   905.0000     50.6467    -19.8776     29.4976     90.0408
   905.2500     48.3117    -19.7909     28.8464     92.4573
   905.5000     46.1631    -19.6716     28.2092     95.4748
   905.7500     44.2540    -19.5029     27.6259     96.6085
   906.0000     42.6205    -19.2859     27.1172     96.2035
   906.2500     41.3188    -19.0400     26.6810     94.4632
   906.5000     40.4146    -18.8052     26.3006     90.8300
   906.7500     39.9391    -18.6480     25.9472     88.8983
   907.0000     39.8598    -18.6459     25.5901     88.0820
   907.2500     40.0920    -18.8310     25.2038     88.7610
   907.5000     40.5280    -19.1471     24.7741     90.1772
   907.7500     41.0461    -19.4783     24.3024     90.5947
   908.0000     41.4996    -19.7231     23.8030     90.0679
   908.2500     41.7191    -19.8387     23.2975     89.2425
   908.5000     41.5522    -19.8348     22.8059     87.9672
   908.7500     40.9169    -19.7526     22.3368     87.4037
   909.0000     39.8216    -19.6578     21.8850     87.5256
   909.2500     38.3279    -19.6329     21.4306     88.5426
   909.5000     36.4971    -19.7363     20.9479     91.5920
   909.7500     34.3800    -19.9484     20.4176     94.5423
   910.0000     32.0594    -20.1804     19.8378    100.3587
   910.2500     29.6945    -20.3486     19.2279    105.2650
   910.5000     27.5029    -20.4374     18.6220    113.8480
   910.7500     25.6758    -20.4910     18.0582    119.6387
   911.0000     24.2844    -20.5622     17.5646    126.4287
   911.2500     23.2493    -20.6689     17.1532    128.6627
   911.5000     22.4006    -20.7815     16.8187    128.2545
   911.7500     21.5873    -20.8458     16.5429    126.3271
   912.0000     20.7633    -20.8215     16.3023    123.2212
   912.2500     19.9912    -20.7018     16.0774    122.0640
   912.5000     19.3745    -20.5009     15.8570    122.3500
   912.7500     18.9749    -20.2349     15.6419    123.6387
   913.0000     18.7808    -19.9178     15.4406    126.3094
   913.2500     18.7344    -19.5731     15.2648    128.2328
   913.5000     18.7749    -19.2458     15.1224    131.3653
   913.7500     18.8531    -19.0004     15.0153    133.6490
   914.0000     18.9276    -18.8930     14.9365    136.7852
   914.2500     18.9717    -18.9317     14.8744    138.1439
   914.5000     19.0000    -19.0541     14.8180    138.5203
   914.7500     19.0806    -19.1416     14.7628    137.6182
   915.0000     19.3007    -19.0781     14.7160    134.8167
   915.2500     19.6996    -18.8232     14.6972    132.4244
   915.5000     20.2280    -18.4380     14.7354    129.0843
   915.7500     20.7815    -18.0407     14.8620    127.2959
   916.0000     21.2796    -17.7368     15.1027    124.6843
   916.2500     21.7204    -17.5641     15.4701    122.4836
   916.5000     22.1649    -17.4657     15.9561    118.3969
   916.7500     22.6735    -17.3256     16.5257    115.4691
   917.0000     23.2465    -17.0691     17.1155    111.0935
   917.2500     23.8061    -16.7300     17.6387    108.1471
   917.5000     24.2233    -16.4090     18.0049    104.0688
   917.7500     24.3716    -16.1765     18.1486    102.4166
   918.0000     24.1796    -16.0273     18.0540    103.1914
   918.2500     23.6567    -15.9081     17.7595    105.9234
   918.5000     22.8798    -15.7750     17.3386    111.4933
   918.7500     21.9532    -15.6304     16.8701    115.1976
   919.0000     20.9594    -15.5188     16.4156    121.0213
   919.2500     19.9299    -15.4915     16.0092    125.6376
   919.5000     18.8545    -15.5722     15.6593    132.7503
   919.7500     17.7371    -15.7471     15.3567    136.0812
   920.0000     16.6544    -15.9754     15.0836    137.1837
   920.2500     15.7597    -16.2089     14.8219    135.7096
   920.5000     15.2108    -16.4156     14.5573    132.5057
   920.7500     15.0736    -16.6093     14.2831    130.8839
   921.0000     15.2734    -16.8601     13.9972    129.4565
   921.2500     15.6264    -17.2471     13.7008    128.4229
   921.5000     15.9260    -17.7771     13.3961    125.3256
   921.7500     16.0314    -18.3602     13.0858    121.8684
   922.0000     15.9164    -18.8851     12.7721    114.9177
   922.2500     15.6533    -19.3113     12.4586    109.8197
   922.5000     15.3447    -19.6760     12.1494    103.5888
   922.7500     15.0480    -20.0344     11.8489    101.7656
