~Version Information
VERS.                      2.0: CWLS Log ASCII Standard - VERSION 2.0
WRAP.                       NO: One line per depth step
~Well Information Block
STRT.FT               590.0000: 
STOP.FT              1563.5000: 
STEP.FT                 0.1000: 
NULL.                -999.2500: 
COMP.          Petrogulf Corporation: COMPANY
WELL.             State 16-43R: WELL
FLD.           Purgatorie River: FIELD
LOC.           2538' FSL & 716' FEL: LOCATION
PROV.                 Colorado: PROVINCE
CNTY.               Las Animas: COUNTRY
SRVC.                Patterson: SERVICE COMPANY
DATE.          Tue Aug 09 14:21:37 2005: LOG DATE
UWI.                          : UNIQUE WELL ID
~Curve Information Block
DEPT.FT            0 000 00 00: Depth
DCAL.in                       : CDL Caliper
RHOB.g/cc                     : CDL Bulk Density
RHOC.g/cc                     : CDL Density Correction
DPOR.pu                       : CDL Density Porosity
GR.GAPI                       : Gamma Ray
NPOR.pu                       : Neutron Porosity
~Parameter Information Block
~A  Depth       DCAL        RHOB        RHOC        DPOR         GR         NPOR    
# ...
   839.6000      7.8624      2.6220      0.0794      1.6968    103.7505     26.2740
   839.7000      7.8624      2.6401      0.1341      0.6023    106.6728     26.2052
   839.8000      7.8814      2.6424      0.1204      0.4581    109.0007     26.3804
   839.9000      7.8814      2.6305      0.1107      1.1793    111.0100     26.2705
   840.0000      7.8183      2.6145      0.1222      2.1531    112.4736     25.6595
   840.1000      7.8183      2.5973      0.0942      3.1952    115.5735     24.8763
   840.2000      7.8183      2.5794      0.0696      4.2787    120.9500     24.3786
   840.3000      7.8299      2.5568      0.0640      5.6507    126.6912     24.1869
   840.4000      7.8299      2.5239      0.0384      7.6420    130.8053     24.1020
   840.5000      7.8738      2.4931      0.0101      9.5101    130.7422     24.0198
   840.6000      7.8738      2.4948     -0.0267      9.4062    127.1325     23.9977
   840.7000      7.8738      2.5448      0.0804      6.3754    124.4907     24.3130
   840.8000      7.9036      2.6369      0.0921      0.7966    125.9440     25.2104
   840.9000      7.9036      2.7550      0.1577     -6.3663    130.9903     26.5818
   841.0000      7.8844      2.8594      0.2310    -12.6888    136.8520     27.9099
   841.1000      7.8844      2.9099      0.2208    -15.7497    140.3613     28.8221
   841.2000      7.8844      2.9008      0.2078    -15.2023    141.0279     29.2064
   841.3000      7.8691      2.8442      0.1735    -11.7679    141.0964     29.0866
   841.4000      7.8691      2.7665      0.0293     -7.0597    141.7989     28.8607
   841.5000      7.8841      2.7071     -0.0464     -3.4619    141.4764     28.9779
   841.6000      7.8841      2.6796     -0.0512     -1.7938    140.2988     29.4228
   841.7000      7.8841      2.6694     -0.0521     -1.1743    140.4296     29.7143
   841.8000      7.9060      2.6609      0.0218     -0.6588    140.8281     29.3051
   841.9000      7.9060      2.6375      0.0891      0.7555    140.9026     28.3415
   842.0000      7.9135      2.5979      0.0967      3.1547    142.3365     27.5139
   842.1000      7.9135      2.5664      0.1249      5.0661    144.1609     27.0076
   842.2000      7.9135      2.5513      0.1723      5.9845    145.5203     26.4908
   842.3000      7.8625      2.5321      0.1643      7.1434    147.4276     25.9268
   842.4000      7.8625      2.4932      0.1599      9.5006    149.8559     25.6369
   842.5000      7.8364      2.4321      0.1361     13.2091    150.5267     25.7768
   842.6000      7.8364      2.3423      0.1127     18.6473    149.1541     25.9855
   842.7000      7.8364      2.2179      0.0820     26.1857    148.2499     25.6858
   842.8000      7.8586      2.0869      0.0128     34.1255    148.1155     24.8945
   842.9000      7.8586      2.0020     -0.0042     39.2757    149.4560     24.2152
   843.0000      7.9589      1.9869     -0.0185     40.1898    152.7449     24.1232
   843.1000      7.9589      2.0368      0.0093     37.1613    155.7708     24.5547
   843.2000      7.9589      2.1442      0.0507     30.6561    158.6722     25.1749
   843.3000      7.9715      2.2779      0.3754     22.5500    161.9299     25.7981
   843.4000      7.9715      2.3831      0.4889     16.1758    161.6781     26.4069
   843.5000      7.9405      2.4382      0.4833     12.8391    158.0265     26.8935
   843.6000      7.9405      2.4540      0.4784     11.8815    157.9832     27.1105
   843.7000      7.9405      2.4416      0.2957     12.6322    161.3073     27.2920
   843.8000      7.8914      2.4294      0.1190     13.3719    160.9563     27.8463
   843.9000      7.8914      2.4493      0.1088     12.1619    156.6622     28.6330
   844.0000      7.9033      2.4945      0.1616      9.4249    153.3340     29.1734
   844.1000      7.9033      2.5356      0.1335      6.9357    151.2618     29.2575
   844.2000      7.9033      2.5543      0.1627      5.8025    150.0862     28.9809
   844.3000      7.9640      2.5443      0.1563      6.4062    153.9525     28.6550
   844.4000      7.9640      2.5181      0.1161      7.9946    159.6870     28.6027
   844.5000      7.9838      2.4980      0.0797      9.2123    158.9079     28.6534
   844.6000      7.9838      2.4933      0.0552      9.4999    154.5076     28.3663
   844.7000      7.9838      2.5006      0.0832      9.0528    153.3069     28.0989
   844.8000      7.9844      2.5182      0.0503      7.9882    153.5392     28.5706
   844.9000      7.9844      2.5423      0.0899      6.5299    151.5701     29.4507
   845.0000      7.9658      2.5591      0.1473      5.5082    150.0025     29.9256
   845.1000      7.9658      2.5659      0.0756      5.0996    151.9441     30.0633
   845.2000      7.9658      2.5767      0.0656      4.4436    154.4054     30.3064
   845.3000      7.9502      2.5904      0.1157      3.6129    153.5118     30.4801
   845.4000      7.9502      2.5944      0.0558      3.3705    150.6408     30.2587
   845.5000      7.9473      2.5942      0.0667      3.3837    149.0812     29.8121
   845.6000      7.9473      2.6011      0.0818      2.9637    148.8955     29.5444
   845.7000      7.9473      2.6136      0.0525      2.2068    148.6607     29.4746
   845.8000      7.9475      2.6190      0.0939      1.8816    148.8617     29.2085
   845.9000      7.9475      2.6010      0.0904      2.9726    149.2513     28.6094
   846.0000      7.9397      2.5564      0.0646      5.6750    147.0918     27.9608
   846.1000      7.9397      2.5077      0.0442      8.6214    144.2373     27.3807
   846.2000      7.9397      2.4788      0.0334     10.3751    146.7548     26.7806
   846.3000      7.9315      2.4663      0.0654     11.1360    154.0759     26.3492
   846.4000      7.9315      2.4611      0.0039     11.4486    160.8547     26.2780
   846.5000      7.9628      2.4649      0.0611     11.2177    164.5978     26.2508
   846.6000      7.9628      2.4766      0.0112     10.5105    164.1479     26.1493
   846.7000      7.9628      2.4888      0.0849      9.7721    160.7460     26.2038
   846.8000      8.0279      2.4880      0.0844      9.8167    159.0245     26.3801
   846.9000      8.0279      2.4785      0.0273     10.3923    159.5797     26.5362
   847.0000      7.9997      2.4794      0.0454     10.3417    156.9049     26.8459
   847.1000      7.9997      2.4869      0.0871      9.8860    149.6599     27.4025
   847.2000      7.9997      2.4856      0.0476      9.9667    143.2596     27.8224
   847.3000      7.9863      2.4813      0.0275     10.2261    140.2212     27.9346
   847.4000      7.9863      2.4875      0.0568      9.8477    139.6331     27.8981
   847.5000      7.9523      2.4998      0.0629      9.1047    140.9920     27.7035
   847.6000      7.9523      2.5092      0.0393      8.5341    143.7152     27.5318
   847.7000      7.9523      2.5149      0.0644      8.1858    146.0009     27.7309
   847.8000      7.9458      2.5171      0.0539      8.0571    145.8191     28.2622
   847.9000      7.9458      2.5216      0.0275      7.7793    143.2612     28.7476
   848.0000      7.9666      2.5351      0.0399      6.9640    141.1909     28.9269
   848.1000      7.9666      2.5480      0.0791      6.1794    141.8554     28.9469
   848.2000      7.9666      2.5499      0.0226      6.0657    142.6299     28.9795
   848.3000      7.9535      2.5469      0.0583      6.2488    139.7050     28.9620
   848.4000      7.9535      2.5478      0.0447      6.1938    133.9834     28.8978
   848.5000      7.9446      2.5519      0.0833      5.9484    131.3250     28.7357
   848.6000      7.9446      2.5526      0.0611      5.9001    133.9642     28.5497
   848.7000      7.9446      2.5469      0.0648      6.2483    138.0740     28.6245
   848.8000      7.9236      2.5372      0.0716      6.8345    140.4518     28.7376
   848.9000      7.9236      2.5345      0.0343      6.9972    140.0542     28.4889
   849.0000      7.9249      2.5444      0.0741      6.3994    137.0265     27.9395
   849.1000      7.9249      2.5518      0.1060      5.9515    133.4713     27.2964
