~Version Information
VERS.                      2.0: CWLS Log ASCII Standard - VERSION 2.0
WRAP.                       NO: One line per depth step
~Well Information Block
STRT.FT               710.0000: 
STOP.FT              2304.5000: 
STEP.FT                 0.2500: 
NULL.                -999.2500: 
COMP.          Pioneer Natural Resources: COMPANY
WELL.           Ogallela 44-12: WELL
FLD.           Purgatoire River: FIELD
LOC.           610' FSL & 671' FEL: LOCATION
PROV.                 Colorado: PROVINCE
CNTY.               Las Animas: COUNTRY
SRVC.                Patterson: SERVICE COMPANY
DATE.          Wed Feb 23 00:14:59 2005: LOG DATE
UWI.           05 071 08283 00: UNIQUE WELL ID
~Curve Information Block
DEPT.FT            0 000 00 00: Depth
SN.Ohm-m                      : IEL Short Normal
SP.mV                         : IEL Spontaneous Potential
DIR.Ohm-m                     : IEL Induction Resistivity
GR.GAPI                       : Gamma Ray
~Parameter Information Block
~A  Depth        SN          SP         DIR          GR     
# ...
  1011.5000   2000.0000   2040.0000     21.5119    126.0890
  1011.7500   2000.0000   2040.0000     21.7843    121.4326
  1012.0000   2000.0000   2040.0000     22.0823    114.1190
  1012.2500   2000.0000   2040.0000     22.3998    111.3295
  1012.5000   2000.0000   2040.0000     22.7149    111.6337
  1012.7500   2000.0000   2040.0000     22.9909    113.7487
  1013.0000   2000.0000   2040.0000     23.1968    116.3239
  1013.2500   2000.0000   2040.0000     23.3274    115.9272
  1013.5000   2000.0000   2040.0000     23.4019    111.1899
  1013.7500   2000.0000   2040.0000     23.4506    105.9824
  1014.0000   2000.0000   2040.0000     23.5023     97.8000
  1014.2500   2000.0000   2040.0000     23.5780     93.7764
  1014.5000   2000.0000   2040.0000     23.6846     91.4829
  1014.7500   2000.0000   2040.0000     23.8103     92.2643
  1015.0000   2000.0000   2040.0000     23.9278     95.2087
  1015.2500   2000.0000   2040.0000     24.0073     97.3073
  1015.5000   2000.0000   2040.0000     24.0289     99.9512
  1015.7500   2000.0000   2040.0000     23.9865    101.5868
  1016.0000   2000.0000   2040.0000     23.8853    104.2427
  1016.2500   2000.0000   2040.0000     23.7416    106.0127
  1016.5000   2000.0000   2040.0000     23.5816    108.0977
  1016.7500   2000.0000   2040.0000     23.4350    108.8788
  1017.0000   2000.0000   2040.0000     23.3240    109.1203
  1017.2500   2000.0000   2040.0000     23.2573    108.8714
  1017.5000   2000.0000   2040.0000     23.2370    108.5723
  1017.7500   2000.0000   2040.0000     23.2697    108.8565
  1018.0000   2000.0000   2040.0000     23.3655    110.4392
  1018.2500   2000.0000   2040.0000     23.5276    112.2213
  1018.5000   2000.0000   2040.0000     23.7431    115.2982
  1018.7500   2000.0000   2040.0000     23.9870    116.9155
  1019.0000   2000.0000   2040.0000     24.2298    117.5374
  1019.2500   2000.0000   2040.0000     24.4431    116.5409
  1019.5000   2000.0000   2040.0000     24.6017    113.7002
  1019.7500   2000.0000   2040.0000     24.6934    111.7433
  1020.0000   2000.0000   2040.0000     24.7328    109.8117
  1020.2500   2000.0000   2040.0000     24.7653    109.2363
  1020.5000   2000.0000   2040.0000     24.8520    108.6212
  1020.7500   2000.0000   2040.0000     25.0448    107.8280
  1021.0000   2000.0000   2040.0000     25.3674    105.7670
  1021.2500   2000.0000   2040.0000     25.8145    104.0445
  1021.5000   2000.0000   2040.0000     26.3665    101.5920
  1021.7500   2000.0000   2040.0000     27.0050    100.4001
  1022.0000   2000.0000   2040.0000     27.7196     99.6359
  1022.2500   2000.0000   2040.0000     28.5028     99.5869
  1022.5000   2000.0000   2040.0000     29.3453     98.6875
  1022.7500   2000.0000   2040.0000     30.2249     96.3854
  1023.0000   2000.0000   2040.0000     31.0862     89.5754
  1023.2500   2000.0000   2040.0000     31.8190     83.5047
  1023.5000   2000.0000   2040.0000     32.2611     74.4507
  1023.7500   2000.0000   2040.0000     32.2514     69.5075
  1024.0000   2000.0000   2040.0000     31.7040     64.0268
  1024.2500   2000.0000   2040.0000     30.6422     61.2214
  1024.5000   2000.0000   2040.0000     29.1699     57.6362
  1024.7500   2000.0000   2040.0000     27.4294     55.7404
  1025.0000   2000.0000   2040.0000     25.5796     54.5261
  1025.2500   2000.0000   2040.0000     23.7813     55.5154
  1025.5000   2000.0000   2040.0000     22.1689     60.7768
  1025.7500   2000.0000   2040.0000     20.8217     67.0864
  1026.0000   2000.0000   2040.0000     19.7532     80.1752
  1026.2500   2000.0000   2040.0000     18.9219     90.2899
  1026.5000   2000.0000   2040.0000     18.2541    105.0874
  1026.7500   2000.0000   2040.0000     17.6689    113.3174
  1027.0000   2000.0000   2040.0000     17.0988    121.5773
  1027.2500   2000.0000   2040.0000     16.5038    124.0555
  1027.5000   2000.0000   2040.0000     15.8750    124.0855
  1027.7500   2000.0000   2040.0000     15.2307    122.9100
  1028.0000   2000.0000   2040.0000     14.6087    121.9667
  1028.2500   2000.0000   2040.0000     14.0552    122.9221
  1028.5000   2000.0000   2040.0000     13.6119    126.7274
  1028.7500   2000.0000   2040.0000     13.3033    129.8454
  1029.0000   2000.0000   2040.0000     13.1272    133.0539
  1029.2500   2000.0000   2040.0000     13.0527    133.2674
  1029.5000   2000.0000   2040.0000     13.0264    130.4921
  1029.7500   2000.0000   2040.0000     12.9893    127.0354
  1030.0000   2000.0000   2040.0000     12.8947    120.5387
  1030.2500   2000.0000   2040.0000     12.7201    116.2005
  1030.5000   2000.0000   2040.0000     12.4688    111.8041
  1030.7500   2000.0000   2040.0000     12.1644    111.4772
  1031.0000   2000.0000   2040.0000     11.8404    115.3882
  1031.2500   2000.0000   2040.0000     11.5282    119.9451
  1031.5000   2000.0000   2040.0000     11.2462    126.8024
  1031.7500   2000.0000   2040.0000     10.9978    129.9682
  1032.0000   2000.0000   2040.0000     10.7785    131.9193
  1032.2500   2000.0000   2040.0000     10.5831    131.9962
  1032.5000   2000.0000   2040.0000     10.4093    132.0337
  1032.7500   2000.0000   2040.0000     10.2560    132.6669
  1033.0000   2000.0000   2040.0000     10.1215    134.5191
  1033.2500   2000.0000   2040.0000     10.0043    135.9463
  1033.5000   2000.0000   2040.0000      9.9056    137.6213
  1033.7500   2000.0000   2040.0000      9.8324    138.1378
  1034.0000   2000.0000   2040.0000      9.7977    137.9565
  1034.2500   2000.0000   2040.0000      9.8163    137.3737
  1034.5000   2000.0000   2040.0000      9.8972    136.0347
  1034.7500   2000.0000   2040.0000     10.0375    134.8102
  1035.0000   2000.0000   2040.0000     10.2223    132.5122
  1035.2500   2000.0000   2040.0000     10.4318    130.8984
  1035.5000   2000.0000   2040.0000     10.6523    128.8470
  1035.7500   2000.0000   2040.0000     10.8812    127.8617
  1036.0000   2000.0000   2040.0000     11.1250    126.8241
  1036.2500   2000.0000   2040.0000     11.3930    126.1758
  1036.5000   2000.0000   2040.0000     11.6923    124.8123
  1036.7500   2000.0000   2040.0000     12.0275    123.6165
  1037.0000   2000.0000   2040.0000     12.4043    121.9921
  1037.2500   2000.0000   2040.0000     12.8334    121.4606
  1037.5000   2000.0000   2040.0000     13.3301    121.5911
  1037.7500   2000.0000   2040.0000     13.9061    121.8965
  1038.0000   2000.0000   2040.0000     14.5582    121.7921
  1038.2500   2000.0000   2040.0000     15.2649    121.0848
  1038.5000   2000.0000   2040.0000     15.9922    119.2697
  1038.7500   2000.0000   2040.0000     16.7030    117.8294
  1039.0000   2000.0000   2040.0000     17.3622    115.3110
  1039.2500   2000.0000   2040.0000     17.9451    112.9360
  1039.5000   2000.0000   2040.0000     18.4552    107.4518
  1039.7500   2000.0000   2040.0000     18.9383    102.5013
  1040.0000   2000.0000   2040.0000     19.4602     94.1855
  1040.2500   2000.0000   2040.0000     20.0537     88.9040
  1040.5000   2000.0000   2040.0000     20.6720     82.5354
  1040.7500   2000.0000   2040.0000     21.1915     79.7477
  1041.0000   2000.0000   2040.0000     21.4699     78.2282
  1041.2500   2000.0000   2040.0000     21.4182     79.1871
  1041.5000   2000.0000   2040.0000     21.0314     83.6773
  1041.7500   2000.0000   2040.0000     20.3703     88.5053
  1042.0000   2000.0000   2040.0000     19.5265     97.7055
  1042.2500   2000.0000   2040.0000     18.5927    104.6025
  1042.5000   2000.0000   2040.0000     17.6416    115.3606
  1042.7500   2000.0000   2040.0000     16.7140    122.3764
  1043.0000   2000.0000   2040.0000     15.8211    131.5132
  1043.2500   2000.0000   2040.0000     14.9586    135.9424
  1043.5000   2000.0000   2040.0000     14.1234    139.6042
  1043.7500   2000.0000   2040.0000     13.3236    140.4105
  1044.0000   2000.0000   2040.0000     12.5756    140.3528
  1044.2500   2000.0000   2040.0000     11.8958    140.1568
  1044.5000   2000.0000   2040.0000     11.2935    140.3522
  1044.7500   2000.0000   2040.0000     10.7693    140.8376
