~Version Information
VERS.                      2.0: CWLS Log ASCII Standard - VERSION 2.0
WRAP.                       NO: One line per depth step
~Well Information Block
STRT.FT               250.0000: 
STOP.FT              1573.7500: 
STEP.FT                 0.2500: 
NULL.                -999.2500: 
COMP.          Pioneer Natural Resources: COMPANY
WELL.          Big Cat Federal 44-1: WELL
FLD.           Purgatoire River: FIELD
LOC.           197' FSL & 973' FEL--: LOCATION
CNTY.               Las Animas: COUNTY
SRVC.                Patterson: SERVICE COMPANY
DATE.          Sun Apr 23 14:54:11 2006: LOG DATE
UWI.           05 071 08042 00: UNIQUE WELL ID
STAT.                 Colorado: STATE
~Curve Information Block
DEPT.FT            0 000 00 00: Depth
DIR.Ohm-m                     : IEL Induction Resistivity
GR.GAPI                       : Gamma Ray
~Parameter Information Block
~A  Depth       DIR          GR     
# ...
   696.0000     20.5333    107.9996
   696.2500     20.6499    105.6658
   696.5000     20.7966    101.2163
   696.7500     20.9798     98.6827
   697.0000     21.2051     96.7121
   697.2500     21.4687     96.7532
   697.5000     21.7551     98.2254
   697.7500     22.0435     99.4974
   698.0000     22.3171    100.7891
   698.2500     22.5678    100.9296
   698.5000     22.7919    100.2968
   698.7500     22.9838     99.8166
   699.0000     23.1349     99.8872
   699.2500     23.2417    100.5816
   699.5000     23.3127    101.9078
   699.7500     23.3697    102.3400
   700.0000     23.4412    101.5982
   700.2500     23.5553    100.1907
   700.5000     23.7327     97.1266
   700.7500     23.9798     94.6520
   701.0000     24.2826     90.5189
   701.2500     24.6041     87.6613
   701.5000     24.8929     83.5927
   701.7500     25.1049     81.1854
   702.0000     25.2273     78.2362
   702.2500     25.2878     76.8627
   702.5000     25.3406     75.9313
   702.7500     25.4401     76.0312
   703.0000     25.6192     76.7197
   703.2500     25.8804     77.0330
   703.5000     26.1972     76.5700
   703.7500     26.5252     75.5333
   704.0000     26.8168     73.2835
   704.2500     27.0362     71.7275
   704.5000     27.1686     69.9812
   704.7500     27.2255     69.4685
   705.0000     27.2429     69.7391
   705.2500     27.2658     70.3656
   705.5000     27.3279     71.1564
   705.7500     27.4377     71.1067
   706.0000     27.5828     69.9159
   706.2500     27.7439     68.6806
   706.5000     27.9038     66.9752
   706.7500     28.0517     66.2019
   707.0000     28.1870     65.6034
   707.2500     28.3277     65.5712
   707.5000     28.5143     66.1430
   707.7500     28.8026     66.8119
   708.0000     29.2466     67.6802
   708.2500     29.8780     67.9110
   708.5000     30.6922     67.7034
   708.7500     31.6456     67.2382
   709.0000     32.6682     65.9758
   709.2500     33.6884     64.7737
   709.5000     34.6600     62.7209
   709.7500     35.5736     61.3653
   710.0000     36.4369     59.4975
   710.2500     37.2390     58.4797
   710.5000     37.9219     57.6965
   710.7500     38.3884     57.8699
   711.0000     38.5402     59.0873
   711.2500     38.3146     60.2429
   711.5000     37.6954     61.9856
   711.7500     36.7041     63.1172
   712.0000     35.3965     65.2775
   712.2500     33.8688     67.5186
   712.5000     32.2513     72.8243
   712.7500     30.6768     77.7859
   713.0000     29.2400     86.8243
   713.2500     27.9748     93.2592
   713.5000     26.8579    102.2450
   713.7500     25.8353    107.0759
   714.0000     24.8582    111.6242
   714.2500     23.9120    112.7248
   714.5000     23.0228    112.3482
   714.7500     22.2383    111.7020
   715.0000     21.5972    111.6418
   715.2500     21.1076    112.5416
   715.5000     20.7434    114.6262
   715.7500     20.4571    115.6716
   716.0000     20.2025    115.7289
   716.2500     19.9548    114.8430
   716.5000     19.7173    113.0178
   716.7500     19.5108    111.9848
   717.0000     19.3549    111.2523
   717.2500     19.2535    111.4464
   717.5000     19.1950    112.7394
   717.7500     19.1631    114.1608
   718.0000     19.1486    116.8892
   718.2500     19.1523    118.8650
   718.5000     19.1779    121.2241
   718.7500     19.2229    121.7163
   719.0000     19.2761    120.0146
   719.2500     19.3246    117.3610
   719.5000     19.3652    112.2030
   719.7500     19.4132    108.7100
   720.0000     19.4995    104.2120
   720.2500     19.6537    102.0520
   720.5000     19.8835    100.6291
   720.7500     20.1615    100.9361
   721.0000     20.4299    102.4458
   721.2500     20.6202    103.4018
   721.5000     20.6770    103.8862
   721.7500     20.5752    103.4696
   722.0000     20.3251    102.1658
   722.2500     19.9673    101.3700
   722.5000     19.5583    101.3134
   722.7500     19.1508    102.4238
   723.0000     18.7761    105.8829
   723.2500     18.4371    109.0794
   723.5000     18.1119    114.1733
   723.7500     17.7656    117.0426
   724.0000     17.3646    119.7978
   724.2500     16.8898    120.7160
   724.5000     16.3444    121.5539
   724.7500     15.7540    122.0961
   725.0000     15.1583    122.6939
   725.2500     14.6000    122.6672
   725.5000     14.1147    121.9465
   725.7500     13.7240    121.2053
   726.0000     13.4331    119.8649
   726.2500     13.2310    118.8495
   726.5000     13.0966    117.6690
   726.7500     13.0061    117.6934
   727.0000     12.9400    119.5957
   727.2500     12.8875    121.9301
   727.5000     12.8459    126.0973
   727.7500     12.8177    128.9061
   728.0000     12.8058    133.1298
   728.2500     12.8090    136.0987
   728.5000     12.8183    140.6137
   728.7500     12.8185    143.2134
   729.0000     12.7954    145.5419
   729.2500     12.7463    145.7220
   729.5000     12.6863    144.1392
   729.7500     12.6448    142.2466
   730.0000     12.6565    138.5529
   730.2500     12.7530    135.4654
   730.5000     12.9585    129.9231
   730.7500     13.2896    125.9578
   731.0000     13.7567    120.2874
   731.2500     14.3644    116.7619
   731.5000     15.1096    111.3251
   731.7500     15.9737    107.3041
   732.0000     16.9111    101.0776
   732.2500     17.8399     97.5867
   732.5000     18.6457     94.7992
   732.7500     19.2096     95.1121
   733.0000     19.4538     99.2524
   733.2500     19.3797    104.5106
   733.5000     19.0679    115.6288
   733.7500     18.6393    124.2405
   734.0000     18.2075    136.1488
   734.2500     17.8519    141.7230
   734.5000     17.6130    145.1372
   734.7500     17.5022    144.3461
   735.0000     17.5151    139.6565
   735.2500     17.6446    134.7946
   735.5000     17.8929    125.9754
   735.7500     18.2755    119.8181
   736.0000     18.8164    111.3449
   736.2500     19.5346    106.7333
   736.5000     20.4239    101.8906
   736.7500     21.4342     99.9853
   737.0000     22.4621     98.4806
   737.2500     23.3660     98.0739
   737.5000     24.0103     98.3820
   737.7500     24.3204     99.3281
   738.0000     24.3115    101.8651
   738.2500     24.0716    104.2422
   738.5000     23.7143    108.7788
   738.7500     23.3347    112.2798
   739.0000     22.9869    117.3885
   739.2500     22.6826    119.9296
   739.5000     22.4028    121.0388
   739.7500     22.1125    119.3512
   740.0000     21.7806    113.1464
   740.2500     21.3992    107.5074
   740.5000     20.9942     99.9227
   740.7500     20.6143     97.4625
   741.0000     20.3058     99.7100
   741.2500     20.0894    104.8792
   741.5000     19.9531    115.1778
   741.7500     19.8557    121.3582
   742.0000     19.7361    126.4821
   742.2500     19.5254    126.7203
   742.5000     19.1658    124.0580
   742.7500     18.6349    121.9353
   743.0000     17.9599    120.4785
   743.2500     17.2101    121.2317
   743.5000     16.4662    124.9245
   743.7500     15.7888    128.6957
   744.0000     15.2035    135.1436
   744.2500     14.7064    139.1873
   744.5000     14.2818    143.8270
   744.7500     13.9194    145.6381
   745.0000     13.6224    146.3350
   745.2500     13.4056    145.6535
   745.5000     13.2890    143.3699
   745.7500     13.2910    141.0210
   746.0000     13.4244    135.8508
   746.2500     13.6944    131.2917
   746.5000     14.0972    123.8078
   746.7500     14.6178    119.3563
   747.0000     15.2280    114.7507
   747.2500     15.8862    113.2515
   747.5000     16.5382    112.8049
   747.7500     17.1203    113.1509
   748.0000     17.5696    113.9521
   748.2500     17.8419    114.6511
   748.5000     17.9341    116.4555
   748.7500     17.8907    118.6170
   749.0000     17.7876    123.9376
   749.2500     17.7008    128.7623
   749.5000     17.6799    136.1892
   749.7500     17.7378    139.5150
   750.0000     17.8578    139.3753
   750.2500     18.0117    135.4265
   750.5000     18.1801    125.4015
   750.7500     18.3636    117.8891
   751.0000     18.5800    108.7667
   751.2500     18.8522    105.4223
   751.5000     19.1939    104.8161
