~Version Information
VERS.                      2.0: CWLS Log ASCII Standard - VERSION 2.0
WRAP.                       NO: One line per depth step
~Well Information Block
STRT.FT               555.5000: 
STOP.FT              2179.0000: 
STEP.FT                 0.2500: 
NULL.                -999.2500: 
COMP.          Petrogulf Corporation: COMPANY
WELL.            Montoya 6-14R: WELL
FLD.           Purgatorie River: FIELD
LOC.           867' FSL & 751' FWL: LOCATION
CNTY.               Las Animas: COUNTY
SRVC.                         : SERVICE COMPANY
DATE.          Mon Nov 15 07:02:23 2004: LOG DATE
UWI.           05 071 08242 00: UNIQUE WELL ID
STAT.                 Colorado: STATE
~Curve Information Block
DEPT.FT            0 000 00 00: Depth
SP.mV                         : DIL Spontaneous Potential
RILD.Ohm-m                    : DIL Deep Resistivity
RILM.Ohm-m                    : DIL Medium Resistivity
RLL3.Ohm-m                    : DIL Shallow Resistivity
GR.GAPI                       : Gamma Ray
~Parameter Information Block
~A  Depth        SP         RILD        RILM        RLL3         GR     
# ...
   695.5000   2000.0000     18.8993     18.0206   2000.0000    162.3754
   695.7500   2000.0000     18.6834     17.7307   2000.0000    165.3910
   696.0000   2000.0000     18.5347     17.5015   2000.0000    168.3972
   696.2500   2000.0000     18.4526     17.3262   2000.0000    168.6455
   696.5000   2000.0000     18.4373     17.2001   2000.0000    166.3177
   696.7500   2000.0000     18.4908     17.1230   2000.0000    163.6606
   697.0000   2000.0000     18.6176     17.0988   2000.0000    159.3054
   697.2500   2000.0000     18.8250     17.1357   2000.0000    156.3763
   697.5000   2000.0000     19.1225     17.2453   2000.0000    151.6409
   697.7500   2000.0000     19.5221     17.4416   2000.0000    148.3182
   698.0000   2000.0000     20.0368     17.7399   2000.0000    144.0058
   698.2500   2000.0000     20.6796     18.1565   2000.0000    142.1006
   698.5000   2000.0000     21.4627     18.7082   2000.0000    140.5972
   698.7500   2000.0000     22.3950     19.4119   2000.0000    139.8926
   699.0000   2000.0000     23.4810     20.2851   2000.0000    138.1292
   699.2500   2000.0000     24.7182     21.3454   2000.0000    136.1021
   699.5000   2000.0000     26.0958     22.6103   2000.0000    131.6494
   699.7500   2000.0000     27.5957     24.0962   2000.0000    127.7735
   700.0000   2000.0000     29.1918     25.8169   2000.0000    120.7880
   700.2500   2000.0000     30.8572     27.7823   2000.0000    115.6945
   700.5000   2000.0000     32.5676     29.9955   2000.0000    108.4567
   700.7500   2000.0000     34.3078     32.4523   2000.0000    104.5338
   701.0000   2000.0000     36.0753     35.1400   2000.0000    100.5109
   701.2500   2000.0000     37.8792     38.0383   2000.0000     98.8860
   701.5000   2000.0000     39.7385     41.1207   2000.0000     97.1411
   701.7500   2000.0000     41.6744     44.3521   2000.0000     95.9283
   702.0000   2000.0000     43.7050     47.6860   2000.0000     93.6888
   702.2500   2000.0000     45.8366     51.0532   2000.0000     91.9409
   702.5000   2000.0000     48.0609     54.3540   2000.0000     88.9309
   702.7500   2000.0000     50.3541     57.4496   2000.0000     86.7040
   703.0000   2000.0000     52.6709     60.1755   2000.0000     83.7518
   703.2500   2000.0000     54.9556     62.3612   2000.0000     82.8052
   703.5000   2000.0000     57.1451     63.8830   2000.0000     83.7847
   703.7500   2000.0000     59.1836     64.7011   2000.0000     85.8060
   704.0000   2000.0000     61.0304     64.8837   2000.0000     89.4538
   704.2500   2000.0000     62.6744     64.5927   2000.0000     91.3562
   704.5000   2000.0000     64.1340     64.0452   2000.0000     92.2908
   704.7500   2000.0000     65.4559     63.4595   2000.0000     91.2999
   705.0000   2000.0000     66.6976     63.0264   2000.0000     87.1700
   705.2500   2000.0000     67.9167     62.8793   2000.0000     82.6948
   705.5000   2000.0000     69.1486     63.0925   2000.0000     74.0235
   705.7500   2000.0000     70.3990     63.6842   2000.0000     67.7554
   706.0000   2000.0000     71.6345     64.6183   2000.0000     59.4208
   706.2500   2000.0000     72.7781     65.8187   2000.0000     55.3709
   706.5000   2000.0000     73.7105     67.1802   2000.0000     51.9071
   706.7500   2000.0000     74.2882     68.5858   2000.0000     51.0729
   707.0000   2000.0000     74.3520     69.9186   2000.0000     51.3539
   707.2500   2000.0000     73.7710     71.0734   2000.0000     52.2047
   707.5000   2000.0000     72.4644     71.9513   2000.0000     53.8467
   707.7500   2000.0000     70.4337     72.4451   2000.0000     54.7606
   708.0000   2000.0000     67.7675     72.4245   2000.0000     55.3275
   708.2500   2000.0000     64.6167     71.7370   2000.0000     55.2428
   708.5000   2000.0000     61.1708     70.2312   2000.0000     55.2309
   708.7500   2000.0000     57.6145     67.8101   2000.0000     55.7643
   709.0000   2000.0000     54.0980     64.4903   2000.0000     57.4555
   709.2500   2000.0000     50.7328     60.4147   2000.0000     59.0243
   709.5000   2000.0000     47.5834     55.8422   2000.0000     62.5534
   709.7500   2000.0000     44.6826     51.0787   2000.0000     66.5372
   710.0000   2000.0000     42.0386     46.4045   2000.0000     75.9938
   710.2500   2000.0000     39.6436     42.0312   2000.0000     84.2156
   710.5000   2000.0000     37.4832     38.0865   2000.0000     97.2940
   710.7500   2000.0000     35.5394     34.6277   2000.0000    105.3716
   711.0000   2000.0000     33.7956     31.6586   2000.0000    116.1403
   711.2500   2000.0000     32.2374     29.1515   2000.0000    122.9422
   711.5000   2000.0000     30.8545     27.0646   2000.0000    133.3487
   711.7500   2000.0000     29.6400     25.3500   2000.0000    140.3319
   712.0000   2000.0000     28.5893     23.9613   2000.0000    150.1390
   712.2500   2000.0000     27.7012     22.8563   2000.0000    155.8028
   712.5000   2000.0000     26.9752     21.9992   2000.0000    162.2027
   712.7500   2000.0000     26.4127     21.3597   2000.0000    164.4667
   713.0000   2000.0000     26.0142     20.9132   2000.0000    164.1080
   713.2500   2000.0000     25.7782     20.6400   2000.0000    161.5916
   713.5000   2000.0000     25.6997     20.5236   2000.0000    156.1018
   713.7500   2000.0000     25.7683     20.5498   2000.0000    152.6396
   714.0000   2000.0000     25.9669     20.7058   2000.0000    149.5716
   714.2500   2000.0000     26.2728     20.9785   2000.0000    149.2643
   714.5000   2000.0000     26.6572     21.3543   2000.0000    150.4130
   714.7500   2000.0000     27.0888     21.8191   2000.0000    151.1775
   715.0000   2000.0000     27.5346     22.3570   2000.0000    151.1786
   715.2500   2000.0000     27.9630     22.9500   2000.0000    150.7258
   715.5000   2000.0000     28.3451     23.5766   2000.0000    151.0251
   715.7500   2000.0000     28.6555     24.2103   2000.0000    152.7042
   716.0000   2000.0000     28.8717     24.8179   2000.0000    157.8109
   716.2500   2000.0000     28.9769     25.3593   2000.0000    162.5408
   716.5000   2000.0000     28.9600     25.7894   2000.0000    169.9531
   716.7500   2000.0000     28.8211     26.0639   2000.0000    173.7890
   717.0000   2000.0000     28.5686     26.1474   2000.0000    176.2251
   717.2500   2000.0000     28.2213     26.0218   2000.0000    175.5665
   717.5000   2000.0000     27.8019     25.6915   2000.0000    172.3570
   717.7500   2000.0000     27.3331     25.1849   2000.0000    169.6320
   718.0000   2000.0000     26.8320     24.5473   2000.0000    165.7415
   718.2500   2000.0000     26.3080     23.8307   2000.0000    163.6174
   718.5000   2000.0000     25.7633     23.0856   2000.0000    161.3900
   718.7500   2000.0000     25.1949     22.3515   2000.0000    160.4431
   719.0000   2000.0000     24.5982     21.6543   2000.0000    159.3068
   719.2500   2000.0000     23.9731     21.0072   2000.0000    158.6081
   719.5000   2000.0000     23.3261     20.4127   2000.0000    158.2539
   719.7500   2000.0000     22.6709     19.8675   2000.0000    159.0914
   720.0000   2000.0000     22.0271     19.3664   2000.0000    162.5728
   720.2500   2000.0000     21.4168     18.9066   2000.0000    166.2460
   720.5000   2000.0000     20.8603     18.4890   2000.0000    172.8924
   720.7500   2000.0000     20.3739     18.1181   2000.0000    177.3724
   721.0000   2000.0000     19.9672     17.8002   2000.0000    182.9648
   721.2500   2000.0000     19.6435     17.5415   2000.0000    185.3721
   721.5000   2000.0000     19.4001     17.3447   2000.0000    186.3252
   721.7500   2000.0000     19.2294     17.2075   2000.0000    184.9688
   722.0000   2000.0000     19.1210     17.1229   2000.0000    180.1624
   722.2500   2000.0000     19.0624     17.0794   2000.0000    175.8227
   722.5000   2000.0000     19.0414     17.0628   2000.0000    169.5510
   722.7500   2000.0000     19.0458     17.0586   2000.0000    166.4505
   723.0000   2000.0000     19.0645     17.0550   2000.0000    163.8159
   723.2500   2000.0000     19.0869     17.0435   2000.0000    163.1549
