~Version Information
VERS.                      2.0: CWLS Log ASCII Standard - VERSION 2.0
WRAP.                       NO: One line per depth step
~Well Information Block
STRT.FT               652.0000: 
STOP.FT              1880.5000: 
STEP.FT                 0.2500: 
NULL.                -999.2500: 
COMP.          Pioneer Natural Resources: COMPANY
WELL.          Corkscrew 33-12 Tr: WELL
FLD.           Purgatoire River: FIELD
LOC.           1870' FSL & 1706' FEL: LOCATION
PROV.                 Colorado: PROVINCE
CNTY.               Las Animas: COUNTRY
SRVC.                Patterson: SERVICE COMPANY
DATE.          Mon Mar 28 22:58:28 2005: LOG DATE
UWI.           05 071 08295 00: UNIQUE WELL ID
~Curve Information Block
DEPT.FT            0 000 00 00: Depth
SN.Ohm-m                      : IEL Short Normal
SP.mV                         : IEL Spontaneous Potential
DIR.Ohm-m                     : IEL Induction Resistivity
GR.GAPI                       : Gamma Ray
~Parameter Information Block
~A  Depth        SN          SP         DIR          GR     
# ...
   719.0000   2000.0000   2000.0000      8.4546    107.8724
   719.2500   2000.0000   2000.0000      8.6351    107.4883
   719.5000   2000.0000   2000.0000      8.8447    109.9868
   719.7500   2000.0000   2000.0000      9.0796    113.2908
   720.0000   2000.0000   2000.0000      9.3202    119.0619
   720.2500   2000.0000   2000.0000      9.5396    122.3152
   720.5000   2000.0000   2000.0000      9.7172    125.0468
   720.7500   2000.0000   2000.0000      9.8464    125.3392
   721.0000   2000.0000   2000.0000      9.9351    124.4151
   721.2500   2000.0000   2000.0000      9.9994    123.8648
   721.5000   2000.0000   2000.0000     10.0597    124.4117
   721.7500   2000.0000   2000.0000     10.1380    125.6100
   722.0000   2000.0000   2000.0000     10.2548    127.6064
   722.2500   2000.0000   2000.0000     10.4214    128.7656
   722.5000   2000.0000   2000.0000     10.6348    130.7995
   722.7500   2000.0000   2000.0000     10.8800    132.7537
   723.0000   2000.0000   2000.0000     11.1426    136.1999
   723.2500   2000.0000   2000.0000     11.4184    137.8387
   723.5000   2000.0000   2000.0000     11.7096    137.0291
   723.7500   2000.0000   2000.0000     12.0098    133.4553
   724.0000   2000.0000   2000.0000     12.2962    124.0122
   724.2500   2000.0000   2000.0000     12.5409    116.2738
   724.5000   2000.0000   2000.0000     12.7295    105.0696
   724.7500   2000.0000   2000.0000     12.8698     98.8957
   725.0000   2000.0000   2000.0000     12.9800     92.2001
   725.2500   2000.0000   2000.0000     13.0661     89.4027
   725.5000   2000.0000   2000.0000     13.1063     87.6335
   725.7500   2000.0000   2000.0000     13.0545     88.2304
   726.0000   2000.0000   2000.0000     12.8678     92.2232
   726.2500   2000.0000   2000.0000     12.5411     97.0566
   726.5000   2000.0000   2000.0000     12.1194    107.1285
   726.7500   2000.0000   2000.0000     11.6757    115.0341
   727.0000   2000.0000   2000.0000     11.2752    126.9642
   727.2500   2000.0000   2000.0000     10.9550    133.9193
   727.5000   2000.0000   2000.0000     10.7215    141.4480
   727.7500   2000.0000   2000.0000     10.5613    144.0497
   728.0000   2000.0000   2000.0000     10.4525    144.2353
   728.2500   2000.0000   2000.0000     10.3751    142.3421
   728.5000   2000.0000   2000.0000     10.3175    137.8931
   728.7500   2000.0000   2000.0000     10.2791    134.5948
   729.0000   2000.0000   2000.0000     10.2695    129.5365
   729.2500   2000.0000   2000.0000     10.3056    125.9200
   729.5000   2000.0000   2000.0000     10.4081    120.0675
   729.7500   2000.0000   2000.0000     10.5962    116.2042
   730.0000   2000.0000   2000.0000     10.8808    111.0438
   730.2500   2000.0000   2000.0000     11.2533    108.0543
   730.5000   2000.0000   2000.0000     11.6786    103.9488
   730.7500   2000.0000   2000.0000     12.1009    101.3098
   731.0000   2000.0000   2000.0000     12.4687     97.1445
   731.2500   2000.0000   2000.0000     12.7646     93.9578
   731.5000   2000.0000   2000.0000     13.0166     88.6552
   731.7500   2000.0000   2000.0000     13.2846     85.4856
   732.0000   2000.0000   2000.0000     13.6363     83.1885
   732.2500   2000.0000   2000.0000     14.1269     84.2242
   732.5000   2000.0000   2000.0000     14.7775     90.1177
   732.7500   2000.0000   2000.0000     15.5520     96.4279
   733.0000   2000.0000   2000.0000     16.3519    107.2580
   733.2500   2000.0000   2000.0000     17.0489    113.6238
   733.5000   2000.0000   2000.0000     17.5440    119.2661
   733.7500   2000.0000   2000.0000     17.7946    119.7886
   734.0000   2000.0000   2000.0000     17.7848    116.4290
   734.2500   2000.0000   2000.0000     17.4915    112.5167
   734.5000   2000.0000   2000.0000     16.9032    106.3044
   734.7500   2000.0000   2000.0000     16.0657    103.1163
   735.0000   2000.0000   2000.0000     15.0907    101.3178
   735.2500   2000.0000   2000.0000     14.1096    102.5048
   735.5000   2000.0000   2000.0000     13.2243    107.4099
   735.7500   2000.0000   2000.0000     12.4892    112.0120
   736.0000   2000.0000   2000.0000     11.9171    119.5110
   736.2500   2000.0000   2000.0000     11.4888    124.1697
   736.5000   2000.0000   2000.0000     11.1610    129.3727
   736.7500   2000.0000   2000.0000     10.8785    131.0623
   737.0000   2000.0000   2000.0000     10.5957    130.9094
   737.2500   2000.0000   2000.0000     10.2952    129.6901
   737.5000   2000.0000   2000.0000      9.9919    127.8777
   737.7500   2000.0000   2000.0000      9.7203    127.5102
   738.0000   2000.0000   2000.0000      9.5163    128.7561
   738.2500   2000.0000   2000.0000      9.4041    130.5397
   738.5000   2000.0000   2000.0000      9.3884    133.7718
   738.7500   2000.0000   2000.0000      9.4513    135.8719
   739.0000   2000.0000   2000.0000      9.5552    138.8111
   739.2500   2000.0000   2000.0000      9.6498    140.9562
   739.5000   2000.0000   2000.0000      9.6856    145.0994
   739.7500   2000.0000   2000.0000      9.6295    148.3204
   740.0000   2000.0000   2000.0000      9.4754    152.2914
   740.2500   2000.0000   2000.0000      9.2464    153.3130
   740.5000   2000.0000   2000.0000      8.9862    151.8136
   740.7500   2000.0000   2000.0000      8.7451    149.3584
   741.0000   2000.0000   2000.0000      8.5642    145.2780
   741.2500   2000.0000   2000.0000      8.4645    143.2728
   741.5000   2000.0000   2000.0000      8.4436    142.0439
   741.7500   2000.0000   2000.0000      8.4830    141.9726
   742.0000   2000.0000   2000.0000      8.5599    141.4351
   742.2500   2000.0000   2000.0000      8.6552    140.3106
   742.5000   2000.0000   2000.0000      8.7553    138.1977
   742.7500   2000.0000   2000.0000      8.8493    137.2243
   743.0000   2000.0000   2000.0000      8.9268    136.6552
   743.2500   2000.0000   2000.0000      8.9765    136.5223
   743.5000   2000.0000   2000.0000      8.9845    136.5263
   743.7500   2000.0000   2000.0000      8.9369    136.8942
   744.0000   2000.0000   2000.0000      8.8250    137.8313
   744.2500   2000.0000   2000.0000      8.6544    138.1421
   744.5000   2000.0000   2000.0000      8.4483    137.5769
   744.7500   2000.0000   2000.0000      8.2438    136.8491
   745.0000   2000.0000   2000.0000      8.0803    136.1045
   745.2500   2000.0000   2000.0000      7.9892    135.9547
   745.5000   2000.0000   2000.0000      7.9865    135.9560
   745.7500   2000.0000   2000.0000      8.0700    136.0767
   746.0000   2000.0000   2000.0000      8.2182    136.7635
   746.2500   2000.0000   2000.0000      8.3896    137.7077
   746.5000   2000.0000   2000.0000      8.5269    139.6567
   746.7500   2000.0000   2000.0000      8.5687    140.9834
   747.0000   2000.0000   2000.0000      8.4722    142.5475
   747.2500   2000.0000   2000.0000      8.2362    143.2061
   747.5000   2000.0000   2000.0000      7.9045    143.4169
   747.7500   2000.0000   2000.0000      7.5438    142.7205
   748.0000   2000.0000   2000.0000      7.2166    139.8176
   748.2500   2000.0000   2000.0000      6.9694    136.5354
   748.5000   2000.0000   2000.0000      6.8377    130.0397
   748.7500   2000.0000   2000.0000      6.8521    125.4059
   749.0000   2000.0000   2000.0000      7.0362    120.1925
   749.2500   2000.0000   2000.0000      7.3956    119.2176
   749.5000   2000.0000   2000.0000      7.9026    122.4139
   749.7500   2000.0000   2000.0000      8.4831    126.9862
   750.0000   2000.0000   2000.0000      9.0213    135.0177
   750.2500   2000.0000   2000.0000      9.3957    139.5983
   750.5000   2000.0000   2000.0000      9.5354    143.4556
   750.7500   2000.0000   2000.0000      9.4567    143.6237
   751.0000   2000.0000   2000.0000      9.2494    140.6741
   751.2500   2000.0000   2000.0000      9.0264    137.3232
   751.5000   2000.0000   2000.0000      8.8774    132.3870
   751.7500   2000.0000   2000.0000      8.8496    130.7021
   752.0000   2000.0000   2000.0000      8.9478    132.2766
   752.2500   2000.0000   2000.0000      9.1430    135.7429
