~Version Information
VERS.                      2.0: CWLS Log ASCII Standard - VERSION 2.0
WRAP.                       NO: One line per depth step
~Well Information Block
STRT.FT               230.0000: 
STOP.FT              1527.0000: 
STEP.FT                 0.1000: 
NULL.                -999.2500: 
COMP.          Pioneer Natural Resources: COMPANY
WELL.              Border 21-3: WELL
FLD.           Purgatorie River: FIELD
LOC.           865' FNL & 1415' FWL: LOCATION
PROV.                 Colorado: PROVINCE
CNTY.               Las Animas: COUNTRY
SRVC.                         : SERVICE COMPANY
DATE.          Thu Dec 09 16:57:34 2004: LOG DATE
UWI.           05 071 08169 00: UNIQUE WELL ID
~Curve Information Block
DEPT.FT            0 000 00 00: Depth
LTEN.lb                       : Surface Line Tension
DCAL.in                       : CDL Caliper
RHOB.g/cc                     : CDL Bulk Density
RHOC.g/cc                     : CDL Density Correction
DPOR.pu                       : CDL Density Porosity
GR.GAPI                       : Gamma Ray
NPOR.pu                       : Neutron Porosity
~Parameter Information Block
~A  Depth       LTEN        DCAL        RHOB        RHOC        DPOR         GR         NPOR    
# ...
   398.0000    741.8247      8.1734      2.3751      0.0891     16.6588    149.8012     22.6300
   398.1000    741.8247      8.1734      2.3320      0.0585     19.2707    153.9635     21.7319
   398.2000    741.8247      8.1734      2.2908      0.0438     21.7694    154.2652     20.8031
   398.3000    711.2512      8.1898      2.2468      0.0667     24.4383    152.6433     19.8324
   398.4000    711.2512      8.1898      2.1927      0.0668     27.7121    150.3265     18.8738
   398.5000    722.9764      8.1906      2.1280      0.0275     31.6350    144.7247     18.2534
   398.6000    722.9764      8.1906      2.0554      0.0184     36.0377    137.9588     18.2957
   398.7000    722.9764      8.1906      1.9788      0.0415     40.6817    134.8627     18.8969
   398.8000    689.5797      8.1933      1.9030      0.0830     45.2712    134.9733     19.7965
   398.9000    689.5797      8.1933      1.8399      0.0516     49.0976    135.5435     20.8717
   399.0000    665.4631      8.1973      1.8140      0.0974     50.6694    137.1387     22.0095
   399.1000    665.4631      8.1973      1.8435      0.1387     48.8771    140.4861     23.1488
   399.2000    665.4631      8.1973      1.9224      0.2460     44.0959    141.8468     24.3137
   399.3000    709.9377      8.2037      2.0331      0.2182     37.3898    139.3600     25.4409
   399.4000    709.9377      8.2037      2.1741      0.2474     28.8431    135.2380     26.4894
   399.5000    737.5701      8.2008      2.3424      0.3497     18.6433    131.3996     27.3463
   399.6000    737.5701      8.2008      2.5015      0.4597      8.9976    129.9859     27.9100
   399.7000    737.5701      8.2008      2.6099      0.4642      2.4302    129.4200     28.3378
   399.8000    721.0651      8.1683      2.6566      0.3836     -0.4016    127.3536     28.6302
   399.9000    721.0651      8.1683      2.6542      0.3379     -0.2537    123.5657     28.6783
   400.0000    733.9651      8.0363      2.6185      0.3016      1.9071    117.4940     28.4323
   400.1000    733.9651      8.0363      2.5686      0.1907      4.9361    112.7742     27.6464
   400.2000    733.9651      8.0363      2.5219      0.1469      7.7654    113.8394     26.3162
   400.3000    717.6088      8.0210      2.4787      0.0851     10.3814    117.2079     24.8937
   400.4000    717.6088      8.0210      2.4316      0.0490     13.2341    117.9730     23.6985
   400.5000    707.8260      8.0207      2.3837      0.0475     16.1403    115.7236     22.6232
   400.6000    707.8260      8.0207      2.3430      0.0438     18.6088    110.6817     21.3282
   400.7000    707.8260      8.0207      2.3114      0.0579     20.5206    104.8387     19.7105
   400.8000    713.9560      8.0223      2.2793      0.0919     22.4646    103.4961     17.8424
   400.9000    713.9560      8.0223      2.2349      0.0801     25.1558    109.2724     16.0023
   401.0000    736.9924      8.0481      2.1816      0.0593     28.3903    118.7779     14.5334
   401.1000    736.9924      8.0481      2.1288      0.0677     31.5874    124.4055     13.3566
   401.2000    736.9924      8.0481      2.0701      0.1357     35.1432    120.9664     12.4990
   401.3000    766.8759      8.2110      1.9873      0.1423     40.1627    115.5180     12.1196
   401.4000    766.8759      8.2110      1.8771      0.1467     46.8446    112.5596     12.0582
   401.5000    809.0076      8.2403      1.7652      0.0926     53.6244    107.1779     12.2191
   401.6000    809.0076      8.2403      1.6843      0.0973     58.5244    100.6330     12.7606
   401.7000    809.0076      8.2403      1.6434      0.1374     61.0086    100.3459     13.7187
   401.8000    808.5085      8.2544      1.6321      0.1763     61.6934    104.1664     14.7385
   401.9000    808.5085      8.2544      1.6430      0.1323     61.0294    103.2307     15.4042
   402.0000    838.6127      8.2823      1.6807      0.1683     58.7474     97.9364     15.8275
   402.1000    838.6127      8.2823      1.7470      0.2383     54.7255     95.2183     16.4692
   402.2000    838.6127      8.2823      1.8277      0.2833     49.8351     98.2136     17.4805
   402.3000    807.7435      8.2580      1.9054      0.2817     45.1268    104.8200     18.3037
   402.4000    807.7435      8.2580      1.9756      0.2525     40.8716    110.1445     18.3847
   402.5000    788.4652      8.2479      2.0345      0.2626     37.3010    111.1807     18.1079
   402.6000    788.4652      8.2479      2.0653      0.2261     35.4393    110.7327     18.2386
   402.7000    788.4652      8.2479      2.0568      0.1219     35.9498    112.7507     18.8586
   402.8000    810.8333      8.2406      2.0254      0.0592     37.8530    116.2249     19.4620
   402.9000    810.8333      8.2406      1.9968      0.0450     39.5873    118.7267     19.8390
   403.0000    783.1303      8.2248      1.9819      0.0564     40.4924    120.0624     20.2218
   403.1000    783.1303      8.2248      1.9833      0.0565     40.4073    120.5265     20.7217
   403.2000    783.1303      8.2248      2.0018      0.1125     39.2824    121.0206     21.3828
   403.3000    829.8272      8.1516      2.0314      0.1352     37.4901    124.2474     22.3497
   403.4000    829.8272      8.1516      2.0701      0.1986     35.1425    129.1264     23.3974
   403.5000    771.6375      8.0139      2.1226      0.2751     31.9624    130.3036     24.0511
   403.6000    771.6375      8.0139      2.1871      0.2991     28.0545    127.9300     24.1771
   403.7000    771.6375      8.0139      2.2589      0.2449     23.7049    128.3627     24.0208
   403.8000    768.3531      7.9975      2.3287      0.2543     19.4750    134.2576     23.9118
   403.9000    768.3531      7.9975      2.3767      0.2240     16.5620    138.5310     24.2103
   404.0000    749.9775      7.9924      2.3982      0.1460     15.2610    136.2710     24.9376
   404.1000    749.9775      7.9924      2.4086      0.1558     14.6296    133.4300     25.4722
   404.2000    749.9775      7.9924      2.4166      0.1210     14.1425    133.9088     25.4805
   404.3000    722.0062      7.9901      2.4273      0.1121     13.4941    133.1111     25.3459
   404.4000    722.0062      7.9901      2.4479      0.0930     12.2491    129.9302     25.3737
   404.5000    714.4034      7.9888      2.4780      0.0799     10.4253    128.7128     25.4368
   404.6000    714.4034      7.9888      2.5082      0.1108      8.5929    131.5099     25.1836
   404.7000    714.4034      7.9888      2.5258      0.1022      7.5272    137.8456     24.6725
   404.8000    717.8693      7.9879      2.5279      0.1092      7.3975    143.5415     24.2768
   404.9000    717.8693      7.9879      2.5212      0.1192      7.8057    142.2438     24.1838
   405.0000    724.3926      7.9873      2.5099      0.1433      8.4893    136.1871     24.3801
   405.1000    724.3926      7.9873      2.4929      0.1524      9.5207    132.0480     24.7176
   405.2000    724.3926      7.9873      2.4684      0.1203     11.0068    131.7978     24.9013
   405.3000    703.3882      7.9887      2.4404      0.1042     12.7007    134.0064     24.6045
   405.4000    703.3882      7.9887      2.4206      0.0829     13.9015    135.2097     23.8895
   405.5000    701.6505      7.9871      2.4182      0.0668     14.0483    134.7735     23.4009
   405.6000    701.6505      7.9871      2.4314      0.0681     13.2485    134.8054     23.6177
   405.7000    701.6505      7.9871      2.4576      0.0760     11.6583    135.8338     24.2448
   405.8000    711.1984      7.9889      2.4942      0.1172      9.4435    137.9219     24.7738
   405.9000    711.1984      7.9889      2.5282      0.1629      7.3849    139.4086     25.1249
   406.0000    739.1509      7.9892      2.5469      0.1967      6.2512    137.7741     25.3477
   406.1000    739.1509      7.9892      2.5505      0.1618      6.0312    134.4881     25.4402
   406.2000    739.1509      7.9892      2.5467      0.1618      6.2635    134.7259     25.5095
   406.3000    709.2483      7.9879      2.5413      0.1281      6.5859    137.7435     25.5729
