~Version Information
VERS.                      2.0: CWLS Log ASCII Standard - VERSION 2.0
WRAP.                       NO: One line per depth step
~Well Information Block
STRT.FT               970.5000: 
STOP.FT              2720.0000: 
STEP.FT                 0.1000: 
NULL.                -999.2500: 
COMP.          Petrogulf Corporation: COMPANY
WELL.             Burson 8-31V: WELL
FLD.           Purgatorie River: FIELD
LOC.           1113' FNL & 2152' FEL: LOCATION
CNTY.               Las Animas: COUNTY
SRVC.                         : SERVICE COMPANY
DATE.          Wed Nov 12 14:59:14 2003: LOG DATE
UWI.                          : UNIQUE WELL ID
STAT.                 Colorado: STATE
~Curve Information Block
DEPT.FT            0 000 00 00: Depth
DCAL.in                       : CDL Caliper
DPOR.pu                       : CDL Density Porosity
NEU.NAPI                      : Neutron
NPOR.pu                       : Neutron Porosity
RHOB.g/cc                     : CDL Bulk Density
RHOC.g/cc                     : CDL Density Correction
GR.GAPI                       : Gamma Ray
~Parameter Information Block
~A  Depth       DCAL        DPOR        NEU         NPOR        RHOB        RHOC         GR     
# ...
  2020.5000      7.9590     12.1305   1115.8352     26.6954      2.4498      0.0006    125.1633
  2020.6000      7.9590     12.3945   1122.4121     26.3503      2.4455     -0.0425    125.1633
  2020.7000      7.9590     10.8221   1131.3650     25.8829      2.4714      0.0040    125.1633
  2020.8000      7.9538      8.6114   1137.1416     25.5828      2.5079      0.0418    113.5569
  2020.9000      7.9538      6.9010   1133.0286     25.7964      2.5361      0.0523    113.5569
  2021.0000      7.9451      6.5928   1119.4768     26.5041      2.5412      0.1293    144.7274
  2021.1000      7.9451      7.5991   1109.7742     27.0147      2.5246      0.1075    144.7274
  2021.2000      7.9451      8.3626   1112.9548     26.8470      2.5120      0.0202    144.7274
  2021.3000      7.9535      8.0397   1120.2781     26.4621      2.5173      0.1140    141.2481
  2021.4000      7.9535      7.6285   1117.6801     26.5984      2.5241      0.1177    141.2481
  2021.5000      7.9586      7.6351   1110.1766     26.9935      2.5240      0.1052    146.0374
  2021.6000      7.9586      7.1635   1114.0151     26.7912      2.5318      0.0892    146.0374
  2021.7000      7.9586      6.0258   1124.6873     26.2313      2.5506      0.1347    146.0374
  2021.8000      7.9689      5.4215   1126.9996     26.1104      2.5605      0.0411    121.3848
  2021.9000      7.9689      6.2261   1119.9087     26.4815      2.5473      0.1285    121.3848
  2022.0000      7.9844      7.9326   1113.9727     26.7934      2.5191      0.0116    113.1307
  2022.1000      7.9844      9.0297   1113.5802     26.8141      2.5010      0.0568    113.1307
  2022.2000      7.9844      9.2138   1112.7202     26.8593      2.4980      0.0317    113.1307
  2022.3000      7.9622      9.2855   1106.6833     27.1780      2.4968      0.0168    118.7217
  2022.4000      7.9622      9.7215   1097.5103     27.6644      2.4896      0.0285    118.7217
  2022.5000      7.9566     10.5517   1093.7340     27.8654      2.4759      0.0739    118.7551
  2022.6000      7.9566     11.2558   1099.5967     27.5535      2.4643      0.0619    118.7551
  2022.7000      7.9566     11.1104   1108.4187     27.0863      2.4667      0.0796    118.7551
  2022.8000      7.9527     10.3741   1114.9449     26.7422      2.4788      0.0648    120.8377
  2022.9000      7.9527      9.9534   1121.2460     26.4114      2.4858      0.0607    120.8377
  2023.0000      7.9517      9.9726   1129.4307     25.9836      2.4855      0.0466    140.8184
  2023.1000      7.9517      9.5264   1132.1693     25.8410      2.4928      0.0386    140.8184
  2023.2000      7.9517      8.2228   1123.5647     26.2900      2.5143      0.0874    140.8184
  2023.3000      7.9419      7.0234   1109.4022     27.0343      2.5341      0.0864    130.5983
  2023.4000      7.9419      6.7326   1100.5533     27.5027      2.5389      0.0787    130.5983
  2023.5000      7.9427      7.2335   1102.8370     27.3816      2.5306      0.0272    119.8376
  2023.6000      7.9427      8.0546   1108.9399     27.0587      2.5171      0.0964    119.8376
  2023.7000      7.9427      8.5918   1110.6619     26.9679      2.5082      0.0500    119.8376
  2023.8000      7.9381      8.2299   1110.8623     26.9573      2.5142      0.0577    133.5679
  2023.9000      7.9381      7.3579   1112.0320     26.8956      2.5286      0.0390    133.5679
  2024.0000      7.9358      6.6293   1111.6017     26.9183      2.5406      0.0617    163.4230
  2024.1000      7.9358      6.0536   1113.5187     26.8173      2.5501      0.0898    163.4230
  2024.2000      7.9358      5.7990   1120.9771     26.4255      2.5543      0.0438    163.4230
  2024.3000      7.9365      5.7328   1127.3784     26.0907      2.5554      0.0719    157.7555
  2024.4000      7.9365      5.7170   1131.8431     25.8580      2.5557      0.0619    157.7555
  2024.5000      7.9381      6.6497   1140.3346     25.4175      2.5403      0.0703    140.1012
  2024.6000      7.9381      8.3362   1146.4354     25.1026      2.5125     -0.0391    140.1012
  2024.7000      7.9381      9.1621   1144.3098     25.2121      2.4988      0.0698    140.1012
  2024.8000      7.9534      9.0714   1141.7251     25.3456      2.5003      0.0360    122.4633
  2024.9000      7.9534      8.7111   1142.6584     25.2974      2.5063      0.0298    122.4633
  2025.0000      7.9904      8.0660   1144.0050     25.2278      2.5169      0.0287    134.5173
  2025.1000      7.9904      7.4438   1144.1455     25.2206      2.5272      0.0633    134.5173
  2025.2000      7.9904      7.4689   1144.4077     25.2071      2.5268      0.0530    134.5173
  2025.3000      8.0444      8.2463   1149.8876     24.9250      2.5139      0.1172    122.9284
  2025.4000      8.0444      8.8539   1160.8008     24.3666      2.5039     -0.0282    122.9284
  2025.5000      8.1218      8.2438   1168.8575     23.9574      2.5140      0.0709    125.1091
  2025.6000      8.1218      7.4323   1171.0476     23.8466      2.5274      0.1193    125.1091
  2025.7000      8.1218      7.8683   1169.7594     23.9118      2.5202      0.0944    125.1091
  2025.8000      8.1256      9.2768   1160.2371     24.3954      2.4969      0.1065    123.1147
  2025.9000      8.1256     10.3174   1137.2441     25.5775      2.4798     -0.0001    123.1147
  2026.0000      8.0924     10.4253   1110.1221     26.9963      2.4780      0.0663    135.9709
  2026.1000      8.0924     10.0692   1095.3481     27.7794      2.4839      0.0061    135.9709
  2026.2000      8.0924      9.3956   1091.1117     28.0052      2.4950      0.1011    135.9709
  2026.3000      8.1241      9.4744   1086.0275     28.2769      2.4937      0.0933    135.2440
  2026.4000      8.1241     11.7279   1076.0057     28.8146      2.4565      0.0631    135.2440
  2026.5000      8.1647     15.2550   1056.5575     29.8658      2.3983     -0.0094    131.5486
  2026.6000      8.1647     17.9361   1031.7620     31.2197      2.3541     -0.0192    131.5486
  2026.7000      8.1647     19.2320   1017.2298     32.0194      2.3327      0.0536    131.5486
  2026.8000      8.1493     19.5035   1016.5239     32.0584      2.3282      0.0261    150.6596
  2026.9000      8.1493     19.0085   1020.1030     31.8610      2.3364      0.0692    150.6596
  2027.0000      8.0205     18.3222   1025.6055     31.5579      2.3477      0.0622    150.6040
  2027.1000      8.0205     17.3685   1037.0098     30.9319      2.3634     -0.0336    150.6040
  2027.2000      8.0205     15.5945   1050.2717     30.2076      2.3927      0.0552    150.6040
  2027.3000      8.1041     13.2809   1052.8113     30.0694      2.4309      0.0846    153.1975
  2027.4000      8.1041     10.4309   1044.1501     30.5415      2.4779      0.0647    153.1975
  2027.5000      8.0316      6.6633   1037.1400     30.9248      2.5401      0.1394    139.0318
  2027.6000      8.0316      3.2996   1037.4146     30.9098      2.5956      0.1565    139.0318
  2027.7000      8.0316      2.0977   1040.4633     30.7429      2.6154      0.1128    139.0318
  2027.8000      8.0264      2.8945   1039.8468     30.7767      2.6022      0.0489    132.1132
  2027.9000      8.0264      4.2248   1035.6633     31.0057      2.5803      0.0208    132.1132
  2028.0000      8.0260      4.9961   1033.3362     31.1333      2.5676     -0.0065    130.8253
  2028.1000      8.0260      5.5498   1037.2256     30.9201      2.5584      0.0511    130.8253
  2028.2000      8.0260      6.4977   1046.8408     30.3946      2.5428     -0.0304    130.8253
  2028.3000      8.0045      7.6287   1052.6932     30.0758      2.5241      0.0048    141.1960
  2028.4000      8.0045      8.7203   1046.7861     30.3976      2.5061     -0.0492    141.1960
  2028.5000      8.0115      9.3018   1037.2537     30.9186      2.4965     -0.0370    149.3358
  2028.6000      8.0115      8.8590   1039.9824     30.7692      2.5038     -0.0630    149.3358
  2028.7000      8.0115      7.4230   1055.0375     29.9484      2.5275     -0.0297    149.3358
  2028.8000      7.9982      5.6738   1064.6074     29.4295      2.5564      0.0421    159.4913
