~Version Information
VERS.                      2.0: CWLS Log ASCII Standard - VERSION 2.0
WRAP.                       NO: One line per depth step
~Well Information Block
STRT.FT               748.2500: 
STOP.FT              2498.5000: 
STEP.FT                 0.2500: 
NULL.                -999.2500: 
COMP.          Petrogulf Corporation: COMPANY
WELL.           Montoya 13-41V: WELL
FLD.           Purgatorie River: FIELD
LOC.           449' FNL & 891' FEL: LOCATION
CNTY.               Las Animas: COUNTY
SRVC.                         : SERVICE COMPANY
DATE.          Tue Aug 17 13:22:31 2004: LOG DATE
UWI.           05 071 08021 00: UNIQUE WELL ID
STAT.                 Colorado: STATE
~Curve Information Block
DEPT.FT            0 000 00 00: Depth
SP.mV                         : DIL Spontaneous Potential
RILD.Ohm-m                    : DIL Deep Resistivity
RILM.Ohm-m                    : DIL Medium Resistivity
RLL3.Ohm-m                    : DIL Shallow Resistivity
GR.GAPI                       : Gamma Ray
~Parameter Information Block
~A  Depth        SP         RILD        RILM        RLL3         GR     
# ...
  1448.2500     68.9851     16.0632     16.7297     21.1492    148.2416
  1448.5000     69.6939     16.7518     17.9517     23.2765    145.1159
  1448.7500     70.2940     17.1698     19.2556     26.3160    142.7383
  1449.0000     70.7736     17.3046     20.5629     30.2528    138.8203
  1449.2500     71.1141     17.1968     21.7511     34.7627    135.7044
  1449.5000     71.2824     16.9214     22.6707     39.1720    129.4733
  1449.7500     71.2447     16.5609     23.1847     42.6197    124.3285
  1450.0000     70.9794     16.1831     23.2185     44.3745    116.9966
  1450.2500     70.4949     15.8310     22.7910     44.1187    113.9256
  1450.5000     69.8264     15.5241     22.0058     42.0207    113.5578
  1450.7500     69.0200     15.2640     21.0108     38.5819    116.0317
  1451.0000     68.1161     15.0421     19.9522     34.3970    123.1909
  1451.2500     67.1417     14.8465     18.9454     29.9898    130.2637
  1451.5000     66.1175     14.6672     18.0668     25.7694    144.4154
  1451.7500     65.0806     14.4991     17.3572     22.0484    155.3946
  1452.0000     64.1022     14.3403     16.8310     19.0497    170.5332
  1452.2500     63.2869     14.1898     16.4840     16.8920    177.1787
  1452.5000     62.7512     14.0458     16.2991     15.5906    179.7987
  1452.7500     62.5828     13.9062     16.2507     15.0944    177.3853
  1453.0000     62.8015     13.7712     16.3070     15.3296    170.6026
  1453.2500     63.3460     13.6435     16.4339     16.2103    165.4616
  1453.5000     64.0786     13.5305     16.5982     17.6109    158.0350
  1453.7500     64.8217     13.4437     16.7716     19.3423    153.6180
  1454.0000     65.3974     13.3992     16.9328     21.1722    148.4418
  1454.2500     65.6683     13.4141     17.0689     22.8876    146.2048
  1454.5000     65.5622     13.5016     17.1724     24.3536    144.2571
  1454.7500     65.0827     13.6644     17.2387     25.5180    143.3105
  1455.0000     64.3055     13.8896     17.2629     26.3508    141.9191
  1455.2500     63.3560     14.1500     17.2391     26.7622    141.3552
  1455.5000     62.3855     14.4079     17.1622     26.5775    142.1754
  1455.7500     61.5293     14.6226     17.0294     25.6219    144.3196
  1456.0000     60.8746     14.7580     16.8429     23.8743    150.1790
  1456.2500     60.4267     14.7886     16.6100     21.5674    155.7195
  1456.5000     60.1117     14.7058     16.3414     19.1308    165.6110
  1456.7500     59.8045     14.5193     16.0480     17.0041    172.0987
  1457.0000     59.3809     14.2519     15.7382     15.4552    178.9367
  1457.2500     58.7754     13.9300     15.4164     14.5229    180.4891
  1457.5000     58.0137     13.5755     15.0825     14.0931    178.9245
  1457.7500     57.2106     13.2050     14.7337     14.0238    176.7975
  1458.0000     56.5373     12.8354     14.3655     14.2238    174.3995
  1458.2500     56.1677     12.4881     13.9751     14.6520    173.8197
  1458.5000     56.2310     12.1864     13.5631     15.2630    174.1046
  1458.7500     56.7691     11.9483     13.1344     15.9492    174.7017
  1459.0000     57.7219     11.7782     12.6987     16.5220    175.7529
  1459.2500     58.9389     11.6652     12.2689     16.7554    176.3742
  1459.5000     60.2198     11.5874     11.8595     16.4773    177.2099
  1459.7500     61.3763     11.5194     11.4843     15.6571    178.0076
  1460.0000     62.2865     11.4395     11.1555     14.4287    180.3481
  1460.2500     62.9275     11.3320     10.8827     13.0299    182.9168
  1460.5000     63.3589     11.1878     10.6727     11.7066    187.7050
  1460.7500     63.6812     11.0053     10.5296     10.6494    190.6617
  1461.0000     63.9819     10.7937     10.4546      9.9907    193.3557
  1461.2500     64.3019     10.5746     10.4462      9.8372    193.6153
  1461.5000     64.6251     10.3769     10.4994     10.2882    191.5183
  1461.7500     64.8899     10.2286     10.6064     11.4048    188.4564
  1462.0000     65.0088     10.1498     10.7566     13.1288    181.8784
  1462.2500     64.8924     10.1504     10.9379     15.2034    176.8858
  1462.5000     64.4801     10.2321     11.1387     17.1863    169.9381
  1462.7500     63.7658     10.3933     11.3505     18.6025    166.3658
  1463.0000     62.8196     10.6317     11.5703     19.1661    163.3812
  1463.2500     61.7843     10.9451     11.8024     18.9129    163.0718
  1463.5000     60.8454     11.3299     12.0590     18.1433    164.4685
  1463.7500     60.1759     11.7783     12.3598     17.2386    166.0018
  1464.0000     59.8797     12.2761     12.7303     16.5131    168.5348
  1464.2500     59.9577     12.8043     13.1995     16.1950    170.2536
  1464.5000     60.3004     13.3425     13.7981     16.4873    172.0797
  1464.7500     60.7192     13.8750     14.5561     17.5920    171.7141
  1465.0000     61.0028     14.3940     15.5008     19.6588    167.1181
  1465.2500     60.9827     14.8982     16.6550     22.7113    161.4330
  1465.5000     60.5854     15.3863     18.0329     26.6434    151.0585
  1465.7500     59.8553     15.8527     19.6375     31.3061    144.3878
  1466.0000     58.9466     16.2907     21.4569     36.5994    136.0432
  1466.2500     58.0775     16.7047     23.4630     42.4494    131.3799
  1466.5000     57.4753     17.1222     25.6110     48.6407    124.5281
  1466.7500     57.3214     17.5951     27.8420     54.6440    119.5678
  1467.0000     57.7159     18.1832     30.0852     59.6488    111.9495
  1467.2500     58.6620     18.9305     32.2619     62.8645    107.6076
  1467.5000     60.0631     19.8426     34.2925     63.8983    103.6182
  1467.7500     61.7404     20.8761     36.1060     62.9248    102.8201
  1468.0000     63.4576     21.9441     37.6557     60.5276    103.4911
  1468.2500     64.9662     22.9394     38.9338     57.3623    104.4838
  1468.5000     66.0654     23.7651     39.9787     53.9045    106.2969
  1468.7500     66.6497     24.3578     40.8635     50.4307    107.8031
  1469.0000     66.7340     24.6953     41.6710     47.1672    110.5704
  1469.2500     66.4373     24.7927     42.4662     44.4260    112.5736
  1469.5000     65.9325     24.6945     43.2685     42.6100    115.1934
  1469.7500     65.3848     24.4651     44.0422     42.1118    116.2251
  1470.0000     64.9063     24.1730     44.6986     43.2107    116.1913
  1470.2500     64.5369     23.8767     45.1160     46.0280    115.3288
  1470.5000     64.2593     23.6140     45.1758     50.4921    113.8690
  1470.7500     64.0347     23.4051     44.8035     56.2086    113.1395
  1471.0000     63.8401     23.2633     43.9981     62.2499    111.6359
  1471.2500     63.6937     23.2038     42.8366     67.0989    109.6980
  1471.5000     63.6526     23.2462     41.4560     69.0335    106.1511
  1471.7500     63.7924     23.4065     40.0143     66.9272    105.2602
  1472.0000     64.1681     23.6880     38.6584     60.9734    109.6674
  1472.2500     64.7749     24.0770     37.4994     52.7448    116.9951
  1472.5000     65.5273     24.5431     36.6058     44.4865    132.0046
  1472.7500     66.2704     25.0435     36.0019     38.1356    142.0068
  1473.0000     66.8201     25.5283     35.6750     34.6915    152.7753
  1473.2500     67.0187     25.9476     35.5869     34.1662    155.7782
  1473.5000     66.7921     26.2665     35.6858     35.9195    154.1109
  1473.7500     66.1755     26.4822     35.9239     39.0609    150.0272
  1474.0000     65.3028     26.6360     36.2728     42.7447    142.0056
  1474.2500     64.3618     26.8074     36.7336     46.3457    136.6136
  1474.5000     63.5332     27.0925     37.3359     49.5305    129.6796
  1474.7500     62.9364     27.5780     38.1290     52.2136    126.0735
  1475.0000     62.6070     28.3211     39.1623     54.4138    121.9235
  1475.2500     62.5085     29.3430     40.4685     56.1037    119.6527
  1475.5000     62.5661     30.6266     42.0467     57.1744    116.9700
  1475.7500     62.7017     32.1217     43.8517     57.5471    116.2494
  1476.0000     62.8646     33.7449     45.7946     57.3237    117.7353
