~Version Information
VERS.                                  2.0 : CWLS LAS VERSION
WRAP.                                   NO : WRAPING MODE
SWARE .                 MController 2.5.0E : SOFTWARE VERSION
~Well Information
WELL.                     Moneypenny 31-16 : WELL
COMP.             Evergreen Operating Corp : COMPANY
FLD.                      Purgatorie River : FIELD
LOC.                NW/NE Sec 36 t33S R67W : LOCATION
DATE.                             10/01/04 : DATE(S) LOGGED
SRVC.       Blanco Geological Services LLC : SERVICE COMPANY
STAT.                                   CO : STATE
CNTY.                           Las Animas : COUNTY
CTRY.                                  USA : COUNTRY
API.                       05-071-08183-00 : API NUMBER
STRT.FT                            1097.00 : START DEPTH
STOP.FT                            1675.00 : STOP DEPTH
STEP.FT                               1.00 : DEPTH INCREMENT
NULL.                                -9999 : NULL VALUE
~Curve information
DEPTH.FT                                   :
ROP.MIN/FT                                 :
GAS.UNITS                                  :
~ASCII Log data
# ...
     1303.00        0.167         58.6
     1304.00        0.200         54.3
     1305.00        0.133         51.4
     1306.00        0.100         49.7
     1307.00        0.183         48.0
     1308.00        0.167         47.7
     1309.00        0.167         48.3
     1310.00        0.133         49.6
     1311.00        0.100         51.0
     1312.00        0.133         52.5
     1313.00        0.133         53.9
     1314.00        0.167         55.1
     1315.00        0.167         56.3
     1316.00        0.167         57.4
     1317.00        0.233         57.4
     1318.00        0.200         57.6
     1319.00        3.983        239.1
     1320.00        0.267        275.8
     1321.00        0.267        242.9
     1322.00        0.267        186.3
     1323.00        0.283        137.4
     1324.00        0.267        108.8
     1325.00        0.267        100.2
     1326.00        0.133         97.8
     1327.00        0.267         91.4
     1328.00        0.133         87.1
     1329.00        0.267         77.9
     1330.00        0.267         69.3
     1331.00        0.300         61.9
     1332.00        0.267         57.9
     1333.00        0.267         55.9
     1334.00        0.133         55.6
     1335.00        0.267         54.8
     1336.00        0.267         53.5
     1337.00        0.283         52.8
     1338.00        0.267         52.4
     1339.00        0.267         51.7
     1340.00        0.267         50.6
     1341.00        0.267         49.7
     1342.00        0.267         48.8
     1343.00        0.267         47.9
     1344.00        0.267         45.2
     1345.00        0.167         44.6
     1346.00        0.267         46.6
     1347.00        0.300         49.5
     1348.00        5.700       1575.2
     1349.00        0.133       1603.2
     1350.00        0.100       1624.1
     1351.00        0.100       1648.3
     1352.00        0.167       1752.8
     1353.00        0.333       3108.5
     1354.00        0.300       3869.3
     1355.00        0.300       3566.1
     1356.00        0.250       2534.8
     1357.00        0.233       1689.4
     1358.00        0.233       1208.3
     1359.00        0.200       1003.8
     1360.00        0.200        865.7
     1361.00        0.200        768.0
     1362.00        0.100        727.9
     1363.00        0.100        691.5
     1364.00        0.100        661.2
     1365.00        0.100        633.9
     1366.00        0.133        605.3
     1367.00        0.100        587.1
     1368.00        0.133        562.5
     1369.00        0.133        540.6
     1370.00        0.167        522.0
     1371.00        0.133        511.3
     1372.00        0.133        506.5
     1373.00        0.100        514.0
     1374.00        0.100        525.1
     1375.00        0.167        560.8
     1376.00        0.233        615.0
     1377.00        0.217        642.3
     1378.00        0.200        650.1
     1379.00        0.167        649.1
     1380.00        0.267        639.0
     1381.00        0.267        639.0
     1382.00        0.267        644.7
     1383.00        0.267        616.7
     1384.00        0.267        586.4
     1385.00        0.133        563.5
     1386.00       12.267         97.0
     1387.00        0.267        129.0
     1388.00        0.233        165.1
     1389.00        0.067        176.7
     1390.00        0.200        223.9
     1391.00        0.333        385.6
     1392.00        0.300        481.9
     1393.00        0.333       1084.4
     1394.00        0.133        950.9
     1395.00        0.267        759.9
     1396.00        0.267        679.0
     1397.00        0.283        635.6
     1398.00        0.167        611.0
     1399.00        0.267        566.5
     1400.00        0.100        548.0
     1401.00        0.267        498.1
     1402.00        0.333        457.4
     1403.00        0.267        440.0
     1404.00        0.133         69.6
     1405.00        0.267         65.0
     1406.00        0.300         62.5
     1407.00        0.267         63.1
     1408.00        0.267         64.1
     1409.00        0.267         69.4
     1410.00        0.267         74.7
     1411.00        0.283         72.5
     1412.00        0.267         69.5
     1413.00        0.267         73.7
     1414.00        0.133         77.2
     1415.00        0.267         82.5
     1416.00        0.233         85.0
     1417.00        0.267         84.8
     1418.00        0.267         82.8
     1419.00        0.267         80.0
     1420.00        0.300         76.3
     1421.00        0.233         73.9
     1422.00        0.267         71.3
     1423.00        0.200         69.9
     1424.00        0.217         68.7
     1425.00        0.200         67.8
     1426.00        0.200         67.2
     1427.00        0.167         66.3
     1428.00        0.200         65.7
     1429.00        0.267         64.9
     1430.00        0.267         64.6
     1431.00        0.267         65.9
     1432.00        0.267         65.4
     1433.00        0.267         63.1
     1434.00        0.100         61.0
     1435.00        0.267         51.0
     1436.00        0.267         42.2
     1437.00        0.267         38.4
     1438.00        0.267         42.3
     1439.00        0.150         47.9
     1440.00        3.317        129.1
     1441.00        0.267        123.4
     1442.00        0.300        115.9
     1443.00        0.267        108.2
     1444.00        0.433         93.1
     1445.00        0.300         83.3
     1446.00        0.267         77.6
     1447.00        0.267         74.8
     1448.00        0.300         71.9
     1449.00        0.233         69.3
     1450.00        0.233         64.9
     1451.00        0.200         60.2
     1452.00        0.167         58.6
     1453.00        0.283         60.0
     1454.00        0.267         62.8
     1455.00        0.267         64.3
     1456.00        0.267         64.8
     1457.00        0.267         66.1
     1458.00        0.167         66.9
     1459.00        0.133         67.2
     1460.00        0.200         67.0
     1461.00        0.233         66.2
     1462.00        0.133         65.5
     1463.00        0.133         64.8
     1464.00        0.267         63.6
     1465.00        0.267         64.7
     1466.00        3.717        261.9
     1467.00        0.100        294.1
     1468.00        0.417        416.5
     1469.00        0.300        406.4
     1470.00        0.267        311.6
     1471.00        0.267        204.5
     1472.00        0.233        156.6
     1473.00        0.200        139.8
     1474.00        0.167        134.4
     1475.00        0.200        130.6
     1476.00        0.200        124.8
     1477.00        0.200        116.8
     1478.00        0.233        106.3
     1479.00        0.233         96.2
     1480.00        0.233         87.7
     1481.00        0.200         81.4
     1482.00        0.250         75.6
     1483.00        0.200         73.0
     1484.00        0.267         71.8
     1485.00        0.267         72.6
     1486.00        0.267         74.3
     1487.00        0.267         72.7
     1488.00        0.100         71.5
     1489.00        0.267         68.2
     1490.00        0.167         64.0
     1491.00        0.267         55.9
     1492.00        0.267         50.8
     1493.00        0.067         50.2
     1494.00        0.267         49.9
     1495.00        5.067         82.5
     1496.00        0.267        123.4
     1497.00        0.267        173.9
     1498.00        0.267        229.2
     1499.00        0.267        285.9
     1500.00        0.167        337.5
     1501.00        0.400        454.5
     1502.00        0.333        420.5
     1503.00        0.283        305.3
     1504.00        0.333        179.2
     1505.00        0.300        133.5
     1506.00        0.267        122.8
     1507.00        0.233        119.8
     1508.00        0.300        114.1
