~Version Information
VERS.                      2.0: CWLS Log ASCII Standard - VERSION 2.0
WRAP.                       NO: One line per depth step
~Well Information Block
STRT.FT               492.8000: 
STOP.FT              1992.0000: 
STEP.FT                 0.1000: 
NULL.                -999.2500: 
COMP.          Petrogulf Corporation: COMPANY
WELL.               Furu 6-23R: WELL
FLD.           Purgatoire River: FIELD
LOC.           2211' FSL & 1780' FWL--: LOCATION
CNTY.               Las Animas: COUNTY
SRVC.                Patterson: SERVICE COMPANY
DATE.          Thu Jun 22 14:21:35 2006: LOG DATE
UWI.           05 071 08266 00: UNIQUE WELL ID
STAT.                 Colorado: STATE
~Curve Information Block
DEPT.FT            0 000 00 00: Depth
DCAL.in                       : CDL Caliper
RHOB.g/cc                     : CDL Bulk Density
RHOC.g/cc                     : CDL Density Correction
DPOR.pu                       : CDL Density Porosity
NPOR.pu                       : Neutron Porosity
GR.GAPI                       : Gamma Ray
~Parameter Information Block
~A  Depth       DCAL        RHOB        RHOC        DPOR        NPOR         GR     
# ...
  1952.0000      7.9093      2.5193      0.1363      7.9212     19.9494   -999.2500
  1952.1000      7.9093      2.5184      0.1110      7.9756     20.9982   -999.2500
  1952.2000      7.9093      2.5155      0.0916      8.1523     21.4171   -999.2500
  1952.3000      7.9073      2.5223      0.1346      7.7365     21.4356   -999.2500
  1952.4000      7.9073      2.5319      0.0995      7.1552     21.3778   -999.2500
  1952.5000      7.9041      2.5365      0.1057      6.8793     21.5127   -999.2500
  1952.6000      7.9041      2.5319      0.1149      7.1548     21.7037   -999.2500
  1952.7000      7.9041      2.5137      0.1304      8.2586     21.4724   -999.2500
  1952.8000      7.9029      2.4881      0.0902      9.8107     20.5239   -999.2500
  1952.9000      7.9029      2.4688      0.0772     10.9838     19.2496   -999.2500
  1953.0000      7.9042      2.4559      0.0935     11.7653     18.3377   -999.2500
  1953.1000      7.9042      2.4438      0.0613     12.4942     17.6590   -999.2500
  1953.2000      7.9042      2.4351      0.0614     13.0259     16.9928   -999.2500
  1953.3000      7.9039      2.4338      0.0308     13.1044     16.7396   -999.2500
  1953.4000      7.9039      2.4404      0.0757     12.7004     16.9588   -999.2500
  1953.5000      7.8993      2.4464      0.0860     12.3419     17.1135   -999.2500
  1953.6000      7.8993      2.4449      0.0844     12.4322     16.8572   -999.2500
  1953.7000      7.8993      2.4424      0.0449     12.5819     16.4321   -999.2500
  1953.8000      7.8934      2.4455      0.0601     12.3936     16.2726   -999.2500
  1953.9000      7.8934      2.4537      0.0593     11.8997     16.3922   -999.2500
  1954.0000      7.8891      2.4658      0.0646     11.1609     16.7721   -999.2500
  1954.1000      7.8891      2.4769      0.1025     10.4910     17.5393   -999.2500
  1954.2000      7.8891      2.4801      0.0779     10.2956     18.0920   -999.2500
  1954.3000      7.8869      2.4818      0.0690     10.1951     17.6982   -999.2500
  1954.4000      7.8869      2.4897      0.1207      9.7181     16.8042   -999.2500
  1954.5000      7.8860      2.4982      0.0992      9.2015     16.5172   -999.2500
  1954.6000      7.8860      2.4960      0.1172      9.3344     16.9812   -999.2500
  1954.7000      7.8860      2.4788      0.0958     10.3780     17.4221   -999.2500
  1954.8000      7.8848      2.4568      0.0797     11.7066     17.3843   -999.2500
  1954.9000      7.8848      2.4421      0.1079     12.6011     17.2323   -999.2500
  1955.0000      7.8823      2.4335      0.0995     13.1183     17.5705   -999.2500
  1955.1000      7.8823      2.4312      0.0667     13.2597     18.3136   -999.2500
  1955.2000      7.8823      2.4389      0.0835     12.7957     18.8941   -999.2500
  1955.3000      7.8817      2.4521      0.0891     11.9938     19.1844   -999.2500
  1955.4000      7.8817      2.4700      0.0864     10.9119     19.3299   -999.2500
  1955.5000      7.8839      2.4945      0.1057      9.4214     19.4719   -999.2500
  1955.6000      7.8839      2.5185      0.1125      7.9707     19.6995   -999.2500
  1955.7000      7.8839      2.5364      0.1087      6.8835     19.9324   -999.2500
  1955.8000      7.8862      2.5520      0.1021      5.9398     20.2260   -999.2500
  1955.9000      7.8862      2.5653      0.1277      5.1311     20.6710   -999.2500
  1956.0000      7.8906      2.5714      0.1123      4.7648     21.1383   -999.2500
  1956.1000      7.8906      2.5710      0.0904      4.7898     21.5127   -999.2500
  1956.2000      7.8906      2.5685      0.0759      4.9366     21.9837   -999.2500
  1956.3000      7.8981      2.5663      0.0915      5.0736     22.7566   -999.2500
  1956.4000      7.8981      2.5706      0.0544      4.8136     23.5240   -999.2500
  1956.5000      7.9037      2.5818      0.1037      4.1360     23.9933   -999.2500
  1956.6000      7.9037      2.5825      0.0784      4.0902     24.6162   -999.2500
  1956.7000      7.9037      2.5691      0.0736      4.9004     27.1811   -999.2500
  1956.8000      7.9059      2.5580      0.0680      5.5731     34.4131   -999.2500
  1956.9000      7.9059      2.5580      0.0780      5.5759     44.7977   -999.2500
  1957.0000      7.9067      2.5704      0.0593      4.8268     51.9642   -999.2500
  1957.1000      7.9067      2.5930      0.1001      3.4560     54.5063   -999.2500
  1957.2000      7.9067      2.6112      0.1027      2.3542     55.0028   -999.2500
  1957.3000      7.9070      2.6093      0.1231      2.4682     55.0554   -999.2500
  1957.4000      7.9070      2.5852      0.0716      3.9245     55.0584   -999.2500
  1957.5000      7.9071      2.5503      0.0758      6.0417   -999.2500   -999.2500
  1957.6000      7.9071      2.5223      0.0277      7.7385   -999.2500   -999.2500
  1957.7000      7.9071      2.5164      0.0093      8.0941   -999.2500   -999.2500
  1957.8000      7.9069      2.5287      0.0777      7.3531   -999.2500   -999.2500
  1957.9000      7.9069      2.5420      0.0640      6.5443   -999.2500   -999.2500
  1958.0000      7.9064      2.5521      0.0699      5.9346   -999.2500   -999.2500
  1958.1000      7.9064      2.5615      0.0711      5.3640   -999.2500   -999.2500
  1958.2000      7.9064      2.5686      0.0472      4.9319   -999.2500   -999.2500
  1958.3000      7.9056      2.5666      0.1046      5.0563   -999.2500   -999.2500
  1958.4000      7.9056      2.5479      0.0947      6.1896   -999.2500   -999.2500
  1958.5000      7.9067      2.5194      0.0512      7.9172   -999.2500   -999.2500
  1958.6000      7.9067      2.5002      0.0226      9.0777   -999.2500   -999.2500
  1958.7000      7.9067      2.4998      0.0588      9.1048   -999.2500   -999.2500
  1958.8000      7.9085      2.5060      0.0723      8.7283   -999.2500   -999.2500
  1958.9000      7.9085      2.5074      0.0332      8.6426   -999.2500   -999.2500
  1959.0000      7.9082      2.5103      0.0516      8.4641   -999.2500   -999.2500
  1959.1000      7.9082      2.5170      0.0594      8.0633   -999.2500   -999.2500
  1959.2000      7.9082      2.5169      0.0684      8.0680   -999.2500   -999.2500
  1959.3000      7.9007      2.5115      0.0374      8.3949   -999.2500   -999.2500
  1959.4000      7.9007      2.5174      0.0859      8.0385   -999.2500   -999.2500
  1959.5000      7.8864      2.5417      0.0807      6.5607   -999.2500   -999.2500
  1959.6000      7.8864      2.5735      0.1200      4.6359   -999.2500   -999.2500
  1959.7000      7.8864      2.5860      0.1780      3.8792   -999.2500   -999.2500
  1959.8000      7.8781      2.5681      0.0621      4.9629   -999.2500   -999.2500
  1959.9000      7.8781      2.5471      0.0685      6.2376   -999.2500   -999.2500
  1960.0000      7.8774      2.5449      0.0654      6.3704   -999.2500   -999.2500
  1960.1000      7.8774      2.5532      0.0933      5.8648   -999.2500   -999.2500
  1960.2000      7.8774      2.5587      0.0827      5.5346   -999.2500   -999.2500
  1960.3000      7.8786      2.5639      0.0818      5.2159   -999.2500   -999.2500
  1960.4000      7.8786      2.5750      0.0779      4.5476   -999.2500   -999.2500
  1960.5000      7.8810      2.5822      0.1103      4.1073   -999.2500   -999.2500
  1960.6000      7.8810      2.5737      0.1059      4.6259   -999.2500   -999.2500
  1960.7000      7.8810      2.5570      0.0736      5.6394   -999.2500   -999.2500
  1960.8000      7.8826      2.5531      0.0463      5.8701   -999.2500   -999.2500
  1960.9000      7.8826      2.5624      0.1344      5.3118   -999.2500   -999.2500
  1961.0000      7.8803      2.5599      0.1299      5.4584   -999.2500   -999.2500
  1961.1000      7.8803      2.5428      0.0885      6.4955   -999.2500   -999.2500
  1961.2000      7.8803      2.5337      0.0656      7.0489   -999.2500   -999.2500
  1961.3000      7.8763      2.5361      0.1053      6.9012   -999.2500   -999.2500
  1961.4000      7.8763      2.5352      0.0813      6.9605   -999.2500   -999.2500
  1961.5000      7.8752      2.5265      0.0969      7.4822   -999.2500   -999.2500
