~Version Information
VERS.                      2.0: CWLS Log ASCII Standard - VERSION 2.0
WRAP.                       NO: One line per depth step
~Well Information Block
STRT.FT                37.7500: 
STOP.FT              1898.5000: 
STEP.FT                 0.2500: 
NULL.                -999.2500: 
COMP.          Petrogulf Corporation: COMPANY
WELL.           Montoya 12-41R: WELL
FLD.           Purgatorie River: FIELD
LOC.           1086' FNL & 610' FEL--: LOCATION
PROV.                       CO: PROVINCE
CNTY.               Las Animas: COUNTRY
SRVC.                         : SERVICE COMPANY
DATE.          Wed Feb 09 11:45:45 2005: LOG DATE
UWI.         005 071 08241 : UNIQUE WELL ID
~Curve Information Block
DEPT.FT            0 000 00 00: Depth
CCL.                          : Casing Collar Locator
TT3.usec                      : CBL 3' Travel Time
AMP3.mV                       : CBL 3' Amplitude
GR.GAPI                       : Gamma Ray
~Parameter Information Block
~A  Depth       CCL         TT3         AMP3         GR     
    37.7500   -999.2500   -999.2500   -999.2500   -999.2500
    38.0000   -999.2500   -999.2500   -999.2500     69.5845
    38.2500   -999.2500   -999.2500   -999.2500     66.8460
    38.5000   -999.2500   -999.2500   -999.2500     64.3865
    38.7500   -999.2500   -999.2500   -999.2500     62.3561
    39.0000   -999.2500   -999.2500   -999.2500     60.2792
    39.2500   -999.2500   -999.2500   -999.2500     58.6981
    39.5000   -999.2500   -999.2500   -999.2500     59.1732
    39.7500   -999.2500   -999.2500   -999.2500     62.4491
    40.0000   -999.2500   -999.2500   -999.2500     67.0687
    40.2500   -999.2500   -999.2500   -999.2500     70.2970
    40.5000   -999.2500   -999.2500   -999.2500     70.4843
    40.7500   -999.2500   -999.2500   -999.2500     68.2562
    41.0000   -999.2500   -999.2500   -999.2500     65.4737
    41.2500   -999.2500   -999.2500   -999.2500     63.5259
    41.5000   -999.2500   -999.2500   -999.2500     62.7602
    41.7500   -999.2500   -999.2500   -999.2500     62.9272
    42.0000   -999.2500   -999.2500   -999.2500     63.6922
    42.2500   -999.2500   -999.2500   -999.2500     64.8521
    42.5000   -999.2500   -999.2500   -999.2500     66.3228
    42.7500   -999.2500   -999.2500   -999.2500     67.9556
    43.0000   -999.2500    798.0000      1.0600     69.3159
    43.2500   -999.2500    798.0000      1.0509     69.6792
    43.5000   -999.2500    798.0000      1.0629     68.3042
    43.7500   -999.2500    798.0000      1.0950     64.9902
    44.0000   -999.2500    798.0000      1.1343     60.6892
    44.2500   -999.2500    798.0000      1.1656     57.3331
    44.5000   -999.2500    798.0000      1.1824     56.3600
    44.7500   -999.2500    798.0000      1.1895     57.3475
    45.0000   -999.2500    798.0000      1.1935     58.6590
    45.2500   -999.2500    798.0000      1.1937     59.3720
    45.5000   -999.2500    798.0000      1.1837     59.8695
    45.7500   -999.2500    798.0000      1.1627     60.5759
    46.0000   -999.2500    798.0000      1.1409     60.8810
    46.2500   -999.2500    798.0000      1.1292     59.5783
    46.5000   -999.2500    798.0000      1.1276     56.2145
    46.7500   -999.2500    798.0000      1.1267     51.8890
    47.0000   -999.2500    798.0000      1.1179     48.4722
    47.2500   -999.2500    798.0000      1.1005     46.9175
    47.5000   -999.2500    798.0000      1.0810     46.6082
    47.7500   -999.2500    798.0000      1.0673     46.5004
    48.0000   -999.2500    798.0000      1.0640     46.5720
    48.2500      0.0000    798.0000      1.0694     47.8311
    48.5000      0.0000    798.0000      1.0780     51.0235
    48.7500      0.0000    798.0000      1.0844     55.6339
    49.0000      0.0000    798.0000      1.0866     60.2167
    49.2500      0.0000    798.0000      1.0846     63.4419
    49.5000      0.0000    798.0000      1.0791     64.6745
    49.7500      0.0000    798.0000      1.0722     64.0204
    50.0000      0.0000    798.0000      1.0681     62.3085
    50.2500      0.0000    798.0000      1.0705     60.7644
    50.5000      0.0000    798.0000      1.0774     60.1551
    50.7500      0.0000    798.0000      1.0828     60.1865
    51.0000      0.0000    798.0000      1.0844     59.8617
    51.2500      0.0000    798.0000      1.0838     58.5524
    51.5000      0.0000    798.0000      1.0817     56.9647
    51.7500      0.0000    798.0000      1.0754     57.0906
    52.0000      0.0000    798.0000      1.0640     60.9471
    52.2500      0.0000    798.0000      1.0524     69.2050
    52.5000      0.0000    798.0000      1.0474     80.7433
    52.7500      0.0000    798.0000      1.0523     93.1016
    53.0000      0.0000    798.0000      1.0654    103.7216
    53.2500      0.0000    798.0000      1.0827    111.6793
    53.5000      0.0000    798.0000      1.0996    118.3209
    53.7500      0.0000    798.0000      1.1122    125.4060
    54.0000      0.0000    798.0000      1.1186    132.6357
    54.2500      0.0000    798.0000      1.1184    137.9294
    54.5000      0.0000    798.0000      1.1130    140.0138
    54.7500      0.0000    798.0000      1.1056    139.6764
    55.0000      0.0000    798.0000      1.1006    138.4923
    55.2500      0.0000    798.0000      1.1017    137.3996
    55.5000      0.0000    798.0000      1.1091    136.6907
    55.7500      0.0000    798.0000      1.1196    136.5008
    56.0000      0.0000    798.0000      1.1275    136.7841
    56.2500      0.0000    798.0000      1.1283    137.0985
    56.5000      0.0000    798.0000      1.1217    136.8424
    56.7500      0.0000    798.0000      1.1120    135.9073
    57.0000      0.0000    798.0000      1.1044    134.9143
    57.2500      0.0000    798.0000      1.1007    134.5232
    57.5000      0.0000    798.0000      1.0998    134.7116
    57.7500      0.0000    798.0000      1.1011    134.9570
    58.0000      0.0000    798.0000      1.1056    134.7742
    58.2500      0.0000    798.0000      1.1140    133.5297
    58.5000      0.0000    798.0000      1.1241    130.1604
    58.7500      0.0000    798.0000      1.1321    124.1714
    59.0000      0.0000    798.0000      1.1357    117.1122
    59.2500      0.0000    798.0000      1.1355    112.1466
    59.5000      0.0000    798.0000      1.1327    111.6727
    59.7500      0.0000    798.0000      1.1282    115.6837
    60.0000      0.0000    798.0000      1.1231    122.4380
    60.2500      0.0000    798.0000      1.1194    130.0723
    60.5000      0.0000    798.0000      1.1182    137.2270
    60.7500      0.0000    798.0000      1.1187    142.6186
    61.0000      0.0000    798.0000      1.1183    145.1367
    61.2500      0.0000    798.0000      1.1149    144.9623
    61.5000      0.0000    798.0000      1.1098    143.7336
    61.7500      0.0000    798.0000      1.1074    142.7649
    62.0000      0.0000    798.0000      1.1109    141.8451
    62.2500      0.0000    798.0000      1.1179    140.4009
    62.5000      0.0000    798.0000      1.1198    138.8839
    62.7500      0.0000    798.0000      1.1094    138.2492
    63.0000      0.0000    798.0000      1.0893    138.7134
    63.2500      0.0000    798.0000      1.0715    139.4746
    63.5000      0.0000    798.0000      1.0672    139.2480
    63.7500      0.0000    798.0000      1.0768    136.9389
    64.0000      0.0000    798.0000      1.0903    132.1582
    64.2500      0.0000    798.0000      1.0969    125.0766
    64.5000      0.0000    798.0000      1.0935    115.8409
    64.7500      0.0000    798.0000      1.0863    104.6935
    65.0000      0.0000    798.0000      1.0837     92.9072
    65.2500      0.0000    798.0000      1.0876     82.9070
    65.5000      0.0000    798.0000      1.0937     76.6910
    65.7500      0.0000    798.0000      1.0985     74.1120
    66.0000      0.0000    798.0000      1.1038     73.1430
    66.2500      0.0000    798.0000      1.1138     71.9325
    66.5000      0.0000    798.0000      1.1281     70.1710
    66.7500      0.0000    798.0000      1.1413     68.3373
    67.0000      0.0000    798.0000      1.1468     66.3901
    67.2500      0.0000    798.0000      1.1414     63.8279
    67.5000      0.0000    798.0000      1.1252     60.6040
    67.7500      0.0000    798.0000      1.1013     57.3127
    68.0000      0.0000    798.0000      1.0764     54.5390
    68.2500      0.0000    798.0000      1.0587     52.4346
    68.5000      0.0000    798.0000      1.0532     51.0063
    68.7500      0.0000    798.0000      1.0596     50.4892
    69.0000      0.0000    798.0000      1.0738     51.1711
    69.2500      0.0000    798.0000      1.0911     52.9792
    69.5000      0.0000    798.0000      1.1083     55.4591
    69.7500      0.0000    798.0000      1.1218     58.0230
    70.0000      0.0000    798.0000      1.1276     60.0246
    70.2500      0.0000    798.0000      1.1214     60.8871
    70.5000      0.0000    798.0000      1.1029     60.5238
    70.7500      0.0000    797.9645      1.0812     59.4579
    71.0000      0.0000    797.7329      1.0792     58.2929
