~Version Information
VERS.                      2.0: CWLS Log ASCII Standard - VERSION 2.0
WRAP.                       NO: One line per depth step
~Well Information Block
STRT.FT               507.5000: 
STOP.FT              2145.0000: 
STEP.FT                 0.2500: 
NULL.                -999.2500: 
COMP.          Petrogulf Corporation: COMPANY
WELL.            Montoya 1-44R: WELL
FLD.           Purgatorie River: FIELD
LOC.           658' FSL & 1052' FWL: LOCATION
CNTY.               Las Animas: COUNTY
SRVC.                         : SERVICE COMPANY
DATE.          Tue Nov 16 02:59:24 2004: LOG DATE
UWI.           05 071 08239 00: UNIQUE WELL ID
STAT.                 Colorado: STATE
~Curve Information Block
DEPT.FT            0 000 00 00: Depth
SP.mV                         : DIL Spontaneous Potential
RILD.Ohm-m                    : DIL Deep Resistivity
RILM.Ohm-m                    : DIL Medium Resistivity
RLL3.Ohm-m                    : DIL Shallow Resistivity
GR.GAPI                       : Gamma Ray
~Parameter Information Block
~A  Depth        SP         RILD        RILM        RLL3         GR     
# ...
  1487.5000    -14.5634     14.9603     15.6812     16.0673    132.7112
  1487.7500    -11.9062     14.5881     15.2941     15.8359    133.0013
  1488.0000     -9.5822     14.2233     14.9234     15.7400    132.1355
  1488.2500     -7.7687     13.8694     14.5705     15.6684    130.7854
  1488.5000     -6.5965     13.5308     14.2376     15.5222    128.2754
  1488.7500     -6.1302     13.2128     13.9283     15.2425    126.9928
  1489.0000     -6.3596     12.9202     13.6466     14.8264    126.9220
  1489.2500     -7.1863     12.6571     13.3960     14.3272    128.4850
  1489.5000     -8.4440     12.4255     13.1788     13.8371    132.7921
  1489.7500     -9.9238     12.2254     12.9952     13.4566    136.1557
  1490.0000    -11.4246     12.0551     12.8428     13.2630    140.2247
  1490.2500    -12.7931     11.9109     12.7176     13.2855    141.4580
  1490.5000    -13.9572     11.7890     12.6139     13.4972    140.3291
  1490.7500    -14.9270     11.6856     12.5265     13.8249    137.5924
  1491.0000    -15.7622     11.5976     12.4509     14.1750    131.3520
  1491.2500    -16.5277     11.5233     12.3846     14.4638    126.7813
  1491.5000    -17.2442     11.4618     12.3275     14.6420    121.6333
  1491.7500    -17.8641     11.4127     12.2810     14.7050    120.5613
  1492.0000    -18.2788     11.3754     12.2473     14.6848    123.2901
  1492.2500    -18.3534     11.3488     12.2285     14.6317    127.4373
  1492.5000    -17.9788     11.3309     12.2255     14.5916    134.9513
  1492.7500    -17.1129     11.3192     12.2372     14.5916    139.4769
  1493.0000    -15.8058     11.3108     12.2602     14.6349    144.1408
  1493.2500    -14.1975     11.3033     12.2894     14.7052    145.6688
  1493.5000    -12.4951     11.2947     12.3180     14.7769    145.9415
  1493.7500    -10.9449     11.2838     12.3388     14.8234    145.0435
  1494.0000     -9.7908     11.2699     12.3454     14.8230    142.6217
  1494.2500     -9.2414     11.2522     12.3330     14.7667    140.8556
  1494.5000     -9.4425     11.2298     12.2994     14.6625    139.1527
  1494.7500    -10.4488     11.2009     12.2450     14.5410    138.9346
  1495.0000    -12.2028     11.1635     12.1730     14.4603    139.3628
  1495.2500    -14.5330     11.1159     12.0875     14.5063    139.6272
  1495.5000    -17.1704     11.0570     11.9927     14.7801    139.8848
  1495.7500    -19.7822     10.9869     11.8918     15.3706    140.1544
  1496.0000    -22.0213     10.9074     11.7857     16.3120    140.1361
  1496.2500    -23.5912     10.8218     11.6739     17.5420    138.8016
  1496.5000    -24.2982     10.7343     11.5550     18.8824    133.0844
  1496.7500    -24.0837     10.6495     11.4278     20.0627    126.6208
  1497.0000    -23.0309     10.5718     11.2935     20.7913    114.5183
  1497.2500    -21.3391     10.5050     11.1558     20.8500    106.5072
  1497.5000    -19.2793     10.4512     11.0210     20.1731     97.4329
  1497.7500    -17.1275     10.4116     10.8973     18.8739     94.3214
  1498.0000    -15.1186     10.3858     10.7932     17.2054     94.0780
  1498.2500    -13.4083     10.3724     10.7159     15.4760     96.2005
  1498.5000    -12.0665     10.3690     10.6701     13.9599    101.4479
  1498.7500    -11.0897     10.3732     10.6579     12.8353    105.6784
  1499.0000    -10.4246     10.3826     10.6779     12.1678    112.2032
  1499.2500     -9.9936     10.3960     10.7264     11.9291    116.0831
  1499.5000     -9.7118     10.4132     10.7973     12.0317    120.1891
  1499.7500     -9.4992     10.4359     10.8831     12.3618    121.4926
  1500.0000     -9.2853     10.4666     10.9761     12.8012    121.5871
  1500.2500     -9.0154     10.5084     11.0695     13.2410    120.8311
  1500.5000     -8.6688     10.5640     11.1583     13.5907    119.2526
  1500.7500     -8.2651     10.6348     11.2403     13.7876    118.4750
  1501.0000     -7.8711     10.7202     11.3165     13.8082    119.0069
  1501.2500     -7.5900     10.8169     11.3909     13.6723    121.1196
  1501.5000     -7.5379     10.9199     11.4694     13.4392    126.8349
  1501.7500     -7.8124     11.0221     11.5584     13.1939    131.3382
  1502.0000     -8.4622     11.1162     11.6629     13.0235    136.4955
  1502.2500     -9.4767     11.1956     11.7853     12.9913    137.7035
  1502.5000    -10.7842     11.2553     11.9237     13.1172    136.0199
  1502.7500    -12.2753     11.2931     12.0712     13.3725    133.3847
  1503.0000    -13.8344     11.3084     12.2169     13.6883    128.9191
  1503.2500    -15.3750     11.3025     12.3461     13.9785    126.3625
  1503.5000    -16.8564     11.2769     12.4437     14.1641    123.7164
  1503.7500    -18.2911     11.2325     12.4967     14.1944    122.6427
  1504.0000    -19.7308     11.1697     12.4972     14.0564    121.4808
  1504.2500    -21.2318     11.0881     12.4446     13.7720    120.8048
  1504.5000    -22.8111     10.9869     12.3451     13.3871    120.3613
  1504.7500    -24.4155     10.8664     12.2098     12.9580    120.9412
  1505.0000    -25.9138     10.7283     12.0517     12.5401    123.4670
  1505.2500    -27.1105     10.5761     11.8830     12.1793    125.9283
  1505.5000    -27.7964     10.4152     11.7126     11.9073    129.6781
  1505.7500    -27.8133     10.2524     11.5456     11.7377    131.5544
  1506.0000    -27.1108     10.0953     11.3840     11.6642    132.5864
  1506.2500    -25.7764      9.9513     11.2271     11.6623    131.7830
  1506.5000    -24.0333      9.8274     11.0741     11.6951    128.2235
  1506.7500    -22.1930      9.7300     10.9251     11.7228    124.6776
  1507.0000    -20.5928      9.6646     10.7824     11.7141    119.3565
  1507.2500    -19.5222      9.6357     10.6513     11.6549    117.0600
  1507.5000    -19.1585      9.6469     10.5396     11.5530    116.6882
  1507.7500    -19.5280      9.7008     10.4578     11.4374    118.3292
  1508.0000    -20.5049      9.7990     10.4172     11.3560    122.3317
  1508.2500    -21.8402      9.9427     10.4306     11.3747    125.0847
  1508.5000    -23.2176     10.1323     10.5109     11.5833    128.1364
  1508.7500    -24.3237     10.3684     10.6716     12.1087    129.3456
  1509.0000    -24.9234     10.6517     10.9270     13.1330    130.8994
  1509.2500    -24.9128     10.9840     11.2926     14.9125    132.6201
  1509.5000    -24.3418     11.3681     11.7855     17.7802    136.9297
  1509.7500    -23.3954     11.8083     12.4252     22.1120    140.3807
  1510.0000    -22.3389     12.3097     13.2333     28.2424    143.9391
  1510.2500    -21.4470     12.8777     14.2332     36.3365    143.7416
  1510.5000    -20.9285     13.5168     15.4477     46.2494    138.5956
  1510.7500    -20.8801     14.2280     16.8961     57.4257    132.3943
  1511.0000    -21.2696     15.0072     18.5866     68.8967    120.5586
  1511.2500    -21.9584     15.8416     20.5073     79.4082    111.9774
  1511.5000    -22.7402     16.7079     22.6131     87.6610     99.7005
  1511.7500    -23.3970     17.5701     24.8147     92.5999     92.7821
  1512.0000    -23.7418     18.3819     26.9725     93.6658     85.5614
  1512.2500    -23.6466     19.0911     28.9068     90.9295     83.3697
  1512.5000    -23.0567     19.6478     30.4266     85.0629     84.0568
  1512.7500    -21.9825     20.0136     31.3720     77.1552     86.5391
  1513.0000    -20.4888     20.1689     31.6568     68.4328     91.7623
  1513.2500    -18.6669     20.1152     31.2864     59.9678     95.6077
  1513.5000    -16.6209     19.8723     30.3495     52.4661    101.3335
  1513.7500    -14.4446     19.4712     28.9874     46.1916    104.7413
  1514.0000    -12.2202     18.9475     27.3561     41.0347    108.5385
  1514.2500    -10.0305     18.3359     25.5988     36.6778    110.1830
  1514.5000     -7.9686     17.6671     23.8280     32.7823    112.4145
  1514.7500     -6.1576     16.9666     22.1224     29.1249    114.6834
  1515.0000     -4.7514     16.2551     20.5292     25.6454    120.1882
  1515.2500     -3.9114     15.5495     19.0709     22.4135    125.0575
