~Version Information
VERS.                      2.0: CWLS Log ASCII Standard - VERSION 2.0
WRAP.                       NO: One line per depth step
~Well Information Block
STRT.FT               998.8000: 
STOP.FT              2235.5000: 
STEP.FT                 0.1000: 
NULL.                -999.2500: 
COMP.          Petrogulf Corporation: COMPANY
WELL.          Latiluppe 8-13R: WELL
FLD.           Purgatorie River: FIELD
LOC.           1495' FSL & 946' FWL: LOCATION
CNTY.               Las Animas: COUNTY
SRVC.                         : SERVICE COMPANY
DATE.          Wed Apr 21 10:46:16 2004: LOG DATE
UWI.           05 071 08035 00: UNIQUE WELL ID
STAT.                 Colorado: STATE
~Curve Information Block
DEPT.FT            0 000 00 00: Depth
DCAL.in                       : CDL Caliper
RHOB.g/cc                     : CDL Bulk Density
RHOC.g/cc                     : CDL Density Correction
DPOR.pu                       : CDL Density Porosity
NPOR.pu                       : Neutron Porosity
GR.GAPI                       : Gamma Ray
~Parameter Information Block
~A  Depth       DCAL        RHOB        RHOC        DPOR        NPOR         GR     
# ...
  1882.0000      7.8114      2.5355      0.0497      6.9415     26.2062    159.1055
  1882.1000      7.8114      2.5210      0.0703      7.8198     26.1198    152.3240
  1882.2000      7.8114      2.5177      0.0676      8.0190     26.3162    152.2864
  1882.3000      7.8136      2.5223      0.0554      7.7364     26.4798    157.1192
  1882.4000      7.8136      2.5382      0.1183      6.7771     26.2597    159.1468
  1882.5000      7.8083      2.5574      0.0924      5.6124     26.0353    157.1904
  1882.6000      7.8083      2.5731      0.1014      4.6635     26.3998    155.9589
  1882.7000      7.8083      2.5852      0.1073      3.9258     27.1281    157.2381
  1882.8000      7.8163      2.5934      0.1004      3.4313     27.7438    159.5144
  1882.9000      7.8163      2.5962      0.1218      3.2633     28.3644    162.4936
  1883.0000      7.8122      2.5953      0.1241      3.3161     28.8044    166.1217
  1883.1000      7.8122      2.5889      0.1283      3.7022     28.7216    168.3243
  1883.2000      7.8122      2.5715      0.1219      4.7604     28.4294    168.2167
  1883.3000      7.8048      2.5493      0.0752      6.1034     28.2375    165.1896
  1883.4000      7.8048      2.5314      0.0733      7.1896     28.0455    159.0779
  1883.5000      7.8052      2.5124      0.0655      8.3382     27.9038    153.7253
  1883.6000      7.8052      2.4882      0.0562      9.8054     28.0959    152.5601
  1883.7000      7.8052      2.4686      0.0425     10.9912     28.4845    153.1804
  1883.8000      7.8023      2.4669      0.0140     11.0959     28.7045    153.5259
  1883.9000      7.8023      2.4791      0.1043     10.3575     28.6138    153.3474
  1884.0000      7.8064      2.4978      0.0280      9.2247     28.1671    152.1153
  1884.1000      7.8064      2.5261      0.1563      7.5085     27.6212    151.8973
  1884.2000      7.8064      2.5516      0.1417      5.9612     27.5029    152.3102
  1884.3000      7.8103      2.5611      0.1426      5.3901     27.9417    151.4569
  1884.4000      7.8103      2.5531      0.1554      5.8754     28.5935    151.0682
  1884.5000      7.8238      2.5329      0.1302      7.0970     28.9163    152.0348
  1884.6000      7.8238      2.5213      0.1028      7.7982     28.7613    154.0226
  1884.7000      7.8238      2.5351      0.0853      6.9648     28.4974    156.4775
  1884.8000      7.8187      2.5623      0.0999      5.3149     28.3736    157.9300
  1884.9000      7.8187      2.5846      0.1148      3.9642     28.3375    159.6644
  1885.0000      7.8420      2.5973      0.1350      3.1964     28.2772    164.5692
  1885.1000      7.8420      2.5924      0.1439      3.4931     28.2170    170.2048
  1885.2000      7.8420      2.5658      0.0933      5.1009     28.1376    174.6432
  1885.3000      7.8605      2.5354      0.0567      6.9453     27.8734    178.0351
  1885.4000      7.8605      2.5233      0.0525      7.6775     27.4390    178.1703
  1885.5000      7.8890      2.5273      0.1471      7.4365     27.1781    175.9347
  1885.6000      7.8890      2.5206      0.1784      7.8449     27.1082    177.5536
  1885.7000      7.8890      2.4887      0.1335      9.7744     26.8168    181.6346
  1885.8000      7.9163      2.4512      0.0720     12.0495     26.2531    178.4664
  1885.9000      7.9163      2.4328      0.1163     13.1608     25.6874    169.4507
  1886.0000      7.9269      2.4240      0.1394     13.6977     25.0453    165.9687
  1886.1000      7.9269      2.3993      0.1208     15.1929     24.3136    172.3303
  1886.2000      7.9269      2.3524      0.1326     18.0334     23.6810    180.4841
  1886.3000      7.9283      2.2883      0.1169     21.9190     23.0974    181.3096
  1886.4000      7.9283      2.2151      0.1417     26.3574     22.4757    174.9746
  1886.5000      7.9208      2.1487      0.1094     30.3819     22.0509    166.9566
  1886.6000      7.9208      2.0993      0.1970     33.3737     22.0430    160.8700
  1886.7000      7.9208      2.0563      0.2311     35.9809     22.2096    156.9778
  1886.8000      8.0231      2.0212      0.2160     38.1100     22.3226    155.3771
  1886.9000      8.0231      2.0252      0.2281     37.8647     22.4387    156.8549
  1887.0000      8.1186      2.0884      0.3529     34.0356     22.7210    160.1032
  1887.1000      8.1186      2.2040      0.3740     27.0312     23.2510    163.2148
  1887.2000      8.1186      2.3573      0.4048     17.7399     23.8609    161.9812
  1887.3000      8.0500      2.5150      0.4543      8.1828     24.3790    152.8684
  1887.4000      8.0500      2.6340      0.5079      0.9715     24.6910    143.9053
  1887.5000      7.8169      2.7048      0.5003     -3.3236     24.7777    145.5120
  1887.6000      7.8169      2.7372      0.5581     -5.2840     24.7295    154.0714
  1887.7000      7.8169      2.7242      0.5027     -4.4998     24.6382    158.7393
  1887.8000      7.7975      2.6740      0.3188     -1.4527     24.4152    154.6140
  1887.9000      7.7975      2.6206      0.2489      1.7827     23.8218    144.8045
  1888.0000      7.8235      2.5859      0.1988      3.8858     23.0724    137.4767
  1888.1000      7.8235      2.5781      0.1574      4.3594     22.8204    134.0138
  1888.2000      7.8235      2.5978      0.1683      3.1614     23.0981    128.2794
  1888.3000      7.8404      2.6282      0.1427      1.3236     23.2934    121.0033
  1888.4000      7.8404      2.6507      0.1878     -0.0434     23.2272    116.6462
  1888.5000      7.8391      2.6599      0.1342     -0.6029     23.3688    115.4144
  1888.6000      7.8391      2.6596      0.1145     -0.5843     23.8494    118.2613
  1888.7000      7.8391      2.6521      0.0903     -0.1246     24.1468    126.4250
  1888.8000      7.8338      2.6335      0.0810      1.0001     24.0332    136.4569
  1888.9000      7.8338      2.6110      0.0319      2.3641     23.7598    141.7169
  1889.0000      7.8358      2.5977      0.0638      3.1700     23.4713    138.4389
  1889.1000      7.8358      2.5912      0.0249      3.5657     23.1891    130.7269
  1889.2000      7.8358      2.5866      0.0420      3.8437     22.9676    123.8493
  1889.3000      7.8460      2.5845      0.0268      3.9703     22.9356    120.0883
  1889.4000      7.8460      2.5818      0.0460      4.1317     22.7866    124.2869
  1889.5000      7.8375      2.5701      0.0362      4.8429     22.0996    135.4178
  1889.6000      7.8375      2.5483      0.0519      6.1666     21.2581    144.6194
  1889.7000      7.8375      2.5258      0.0533      7.5251     21.0121    148.0249
  1889.8000      7.8129      2.5173      0.0492      8.0406     21.5875    147.6644
  1889.9000      7.8129      2.5319      0.0873      7.1552     22.4948    146.8034
  1890.0000      7.8323      2.5567      0.1058      5.6569     23.1398    146.6360
  1890.1000      7.8323      2.5657      0.1151      5.1113     23.4995    145.4118
  1890.2000      7.8323      2.5542      0.0298      5.8070     23.7818    142.8340
  1890.3000      7.8307      2.5407      0.0591      6.6250     24.2102    141.9743
  1890.4000      7.8307      2.5352      0.0809      6.9594     24.9165    143.8568
  1890.5000      7.8337      2.5326      0.0945      7.1166     25.6506    145.3342
  1890.6000      7.8337      2.5267      0.0655      7.4755     26.3074    144.0853
  1890.7000      7.8337      2.5206      0.0275      7.8442     27.1322    142.3659
  1890.8000      7.8420      2.5203      0.0301      7.8576     27.9766    143.7355
  1890.9000      7.8420      2.5172      0.0735      8.0473     28.6697    147.4570
  1891.0000      7.8404      2.5033      0.0109      8.8911     29.2810    149.1849
  1891.1000      7.8404      2.4912      0.0348      9.6243     29.6301    147.5099
  1891.2000      7.8404      2.4897      0.0311      9.7134     29.8255    145.3356
  1891.3000      7.8384      2.4935      0.0389      9.4872     30.2925    145.5289
  1891.4000      7.8384      2.5001      0.0469      9.0839     30.9778    146.5017
  1891.5000      7.8354      2.5117      0.0608      8.3833     31.6034    147.4336
