~Version Information
VERS.                      2.0: CWLS Log ASCII Standard - VERSION 2.0
WRAP.                       NO: One line per depth step
~Well Information Block
STRT.FT               340.0000: 
STOP.FT              1542.5000: 
STEP.FT                 0.2500: 
NULL.                -999.2500: 
COMP.          Petrogulf Corporation: COMPANY
WELL.            Montoya 7-21R: WELL
FLD.           Purgatorie River: FIELD
LOC.           445' FNL & 1942' FWL: LOCATION
PROV.                 Colorado: PROVINCE
CNTY.               Las Animas: COUNTRY
SRVC.                Patterson: SERVICE COMPANY
DATE.          Thu Sep 15 10:37:42 2005: LOG DATE
UWI.                          : UNIQUE WELL ID
~Curve Information Block
DEPT.FT            0 000 00 00: Depth
SP.mV                         : DIL Spontaneous Potential
RILD.Ohm-m                    : DIL Deep Resistivity
RILM.Ohm-m                    : DIL Medium Resistivity
RLL3.Ohm-m                    : DIL Shallow Resistivity
GR.GAPI                       : Gamma Ray
~Parameter Information Block
~A  Depth        SP         RILD        RILM        RLL3         GR     
# ...
  1292.0000    213.4099     10.4804     10.7061     10.3720    134.6848
  1292.2500    213.0391     10.1243     10.5984      9.9604    118.1881
  1292.5000    212.6955      9.7314     10.6116      9.7757    122.5892
  1292.7500    212.3626      9.4943     10.7479     10.2207    128.6402
  1293.0000    212.0641      9.3041     10.7718     12.0267    131.0902
  1293.2500    211.7214      8.9769     10.7321     15.8844    143.6355
  1293.5000    211.4994      8.8217     10.6560     19.8487    106.7023
  1293.7500    211.4661      8.6390     10.2067     20.0099    106.3247
  1294.0000    211.5743      8.4541      9.6654     15.1286     91.5689
  1294.2500    211.7215      8.3609      9.2128     10.7026     83.4848
  1294.5000    211.7887      8.3002      8.8270      8.7658     88.6092
  1294.7500    211.8924      8.1548      8.4660      8.3353     99.1384
  1295.0000    211.8622      8.0549      8.3294      8.6850    119.4847
  1295.2500    211.5573      7.9528      8.1359      8.8911    124.2351
  1295.5000    210.7836      7.7261      7.8988      8.4542    112.5743
  1295.7500    209.8465      7.4965      7.5660      8.1243    124.3781
  1296.0000    209.0063      7.3586      7.3264      7.9460    141.2193
  1296.2500    208.1120      7.0868      7.1338      7.9264    127.2536
  1296.5000    207.1745      6.9847      6.9572      7.9166    157.0635
  1296.7500    206.3156      6.8813      6.7619      7.8299    149.2922
  1297.0000    205.6181      6.8363      6.6223      7.6877    156.2522
  1297.2500    204.9972      6.7460      6.5405      7.4833    158.7846
  1297.5000    204.3344      6.7413      6.4588      7.3772    172.6447
  1297.7500    203.7093      6.6923      6.3742      7.3050    164.1949
  1298.0000    203.0756      6.6997      6.3203      7.3478    158.7361
  1298.2500    202.6145      6.7802      6.3744      7.2330    153.7307
  1298.5000    202.3537      6.8366      6.3982      7.3527    137.9848
  1298.7500    202.0329      6.9244      6.4646      7.3411    128.3276
  1299.0000    201.8889      6.9848      6.5294      7.3869    126.8409
  1299.2500    201.9907      7.0935      6.6517      7.5340    126.9831
  1299.5000    201.9363      7.1824      6.8365      7.8300    112.2391
  1299.7500    201.5602      7.3113      6.9626      8.1290    119.1279
  1300.0000    200.9763      7.4847      7.1420      8.5233    118.6378
  1300.2500    200.2273      7.6070      7.4035      8.6325    110.7356
  1300.5000    199.4118      7.8656      7.6413      8.8469    126.1353
  1300.7500    198.6585      8.0365      7.8360      9.1215    116.1145
  1301.0000    197.9075      8.1789      8.0946      9.4322    105.7325
  1301.2500    197.2312      8.3967      8.3664      9.7214    108.2825
  1301.5000    196.7699      8.5831      8.6522     10.0339    121.8581
  1301.7500    196.4504      8.6880      8.9463     10.0712    117.5236
  1302.0000    196.2536      8.8304      9.1409     10.3476    131.7648
  1302.2500    196.1012      9.0596      9.2613     10.5684    120.0600
  1302.5000    196.1329      9.1933      9.4592     10.3380    110.8014
  1302.7500    196.3098      9.2883      9.6739     10.0436    115.5019
  1303.0000    196.4354      9.4111      9.7641     10.5827    142.0539
  1303.2500    196.4301      9.4960      9.8767     11.7180    137.7446
  1303.5000    196.5008      9.5564      9.9922     11.4786    155.1422
  1303.7500    196.5952      9.6827      9.9560     10.5814    154.7562
  1304.0000    196.7204      9.6469      9.8777      9.6597    155.3222
  1304.2500    196.8333      9.5561     10.1488      9.2072    138.3992
  1304.5000    196.7754      9.4347     10.3458     10.4868    155.6653
  1304.7500    196.7090      9.4447     10.4478     14.7116    159.0528
  1305.0000    196.6973      9.3922     10.3940     19.2970    162.6570
  1305.2500    196.6753      9.5976     10.1418     17.8649    146.9331
  1305.5000    196.7229      9.7296      9.9026     12.1591    129.3742
  1305.7500    196.7594      9.8834      9.5331      9.6098    136.3759
  1306.0000    196.9632      9.9630      9.3864      8.8603    139.5021
  1306.2500    197.3072     10.0930      9.5899      8.7900    144.2182
  1306.5000    197.7832     10.3313     10.0435      9.1991    148.7980
  1306.7500    198.5851     10.3328     10.6750     10.9190    127.8200
  1307.0000    199.7493     10.2810     11.3519     15.0009    142.0791
  1307.2500    201.4980     10.2149     11.7022     17.2571    121.1769
  1307.5000    203.4231     10.1324     11.8863     17.0959    116.6381
  1307.7500    205.1172     10.0201     11.9785     18.0375    120.3795
  1308.0000    206.3177      9.9168     11.6789     16.4523    136.8971
  1308.2500    207.3458      9.9964     11.4125     14.6059    140.5951
  1308.5000    208.3394     10.0779     11.1226     15.4169    118.7637
  1308.7500    209.3035     10.2128     10.8340     16.2735    114.4885
  1309.0000    209.9582     10.2561     10.5392     13.3138    124.8312
  1309.2500    210.4916     10.3205     10.2795     10.5263    121.5246
  1309.5000    210.8676     10.3955     10.0133      8.9371    136.9141
  1309.7500    210.9559     10.4445      9.8977      8.9744    155.6311
  1310.0000    210.8104     10.4344      9.9350     10.0912    180.9535
  1310.2500    210.6476     10.3753     10.0528     10.6664    177.9400
  1310.5000    210.5112     10.3074     10.1244     10.4587    183.6791
  1310.7500    210.3831     10.0944     10.2982     10.3345    156.6027
  1311.0000    210.0754      9.8946     10.4831     10.7744    149.9551
  1311.2500    209.6621      9.8713     10.5432     11.2961    141.4451
  1311.5000    209.2282      9.8027     10.4973     11.4033    133.9601
  1311.7500    208.8817      9.7235     10.5010     11.6884    144.3140
  1312.0000    208.5786      9.7676     10.5130     11.3664    135.0221
  1312.2500    208.3235      9.7234     10.5104     10.8245    149.1225
  1312.5000    208.2477      9.6472     10.4587     11.2768    130.2428
  1312.7500    208.2754      9.6677     10.4892     11.2680    128.8370
  1313.0000    208.3127      9.5665     10.4317     11.2449    142.8202
  1313.2500    208.2299      9.4814     10.1145     11.6376    137.7280
  1313.5000    208.0763      9.3774      9.8187     11.3580    132.8507
  1313.7500    207.8670      9.3251      9.5294     10.3360    123.7067
  1314.0000    207.5564      9.2865      9.2668      9.4617    141.1344
  1314.2500    207.2104      9.0545      9.0158      8.8502    149.3727
  1314.5000    206.8417      8.8140      8.8513      8.7177    147.0872
  1314.7500    206.3841      8.6702      8.7221      9.0709    154.9654
  1315.0000    205.9465      8.5591      8.6149      9.4534    135.1349
  1315.2500    205.4530      8.4582      8.4166      9.6297    142.6858
  1315.5000    205.0979      8.2600      8.2645      9.7853    170.3521
  1315.7500    204.9122      8.2019      8.0583      9.4386    157.4994
  1316.0000    204.8036      8.0986      7.9809      8.7195    156.9069
  1316.2500    204.6960      8.0623      7.9213      8.1813    160.6180
  1316.5000    204.5352      8.0776      7.8721      8.5412    163.5111
  1316.7500    204.3674      8.0057      7.9136      9.1036    163.6422
  1317.0000    204.3766      8.0569      8.0250      9.2343    157.3312
  1317.2500    204.5666      8.0038      8.1428      9.2212    172.8114
  1317.5000    204.7775      8.0524      8.3026      9.6593    145.7626
  1317.7500    204.9249      8.0255      8.3906     10.3706    152.6773
  1318.0000    204.9984      8.0711      8.4012     10.5079    145.1539
  1318.2500    204.9187      8.1133      8.3337     10.0809    146.7114
  1318.5000    204.5949      8.0692      8.3230      9.9212    142.2262
  1318.7500    204.2474      8.0274      8.3444      9.7147    142.7283
  1319.0000    203.8466      8.1034      8.3451      9.8003    147.3781
  1319.2500    203.4117      8.1535      8.3525      9.6182    144.2929
  1319.5000    203.0376      8.1117      8.3534      9.6580    157.6714
  1319.7500    202.6659      8.1227      8.3756      9.3846    129.1949
