~Version Information
VERS.                      2.0: CWLS Log ASCII Standard - VERSION 2.0
WRAP.                       NO: One line per depth step
~Well Information Block
STRT.FT               846.5000: 
STOP.FT              2610.0000: 
STEP.FT                 0.2500: 
NULL.                -999.2500: 
COMP.          Petrogulf Corporation: COMPANY
WELL.            Lavedure 7-44: WELL
FLD.           Purgatoire River: FIELD
LOC.           969' FSL & 501' FEL: LOCATION
PROV.                 Colorado: PROVINCE
CNTY.               Las Animas: COUNTRY
SRVC.                Patterson: SERVICE COMPANY
DATE.          Sun Dec 07 15:26:03 2003: LOG DATE
UWI.                          : UNIQUE WELL ID
~Curve Information Block
DEPT.FT            0 000 00 00: Depth
SP.mV                         : DIL Spontaneous Potential
RILD.Ohm-m                    : DIL Deep Resistivity
RILM.Ohm-m                    : DIL Medium Resistivity
RLL3.Ohm-m                    : DIL Shallow Resistivity
GR.GAPI                       : Gamma Ray
~Parameter Information Block
~A  Depth        SP         RILD        RILM        RLL3         GR     
# ...
   986.5000   2000.0000     60.5695     46.4880   2000.0000     69.8155
   986.7500   2000.0000     54.9359     43.9219   2000.0000     72.7664
   987.0000   2000.0000     49.5285     41.2107   2000.0000     76.6206
   987.2500   2000.0000     44.5033     38.1290   2000.0000     79.2678
   987.5000   2000.0000     39.9703     34.6376   2000.0000     85.2994
   987.7500   2000.0000     35.9820     30.9498   2000.0000     91.7485
   988.0000   2000.0000     32.5441     27.4037   2000.0000    105.3489
   988.2500   2000.0000     29.6246     24.2810   2000.0000    116.0114
   988.5000   2000.0000     27.1625     21.7186   2000.0000    131.4424
   988.7500   2000.0000     25.0787     19.7268   2000.0000    139.9199
   989.0000   2000.0000     23.2878     18.2448   2000.0000    149.1804
   989.2500   2000.0000     21.7136     17.1817   2000.0000    153.3799
   989.5000   2000.0000     20.3065     16.4335   2000.0000    157.4487
   989.7500   2000.0000     19.0530     15.8889   2000.0000    159.0074
   990.0000   2000.0000     17.9651     15.4384   2000.0000    160.4093
   990.2500   2000.0000     17.0586     14.9998   2000.0000    161.2077
   990.5000   2000.0000     16.3369     14.5455   2000.0000    162.3469
   990.7500   2000.0000     15.7901     14.1037   2000.0000    162.8211
   991.0000   2000.0000     15.3999     13.7283   2000.0000    163.2221
   991.2500   2000.0000     15.1412     13.4622   2000.0000    163.7889
   991.5000   2000.0000     14.9809     13.3211   2000.0000    165.3148
   991.7500   2000.0000     14.8782     13.2961   2000.0000    166.0067
   992.0000   2000.0000     14.7912     13.3657   2000.0000    164.8616
   992.2500   2000.0000     14.6896     13.5035   2000.0000    162.4604
   992.5000   2000.0000     14.5650     13.6802   2000.0000    157.7343
   992.7500   2000.0000     14.4310     13.8630   2000.0000    154.9218
   993.0000   2000.0000     14.3123     14.0170   2000.0000    152.4614
   993.2500   2000.0000     14.2281     14.1105   2000.0000    152.0504
   993.5000   2000.0000     14.1801     14.1230   2000.0000    152.0817
   993.7500   2000.0000     14.1537     14.0495   2000.0000    151.4761
   994.0000   2000.0000     14.1278     13.8999   2000.0000    148.6346
   994.2500   2000.0000     14.0907     13.6929   2000.0000    145.9765
   994.5000   2000.0000     14.0483     13.4517   2000.0000    143.3177
   994.7500   2000.0000     14.0208     13.2018   2000.0000    143.8408
   995.0000   2000.0000     14.0265     12.9696   2000.0000    148.6067
   995.2500   2000.0000     14.0672     12.7793   2000.0000    153.5000
   995.5000   2000.0000     14.1271     12.6492   2000.0000    161.0734
   995.7500   2000.0000     14.1878     12.5904   2000.0000    165.3933
   996.0000   2000.0000     14.2476     12.6110   2000.0000    170.3209
   996.2500   2000.0000     14.3285     12.7196   2000.0000    172.3751
   996.5000   2000.0000     14.4667     12.9287   2000.0000    172.8858
   996.7500   2000.0000     14.6971     13.2529   2000.0000    171.2019
   997.0000   2000.0000     15.0428     13.7056   2000.0000    165.8539
   997.2500   2000.0000     15.5111     14.2941   2000.0000    160.8582
   997.5000   2000.0000     16.0927     15.0152   2000.0000    152.2641
   997.7500   2000.0000     16.7626     15.8538   2000.0000    146.4392
   998.0000   2000.0000     17.4833     16.7876   2000.0000    138.1609
   998.2500   2000.0000     18.2113     17.7931   2000.0000    132.8904
   998.5000   2000.0000     18.9050     18.8470   2000.0000    125.2813
   998.7500   2000.0000     19.5316     19.9179   2000.0000    120.6659
   999.0000   2000.0000     20.0702     20.9578   2000.0000    114.9546
   999.2500   2000.0000     20.5120     21.8998   2000.0000    112.0456
   999.5000   2000.0000     20.8567     22.6645   2000.0000    109.1185
   999.7500   2000.0000     21.1043     23.1709   2000.0000    108.3745
  1000.0000   2000.0000     21.2473     23.3519   2000.0000    109.7139
  1000.2500   2000.0000     21.2698     23.1805   2000.0000    112.5263
  1000.5000   2000.0000     21.1568     22.6949   2000.0000    119.4095
  1000.7500   2000.0000     20.9047     21.9992   2000.0000    125.0428
  1001.0000   2000.0000     20.5253     21.2289   2000.0000    133.1906
  1001.2500   2000.0000     20.0391     20.5021   2000.0000    137.5795
  1001.5000   2000.0000     19.4696     19.8861   2000.0000    142.3138
  1001.7500   2000.0000     18.8426     19.3882   2000.0000    144.4854
  1002.0000   2000.0000     18.1853     18.9678   2000.0000    146.2171
  1002.2500   2000.0000     17.5227     18.5595   2000.0000    145.8254
  1002.5000   2000.0000     16.8719     18.1043   2000.0000    142.1270
  1002.7500   2000.0000     16.2420     17.5741   2000.0000    137.8527
  1003.0000   2000.0000     15.6370     16.9760   2000.0000    130.3265
  1003.2500   2000.0000     15.0608     16.3374   2000.0000    125.5799
  1003.5000   2000.0000     14.5176     15.6877   2000.0000    119.9642
  1003.7500   2000.0000     14.0119     15.0507   2000.0000    117.4788
  1004.0000   2000.0000     13.5480     14.4436   2000.0000    115.6368
  1004.2500   2000.0000     13.1298     13.8771   2000.0000    115.3839
  1004.5000   2000.0000     12.7625     13.3554   2000.0000    115.5112
  1004.7500   2000.0000     12.4539     12.8812   2000.0000    115.4462
  1005.0000   2000.0000     12.2159     12.4623   2000.0000    115.1354
  1005.2500   2000.0000     12.0612     12.1159   2000.0000    115.1696
  1005.5000   2000.0000     11.9971     11.8656   2000.0000    116.1565
  1005.7500   2000.0000     12.0185     11.7328   2000.0000    117.7125
  1006.0000   2000.0000     12.1046     11.7295   2000.0000    121.9189
  1006.2500   2000.0000     12.2234     11.8551   2000.0000    125.9180
  1006.5000   2000.0000     12.3389     12.0991   2000.0000    132.3608
  1006.7500   2000.0000     12.4203     12.4452   2000.0000    135.7595
  1007.0000   2000.0000     12.4510     12.8725   2000.0000    137.9943
  1007.2500   2000.0000     12.4366     13.3524   2000.0000    137.3288
  1007.5000   2000.0000     12.4033     13.8426   2000.0000    133.6564
  1007.7500   2000.0000     12.3864     14.2854   2000.0000    130.0100
  1008.0000   2000.0000     12.4119     14.6181   2000.0000    123.5703
  1008.2500   2000.0000     12.4877     14.7918   2000.0000    118.9442
  1008.5000   2000.0000     12.6067     14.7925   2000.0000    112.0506
  1008.7500   2000.0000     12.7578     14.6494   2000.0000    107.8509
  1009.0000   2000.0000     12.9337     14.4238   2000.0000    102.7157
  1009.2500   2000.0000     13.1303     14.1851   2000.0000    100.3889
  1009.5000   2000.0000     13.3384     13.9891   2000.0000     99.0965
  1009.7500   2000.0000     13.5338     13.8690   2000.0000     99.8037
  1010.0000   2000.0000     13.6741     13.8373   2000.0000    102.5281
  1010.2500   2000.0000     13.7104     13.8916   2000.0000    104.6433
  1010.5000   2000.0000     13.6149     14.0154   2000.0000    106.9768
  1010.7500   2000.0000     13.4045     14.1759   2000.0000    107.6211
  1011.0000   2000.0000     13.1370     14.3262   2000.0000    107.3388
  1011.2500   2000.0000     12.8808     14.4177   2000.0000    106.6858
  1011.5000   2000.0000     12.6843     14.4204   2000.0000    105.8340
  1011.7500   2000.0000     12.5662     14.3361   2000.0000    105.7618
  1012.0000   2000.0000     12.5221     14.1927   2000.0000    106.7593
  1012.2500   2000.0000     12.5366     14.0257   2000.0000    108.1034
  1012.5000   2000.0000     12.5913     13.8605   2000.0000    110.5118
  1012.7500   2000.0000     12.6678     13.7082   2000.0000    111.8168
  1013.0000   2000.0000     12.7494     13.5724   2000.0000    112.7394
  1013.2500   2000.0000     12.8217     13.4585   2000.0000    112.8959
  1013.5000   2000.0000     12.8756     13.3763   2000.0000    113.5177
  1013.7500   2000.0000     12.9107     13.3377   2000.0000    114.5402
  1014.0000   2000.0000     12.9360     13.3537   2000.0000    116.3745
  1014.2500   2000.0000     12.9668     13.4350   2000.0000    117.1694
