~Version Information
VERS.                      2.0: CWLS Log ASCII Standard - VERSION 2.0
WRAP.                       NO: One line per depth step
~Well Information Block
STRT.FT               745.2500: 
STOP.FT              2003.5000: 
STEP.FT                 0.2500: 
NULL.                -999.2500: 
COMP.          Petrogulf Corporation: COMPANY
WELL.            Montoya 6-14V: WELL
FLD.           Purgatorie River: FIELD
LOC.           318' FSL & 882' FWL: LOCATION
CNTY.               Las Animas: COUNTY
SRVC.                         : SERVICE COMPANY
DATE.          Fri Aug 13 04:55:06 2004: LOG DATE
UWI.           05 071 08020 00: UNIQUE WELL ID
STAT.                 Colorado: STATE
~Curve Information Block
DEPT.FT            0 000 00 00: Depth
SP.mV                         : DIL Spontaneous Potential
RILD.Ohm-m                    : DIL Deep Resistivity
RILM.Ohm-m                    : DIL Medium Resistivity
RLL3.Ohm-m                    : DIL Shallow Resistivity
GR.GAPI                       : Gamma Ray
~Parameter Information Block
~A  Depth        SP         RILD        RILM        RLL3         GR     
# ...
  1501.2500     20.3558     13.1808     13.7172     20.2559    131.6516
  1501.5000     20.4652     13.0748     13.4192     19.3546    132.9534
  1501.7500     20.5455     12.9889     13.1445     18.1683    134.9390
  1502.0000     20.5901     12.9127     12.9124     16.8711    139.0141
  1502.2500     20.5946     12.8332     12.7365     15.6671    141.9197
  1502.5000     20.5581     12.7386     12.6243     14.7381    145.4729
  1502.7500     20.4835     12.6213     12.5771     14.2062    146.6666
  1503.0000     20.3777     12.4798     12.5913     14.1188    146.1273
  1503.2500     20.2504     12.3185     12.6580     14.4548    144.5365
  1503.5000     20.1131     12.1462     12.7645     15.1418    141.8301
  1503.7500     19.9769     11.9730     12.8942     16.0818    140.6716
  1504.0000     19.8511     11.8074     13.0282     17.1789    140.2907
  1504.2500     19.7420     11.6548     13.1460     18.3569    140.5146
  1504.5000     19.6525     11.5167     13.2280     19.5527    140.2418
  1504.7500     19.5829     11.3920     13.2573     20.6808    138.7900
  1505.0000     19.5310     11.2773     13.2222     21.5960    133.8717
  1505.2500     19.4934     11.1676     13.1177     22.1006    129.3114
  1505.5000     19.4655     11.0576     12.9458     22.0179    123.3237
  1505.7500     19.4423     10.9423     12.7146     21.2967    121.5427
  1506.0000     19.4184     10.8181     12.4361     20.0634    122.6565
  1506.2500     19.3885     10.6829     12.1238     18.5754    124.6716
  1506.5000     19.3486     10.5356     11.7908     17.1022    127.0955
  1506.7500     19.2959     10.3749     11.4485     15.8206    127.9785
  1507.0000     19.2301     10.1994     11.1063     14.7835    129.5287
  1507.2500     19.1537     10.0088     10.7717     13.9578    131.2965
  1507.5000     19.0720      9.8046     10.4509     13.2870    134.0521
  1507.7500     18.9923      9.5925     10.1492     12.7315    134.7205
  1508.0000     18.9230      9.3813      9.8717     12.2789    132.9130
  1508.2500     18.8720      9.1828      9.6232     11.9301    130.3593
  1508.5000     18.8454      9.0097      9.4081     11.6832    126.5578
  1508.7500     18.8465      8.8733      9.2309     11.5278    125.1325
  1509.0000     18.8759      8.7825      9.0950     11.4531    125.2861
  1509.2500     18.9315      8.7415      9.0036     11.4604    126.4292
  1509.5000     19.0091      8.7499      8.9587     11.5642    128.1628
  1509.7500     19.1034      8.8023      8.9618     11.7765    128.6831
  1510.0000     19.2085      8.8895      9.0136     12.0888    128.4464
  1510.2500     19.3185      9.0001      9.1136     12.4724    127.9793
  1510.5000     19.4281      9.1219      9.2598     12.9057    127.5469
  1510.7500     19.5326      9.2442      9.4483     13.4088    127.8659
  1511.0000     19.6289      9.3581      9.6719     14.0505    130.1588
  1511.2500     19.7158      9.4567      9.9192     14.9081    133.3962
  1511.5000     19.7940      9.5359     10.1743     15.9945    140.8667
  1511.7500     19.8656      9.5953     10.4174     17.2030    146.8055
  1512.0000     19.9341      9.6391     10.6270     18.3138    154.3332
  1512.2500     20.0021      9.6759     10.7839     19.0672    156.2482
  1512.5000     20.0711      9.7164     10.8758     19.2634    151.2058
  1512.7500     20.1408      9.7697     10.9005     18.8369    142.0047
  1513.0000     20.2086      9.8402     10.8668     17.8741    121.7464
  1513.2500     20.2705      9.9268     10.7922     16.5763    106.5659
  1513.5000     20.3219     10.0241     10.6988     15.1906     85.5765
  1513.7500     20.3585     10.1259     10.6088     13.9388     74.2802
  1514.0000     20.3770     10.2269     10.5415     12.9706     62.3927
  1514.2500     20.3753     10.3249     10.5119     12.3524     58.0510
  1514.5000     20.3530     10.4189     10.5306     12.0864     57.1727
  1514.7500     20.3108     10.5075     10.6045     12.1423     60.3247
  1515.0000     20.2510     10.5881     10.7376     12.4843     69.9466
  1515.2500     20.1762     10.6572     10.9318     13.0874     78.7813
  1515.5000     20.0903     10.7138     11.1863     13.9475     93.8236
  1515.7500     19.9976     10.7625     11.4980     15.0906    103.9161
  1516.0000     19.9031     10.8133     11.8596     16.5719    117.2062
  1516.2500     19.8126     10.8801     12.2597     18.4440    123.7463
  1516.5000     19.7319     10.9765     12.6821     20.6799    128.8306
  1516.7500     19.6663     11.1120     13.1067     23.0812    129.0932
  1517.0000     19.6195     11.2899     13.5122     25.2478    126.3623
  1517.2500     19.5939     11.5060     13.8791     26.6786    123.9648
  1517.5000     19.5900     11.7482     14.1931     26.9913    121.9898
  1517.7500     19.6069     11.9960     14.4465     26.1389    122.5569
  1518.0000     19.6421     12.2232     14.6377     24.4716    126.1303
  1518.2500     19.6924     12.4026     14.7692     22.5908    129.6101
  1518.5000     19.7530     12.5133     14.8436     21.0827    134.5520
  1518.7500     19.8183     12.5465     14.8624     20.2835    136.3908
  1519.0000     19.8812     12.5069     14.8252     20.1852    135.7665
  1519.2500     19.9340     12.4084     14.7313     20.4990    133.6846
  1519.5000     19.9686     12.2685     14.5821     20.8301    130.9364
  1519.7500     19.9772     12.1031     14.3832     20.8718    130.9984
  1520.0000     19.9535     11.9249     14.1451     20.5191    134.7469
  1520.2500     19.8937     11.7446     13.8824     19.8496    138.7936
  1520.5000     19.7972     11.5719     13.6115     19.0145    144.7684
  1520.7500     19.6670     11.4167     13.3489     18.1415    147.8699
  1521.0000     19.5092     11.2896     13.1089     17.3172    151.3812
  1521.2500     19.3320     11.2026     12.9036     16.6247    153.2618
  1521.5000     19.1444     11.1698     12.7430     16.1650    155.0569
  1521.7500     18.9551     11.2073     12.6362     16.0169    155.0350
  1522.0000     18.7720     11.3321     12.5923     16.1625    152.6076
  1522.2500     18.6021     11.5595     12.6219     16.4544    149.5689
  1522.5000     18.4514     11.9004     12.7375     16.6886    144.1528
  1522.7500     18.3252     12.3594     12.9543     16.7628    140.9871
  1523.0000     18.2275     12.9338     13.2894     16.8195    137.8891
  1523.2500     18.1611     13.6119     13.7620     17.2591    136.5022
  1523.5000     18.1265     14.3720     14.3921     18.5872    133.4357
  1523.7500     18.1220     15.1812     15.2001     21.1751    129.7699
  1524.0000     18.1436     15.9986     16.2053     25.0657    121.9257
  1524.2500     18.1856     16.7845     17.4245     29.9438    115.9919
  1524.5000     18.2416     17.5165     18.8705     35.3039    107.4238
  1524.7500     18.3059     18.2020     20.5493     40.7355    102.1790
  1525.0000     18.3744     18.8786     22.4582     46.1508     94.7235
  1525.2500     18.4453     19.5997     24.5821     51.7937     89.8970
  1525.5000     18.5191     20.4157     26.8900     57.9989     83.0642
  1525.7500     18.5979     21.3587     29.3304     64.8435     78.9003
  1526.0000     18.6842     22.4368     31.8287     71.9183     73.0695
  1526.2500     18.7803     23.6324     34.2893     78.3828     69.3534
  1526.5000     18.8873     24.9030     36.6039     83.2781     64.4091
  1526.7500     19.0046     26.1790     38.6702     85.8962     61.9871
  1527.0000     19.1295     27.3666     40.4132     85.9885     60.1498
  1527.2500     19.2570     28.3650     41.8039     83.7519     60.0716
  1527.5000     19.3801     29.0993     42.8660     79.6963     61.2996
  1527.7500     19.4897     29.5535     43.6677     74.5208     62.8379
  1528.0000     19.5763     29.7806     44.3030     69.0137     66.0328
  1528.2500     19.6308     29.8759     44.8707     63.9281     68.6116
  1528.5000     19.6463     29.9340     45.4562     59.8346     72.6827
  1528.7500     19.6190     30.0153     46.1208     57.0349     75.0931
  1529.0000     19.5493     30.1368     46.8970     55.5903     77.4091
