~Version Information
VERS.                      2.0: CWLS Log ASCII Standard - VERSION 2.0
WRAP.                       NO: One line per depth step
~Well Information Block
STRT.FT               460.5000: 
STOP.FT              2197.0000: 
STEP.FT                 0.2500: 
NULL.                -999.2500: 
COMP.          Petrogulf Corporation: COMPANY
WELL.              Silva 1-43R: WELL
FLD.           Purgatorie River: FIELD
LOC.           1971' FSL & 526' FEL: LOCATION
CNTY.               Las Animas: COUNTY
SRVC.                Patterson: SERVICE COMPANY
DATE.          Sun Jun 18 03:37:26 2006: LOG DATE
UWI.           05 071 08372 00: UNIQUE WELL ID
STAT.                 Colorado: STATE
~Curve Information Block
DEPT.FT            0 000 00 00: Depth
SN.Ohm-m                      : IEL Short Normal
SP.mV                         : IEL Spontaneous Potential
DIR.Ohm-m                     : IEL Induction Resistivity
GR.GAPI                       : Gamma Ray
~Parameter Information Block
~A  Depth        SN          SP         DIR          GR     
# ...
  2068.5000     23.1081     45.5209     20.2533    113.8226
  2068.7500     23.3086     45.5219     20.3285    111.7424
  2069.0000     23.3999     45.5391     20.4294    109.6126
  2069.2500     23.4631     45.5546     20.5356    108.9791
  2069.5000     23.5330     45.5555     20.6497    108.9633
  2069.7500     23.6269     45.5399     20.7906    109.4074
  2070.0000     23.7669     45.5169     20.9793    110.3646
  2070.2500     23.9686     45.5020     21.2261    110.8356
  2070.5000     24.2229     45.5097     21.5260    110.7216
  2070.7500     24.5096     45.5471     21.8619    109.9919
  2071.0000     24.8200     45.6116     22.2071    108.1546
  2071.2500     25.1483     45.6929     22.5261    106.6627
  2071.5000     25.4802     45.7770     22.7748    104.2622
  2071.7500     25.8082     45.8516     22.9105    102.6018
  2072.0000     26.1301     45.9084     22.9108    100.2273
  2072.2500     26.4084     45.9457     22.7863     98.9519
  2072.5000     26.5574     45.9706     22.5729     97.8037
  2072.7500     26.5002     45.9969     22.3088     97.6484
  2073.0000     26.2277     46.0374     22.0153     98.7823
  2073.2500     25.8200     46.0963     21.6902    100.9431
  2073.5000     25.4385     46.1668     21.3154    106.7892
  2073.7500     25.2230     46.2356     20.8702    112.0396
  2074.0000     25.1584     46.2887     20.3452    120.1611
  2074.2500     25.0707     46.3156     19.7493    124.5645
  2074.5000     24.7381     46.3116     19.1092    128.5109
  2074.7500     24.0180     46.2769     18.4629    129.5357
  2075.0000     22.9327     46.2142     17.8531    130.2252
  2075.2500     21.6595     46.1239     17.3200    131.2897
  2075.5000     20.4417     46.0054     16.8932    135.1383
  2075.7500     19.4813     45.8603     16.5874    139.2093
  2076.0000     18.8595     45.6955     16.3991    146.1889
  2076.2500     18.5358     45.5236     16.3104    150.1024
  2076.5000     18.4172     45.3608     16.2965    152.7182
  2076.7500     18.4253     45.2234     16.3359    151.6062
  2077.0000     18.5158     45.1216     16.4175    145.7157
  2077.2500     18.6718     45.0557     16.5382    139.5806
  2077.5000     18.8966     45.0160     16.6952    128.8266
  2077.7500     19.2166     44.9892     16.8809    121.9585
  2078.0000     19.7195     44.9670     17.0843    114.3364
  2078.2500     20.5732     44.9517     17.2956    111.7944
  2078.5000     21.9030     44.9533     17.5040    111.5959
  2078.7500     23.5993     44.9819     17.6897    113.0581
  2079.0000     25.2723     45.0400     17.8167    115.9247
  2079.2500     26.4280     45.1234     17.8376    117.6245
  2079.5000     26.7477     45.2252     17.7139    119.8766
  2079.7500     26.2647     45.3363     17.4434    121.7308
  2080.0000     25.2926     45.4426     17.0730    126.0119
  2080.2500     24.1549     45.5285     16.6783    130.0578
  2080.5000     22.9955     45.5842     16.3226    137.3811
  2080.7500     21.8244     45.6126     16.0245    142.2554
  2081.0000     20.6116     45.6275     15.7574    147.4693
  2081.2500     19.2690     45.6452     15.4760    148.5567
  2081.5000     17.6688     45.6746     15.1525    146.5954
  2081.7500     15.8250     45.7126     14.7952    143.8708
  2082.0000     14.0210     45.7488     14.4418    139.4781
  2082.2500     12.6584     45.7742     14.1404    136.7415
  2082.5000     12.0239     45.7863     13.9314    132.6900
  2082.7500     12.2140     45.7869     13.8400    129.9945
  2083.0000     13.1378     45.7762     13.8744    126.4805
  2083.2500     14.5113     45.7497     14.0272    124.7144
  2083.5000     15.9364     45.6987     14.2788    122.6337
  2083.7500     17.0910     45.6158     14.6007    121.2848
  2084.0000     17.8690     45.5018     14.9569    119.0935
  2084.2500     18.3487     45.3699     15.3053    117.6675
  2084.5000     18.6679     45.2431     15.6019    116.0884
  2084.7500     18.9406     45.1455     15.8122    115.7767
  2085.0000     19.2265     45.0925     15.9247    117.0682
  2085.2500     19.4958     45.0845     15.9565    119.3942
  2085.5000     19.6203     45.1066     15.9443    125.0372
  2085.7500     19.4616     45.1361     15.9274    129.6917
  2086.0000     19.0110     45.1559     15.9311    136.3868
  2086.2500     18.4290     45.1616     15.9587    139.7848
  2086.5000     17.9216     45.1591     15.9933    142.6922
  2086.7500     17.5972     45.1582     16.0070    143.2719
  2087.0000     17.4375     45.1681     15.9733    142.2619
  2087.2500     17.3594     45.1960     15.8761    140.2410
  2087.5000     17.2823     45.2450     15.7120    135.3247
  2087.7500     17.1703     45.3125     15.4885    131.4467
  2088.0000     17.0426     45.3895     15.2221    126.6076
  2088.2500     16.9426     45.4635     14.9370    124.9227
  2088.5000     16.8993     45.5217     14.6614    124.7762
  2088.7500     16.9150     45.5560     14.4231    125.5421
  2089.0000     16.9615     45.5656     14.2436    126.7981
  2089.2500     16.9977     45.5571     14.1365    127.5782
  2089.5000     16.9941     45.5412     14.1072    129.0482
  2089.7500     16.9342     45.5292     14.1557    130.3831
  2090.0000     16.8515     45.5276     14.2784    132.8577
  2090.2500     16.8626     45.5349     14.4689    134.5853
  2090.5000     17.0500     45.5418     14.7197    136.5667
  2090.7500     17.3544     45.5361     15.0249    137.1459
  2091.0000     17.6850     45.5082     15.3834    136.9208
  2091.2500     18.0393     45.4527     15.7978    136.1437
  2091.5000     18.4505     45.3678     16.2696    133.6985
  2091.7500     18.9142     45.2527     16.7954    130.9114
  2092.0000     19.3970     45.1068     17.3714    125.2046
  2092.2500     19.8780     44.9328     18.0028    120.9392
  2092.5000     20.3993     44.7377     18.7094    114.6794
  2092.7500     21.1219     44.5335     19.5185    110.7575
  2093.0000     22.3401     44.3334     20.4517    105.3671
  2093.2500     24.3901     44.1501     21.5146    102.2799
  2093.5000     27.4414     43.9930     22.6982     98.7062
  2093.7500     31.3093     43.8651     23.9875     97.0117
  2094.0000     35.4754     43.7613     25.3635     95.1319
  2094.2500     39.3111     43.6702     26.7898     94.0267
  2094.5000     42.3591     43.5814     28.1959     92.2638
  2094.7500     44.5337     43.4926     29.4901     91.0530
  2095.0000     46.0863     43.4117     30.6126     89.5904
  2095.2500     47.3383     43.3532     31.5844     89.1119
  2095.5000     48.4231     43.3317     32.4909     89.2633
  2095.7500     49.2740     43.3549     33.4062     89.7239
  2096.0000     49.8334     43.4192     34.3298     89.8420
  2096.2500     50.2069     43.5087     35.1853     88.4401
  2096.5000     50.5587     43.5980     35.8777     82.3461
  2096.7500     50.9040     43.6620     36.3564     75.5050
  2097.0000     51.1232     43.6874     36.6288     63.1210
  2097.2500     51.1429     43.6804     36.7217     55.3528
  2097.5000     50.9937     43.6629     36.6326     46.9554
  2097.7500     50.7474     43.6607     36.3199     43.9375
  2098.0000     50.4591     43.6923     35.7392     42.4487
  2098.2500     50.1247     43.7625     34.8873     42.7243
  2098.5000     49.6796     43.8637     33.8124     44.1260
  2098.7500     49.0209     43.9813     32.5870     45.4280
  2099.0000     47.9897     44.1010     31.2786     47.6129
  2099.2500     46.3491     44.2173     29.9423     49.3150
  2099.5000     43.8862     44.3341     28.6253     53.4849
  2099.7500     40.6151     44.4580     27.3677     58.5909
  2100.0000     36.8782     44.5874     26.1943     71.2379
  2100.2500     33.2259     44.7083     25.1056     82.5440
  2100.5000     30.1270     44.8009     24.0816    100.5323
  2100.7500     27.7280     44.8548     23.0962    110.7734
  2101.0000     25.8944     44.8784     22.1324    120.6841
  2101.2500     24.4216     44.8917     21.1874    123.3545
  2101.5000     23.1534     44.9086     20.2642    122.8922
  2101.7500     22.0183     44.9269     19.3645    121.1777
