~Version Information
 VERS.                                  2.0 : CWLS LAS VERSION
 WRAP.                                   NO : WRAPING MODE
 SWARE .                 MController 2.5.0J : SOFTWARE VERSION
~Well Information
 WELL.                        Montoya 1-24V : WELL
 COMP.                       Petrogulf Corp : COMPANY
 FLD.                      Purgatoire River : FIELD
 LOC.                 SE/SW Sec 1 T33S R68W : LOCATION
 DATE.                          10/19-20/04 : DATE(S) LOGGED
 SRVC.       Blanco Geological Services LLC : SERVICE COMPANY
 STAT.                                   CO : STATE
 CNTY.                           Las Animas : COUNTY
 CTRY.                                  USA : COUNTRY
 API.                       05-071-08194-00 : API NUMBER
 STRT.FT                             116.00 : START DEPTH
 STOP.FT                            2700.00 : STOP DEPTH
 STEP.FT                               1.00 : DEPTH INCREMENT
 NULL.                                -9999 : NULL VALUE
~Curve information
 DEPTH.FT                                   :
 ROP.MIN/FT                                 :
 GAS.UNITS                                  :
~ASCII Log data
# ...
       316.0         0.40          5.6 
       317.0         0.40          5.7 
       318.0         0.35          4.9 
       319.0         0.37          5.3 
       320.0         0.33          5.5 
       321.0         0.27          5.1 
       322.0         0.27          5.3 
       323.0         0.33          5.2 
       324.0         0.37          5.0 
       325.0         0.37          5.5 
       326.0         0.30          5.3 
       327.0         0.30          5.5 
       328.0         0.37          5.1 
       329.0         0.35          5.2 
       330.0         0.33          5.3 
       331.0         0.33          5.3 
       332.0         0.30          5.3 
       333.0         0.30          4.5 
       334.0         0.33          4.9 
       335.0         0.37          4.8 
       336.0         0.23          4.9 
       337.0         0.40          4.7 
       338.0         0.37          4.8 
       339.0         0.40          4.7 
       340.0         0.37          4.9 
       341.0         0.33          4.7 
       342.0         0.40          5.2 
       343.0         0.37          5.5 
       344.0         0.38          5.4 
       345.0         0.37          5.3 
       346.0         0.37          5.3 
       347.0         0.37          5.3 
       348.0         0.40          5.3 
       349.0         0.40          5.2 
       350.0         0.43          5.2 
       351.0         0.33          5.0 
       352.0         0.33          5.4 
       353.0         0.38          5.3 
       354.0         0.40          5.1 
       355.0         0.33          5.1 
       356.0         0.30          5.2 
       357.0         0.33          5.4 
       358.0         0.53          5.2 
       359.0         0.30          5.5 
       360.0         0.27          5.8 
       361.0         0.30          5.4 
       362.0         0.30          5.3 
       363.0         0.38          5.3 
       364.0         0.50          5.5 
       365.0         0.30          5.4 
       366.0         0.27          5.3 
       367.0         0.35          5.1 
       368.0         0.30          5.4 
       369.0         0.23         12.1 
       370.0         0.47         47.0 
       371.0         0.30          0.6 
       372.0         0.17          1.2 
       373.0         0.33          2.6 
       374.0         0.37          3.5 
       375.0         0.43          4.1 
       376.0         0.37          4.4 
       377.0         0.42          4.5 
       378.0         0.37          4.5 
       379.0         0.33          4.2 
       380.0         0.37          4.5 
       381.0         0.33          4.3 
       382.0         0.33          4.5 
       383.0         0.33          4.5 
       384.0         0.27          4.4 
       385.0         0.17          4.4 
       386.0         0.17          4.4 
       387.0         0.23          4.5 
       388.0         0.33          4.9 
       389.0         0.35          4.9 
       390.0         0.27          4.9 
       391.0         0.40          5.7 
       392.0         0.27          5.6 
       393.0         0.47          5.1 
       394.0         0.33          5.2 
       395.0         0.33          5.4 
       396.0         0.30          5.2 
       397.0         0.27          5.2 
       398.0         0.17          5.1 
       399.0         0.27          5.5 
       400.0         0.27          4.9 
       401.0         0.27          5.0 
       402.0         0.27          5.1 
       403.0         0.27          5.1 
       404.0         0.53          5.2 
       405.0         0.27          5.4 
       406.0         0.53          5.2 
       407.0         0.27          5.4 
       408.0         0.27          5.4 
       409.0         0.48          5.5 
       410.0         0.37          5.2 
       411.0         0.37          5.2 
       412.0         0.27          5.6 
       413.0         0.23          5.3 
       414.0         0.40          5.0 
       415.0         0.40          5.9 
       416.0         0.37          5.5 
       417.0         0.37          5.8 
       418.0         0.35          5.5 
       419.0         0.33          5.4 
       420.0         0.40          5.6 
       421.0         0.37          5.2 
       422.0         0.33          5.4 
       423.0         0.40          5.4 
       424.0         0.33          5.3 
       425.0         0.43          5.5 
       426.0         0.37          5.2 
       427.0         0.35          5.5 
       428.0         0.23          5.4 
       429.0         0.33          5.2 
       430.0         0.33          5.5 
       431.0         0.33          5.2 
       432.0         0.37          5.2 
       433.0         0.40          5.8 
       434.0         0.37          5.4 
       435.0         0.40          5.5 
       436.0         0.30          5.2 
       437.0         0.35          5.3 
       438.0         0.37          5.4 
       439.0         0.30          7.0 
       440.0         0.27          7.4 
       441.0         0.27          7.3 
       442.0         0.27          7.4 
       443.0         0.57          7.3 
       444.0         0.30          7.4 
       445.0         0.23          7.5 
       446.0         0.13          7.5 
       447.0         0.13          7.0 
       448.0         0.23          6.9 
       449.0         0.32          6.9 
       450.0         0.33          7.4 
       451.0         0.33          6.9 
       452.0         0.33          7.0 
       453.0         0.33          6.8 
       454.0         0.40          6.9 
       455.0         0.27          6.8 
       456.0         0.40          6.9 
       457.0         0.23          6.7 
       458.0         0.35          6.8 
       459.0         0.20          7.1 
       460.0         0.23          6.9 
       461.0         0.20          6.8 
       462.0         0.30          6.6 
       463.0         0.33          7.2 
       464.0         0.33          7.2 
       465.0         0.33          7.2 
       466.0         0.43          7.0 
       467.0         0.50          7.2 
       468.0         0.48          7.3 
       469.0         0.37          7.0 
       470.0         0.40          7.1 
       471.0         0.37          9.5 
       472.0         0.37         23.8 
       473.0         0.33         22.7 
       474.0         0.37         22.3 
       475.0        15.57         21.3 
       476.0         0.10         13.0 
       477.0         0.10         13.1 
       478.0         0.10         13.1 
       479.0         0.17         13.1 
       480.0         0.10          8.1 
       481.0         0.10          8.3 
       482.0         0.10          5.0 
       483.0         0.27          5.1 
       484.0         0.20          4.8 
       485.0         0.20          4.5 
       486.0         0.17          4.3 
       487.0         0.27          4.5 
       488.0         0.23          4.3 
       489.0         0.23          4.3 
       490.0         0.30          4.2 
       491.0         0.20          4.2 
       492.0         0.22          4.7 
       493.0         0.20          4.4 
       494.0         0.17          4.4 
       495.0         0.20          4.7 
       496.0         0.17          5.6 
       497.0         0.13          5.5 
       498.0         0.20          5.0 
       499.0         0.23          5.3 
       500.0         0.27          5.2 
       501.0         0.27          5.1 
       502.0         0.27          4.7 
       503.0         0.27          5.3 
       504.0         0.27          5.2 
       505.0         0.27          5.2 
       506.0         0.23          5.3 
       507.0         0.30          5.3 
       508.0         0.20          5.0 
       509.0         0.20          4.8 
       510.0         0.17          4.9 
       511.0         0.20          4.5 
       512.0         0.17          4.6 
       513.0         0.13          4.6 
       514.0         0.13          4.6 
       515.0         0.13          4.6 
