~Version Information
 VERS.                                  2.0 : CWLS LAS VERSION
 WRAP.                                   NO : WRAPING MODE
 SWARE .                 MController 2.5.0E : SOFTWARE VERSION
~Well Information
 WELL.                         STATE 16-32R : WELL
 COMP.                      Petrogulf Corp. : COMPANY
 FLD.                      Purgatorie River : FIELD
 LOC.                SW/NE Sec 16 T33S R67W : LOCATION
 DATE.                      5/12/04-5/13/04 : DATE(S) LOGGED
 SRVC.       Blanco Geological Services LLC : SERVICE COMPANY
 STAT.                                   CO : STATE
 CNTY.                           Las Animas : COUNTY
 CTRY.                                  USA : COUNTRY
 API.                       05-071-08033-00 : API NUMBER
 STRT.FT                             167.00 : START DEPTH
 STOP.FT                            1918.00 : STOP DEPTH
 STEP.FT                               1.00 : DEPTH INCREMENT
 NULL.                                -9999 : NULL VALUE
~Curve information
 DEPTH.FT                                   :
 ROP.MIN/FT                                 :
 GAS.UNITS                                  :
~ASCII Log data
# ...
     1167.00        0.267         30.5 
     1168.00        0.333         30.4 
     1169.00        0.300         29.1 
     1170.00        0.233         28.4 
     1171.00        0.133         28.4 
     1172.00        0.100         28.4 
     1173.00        0.167         28.3 
     1174.00        0.200         29.2 
     1175.00        0.100         29.2 
     1176.00        0.067         30.5 
     1177.00        0.267         30.9 
     1178.00        0.350         29.8 
     1179.00        0.333         29.6 
     1180.00        0.333         28.9 
     1181.00        0.367         27.6 
     1182.00        0.267         26.8 
     1183.00        0.300         24.0 
     1184.00        0.267         23.9 
     1185.00        0.400         26.4 
     1186.00        0.333         29.0 
     1187.00        0.300         36.8 
     1188.00        0.317         48.8 
     1189.00        0.300         62.8 
     1190.00        0.267         77.6 
     1191.00        0.200         92.5 
     1192.00        0.300        105.1 
     1193.00        0.367        101.0 
     1194.00        0.400         71.2 
     1195.00        0.367         55.2 
     1196.00        4.700         49.1 
     1197.00        0.467         26.4 
     1198.00        0.567         26.8 
     1199.00        0.433         26.4 
     1200.00        0.367         25.9 
     1201.00        0.333         26.1 
     1202.00        0.300         25.0 
     1203.00        0.333         26.0 
     1204.00        0.350         27.6 
     1205.00        0.300         27.5 
     1206.00        0.300         28.8 
     1207.00        0.300         29.5 
     1208.00        0.367         26.5 
     1209.00        0.300         23.0 
     1210.00        0.267         22.9 
     1211.00        0.300         23.3 
     1212.00        0.333         33.9 
     1213.00        0.267         46.8 
     1214.00        0.300         52.6 
     1215.00        0.317         82.1 
     1216.00        0.267        108.1 
     1217.00        0.300        109.1 
     1218.00        0.267         94.0 
     1219.00        0.267         59.8 
     1220.00        0.200         54.1 
     1221.00        0.167         48.2 
     1222.00        0.100         48.2 
     1223.00        0.133         48.4 
     1224.00        0.267         46.0 
     1225.00        3.683         45.6 
     1226.00        0.167         24.8 
     1227.00        0.267         24.1 
     1228.00        0.400         23.5 
     1229.00        0.317         23.5 
     1230.00        0.233         23.5 
     1231.00        0.167         23.6 
     1232.00        0.267         23.9 
     1233.00        0.333         24.0 
     1234.00        0.333         23.7 
     1235.00        0.333         23.8 
     1236.00        0.267         24.4 
     1237.00        0.300         24.0 
     1238.00        0.333         23.8 
     1239.00        0.267         23.5 
     1240.00        0.283         23.4 
     1241.00        0.267         22.1 
     1242.00        0.267         21.6 
     1243.00        0.300         20.1 
     1244.00        0.300         24.4 
     1245.00        0.367         32.8 
     1246.00        0.367         43.8 
     1247.00        0.267         55.9 
     1248.00        0.367         68.6 
     1249.00        0.300         62.1 
     1250.00        0.367         59.3 
     1251.00        0.283         43.3 
     1252.00        0.333         31.5 
     1253.00        0.333         36.5 
     1254.00        0.267         39.8 
     1255.00        0.267         40.2 
     1256.00        3.917         38.7 
     1257.00        0.367         24.6 
     1258.00        0.333         24.6 
     1259.00        0.367         25.3 
     1260.00        0.267         24.3 
     1261.00        0.283         25.2 
     1262.00        0.167         25.6 
     1263.00        0.267         25.5 
     1264.00        0.233         25.7 
     1265.00        0.233         34.9 
     1266.00        0.300         26.0 
     1267.00        0.300         24.9 
     1268.00        0.333         23.0 
     1269.00        0.300         20.6 
     1270.00        0.267         20.5 
     1271.00        0.300         30.3 
     1272.00        0.267         40.6 
     1273.00        0.283         53.0 
     1274.00        0.267         61.0 
     1275.00        0.267         74.7 
     1276.00        0.233         71.3 
     1277.00        0.200         67.1 
     1278.00        0.200         53.2 
     1279.00        0.167         43.9 
     1280.00        0.100         43.9 
     1281.00        0.133         42.0 
     1282.00        0.300         35.5 
     1283.00        0.300         44.8 
     1284.00        0.333         37.2 
     1285.00        0.300         36.0 
     1286.00        4.133         43.9 
     1287.00        0.567         27.4 
     1288.00        0.433         32.6 
     1289.00        0.367         26.4 
     1290.00        0.333         25.8 
     1291.00        0.333         25.1 
     1292.00        0.300         23.8 
     1293.00        0.300         24.0 
     1294.00        0.267         24.2 
     1295.00        0.250         24.9 
     1296.00        0.167         24.6 
     1297.00        0.133         24.6 
     1298.00        0.200         24.4 
     1299.00        0.300         23.1 
     1300.00        0.300         20.8 
     1301.00        0.333         23.0 
     1302.00        0.300         31.1 
     1303.00        0.267         44.4 
     1304.00        0.233         59.4 
     1305.00        0.167         74.7 
     1306.00        0.267         81.2 
     1307.00        0.367         85.9 
     1308.00        0.317         75.4 
     1309.00        0.300         58.4 
     1310.00        0.300         42.9 
     1311.00        0.300         32.7 
     1312.00        0.233         36.0 
     1313.00        0.333         42.6 
     1314.00        0.267         41.5 
     1315.00        0.267         40.6 
     1316.00        3.783         36.9 
     1317.00        0.267         25.7 
     1318.00        0.433         24.6 
     1319.00        0.450         24.8 
     1320.00        0.367         26.1 
     1321.00        0.400         28.9 
     1322.00        0.400         30.3 
     1323.00        0.400         30.2 
     1324.00        0.400         28.7 
     1325.00        0.367         27.1 
     1326.00        0.267         27.3 
     1327.00        0.300         25.9 
     1328.00        0.283         24.3 
     1329.00        0.267         21.1 
     1330.00        0.300         20.0 
     1331.00        0.300         23.5 
     1332.00        0.267         31.8 
     1333.00        0.233         43.5 
     1334.00        0.200         57.1 
     1335.00        0.200         57.1 
     1336.00        0.133         72.8 
     1337.00        0.200         81.8 
     1338.00        0.367         86.6 
     1339.00        0.333         81.1 
     1340.00        0.300         58.6 
     1341.00        0.283         43.8 
     1342.00        0.300         32.4 
     1343.00        0.300         37.6 
     1344.00        0.300         42.2 
     1345.00        0.200         43.7 
     1346.00        4.183         44.3 
     1347.00        0.333         26.3 
     1348.00        0.333         25.3 
     1349.00        0.583         24.4 
     1350.00        0.500         23.9 
     1351.00        0.300         23.4 
     1352.00        0.333         24.2 
     1353.00        0.467         23.9 
     1354.00        0.400         24.2 
     1355.00        0.300         23.4 
     1356.00        0.133         23.4 
     1357.00        0.233         24.0 
     1358.00        0.300         23.5 
     1359.00        0.350         21.8 
     1360.00        0.267         19.6 
     1361.00        0.300         21.4 
     1362.00        0.267         24.7 
     1363.00        0.300         31.9 
     1364.00        0.267         41.4 
     1365.00        0.300         53.5 
     1366.00        0.333         75.8 
