~Version Information
VERS.                      2.0: CWLS Log ASCII Standard - VERSION 2.0
WRAP.                       NO: One line per depth step
~Well Information Block
STRT.FT               930.0000: 
STOP.FT              2783.2000: 
STEP.FT                 0.1000: 
NULL.                -999.2500: 
COMP.          Pioneer Natural Resources: COMPANY
WELL.           Desoto 13-7TR: WELL
FLD.           Purgatoire River: FIELD
LOC.           1404' FSL & 1115' FWL: LOCATION
PROV.                 Colorado: PROVINCE
CNTY.               Las Animas: COUNTRY
SRVC.                Patterson: SERVICE COMPANY
DATE.          Fri Jan 14 14:42:18 2005: LOG DATE
UWI.           05 071 08216 00: UNIQUE WELL ID
~Curve Information Block
DEPT.FT            0 000 00 00: Depth
DCAL.in                       : CDL Caliper
RHOB.g/cc                     : CDL Bulk Density
RHOC.g/cc                     : CDL Density Correction
DPOR.pu                       : CDL Density Porosity
NPOR.pu                       : Neutron Porosity
GR.GAPI                       : Gamma Ray
~Parameter Information Block
~A  Depth       DCAL        RHOB        RHOC        DPOR        NPOR         GR     
# ...
  1170.0000      8.1996      2.3829      0.0171     16.1862     15.6181     54.3579
  1170.1000      8.1996      2.3815      0.0906     16.2742     15.5399     52.9070
  1170.2000      8.1996      2.3656      0.0889     17.2343     15.8392     51.1210
  1170.3000      8.2034      2.3238      0.0114     19.7725     16.1691     48.3706
  1170.4000      8.2034      2.2852     -0.0217     22.1095     16.1900     47.6645
  1170.5000      8.2036      2.2783     -0.0345     22.5246     15.9762     48.3291
  1170.6000      8.2036      2.2986      0.0317     21.2953     16.1007     46.9241
  1170.7000      8.2036      2.3258      0.0210     19.6505     16.8896     44.5462
  1170.8000      8.2037      2.3492      0.0590     18.2298     17.9203     43.8674
  1170.9000      8.2037      2.3695      0.0366     16.9995     18.6411     45.8417
  1171.0000      8.2054      2.3901      0.0816     15.7526     19.1992     51.0322
  1171.1000      8.2054      2.4107      0.0272     14.5037     20.0939     57.2942
  1171.2000      8.2054      2.4309      0.0722     13.2765     21.3648     62.6149
  1171.3000      8.2084      2.4498      0.0755     12.1304     22.6671     67.6133
  1171.4000      8.2084      2.4695      0.0508     10.9383     23.8106     72.5270
  1171.5000      8.2102      2.4937      0.0716      9.4721     25.0357     77.5296
  1171.6000      8.2102      2.5198      0.0746      7.8910     26.6109     83.7809
  1171.7000      8.2102      2.5442      0.0496      6.4118     27.9194     92.5860
  1171.8000      8.2053      2.5625      0.0701      5.3052     28.2138    103.3086
  1171.9000      8.2053      2.5657      0.0854      5.1069     27.7999    112.1117
  1172.0000      8.2000      2.5560      0.0401      5.6992     27.4189    116.4973
  1172.1000      8.2000      2.5512     -0.0016      5.9849     27.5203    119.1994
  1172.2000      8.2000      2.5618      0.0207      5.3475     27.8970    122.5704
  1172.3000      8.2001      2.5698      0.0712      4.8629     28.0225    123.9720
  1172.4000      8.2001      2.5614      0.0506      5.3673     27.8174    121.9180
  1172.5000      8.2020      2.5614      0.0578      5.3714     27.6400    120.0422
  1172.6000      8.2020      2.5945      0.0581      3.3617     27.5740    120.0187
  1172.7000      8.2020      2.6415      0.1066      0.5137     27.5661    118.7228
  1172.8000      8.2045      2.6612      0.1120     -0.6813     27.7410    115.0104
  1172.9000      8.2045      2.6411      0.0861      0.5392     28.1383    110.9131
  1173.0000      8.2073      2.5993      0.0752      3.0715     28.5383    106.9732
  1173.1000      8.2073      2.5620      0.0237      5.3317     28.5785    102.8731
  1173.2000      8.2073      2.5513      0.0276      5.9813     28.1936     99.9083
  1173.3000      8.2083      2.5627      0.0585      5.2911     27.9228    100.4818
  1173.4000      8.2083      2.5689      0.0554      4.9177     28.4627    104.4193
  1173.5000      8.2046      2.5608     -0.0231      5.4043     29.5693    107.0259
  1173.6000      8.2046      2.5468      0.0118      6.2547     30.2018    103.8978
  1173.7000      8.2046      2.5329     -0.0552      7.0990     30.0890     97.6836
  1173.8000      8.2010      2.5285     -0.0293      7.3608     30.0939     93.9056
  1173.9000      8.2010      2.5305     -0.0158      7.2410     30.6903     93.4012
  1174.0000      8.2023      2.5265     -0.0327      7.4819     31.2014     94.4349
  1174.1000      8.2023      2.5189     -0.0306      7.9451     31.0325     98.5212
  1174.2000      8.2023      2.5167     -0.0045      8.0778     30.4761    106.2226
  1174.3000      8.2043      2.5278     -0.0140      7.4054     29.9373    113.3398
  1174.4000      8.2043      2.5589      0.0229      5.5193     29.3950    117.4388
  1174.5000      8.2053      2.5995      0.0667      3.0582     28.8071    116.9942
  1174.6000      8.2053      2.6245      0.0927      1.5440     28.3481    112.0884
  1174.7000      8.2053      2.6188      0.0786      1.8885     28.2503    108.2452
  1174.8000      8.2043      2.5838      0.0369      4.0126     28.5839    108.4219
  1174.9000      8.2043      2.5323      0.0444      7.1335     28.9148    108.5572
  1175.0000      8.2012      2.4959     -0.0477      9.3371     28.8598    107.8336
  1175.1000      8.2012      2.5016      0.0036      8.9945     28.6475    110.2454
  1175.2000      8.2012      2.5345      0.0355      6.9976     28.4919    116.0573
  1175.3000      8.1990      2.5685      0.0515      4.9420     28.4094    120.3733
  1175.4000      8.1990      2.5945      0.0351      3.3661     28.2838    118.9180
  1175.5000      8.2016      2.6053      0.0463      2.7108     28.1563    113.6944
  1175.6000      8.2016      2.5960      0.0187      3.2723     28.1044    108.1196
  1175.7000      8.2016      2.5810     -0.0221      4.1823     27.8892    103.9170
  1175.8000      8.2052      2.5823     -0.0007      4.1005     27.4296    103.8327
  1175.9000      8.2052      2.5999      0.0503      3.0342     26.8998    106.2314
  1176.0000      8.2050      2.6140      0.0763      2.1792     26.5947    105.9718
  1176.1000      8.2050      2.6152      0.0595      2.1094     26.5907    105.1224
  1176.2000      8.2050      2.6021      0.0799      2.9023     26.5318    107.9548
  1176.3000      8.2024      2.5796      0.0198      4.2695     26.3987    112.5244
  1176.4000      8.2024      2.5656      0.0303      5.1142     26.5659    113.6819
  1176.5000      8.2016      2.5638      0.0296      5.2263     26.8806    110.3057
  1176.6000      8.2016      2.5620      0.0070      5.3363     26.9667    105.6521
  1176.7000      8.2016      2.5575      0.0188      5.6043     27.0109    101.5536
  1176.8000      8.2019      2.5564      0.0131      5.6757     27.2627    100.0539
  1176.9000      8.2019      2.5637     -0.0258      5.2312     27.5859    101.3070
  1177.0000      8.2019      2.5772      0.0263      4.4146     27.7382    103.2994
  1177.1000      8.2019      2.5851      0.0031      3.9359     27.8869    104.3389
  1177.2000      8.2019      2.5847      0.0284      3.9557     28.2126    103.4541
  1177.3000      8.2009      2.5871      0.0586      3.8133     28.6245    102.2569
  1177.4000      8.2009      2.6015      0.0134      2.9385     29.2886    102.0225
  1177.5000      8.1991      2.6202      0.0718      1.8075     30.1149    101.2380
  1177.6000      8.1991      2.6216      0.0681      1.7236     30.6613    100.1600
  1177.7000      8.1991      2.6070      0.0544      2.6052     30.9343     99.4463
  1177.8000      8.1971      2.5979      0.0277      3.1571     31.1962     97.9398
  1177.9000      8.1971      2.6000      0.0116      3.0300     31.5934     96.5259
  1178.0000      8.1960      2.6033      0.0398      2.8282     32.1736     98.9287
  1178.1000      8.1960      2.5999      0.0243      3.0340     32.6527    107.1071
  1178.2000      8.1960      2.5888      0.0248      3.7061     32.7653    115.7369
  1178.3000      8.1976      2.5769     -0.0030      4.4331     32.6922    120.4537
  1178.4000      8.1976      2.5734      0.0253      4.6442     32.5996    125.8448
  1178.5000      8.2012      2.5696      0.0627      4.8757     32.4031    132.8350
  1178.6000      8.2012      2.5555     -0.0197      5.7265     32.1012    135.6258
  1178.7000      8.2012      2.5456      0.0004      6.3285     31.8313    133.3773
  1178.8000      8.2024      2.5506      0.0359      6.0235     31.3805    128.6308
  1178.9000      8.2024      2.5647      0.0150      5.1717     30.4650    125.3187
  1179.0000      8.2036      2.5773      0.0669      4.4061     29.7172    127.6541
  1179.1000      8.2036      2.5822      0.0585      4.1074     29.7516    133.3172
  1179.2000      8.2036      2.5794      0.0543      4.2805     29.9640    137.8729
  1179.3000      8.2073      2.5667      0.0335      5.0487     29.6815    139.5535
  1179.4000      8.2073      2.5504     -0.0016      6.0384     29.2801    138.3909
  1179.5000      8.2093      2.5439      0.0022      6.4314     29.3656    133.8078
