~Version Information
 VERS.                                  2.0 : CWLS LAS VERSION
 WRAP.                                   NO : WRAPING MODE
 SWARE .                 MController 2.5.0J : SOFTWARE VERSION
~Well Information
 WELL.                        Harlee L 34-9 : WELL
 COMP.    Pioneer natural Resources USA Inc : COMPANY
 FLD.                      Purgatoire River : FIELD
 LOC.                 SW/SE Sec 9 T32S R65W : LOCATION
 DATE.                              1/25/05 : DATE(S) LOGGED
 SRVC.       Blanco Geological Services LLC : SERVICE COMPANY
 STAT.                                   CO : STATE
 CNTY.                           Las Animas : COUNTY
 CTRY.                                  USA : COUNTRY
 API.                       05-071-08009-00 : API NUMBER
 STRT.FT                             404.00 : START DEPTH
 STOP.FT                            1773.00 : STOP DEPTH
 STEP.FT                               1.00 : DEPTH INCREMENT
 NULL.                                -9999 : NULL VALUE
~Curve information
 DEPTH.FT                                   :
 ROP.MIN/FT                                 :
 GAS.UNITS                                  :
~ASCII Log data
# ...
      1204.0         0.28          7.8 
      1205.0         0.23          7.3 
      1206.0         0.23          6.5 
      1207.0         0.23          6.4 
      1208.0         0.23          6.5 
      1209.0         0.23          7.1 
      1210.0         0.30          6.4 
      1211.0         0.27          5.6 
      1212.0         0.27          7.1 
      1213.0         0.23         20.5 
      1214.0         0.20         20.5 
      1215.0         0.23         49.3 
      1216.0         0.20        269.7 
      1217.0         0.20        150.3 
      1218.0         0.18        150.3 
      1219.0         0.20        142.8 
      1220.0         0.17        139.8 
      1221.0         0.23        146.6 
      1222.0         0.20        144.5 
      1223.0         0.23        143.4 
      1224.0         0.23        123.0 
      1225.0         0.27        116.1 
      1226.0         0.27         93.1 
      1227.0         0.30         85.7 
      1228.0         0.35         76.9 
      1229.0         0.27         76.5 
      1230.0         0.27         78.1 
      1231.0         0.30         79.4 
      1232.0         0.20         79.9 
      1233.0         0.27         80.1 
      1234.0         0.27         79.0 
      1235.0         0.27         76.6 
      1236.0         0.23         74.7 
      1237.0         0.27         75.0 
      1238.0         0.23         78.1 
      1239.0         0.23         78.5 
      1240.0         0.20         80.8 
      1241.0         0.28         80.1 
      1242.0         0.37         78.4 
      1243.0         0.20         78.1 
      1244.0         0.30         79.6 
      1245.0         0.23         79.1 
      1246.0         0.23         79.1 
      1247.0         0.20         76.9 
      1248.0         0.30         76.3 
      1249.0         0.27         65.7 
      1250.0         0.27         83.3 
      1251.0         0.23        115.3 
      1252.0         0.23        163.4 
      1253.0         0.27        193.8 
      1254.0         0.28        228.2 
      1255.0         0.27        227.8 
      1256.0         0.27        199.5 
      1257.0         0.23        186.7 
      1258.0         0.30        165.9 
      1259.0         0.23        141.3 
      1260.0         0.28        124.5 
      1261.0         0.27        111.0 
      1262.0         0.27        103.6 
      1263.0         0.33        102.6 
      1264.0         0.43         89.4 
      1265.0         0.40         72.9 
      1266.0         0.33         67.7 
      1267.0         0.23         71.6 
      1268.0         0.30         74.5 
      1269.0         0.40         75.3 
      1270.0         0.35         73.2 
      1271.0         0.33         74.8 
      1272.0         0.17         74.8 
      1273.0         0.17         76.0 
      1274.0         0.20         76.1 
      1275.0         0.20         75.5 
      1276.0         0.27         75.3 
      1277.0         0.23        318.3 
      1278.0         0.20        318.3 
      1279.0         0.20        356.3 
      1280.0         0.27        419.3 
      1281.0         0.17        419.3 
      1282.0         0.20        408.5 
      1283.0         0.23        398.0 
      1284.0         0.32        293.2 
      1285.0         0.27        263.2 
      1286.0         0.23        192.3 
      1287.0         0.27        141.7 
      1288.0         0.27        112.9 
      1289.0         0.27        102.3 
      1290.0         0.27        104.0 
      1291.0         0.33        104.3 
      1292.0         0.40        104.2 
      1293.0         0.33        100.1 
      1294.0         0.27         94.0 
      1295.0         0.28         89.5 
      1296.0         0.27         85.0 
      1297.0         0.27         32.5 
      1298.0         0.30          0.2 
      1299.0         0.30          1.6 
      1300.0         0.27          3.6 
      1301.0         0.27          3.1 
      1302.0         0.27         20.8 
      1303.0         0.27         69.8 
      1304.0         0.23         75.2 
      1305.0         0.27         76.7 
      1306.0         0.20         82.1 
      1307.0         0.23          8.6 
      1308.0         0.22          8.6 
      1309.0         0.23        101.8 
      1310.0         0.23        221.4 
      1311.0         0.20        353.7 
      1312.0         0.23        398.9 
      1313.0         0.23       1082.3 
      1314.0         0.23       1104.6 
      1315.0         0.23       1143.6 
      1316.0         0.47       1129.4 
      1317.0         0.40        704.6 
      1318.0         0.43        532.2 
      1319.0         0.33        440.0 
      1320.0         0.37        151.0 
      1321.0         0.40        149.3 
      1322.0         0.35        120.0 
      1323.0         0.37        111.0 
      1324.0         0.33        108.1 
      1325.0         0.30        102.4 
      1326.0         0.30         98.8 
      1327.0         0.27         96.8 
      1328.0         0.30         95.7 
      1329.0         0.23         90.6 
      1330.0         0.27         88.5 
      1331.0         0.27         87.4 
      1332.0         0.30         87.4 
      1333.0         0.25         88.5 
      1334.0         0.27         90.5 
      1335.0         0.27         93.2 
      1336.0         0.27         96.0 
      1337.0         0.27         99.2 
      1338.0         0.23        478.4 
      1339.0         0.27        478.4 
      1340.0         0.30       1223.5 
      1341.0         0.27       1293.7 
      1342.0         0.30       1231.5 
      1343.0         0.27       1069.1 
      1344.0         0.27        833.2 
      1345.0         0.22        657.6 
      1346.0         0.27        523.5 
      1347.0         0.27        440.0 
      1348.0         0.27        163.8 
      1349.0         0.23        151.9 
      1350.0         0.27        151.3 
      1351.0         0.23        147.0 
      1352.0         0.23        140.3 
      1353.0         0.30        135.3 
      1354.0         0.23        130.4 
      1355.0         0.23        118.1 
      1356.0         0.30        112.5 
      1357.0         0.28        104.7 
      1358.0         0.30         93.9 
      1359.0         0.27         80.5 
      1360.0         0.20         80.6 
      1361.0         0.20         83.8 
      1362.0         0.20         84.3 
      1363.0         0.17         87.2 
      1364.0         0.20         89.5 
      1365.0         0.23         90.8 
      1366.0         0.20         90.8 
      1367.0         0.23         90.8 
      1368.0         0.27        221.9 
      1369.0         0.23        221.9 
      1370.0         0.23        345.7 
      1371.0         0.25        460.4 
      1372.0         0.30       1111.3 
      1373.0         0.27       1158.1 
      1374.0         0.27       1169.7 
      1375.0         0.27       1150.6 
      1376.0         0.27        981.1 
      1377.0         0.27        764.6 
      1378.0         0.27        595.1 
      1379.0         0.30        480.3 
      1380.0         0.30        440.0 
      1381.0         0.40        156.4 
      1382.0         0.33        127.9 
      1383.0         0.33        111.0 
      1384.0         0.33         95.7 
      1385.0         0.27         79.7 
      1386.0         0.28         79.6 
      1387.0         0.23         82.6 
      1388.0         0.30         86.3 
      1389.0         0.30         87.7 
      1390.0         0.30         86.9 
      1391.0         0.30         86.5 
      1392.0         0.30         86.3 
      1393.0         0.30         84.6 
      1394.0         0.37         87.5 
      1395.0         0.30         92.9 
      1396.0         0.42         93.6 
      1397.0         0.37         83.0 
      1398.0         0.33         82.7 
      1399.0         0.30       1630.2 
      1400.0         0.30       1630.2 
      1401.0         0.30       1866.7 
      1402.0         0.30       1851.6 
      1403.0         0.33       1663.7 
