~Version Information
VERS.                      2.0: CWLS Log ASCII Standard - VERSION 2.0
WRAP.                       NO: One line per depth step
~Well Information Block
STRT.FT               928.1000: 
STOP.FT              2417.7000: 
STEP.FT                 0.1000: 
NULL.                -999.2500: 
COMP.          Pioneer Natural Resources: COMPANY
WELL.            Chevron 13-13: WELL
FLD.           Purgatoire River: FIELD
LOC.           1560' FSL & 711' FWL--: LOCATION
CNTY.               Las Animas: COUNTY
SRVC.          Superior Well Services: SERVICE COMPANY
DATE.          Mon Feb 12 14:51:53 2007: LOG DATE
UWI.           05 071 08319 00: UNIQUE WELL ID
STAT.                 Colorado: STATE
~Curve Information Block
DEPT.FT            0 000 00 00: Depth
DIR.Ohm-m                     : IEL Induction Resistivity
GR.GAPI                       : Gamma Ray
SN.Ohm-m                      : IEL Short Normal
SP.mV                         : IEL Spontaneous Potential
~Parameter Information Block
~A  Depth       DIR          GR          SN          SP     
# ...
  2214.5000     15.3280     82.7464     20.5847     90.3429
  2214.6000     15.3280     81.9347     20.5847     90.3429
  2214.7000     15.3280     81.2506     20.5847     90.3429
  2214.8000     15.3494     80.7186     20.1727     90.5313
  2214.9000     15.3494     80.3690     20.1727     90.5313
  2215.0000     15.3157     80.2332     19.6621     90.8474
  2215.1000     15.3157     80.3335     19.6621     90.8474
  2215.2000     15.3157     80.6823     19.6621     90.8474
  2215.3000     15.2029     81.2773     19.0540     91.2786
  2215.4000     15.2029     82.1064     19.0540     91.2786
  2215.5000     14.9843     83.1518     18.3766     91.7985
  2215.6000     14.9843     84.3974     18.3766     91.7985
  2215.7000     14.9843     85.8285     18.3766     91.7985
  2215.8000     14.6453     87.4361     17.6799     92.3684
  2215.9000     14.6453     89.2145     17.6799     92.3684
  2216.0000     14.1966     91.1559     17.1243     92.9406
  2216.1000     14.1966     93.2506     17.1243     92.9406
  2216.2000     14.1966     95.4801     17.1243     92.9406
  2216.3000     13.6743     97.8195     16.6387     93.4636
  2216.4000     13.6743    100.2380     16.6387     93.4636
  2216.5000     13.1287    102.6991     16.1096     93.8871
  2216.6000     13.1287    105.1623     16.1096     93.8871
  2216.7000     13.1287    107.5807     16.1096     93.8871
  2216.8000     12.6125    109.9010     15.5215     94.1681
  2216.9000     12.6125    112.0634     15.5215     94.1681
  2217.0000     12.1719    113.9981     15.0217     94.2757
  2217.1000     12.1719    115.6317     15.0217     94.2757
  2217.2000     12.1719    116.8915     15.0217     94.2757
  2217.3000     11.8424    117.7164     14.8192     94.1948
  2217.4000     11.8424    118.0631     14.8192     94.1948
  2217.5000     11.6455    117.9139     14.9237     93.9294
  2217.6000     11.6455    117.2838     14.9237     93.9294
  2217.7000     11.6455    116.2162     14.9237     93.9294
  2217.8000     11.5893    114.7804     15.2249     93.5025
  2217.9000     11.5893    113.0604     15.2249     93.5025
  2218.0000     11.6681    111.1442     15.6465     92.9552
  2218.1000     11.6681    109.1096     15.6465     92.9552
  2218.2000     11.6681    107.0177     15.6465     92.9552
  2218.3000     11.8642    104.9001     16.0247     92.3429
  2218.4000     11.8642    102.7627     16.0247     92.3429
  2218.5000     12.1487    100.5838     16.2135     91.7301
  2218.6000     12.1487     98.3312     16.2135     91.7301
  2218.7000     12.1487     95.9763     16.2135     91.7301
  2218.8000     12.4827     93.5073     16.2388     91.1829
  2218.9000     12.4827     90.9494     16.2388     91.1829
  2219.0000     12.8191     88.3730     16.1448     90.7613
  2219.1000     12.8191     85.8964     16.1448     90.7613
  2219.2000     12.8191     83.6804     16.1448     90.7613
  2219.3000     13.1070     81.9140     16.0018     90.5116
  2219.4000     13.1070     80.7935     16.0018     90.5116
  2219.5000     13.2997     80.4967     15.9413     90.4601
  2219.6000     13.2997     81.1595     15.9413     90.4601
  2219.7000     13.2997     82.8591     15.9413     90.4601
  2219.8000     13.3669     85.5977     15.9884     90.6098
  2219.9000     13.3669     89.3026     15.9884     90.6098
  2220.0000     13.3065     93.8306     16.1041     90.9394
  2220.1000     13.3065     98.9849     16.1041     90.9394
  2220.2000     13.3065    104.5312     16.1041     90.9394
  2220.3000     13.1470    110.2279     16.2460     91.4072
  2220.4000     13.1470    115.8421     16.2460     91.4072
  2220.5000     12.9361    121.1718     16.3252     91.9563
  2220.6000     12.9361    126.0586     16.3252     91.9563
  2220.7000     12.9361    130.3900     16.3252     91.9563
  2220.8000     12.7211    134.0942     16.3237     92.5236
  2220.9000     12.7211    137.1322     16.3237     92.5236
  2221.0000     12.5357    139.4808     16.3002     93.0477
  2221.1000     12.5357    141.1282     16.3002     93.0477
  2221.2000     12.5357    142.0618     16.3002     93.0477
  2221.3000     12.3979    142.2708     16.3184     93.4770
  2221.4000     12.3979    141.7512     16.3184     93.4770
  2221.5000     12.3187    140.5181     16.4312     93.7752
  2221.6000     12.3187    138.6143     16.4312     93.7752
  2221.7000     12.3187    136.1218     16.4312     93.7752
  2221.8000     12.3120    133.1654     16.5991     93.9244
  2221.9000     12.3120    129.9041     16.5991     93.9244
  2222.0000     12.4009    126.5250     16.7922     93.9247
  2222.1000     12.4009    123.2257     16.7922     93.9247
  2222.2000     12.4009    120.1930     16.7922     93.9247
  2222.3000     12.6179    117.5873     17.1184     93.7910
  2222.4000     12.6179    115.5258     17.1184     93.7910
  2222.5000     13.0003    114.0733     17.7119     93.5490
  2222.6000     13.0003    113.2411     17.7119     93.5490
  2222.7000     13.0003    112.9845     17.7119     93.5490
  2222.8000     13.5854    113.2191     18.7081     93.2290
  2222.9000     13.5854    113.8355     18.7081     93.2290
  2223.0000     14.4032    114.7082     20.0795     92.8609
  2223.1000     14.4032    115.7176     20.0795     92.8609
  2223.2000     14.4032    116.7606     20.0795     92.8609
  2223.3000     15.4683    117.7599     21.7586     92.4701
  2223.4000     15.4683    118.6653     21.7586     92.4701
  2223.5000     16.7692    119.4570     23.5641     92.0751
  2223.6000     16.7692    120.1408     23.5641     92.0751
  2223.7000     16.7692    120.7384     23.5641     92.0751
  2223.8000     18.2547    121.2824     25.1238     91.6867
  2223.9000     18.2547    121.8086     25.1238     91.6867
  2224.0000     19.8252    122.3471     26.4545     91.3089
  2224.1000     19.8252    122.9210     26.4545     91.3089
  2224.2000     19.8252    123.5402     26.4545     91.3089
  2224.3000     21.3394    124.2011     27.4602     90.9407
  2224.4000     21.3394    124.8873     27.4602     90.9407
  2224.5000     22.6483    125.5726     28.0915     90.5789
  2224.6000     22.6483    126.2264     28.0915     90.5789
  2224.7000     22.6483    126.8205     28.0915     90.5789
  2224.8000     23.6508    127.3333     28.4715     90.2204
  2224.9000     23.6508    127.7597     28.4715     90.2204
  2225.0000     24.3365    128.1149     28.6924     89.8638
  2225.1000     24.3365    128.4357     28.6924     89.8638
  2225.2000     24.3365    128.7798     28.6924     89.8638
  2225.3000     24.7825    129.2237     28.8736     89.5110
  2225.4000     24.7825    129.8531     28.8736     89.5110
  2225.5000     25.1068    130.7549     29.0262     89.1667
  2225.6000     25.1068    132.0110     29.0262     89.1667
  2225.7000     25.1068    133.6875     29.0262     89.1667
  2225.8000     25.4151    135.8261     29.1650     88.8387
  2225.9000     25.4151    138.4441     29.1650     88.8387
  2226.0000     25.7703    141.5276     29.3461     88.5357
  2226.1000     25.7703    145.0268     29.3461     88.5357
  2226.2000     25.7703    148.8572     29.3461     88.5357
  2226.3000     26.1833    152.9013     29.6630     88.2668
  2226.4000     26.1833    157.0065     29.6630     88.2668
  2226.5000     26.6205    161.0056     30.1226     88.0397
  2226.6000     26.6205    164.7201     30.1226     88.0397
  2226.7000     26.6205    167.9892     30.1226     88.0397
  2226.8000     27.0202    170.6894     30.5373     87.8596
  2226.9000     27.0202    172.7523     30.5373     87.8596
  2227.0000     27.3189    174.1861     30.8225     87.7288
  2227.1000     27.3189    175.0783     30.8225     87.7288
  2227.2000     27.3189    175.5911     30.8225     87.7288
  2227.3000     27.4763    175.9452     30.9576     87.6462
  2227.4000     27.4763    176.3908     30.9576     87.6462
  2227.5000     27.4867    177.1863     30.9362     87.6079
  2227.6000     27.4867    178.5684     30.9362     87.6079
  2227.7000     27.4867    180.7290     30.9362     87.6079
  2227.8000     27.3727    183.8003     30.8428     87.6077
