~Version Information
VERS.                      2.0: CWLS Log ASCII Standard - VERSION 2.0
WRAP.                       NO: One line per depth step
~Well Information Block
STRT.FT               998.8000: 
STOP.FT              2235.5000: 
STEP.FT                 0.1000: 
NULL.                -999.2500: 
COMP.          Petrogulf Corporation: COMPANY
WELL.          Latiluppe 8-13R: WELL
FLD.           Purgatorie River: FIELD
LOC.           1495' FSL & 946' FWL: LOCATION
CNTY.               Las Animas: COUNTY
SRVC.                         : SERVICE COMPANY
DATE.          Wed Apr 21 10:46:16 2004: LOG DATE
UWI.           05 071 08035 00: UNIQUE WELL ID
STAT.                 Colorado: STATE
~Curve Information Block
DEPT.FT            0 000 00 00: Depth
DCAL.in                       : CDL Caliper
RHOB.g/cc                     : CDL Bulk Density
RHOC.g/cc                     : CDL Density Correction
DPOR.pu                       : CDL Density Porosity
NPOR.pu                       : Neutron Porosity
GR.GAPI                       : Gamma Ray
~Parameter Information Block
~A  Depth       DCAL        RHOB        RHOC        DPOR        NPOR         GR     
# ...
  1402.0000      7.8601      1.7045      0.0775     57.3049     15.7879    106.0978
  1402.1000      7.8601      1.7494      0.1408     54.5835     15.0161    107.6312
  1402.2000      7.8601      1.7959      0.1578     51.7650     13.9070    111.3667
  1402.3000      7.8583      1.8359      0.2191     49.3424     12.9130    117.2327
  1402.4000      7.8583      1.8602      0.1533     47.8650     12.2664    123.6581
  1402.5000      7.8582      1.8678      0.1150     47.4050     11.8023    128.5878
  1402.6000      7.8582      1.8675      0.0489     47.4255     11.3530    130.9978
  1402.7000      7.8582      1.8669      0.0106     47.4612     10.9145    130.3764
  1402.8000      7.8700      1.8546      0.0302     48.2057     10.5896    125.3645
  1402.9000      7.8700      1.7943      0.0416     51.8594     10.3953    120.4178
  1403.0000      7.8793      1.6692     -0.0175     59.4438     10.3543    120.0697
  1403.1000      7.8793      1.5429     -0.0974     67.0962     10.7368    123.2962
  1403.2000      7.8793      1.5322     -0.0832     67.7437     11.7617    127.7843
  1403.3000      7.8990      1.6898      0.1954     58.1911     13.2773    130.5884
  1403.4000      7.8990      1.9454      0.4818     42.7050     14.8881    129.2927
  1403.5000      8.0287      2.1770      0.6628     28.6648     16.5982    125.2740
  1403.6000      8.0287      2.3063      0.6921     20.8306     18.4943    125.6904
  1403.7000      8.0287      2.3300      0.5667     19.3916     20.1381    131.3224
  1403.8000      8.0365      2.2916      0.4481     21.7207     21.1494    132.9709
  1403.9000      8.0365      2.2269      0.3580     25.6417     21.5443    127.3377
  1404.0000      7.8838      2.1472      0.2456     30.4699     21.4171    120.4627
  1404.1000      7.8838      2.0558      0.1891     36.0123     20.6099    118.2146
  1404.2000      7.8838      1.9604      0.0756     41.7934     19.0981    121.9167
  1404.3000      7.8050      1.8732      0.0278     47.0763     17.5449    123.7908
  1404.4000      7.8050      1.7958      0.0158     51.7720     16.5349    117.2959
  1404.5000      7.7964      1.7204     -0.0232     56.3366     15.7298    109.4159
  1404.6000      7.7964      1.6568     -0.1008     60.1955     14.6719    106.7135
  1404.7000      7.7964      1.6277     -0.0615     61.9582     13.5830    107.5536
  1404.8000      7.7957      1.6327      0.0012     61.6556     12.7131    109.9522
  1404.9000      7.7957      1.6477      0.0668     60.7432     11.8645    113.9323
  1405.0000      7.7863      1.6643      0.0567     59.7416     11.0159    119.0540
  1405.1000      7.7863      1.7032      0.0914     57.3828     10.4747    121.5704
  1405.2000      7.7863      1.7772      0.1704     52.8965     10.4556    119.6250
  1405.3000      7.7866      1.8662      0.2076     47.5047     10.8836    115.6397
  1405.4000      7.7866      1.9390      0.2438     43.0881     11.3333    112.4639
  1405.5000      7.7896      1.9802      0.2253     40.5951     11.4261    111.2517
  1405.6000      7.7896      1.9950      0.1860     39.6998     11.4057    111.0886
  1405.7000      7.7896      1.9983      0.1263     39.4959     11.7377    110.2606
  1405.8000      7.7923      2.0002      0.0949     39.3839     12.3831    110.4550
  1405.9000      7.7923      2.0032      0.0715     39.1979     12.9886    114.4110
  1406.0000      7.7958      2.0133      0.0620     38.5873     13.2668    118.5313
  1406.1000      7.7958      2.0375      0.0439     37.1185     13.2483    119.7085
  1406.2000      7.7958      2.0760      0.0915     34.7854     13.2644    120.0742
  1406.3000      7.7966      2.1259      0.0666     31.7665     13.5041    122.0795
  1406.4000      7.7966      2.1816      0.1591     28.3903     13.9363    125.8500
  1406.5000      7.8013      2.2336      0.1798     25.2372     14.5158    127.0300
  1406.6000      7.8013      2.2830      0.1791     22.2404     15.0917    124.6324
  1406.7000      7.8013      2.3396      0.1556     18.8131     15.5710    121.9348
  1406.8000      7.8144      2.4071      0.1672     14.7200     15.9981    119.0985
  1406.9000      7.8144      2.4745      0.2022     10.6339     16.4008    117.4787
  1407.0000      7.7930      2.5206      0.1397      7.8402     17.2824    119.5959
  1407.1000      7.7930      2.5423      0.1070      6.5277     19.0901    122.6674
  1407.2000      7.7930      2.5561      0.0781      5.6907     21.1360    124.1067
  1407.3000      7.7956      2.5662      0.1056      5.0791     22.4481    125.5218
  1407.4000      7.7956      2.5678      0.0728      4.9840     23.2033    126.1373
  1407.5000      7.7965      2.5733      0.0590      4.6459     24.0542    124.2867
  1407.6000      7.7965      2.5909      0.1036      3.5846     24.9650    121.0389
  1407.7000      7.7965      2.6051      0.0730      2.7199     25.5819    118.2617
  1407.8000      7.7934      2.6036      0.0634      2.8095     25.9112    117.6830
  1407.9000      7.7934      2.5891      0.0319      3.6892     26.1795    118.0515
  1408.0000      7.7976      2.5719      0.0445      4.7314     26.3629    116.8195
  1408.1000      7.7976      2.5565      0.0793      5.6648     26.0460    115.9396
  1408.2000      7.7976      2.5365      0.0488      6.8772     25.1484    121.3532
  1408.3000      7.7951      2.5126      0.0250      8.3267     24.2204    132.1898
  1408.4000      7.7951      2.4959     -0.0188      9.3424     23.7011    139.3851
  1408.5000      7.7955      2.4891     -0.0145      9.7512     23.4618    140.2292
  1408.6000      7.7955      2.4847      0.0323     10.0173     23.2411    139.1801
  1408.7000      7.7955      2.4843      0.0357     10.0434     23.1893    136.8536
  1408.8000      7.7997      2.4997      0.0201      9.1071     23.4569    133.4983
  1408.9000      7.7997      2.5272      0.0547      7.4418     23.9302    130.5607
  1409.0000      7.8179      2.5515      0.0639      5.9694     24.2943    128.1469
  1409.1000      7.8179      2.5675      0.0858      5.0016     24.4111    126.3164
  1409.2000      7.8179      2.5721      0.1329      4.7217     24.3531    125.1305
  1409.3000      7.7977      2.5644      0.0818      5.1864     24.1003    126.5751
  1409.4000      7.7977      2.5628      0.0348      5.2838     23.7867    129.3485
  1409.5000      7.7948      2.5847      0.0823      3.9594     23.7506    128.0332
  1409.6000      7.7948      2.6113      0.1665      2.3450     24.1786    124.8750
  1409.7000      7.7948      2.6159      0.1081      2.0641     25.0775    125.4727
  1409.8000      7.7961      2.6044      0.0819      2.7667     26.2041    128.1699
  1409.9000      7.7961      2.5951      0.0429      3.3256     27.1392    128.4377
  1410.0000      7.7963      2.5954      0.0698      3.3098     27.6434    124.4205
  1410.1000      7.7963      2.6052      0.0467      2.7124     27.6990    119.3798
  1410.2000      7.7963      2.6257      0.0378      1.4715     27.5153    120.7400
  1410.3000      7.7970      2.6485      0.0700      0.0902     27.5037    127.4986
  1410.4000      7.7970      2.6646      0.0441     -0.8838     27.8017    132.3802
  1410.5000      7.7970      2.6761      0.0574     -1.5843     28.0295    131.6993
  1410.6000      7.7970      2.6740      0.0544     -1.4566     27.9887    125.9072
  1410.7000      7.7970      2.6474      0.0368      0.1594     27.9653    120.6743
  1410.8000      7.7973      2.6130      0.0181      2.2413     28.2185    119.1012
  1410.9000      7.7973      2.5931     -0.0089      3.4481     28.7104    118.2051
  1411.0000      7.8028      2.5829      0.0058      4.0670     29.3161    119.9090
  1411.1000      7.8028      2.5735     -0.0071      4.6343     29.8151    129.4419
  1411.2000      7.8028      2.5810     -0.0099      4.1804     30.0921    140.6794
  1411.3000      7.7927      2.6198      0.0247      1.8275     30.1697    139.8824
  1411.4000      7.7927      2.6722      0.0588     -1.3443     30.1279    127.3414
  1411.5000      7.7905      2.7081      0.0829     -3.5233     30.0446    116.0186
