~Version Information
VERS.                      2.0: CWLS Log ASCII Standard - VERSION 2.0
WRAP.                       NO: One line per depth step
~Well Information Block
STRT.FT                 0.0000: 
STOP.FT              2384.7500: 
STEP.FT                 0.2500: 
NULL.                -999.2500: 
COMP.          Petrogulf Corporation: COMPANY
WELL.           McDaniel 9-34V: WELL
FLD.           Purgatorie River: FIELD
LOC.           620' FSL & 1800' FEL: LOCATION
STAT.                 Colorado: State
CNTY.               Las Animas: COUNTY
CTRY. USA : Country
SECT. 9 : Section
TOWN. 33S : Township
RANG. 67W : Range
SRVC.                Patterson: SERVICE COMPANY
DATE.          Thu Nov 10 12:28:18 2005: LOG DATE
API. 05-071-08333                         : UNIQUE WELL ID
~Curve Information Block
DEPT.FT            0 000 00 00: Depth
AMP3.mV                       : CBL 3' Amplitude
CCL.                          : Casing Collar Locator
GR.GAPI                       : Gamma Ray
TT3.usec                      : CBL 3' Travel Time
~Parameter Information Block
~A  Depth       AMP3        CCL          GR         TT3     
# ...
  2345.0000      4.3666      0.0000     58.8987    672.7509
  2345.2500      4.3491      0.0000     59.8864    681.3223
  2345.5000      4.3329      0.0000     61.2791    687.7250
  2345.7500      4.2944      0.0000     63.3433    690.2040
  2346.0000      4.2119      0.0000     66.2873    692.3297
  2346.2500      4.0844      0.0000     69.4097    698.3758
  2346.5000      3.9437      0.0000     71.2144    707.8689
  2346.7500      3.8395      0.0000     70.7042    718.8280
  2347.0000      3.7872      0.0000     68.2506    729.9485
  2347.2500      3.7361      0.0000     64.9663    736.3564
  2347.5000      3.6267      0.0000     61.6534    729.5190
  2347.7500      3.4617      0.0000     58.7169    707.6756
  2348.0000      3.2827      0.0000     56.6756    682.4322
  2348.2500      3.1130      0.0000     56.1650    667.5613
  2348.5000      2.9619      0.0000     57.4548    664.6017
  2348.7500      2.8515      0.0000     60.2023    662.1339
  2349.0000      2.7987      0.0000     63.7180    648.2009
  2349.2500      2.7931      0.0000     67.3864    624.4247
  2349.5000      2.8135      0.0000     70.7100    603.5011
  2349.7500      2.8489      0.0000     73.0461    594.0840
  2350.0000      2.9027      0.0000     73.7237    596.6530
  2350.2500      2.9585      0.0000     72.5889    608.6152
  2350.5000      2.9693      0.0000     70.2146    624.4441
  2350.7500      2.9385      0.0000     67.5546    636.5388
  2351.0000      2.9173      0.0000     65.5253    641.4396
  2351.2500      2.8963      0.0000     64.7077    641.4111
  2351.5000      2.8389      0.0000     65.0916    639.6373
  2351.7500      2.7841      0.0000     66.1665    636.7391
  2352.0000      2.7867      0.0000     67.3703    630.9464
  2352.2500      2.8182      0.0000     68.3203    621.1972
  2352.5000      2.8017      0.0000     68.6912    611.1785
  2352.7500      2.7059      0.0000     68.3065    607.4975
  2353.0000      2.5837      0.0000     67.5420    611.8164
  2353.2500      2.5256      0.0000     67.2334    619.1949
  2353.5000      2.5741      0.0000     67.9035    625.3250
  2353.7500      2.6980      0.0000     69.3486    629.9039
  2354.0000      2.8394      0.0000     70.9562    633.2358
  2354.2500      2.9685      0.0000     71.9190    635.0649
  2354.5000      3.1094      0.0000     71.3060    635.8286
  2354.7500      3.3115      0.0000     68.7104    636.4203
  2355.0000      3.6035      0.0000     65.0181    637.7609
  2355.2500      3.9637      0.0000     62.0611    640.8293
  2355.5000      4.3019      0.0000     61.2451    645.8814
  2355.7500      4.5469      0.0000     62.5160    652.5862
  2356.0000      4.8300      0.0000     64.4342    662.7149
  2356.2500      5.5141      0.0000     65.1148    678.1041
  2356.5000      6.9375      0.0000     63.4189    691.9332
  2356.7500      9.0489      0.0000     59.6757    688.7786
  2357.0000     11.3420     -2.0000     55.4315    656.3109
  2357.2500     13.2874      2.0000     52.5510    593.7511
  2357.5000     14.7434     -2.0000     52.3053    514.7211
  2357.7500     15.8368      0.0000     54.7020    442.2858
  2358.0000     16.7643      0.0000     58.3152    392.9095
  2358.2500     18.1696      0.0000     61.0838    365.6680
  2358.5000     21.2085      0.0000     61.7741    346.7703
  2358.7500     25.9415      0.0000     60.7250    326.5915
  2359.0000     30.2308      0.0000     59.1863    310.6370
  2359.2500     32.1429      0.0000     58.2578    306.8063
  2359.5000     32.2555      0.0000     58.4347    312.0148
  2359.7500     32.0944      0.0000     59.6473    319.0828
  2360.0000     32.3055      0.0000     61.4951    325.1544
  2360.2500     32.8304      0.0000     63.6896    329.6212
  2360.5000     33.3688      0.0000     66.3064    332.1060
  2360.7500     33.6649      0.0000     69.4850    333.1000
  2361.0000     33.7209      0.0000     73.0252    333.2119
  2361.2500     33.6473      0.0000     76.4309    332.0066
  2361.5000     33.4457      0.0000     79.2479    328.0225
  2361.7500     33.1050      0.0000     81.2894    320.9565
  2362.0000     32.7444      0.0000     82.5852    314.6454
  2362.2500     32.5359      0.0000     83.3870    314.5414
  2362.5000     32.6114      0.0000     84.3408    320.6098
  2362.7500     33.0521      0.0000     86.0921    327.2062
  2363.0000     33.8166      0.0000     88.2751    329.8819
  2363.2500     34.6794      0.0000     89.4180    328.0781
  2363.5000     35.3529      0.0000     88.4244    323.7958
  2363.7500     35.6796      0.0000     85.9493    320.3739
  2364.0000     35.7024      0.0000     84.1196    318.8927
  2364.2500     35.5401      0.0000     85.1793    316.4128
  2364.5000     35.2228      0.0000     90.2237    311.2263
  2364.7500     34.7577      0.0000     98.4215    305.6767
  2365.0000     34.2340      0.0000    107.0764    302.1060
  2365.2500     33.6979      0.0000    112.9512    300.6730
  2365.5000     33.0465      0.0000    114.1388    301.2487
  2365.7500     32.2141      0.0000    110.9988    304.5978
  2366.0000     31.3354      0.0000    105.6855    310.9655
  2366.2500     30.6034      0.0000    100.8649    317.9040
  2366.5000     30.1109      0.0000     98.2011    321.1066
  2366.7500     29.8380      0.0000     97.3611    318.6095
  2367.0000     29.6475      0.0000     96.5426    313.3410
  2367.2500     29.3528      0.0000     94.4163    310.5328
  2367.5000     28.9051      0.0000     91.5073    312.3778
  2367.7500     28.4411      0.0000     89.4415    315.7556
  2368.0000     28.0439      0.0000     89.2054    316.4236
  2368.2500     27.4717      0.0000     90.7602    315.1398
  2368.5000     26.3694      0.0000     94.1087    316.4276
  2368.7500     24.8980      0.0000     99.6312    321.4881
  2369.0000     23.7102      0.0000    106.7896    326.9652
  2369.2500     23.1639      0.0000    113.2425    330.1057
  2369.5000     23.0774      0.0000    116.3078    331.0014
  2369.7500     23.1876      0.0000    115.2542    330.7993
  2370.0000     23.3897      0.0000    111.5758    330.3193
  2370.2500     23.6341      0.0000    107.2140    329.9272
  2370.5000     23.8909      0.0000    102.9935    329.7018
  2370.7500     24.1474      0.0000     98.3345    329.6092
  2371.0000     24.3143      0.0000     91.6943    329.6197
  2371.2500     24.2321      0.0000     81.4191    329.7159
  2371.5000     23.8112      0.0000     66.8853    329.8904
  2371.7500     23.1073      0.0000     49.3405    330.1956
  2372.0000     22.2327      0.0000     31.7348    330.7479
  2372.2500     21.2191      0.0000     17.3177    331.8062
  2372.5000     20.0557      0.0000      7.8358    334.4487
  2372.7500     18.7930      0.0000      2.8878    341.6880
  2373.0000     17.4925      0.0000      0.8557    358.0650
  2373.2500     16.2050      0.0000      0.2011    387.3482
  2373.5000     15.0465      0.0000      0.0372    432.6134
  2373.7500     14.1524      0.0000      0.0049    495.6161
  2374.0000     13.5669      0.0000      0.0000    567.0599
  2374.2500     13.2027      0.0000   -999.2500    623.7800
  2374.5000     12.8688      0.0000   -999.2500    649.1056
  2374.7500     12.4025      0.0000   -999.2500    648.9453
  2375.0000     11.7928      0.0000   -999.2500    640.1375
  2375.2500     11.1482      0.0000   -999.2500    633.9199
  2375.5000     10.6048      0.0000   -999.2500    634.1379
  2375.7500     10.2582      0.0000   -999.2500    640.6191
  2376.0000     10.0957      0.0000   -999.2500    652.6349
  2376.2500      9.9846      0.0000   -999.2500    667.1302
  2376.5000      9.6542      0.0000   -999.2500    665.4597
  2376.7500      8.6283      0.0000   -999.2500    607.6712
  2377.0000      6.5549      0.0000   -999.2500    465.3093
  2377.2500      3.8984      0.0000   -999.2500    274.2088
  2377.5000      1.7360      0.0000   -999.2500    116.3863
  2377.7500      0.6139      0.0000   -999.2500     34.0354
  2378.0000      0.2420      0.0000   -999.2500      6.6683
  2378.2500      0.1631      0.0000   -999.2500      0.8581
