~Version Information
VERS.                      2.0: CWLS Log ASCII Standard - VERSION 2.0
WRAP.                       NO: One line per depth step
~Well Information Block
STRT.FT               350.0000: 
STOP.FT              1390.0000: 
STEP.FT                 0.1000: 
NULL.                -999.2500: 
COMP.          Petrogulf Corporation: COMPANY
WELL.             Leier 17-42R: WELL
FLD.           Purgatorie River: FIELD
LOC.           2398' FNL & 1109' FEL: LOCATION
PROV.                 Colorado: PROVINCE
CNTY.               Las Animas: COUNTRY
SRVC.                Patterson: SERVICE COMPANY
DATE.          Tue Oct 18 07:06:44 2005: LOG DATE
UWI.                          : UNIQUE WELL ID
~Curve Information Block
DEPT.FT            0 000 00 00: Depth
DCAL.in                       : CDL Caliper
RHOB.g/cc                     : CDL Bulk Density
RHOC.g/cc                     : CDL Density Correction
DPOR.pu                       : CDL Density Porosity
GR.GAPI                       : Gamma Ray
NPOR.pu                       : Neutron Porosity
~Parameter Information Block
~A  Depth       DCAL        RHOB        RHOC        DPOR         GR         NPOR    
# ...
   762.8000      7.9339      2.6669      0.0449     -1.0267    151.3196     24.9622
   762.9000      7.9339      2.6672      0.0932     -1.0401    151.4787     24.9913
   763.0000      7.9362      2.6553      0.0367     -0.3201    149.5857     25.2986
   763.1000      7.9362      2.6283      0.0450      1.3171    144.8404     25.7680
   763.2000      7.9362      2.5940     -0.0035      3.3936    141.5632     25.7855
   763.3000      7.9335      2.5717     -0.0398      4.7472    139.9458     25.3204
   763.4000      7.9335      2.5801     -0.0376      4.2365    136.8107     24.9376
   763.5000      7.9295      2.6195      0.0448      1.8499    134.0325     24.8359
   763.6000      7.9295      2.6703      0.0512     -1.2327    133.9352     24.7205
   763.7000      7.9295      2.7157      0.0890     -3.9845    134.2032     24.6306
   763.8000      7.9308      2.7629      0.0409     -6.8411    132.5803     24.9225
   763.9000      7.9308      2.8252      0.0562    -10.6153    131.6457     25.4268
   764.0000      7.9285      2.8823      0.1688    -14.0798    134.6446     25.6992
   764.1000      7.9285      2.9035      0.1282    -15.3610    139.2024     25.7505
   764.2000      7.9285      2.8861      0.0883    -14.3079    140.2683     25.6979
   764.3000      7.9174      2.8332      0.0489    -11.1010    138.7773     25.4736
   764.4000      7.9174      2.7455     -0.0342     -5.7875    142.4687     25.3168
   764.5000      7.9123      2.6425     -0.1252      0.4541    151.7731     25.5409
   764.6000      7.9123      2.5534     -0.1131      5.8540    158.4349     26.0588
   764.7000      7.9123      2.4927     -0.0479      9.5311    160.0324     26.6771
   764.8000      7.8705      2.4523      0.0834     11.9822    160.6550     27.2064
   764.9000      7.8705      2.4130      0.0772     14.3649    162.4496     27.6130
   765.0000      7.9207      2.3801      0.0278     16.3601    162.1715     28.1882
   765.1000      7.9207      2.3710      0.0523     16.9102    158.1706     28.9564
   765.2000      7.9207      2.3767      0.0957     16.5628    153.3004     29.5715
   765.3000      7.9488      2.3800      0.0726     16.3624    149.6491     29.9725
   765.4000      7.9488      2.3817      0.1070     16.2584    147.6933     30.2650
   765.5000      7.9937      2.3863      0.1351     15.9802    147.7968     30.3174
   765.6000      7.9937      2.3836      0.1396     16.1433    147.0339     30.2556
   765.7000      7.9937      2.3489      0.1492     18.2481    139.4541     30.3116
   765.8000      8.0353      2.2618      0.1474     23.5264    126.5164     30.4508
   765.9000      8.0353      2.1358      0.0260     31.1630    115.8628     30.7124
   766.0000      8.0721      2.0063     -0.0033     39.0106    108.4008     31.0956
   766.1000      8.0721      1.8824     -0.0073     46.5231     99.0850     31.3026
   766.2000      8.0721      1.7496     -0.0774     54.5703     86.6619     31.3065
   766.3000      8.1292      1.6064     -0.1051     63.2459     73.9827     31.4688
   766.4000      8.1292      1.4735     -0.1529     71.3034     63.4211     31.8907
   766.5000      8.1404      1.3781     -0.1008     77.0822     56.7441     32.2652
   766.6000      8.1404      1.3299     -0.0821     80.0066     53.7878     32.4256
   766.7000      8.1404      1.3141      0.0105     80.9644     51.0965     32.6823
   766.8000      8.2247      1.3087      0.0104     81.2888     45.4824     33.0609
   766.9000      8.2247      1.3078     -0.0021     81.3426     38.6403     33.1570
   767.0000      8.2074      1.3157      0.0283     80.8671     34.5248     33.0858
   767.1000      8.2074      1.3300     -0.0004     79.9986     33.3966     33.1437
   767.2000      8.2074      1.3379      0.0721     79.5234     34.4722     33.2847
   767.3000      8.1754      1.3282      0.0127     80.1091     37.0989     33.4665
   767.4000      8.1754      1.3132     -0.0245     81.0194     39.7671     33.5373
   767.5000      8.1556      1.3104     -0.0054     81.1886     42.7118     33.3135
   767.6000      8.1556      1.3226     -0.0133     80.4489     45.9372     32.9967
   767.7000      8.1556      1.3458      0.0142     79.0402     48.4814     32.7149
   767.8000      8.1806      1.3728     -0.0021     77.4054     50.5486     32.4509
   767.9000      8.1806      1.3912      0.0371     76.2928     53.5093     32.5001
   768.0000      8.2076      1.3904      0.0622     76.3391     58.5496     32.8823
   768.1000      8.2076      1.3783      0.0052     77.0712     63.4579     33.1793
   768.2000      8.2076      1.3749     -0.0004     77.2768     65.5711     33.3676
   768.3000      8.2375      1.3893      0.0358     76.4047     67.5351     33.5640
   768.4000      8.2375      1.4247     -0.0045     74.2576     73.8982     33.6118
   768.5000      8.2943      1.4873      0.0201     70.4643     84.6038     33.5291
   768.6000      8.2943      1.5758      0.0158     65.1030     95.9850     33.5103
   768.7000      8.2943      1.6868      0.0456     58.3750    105.4347     33.5177
   768.8000      8.4512      1.8186      0.0947     50.3875    113.4061     33.3922
   768.9000      8.4512      1.9566      0.1568     42.0264    120.8817     33.2394
   769.0000      8.7968      2.0852      0.1927     34.2287    123.7797     33.3144
   769.1000      8.7968      2.2035      0.1999     27.0605    120.4235     33.4735
   769.2000      8.7968      2.3090      0.1732     20.6679    116.2265     33.3662
   769.3000      8.7480      2.3946      0.1696     15.4761    115.8049     32.8475
   769.4000      8.7480      2.4600      0.0905     11.5146    118.1630     31.8033
   769.5000      8.1293      2.5128      0.0595      8.3158    118.7997     30.0438
   769.6000      8.1293      2.5552      0.1037      5.7467    117.9436     27.8105
   769.7000      8.1293      2.5768      0.1026      4.4366    119.1726     25.8762
   769.8000      7.9268      2.5774      0.0443      4.4016    122.1570     24.5923
   769.9000      7.9268      2.5749      0.0333      4.5486    123.6562     23.5927
   770.0000      7.8431      2.5864      0.0031      3.8562    121.2567     22.5865
   770.1000      7.8431      2.6121      0.0694      2.2990    116.0079     21.5613
   770.2000      7.8431      2.6360      0.0969      0.8484    111.9456     20.6256
   770.3000      7.8305      2.6412      0.1345      0.5363    111.2177     19.9652
   770.4000      7.8305      2.6231      0.1042      1.6305    113.1763     19.5804
   770.5000      7.8137      2.5975      0.0770      3.1836    115.9976     19.4347
   770.6000      7.8137      2.5827      0.0799      4.0803    116.6559     19.5313
   770.7000      7.8137      2.5811      0.0527      4.1753    115.3253     19.6780
   770.8000      7.8114      2.5863      0.0755      3.8635    112.9462     19.6679
   770.9000      7.8114      2.5942      0.0540      3.3801    107.9420     19.5448
   771.0000      7.8174      2.6067      0.0675      2.6227    101.5280     19.5166
   771.1000      7.8174      2.6246      0.0726      1.5399     98.0458     19.7072
   771.2000      7.8174      2.6445      0.0846      0.3324     97.6938     19.9989
   771.3000      7.8092      2.6639      0.0932     -0.8445     95.6888     20.0430
   771.4000      7.8092      2.6756      0.1156     -1.5542     91.4025     19.6101
   771.5000      7.8089      2.6721      0.0738     -1.3376     87.9432     19.0064
   771.6000      7.8089      2.6591      0.0559     -0.5509     85.1748     18.5673
   771.7000      7.8089      2.6455      0.0449      0.2740     81.9607     18.0651
   771.8000      7.8592      2.6409      0.0171      0.5496     80.3057     17.2813
   771.9000      7.8592      2.6543      0.0228     -0.2621     82.2051     16.4558
   772.0000      7.8664      2.6706      0.0799     -1.2480     86.7791     15.7787
   772.1000      7.8664      2.6683      0.0155     -1.1067     91.8089     15.3817
   772.2000      7.8664      2.6468      0.0424      0.1911     95.0916     15.3853
   772.3000      7.8952      2.6135     -0.0061      2.2147     96.3065     15.7749
