~Version Information
VERS.                      2.0: CWLS Log ASCII Standard - VERSION 2.0
WRAP.                       NO: One line per depth step
~Well Information Block
STRT.FT               647.0000: 
STOP.FT              1167.5000: 
STEP.FT                 0.2500: 
NULL.                -999.2500: 
COMP.          Pioneer Natural Resources: COMPANY
WELL.             Linda T 32-3: WELL
FLD.           Purgatoire River: FIELD
LOC.           1350' FNL & 2290' FEL: LOCATION
PROV.                 Colorado: PROVINCE
CNTY.               Las Animas: COUNTRY
SRVC.                Patterson: SERVICE COMPANY
DATE.          Sat Feb 05 06:41:02 2005: LOG DATE
UWI.           05 071 08215 00: UNIQUE WELL ID
~Curve Information Block
DEPT.FT            0 000 00 00: Depth
SN.Ohm-m                      : IEL Short Normal
SP.mV                         : IEL Spontaneous Potential
DIR.Ohm-m                     : IEL Induction Resistivity
GR.GAPI                       : Gamma Ray
~Parameter Information Block
~A  Depth        SN          SP         DIR          GR     
# ...
   881.5000     24.2451     61.1500     20.5247     82.1861
   881.7500     24.0347     60.9862     19.9628     80.6503
   882.0000     23.9391     60.8247     19.5125     77.5552
   882.2500     23.9565     60.7203     19.2204     75.6719
   882.5000     24.0975     60.6994     19.1002     73.3034
   882.7500     24.3425     60.7602     19.1438     71.8884
   883.0000     24.6280     60.8806     19.3292     69.8973
   883.2500     24.8884     61.0269     19.6215     68.5456
   883.5000     25.0864     61.1689     19.9719     66.1496
   883.7500     25.2119     61.2954     20.3229     64.3608
   884.0000     25.2690     61.4214     20.6229     62.1974
   884.2500     25.2663     61.5768     20.8436     61.6384
   884.5000     25.2069     61.7837     20.9871     62.2899
   884.7500     25.0807     62.0436     21.0789     63.2701
   885.0000     24.8820     62.3423     21.1469     64.4794
   885.2500     24.6309     62.6601     21.2006     64.8288
   885.5000     24.3602     62.9727     21.2199     65.2073
   885.7500     24.0777     63.2496     21.1624     65.9579
   886.0000     23.7629     63.4592     20.9863     68.3912
   886.2500     23.4036     63.5814     20.6759     70.7532
   886.5000     23.0149     63.6177     20.2500     74.6489
   886.7500     22.6267     63.5906     19.7496     76.9104
   887.0000     22.2622     63.5341     19.2190     78.8772
   887.2500     21.9300     63.4796     18.6934     78.9462
   887.5000     21.6289     63.4439     18.1964     77.6135
   887.7500     21.3463     63.4264     17.7423     76.6286
   888.0000     21.0653     63.4137     17.3392     76.7892
   888.2500     20.7696     63.3870     16.9906     78.4668
   888.5000     20.4351     63.3252     16.6962     82.4874
   888.7500     20.0498     63.2095     16.4520     85.0784
   889.0000     19.6250     63.0305     16.2504     87.3166
   889.2500     19.1706     62.7916     16.0795     87.5138
   889.5000     18.6982     62.5037     15.9252     86.6852
   889.7500     18.2437     62.1767     15.7744     86.1123
   890.0000     17.8554     61.8211     15.6216     85.8747
   890.2500     17.5642     61.4536     15.4710     85.8706
   890.5000     17.3691     61.0963     15.3315     85.0943
   890.7500     17.2440     60.7678     15.2076     83.8024
   891.0000     17.1559     60.4806     15.0941     81.4134
   891.2500     17.0900     60.2435     14.9800     80.2226
   891.5000     17.0588     60.0613     14.8596     79.3711
   891.7500     17.0744     59.9273     14.7419     78.8649
   892.0000     17.1160     59.8204     14.6500     77.0847
   892.2500     17.1332     59.7134     14.6116     75.3400
   892.5000     17.0990     59.5848     14.6480     73.5743
   892.7500     17.0622     59.4256     14.7669     73.9418
   893.0000     17.0959     59.2324     14.9621     76.7250
   893.2500     17.2059     58.9962     15.2154     78.9588
   893.5000     17.3548     58.6947     15.5016     80.7496
   893.7500     17.5421     58.2941     15.7954     80.3263
   894.0000     17.7977     57.7604     16.0813     77.3928
   894.2500     18.1375     57.0819     16.3581     74.2183
   894.5000     18.5584     56.2874     16.6324     68.4738
   894.7500     19.0548     55.4446     16.9079     64.8860
   895.0000     19.6316     54.6344     17.1804     61.7965
   895.2500     20.3027     53.9170     17.4461     61.8983
   895.5000     21.0550     53.3131     17.7108     64.3935
   895.7500     21.8075     52.8094     17.9885     66.1307
   896.0000     22.4606     52.3798     18.2842     66.4097
   896.2500     23.0010     52.0030     18.5788     64.5685
   896.5000     23.4913     51.6703     18.8346     59.8453
   896.7500     23.9564     51.3857     19.0206     56.6156
   897.0000     24.3425     51.1636     19.1372     53.5317
   897.2500     24.5691     51.0203     19.2147     53.1921
   897.5000     24.5751     50.9644     19.2896     55.2782
   897.7500     24.3440     50.9855     19.3818     58.1636
   898.0000     23.9123     51.0530     19.4874     64.1785
   898.2500     23.3533     51.1279     19.5873     68.7586
   898.5000     22.7506     51.1823     19.6602     74.9615
   898.7500     22.1649     51.2100     19.6889     77.7377
   899.0000     21.6265     51.2178     19.6591     79.1768
   899.2500     21.1723     51.2127     19.5566     78.5991
   899.5000     20.8688     51.1957     19.3749     76.4619
   899.7500     20.7712     51.1624     19.1315     74.6768
   900.0000     20.8647     51.1050     18.8766     71.8027
   900.2500     21.0504     51.0147     18.6808     69.8900
   900.5000     21.1930     50.8859     18.6095     67.7254
   900.7500     21.2119     50.7234     18.7009     67.3799
   901.0000     21.1392     50.5446     18.9581     69.0136
   901.2500     21.0767     50.3743     19.3497     70.9731
   901.5000     21.1111     50.2324     19.8150     72.9025
   901.7500     21.2690     50.1239     20.2755     72.2063
   902.0000     21.5211     50.0326     20.6602     67.7967
   902.2500     21.8257     49.9270     20.9357     63.6302
   902.5000     22.1985     49.7779     21.1206     57.9595
   902.7500     22.7179     49.5749     21.2694     55.4694
   903.0000     23.4244     49.3266     21.4420     53.7679
   903.2500     24.2254     49.0459     21.6805     53.4936
   903.5000     24.9401     48.7401     22.0019     53.6264
   903.7500     25.4596     48.4139     22.4010     54.0176
   904.0000     25.8228     48.0727     22.8564     55.0952
   904.2500     26.1399     47.7204     23.3399     55.8297
   904.5000     26.4870     47.3574     23.8250     56.0087
   904.7500     26.8772     46.9834     24.2928     55.1488
   905.0000     27.2988     46.6003     24.7326     52.4319
   905.2500     27.7508     46.2092     25.1398     49.9244
   905.5000     28.2675     45.8103     25.5167     45.6452
   905.7500     28.9005     45.4070     25.8766     42.7916
   906.0000     29.6393     45.0085     26.2501     39.1862
   906.2500     30.3980     44.6228     26.6809     37.5792
   906.5000     31.0953     44.2460     27.2056     36.5752
   906.7500     31.7067     43.8640     27.8240     36.6715
   907.0000     32.2369     43.4667     28.4813     37.3747
   907.2500     32.6854     43.0596     29.0815     37.9275
   907.5000     33.0402     42.6613     29.5293     38.7588
   907.7500     33.2845     42.2957     29.7752     39.4014
   908.0000     33.4184     41.9851     29.8355     40.5702
   908.2500     33.4771     41.7402     29.7760     41.3789
   908.5000     33.5050     41.5496     29.6747     42.2752
   908.7500     33.5164     41.3781     29.5893     42.4738
   909.0000     33.4984     41.1824     29.5429     42.1229
   909.2500     33.4403     40.9335     29.5282     41.6392
   909.5000     33.3431     40.6296     29.5157     41.0377
   909.7500     33.2121     40.2901     29.4614     40.9303
   910.0000     33.0488     39.9402     29.3196     41.1955
   910.2500     32.8386     39.5978     29.0653     41.4609
   910.5000     32.5855     39.2638     28.7146     41.6387
   910.7500     32.3504     38.9158     28.3224     41.5780
   911.0000     32.1439     38.5062     27.9543     41.4739
   911.2500     31.8342     37.9759     27.6488     41.5456
   911.5000     31.3026     37.2837     27.3959     41.8302
   911.7500     30.6024     36.4403     27.1454     41.9690
   912.0000     29.8853     35.5273     26.8379     41.8157
   912.2500     29.2467     34.6860     26.4374     41.4627
   912.5000     28.6678     34.0763     25.9435     40.8778
   912.7500     28.0773     33.8212     25.3795     40.6320
   913.0000     27.4702     33.9655     24.7709     40.3308
   913.2500     26.9579     34.4734     24.1318     39.9194
   913.5000     26.6799     35.2648     23.4688     39.0045
   913.7500     26.6539     36.2640     22.7977     38.6839
   914.0000     26.7060     37.4304     22.1557     39.8604
   914.2500     26.5822     38.7527     21.5922     42.3165
   914.5000     26.1613     40.2159     21.1404     48.8091
   914.7500     25.5505     41.7702     20.7922     54.6454
