~Version Information
VERS.                      2.0: CWLS Log ASCII Standard - VERSION 2.0
WRAP.                       NO: One line per depth step
~Well Information Block
STRT.FT              1684.7500: 
STOP.FT              2367.7500: 
STEP.FT                 0.2500: 
NULL.                -999.2500: 
COMP.          Petrogulf Corporation: COMPANY
WELL.             Norton 9-14V: WELL
FLD.           Purgatorie River: FIELD
LOC.           250' FSL & 225' FWL--: LOCATION
CNTY.               Las Animas: COUNTY
SRVC.                         : SERVICE COMPANY
DATE.          Mon Jan 10 10:00:10 2005: LOG DATE
UWI.                          : UNIQUE WELL ID
STAT.                       CO: STATE
~Curve Information Block
DEPT.FT            0 000 00 00: Depth
CCL.                          : Casing Collar Locator
TT3.usec                      : CBL 3' Travel Time
AMP3.mV                       : CBL 3' Amplitude
GR.GAPI                       : Gamma Ray
~Parameter Information Block
~A  Depth       CCL         TT3         AMP3         GR     
# ...
  1852.2500      0.0000    636.0522      2.3504     38.4965
  1852.5000      0.0000    635.6776      2.3265     39.7474
  1852.7500      0.0000    639.4745      2.2788     39.3922
  1853.0000      0.0000    646.4811      2.2236     38.0929
  1853.2500      0.0000    654.9047      2.1719     37.1577
  1853.5000      0.0000    662.8378      2.1448     37.2211
  1853.7500      0.0000    669.1936      2.1756     37.6739
  1854.0000      0.0000    673.8441      2.2905     37.5479
  1854.2500      0.0000    677.1317      2.4822     36.8217
  1854.5000      0.0000    679.6549      2.7053     36.3882
  1854.7500      0.0000    682.0765      2.9045     36.8058
  1855.0000      0.0000    684.3538      3.0515     37.6851
  1855.2500      0.0000    685.3839      3.1451     38.4396
  1855.5000      0.0000    684.2650      3.1856     39.2590
  1855.7500      2.0000    681.7847      3.1671     41.2453
  1856.0000      2.0000    679.7601      3.0868     45.6105
  1856.2500      0.0000    678.8132      2.9535     52.3901
  1856.5000      0.0000    677.7001      2.7889     59.7728
  1856.7500      0.0000    675.3071      2.6227     65.0076
  1857.0000      0.0000    672.6691      2.4816     66.2578
  1857.2500      0.0000    672.0294      2.3828     63.7899
  1857.5000      0.0000    673.8028      2.3393     59.7933
  1857.7500      0.0000    675.4924      2.3614     57.2532
  1858.0000      0.0000    674.1169      2.4393     58.4209
  1858.2500      0.0000    669.0031      2.5324     63.5307
  1858.5000      0.0000    662.1561      2.5916     70.7645
  1858.7500      0.0000    656.9196      2.5953     77.5990
  1859.0000      0.0000    656.2560      2.5578     82.3331
  1859.2500      0.0000    661.0326      2.5072     84.8507
  1859.5000      0.0000    669.2527      2.4638     86.6179
  1859.7500      0.0000    677.1040      2.4366     89.7064
  1860.0000      0.0000    680.8717      2.4277     94.9361
  1860.2500      0.0000    678.1439      2.4384    100.8773
  1860.5000      0.0000    668.4375      2.4742    105.2152
  1860.7500      0.0000    654.1569      2.5368    107.1108
  1861.0000      0.0000    641.0059      2.6069    107.9149
  1861.2500      0.0000    635.7430      2.6488    109.7553
  1861.5000      0.0000    641.6265      2.6373    113.7251
  1861.7500      0.0000    655.5975      2.5797    119.3431
  1862.0000      0.0000    670.4562      2.5135    125.4095
  1862.2500      0.0000    679.9683      2.4789    131.1863
  1862.5000      0.0000    682.1446      2.4882    136.8286
  1862.7500      0.0000    679.0441      2.5172    142.7962
  1863.0000      0.0000    674.7764      2.5275    148.8349
  1863.2500      0.0000    673.1248      2.5002    153.5160
  1863.5000      0.0000    675.4491      2.4476    154.9060
  1863.7500      0.0000    679.9971      2.3990    151.9343
  1864.0000      0.0000    683.3226      2.3804    145.4813
  1864.2500      0.0000    682.7397      2.4008    138.4363
  1864.5000      0.0000    677.9424      2.4468    134.3924
  1864.7500      0.0000    670.8781      2.4846    135.4314
  1865.0000      0.0000    664.2534      2.4773    140.5254
  1865.2500      0.0000    659.8896      2.4131    146.0111
  1865.5000      0.0000    658.0865      2.3159    147.8764
  1865.7500      0.0000    658.1478      2.2318    144.3055
  1866.0000      0.0000    659.0508      2.2043    136.8693
  1866.2500      0.0000    659.5131      2.2532    129.4305
  1866.5000      0.0000    657.6816      2.3671    125.4521
  1866.7500      0.0000    651.5076      2.5138    125.9991
  1867.0000      0.0000    640.3333      2.6556    129.8372
  1867.2500      0.0000    625.6218      2.7641    134.6261
  1867.5000      0.0000    608.0917      2.8303    137.8537
  1867.7500      0.0000    584.1521      2.8676    137.8709
  1868.0000      0.0000    549.1583      2.8978    135.1913
  1868.2500      0.0000    506.3158      2.9307    132.3635
  1868.5000      0.0000    469.4636      2.9587    131.7042
  1868.7500      0.0000    454.9468      2.9701    133.3715
  1869.0000      0.0000    471.2933      2.9639    136.0067
  1869.2500      0.0000    514.7158      2.9453    138.5852
  1869.5000      0.0000    571.0214      2.9111    140.9482
  1869.7500      0.0000    622.5657      2.8544    143.0381
  1870.0000      0.0000    657.0648      2.7792    144.4891
  1870.2500      0.0000    672.3149      2.7012    144.9680
  1870.5000      0.0000    673.9681      2.6392    144.3161
  1870.7500      0.0000    669.7210      2.6107    142.2162
  1871.0000      0.0000    664.7284      2.6283    138.3099
  1871.2500      0.0000    660.1946      2.6873    133.1227
  1871.5000      0.0000    654.5717      2.7659    128.3381
  1871.7500      0.0000    645.7869      2.8419    125.4243
  1872.0000      0.0000    632.9040      2.9094    124.1985
  1872.2500      0.0000    616.0554      2.9837    123.3135
  1872.5000      0.0000    595.0844      3.0966    121.6841
  1872.7500      0.0000    568.8905      3.2806    118.8204
  1873.0000      0.0000    536.7207      3.5459    114.6006
  1873.2500      0.0000    500.3002      3.8621    109.9589
  1873.5000      0.0000    464.5097      4.1653    107.3277
  1873.7500      0.0000    435.2178      4.3948    109.0525
  1874.0000      0.0000    415.6953      4.5372    115.2044
  1874.2500      0.0000    405.0395      4.6394    123.3274
  1874.5000      0.0000    399.7935      4.7727    130.1454
  1874.7500      0.0000    396.5468      4.9826    133.4628
  1875.0000      0.0000    393.3849      5.2754    133.0082
  1875.2500      0.0000    389.8793      5.6394    130.2046
  1875.5000      0.0000    386.1551      6.0679    127.2888
  1875.7500      0.0000    381.8701      6.5569    126.1001
  1876.0000      0.0000    376.3294      7.0884    127.2121
  1876.2500      0.0000    369.6559      7.6151    130.0619
  1876.5000      0.0000    363.2051      8.0693    133.5321
  1876.7500      0.0000    358.4981      8.3918    136.2821
  1877.0000      0.0000    356.1286      8.5574    137.1167
  1877.2500      0.0000    355.8654      8.5744    135.6316
  1877.5000      0.0000    357.3075      8.4666    132.3960
  1877.7500      0.0000    360.0390      8.2608    128.3762
  1878.0000      0.0000    363.4200      7.9912    124.4860
  1878.2500      0.0000    366.8545      7.7080    121.7166
  1878.5000      0.0000    370.4186      7.4617    121.1568
  1878.7500      0.0000    374.7047      7.2720    123.3746
  1879.0000      0.0000    379.7554      7.1176    127.6782
  1879.2500      0.0000    384.6258      6.9607    132.0207
  1879.5000      0.0000    388.3019      6.7800    133.8378
  1879.7500      0.0000    390.7575      6.5797    131.5646
  1880.0000      0.0000    393.2275      6.3814    125.8554
  1880.2500      0.0000    398.2865      6.2190    119.2142
  1880.5000      0.0000    410.2155      6.1374    114.1545
  1880.7500      0.0000    434.2225      6.1687    111.8003
  1881.0000      0.0000    472.8310      6.3027    112.1264
  1881.2500      0.0000    521.1557      6.4943    114.7887
  1881.5000      0.0000    566.9763      6.7092    119.0885
  1881.7500      0.0000    598.7692      6.9489    123.5752
  1882.0000      0.0000    615.0535      7.2232    126.6684
  1882.2500      0.0000    624.3808      7.5102    127.8962
  1882.5000      0.0000    635.6337      7.7527    127.9073
  1882.7500      0.0000    650.1886      7.8957    127.0755
  1883.0000      0.0000    663.7469      7.9319    124.8984
  1883.2500      0.0000    672.4202      7.9158    121.3734
  1883.5000      0.0000    674.9030      7.9394    118.2520
  1883.7500      0.0000    670.4524      8.0937    117.7751
  1884.0000      0.0000    657.9006      8.4264    120.1677
  1884.2500      0.0000    638.6633      8.9023    123.2003
  1884.5000      0.0000    620.3414      9.4022    124.4346
  1884.7500      0.0000    613.4962      9.7859    123.3594
  1885.0000      0.0000    621.1522      9.9804    121.2728
  1885.2500      0.0000    632.5762     10.0259    119.6785
  1885.5000      0.0000    630.4111     10.0486    119.0121
