~Version Information
VERS.                      2.0: CWLS Log ASCII Standard - VERSION 2.0
WRAP.                       NO: One line per depth step
~Well Information Block
STRT.FT               706.1000: 
STOP.FT              2370.0000: 
STEP.FT                 0.1000: 
NULL.                -999.2500: 
COMP.          Petrogulf Corporation: COMPANY
WELL.             State 16-12V: WELL
FLD.           Purgatorie River: FIELD
LOC.           1992' FNL & 1237' FWL: LOCATION
CNTY.               Las Animas: COUNTY
SRVC.                         : SERVICE COMPANY
DATE.          Thu Aug 04 09:34:25 2005: LOG DATE
UWI.           05-071-08016-00: UNIQUE WELL ID
STAT.                 Colorado: STATE
~Curve Information Block
DEPT.FT            0 000 00 00: Depth
DCAL.in                       : CDL Caliper
DPOR.pu                       : CDL Density Porosity
GR.GAPI                       : Gamma Ray
NPOR.pu                       : Neutron Porosity
RHOB.g/cc                     : CDL Bulk Density
RHOC.g/cc                     : CDL Density Correction
~Parameter Information Block
~A  Depth       DCAL        DPOR         GR         NPOR        RHOB        RHOC    
# ...
  2011.7000      7.8769     10.8283     99.7387     25.0387      2.4713      0.0926
  2011.8000      7.8522      9.4591     93.6651     24.6524      2.4939      0.1053
  2011.9000      7.8522      6.2481     88.6471     24.0314      2.5469      0.1095
  2012.0000      7.8390      1.9701     84.1779     23.1683      2.6175      0.2551
  2012.1000      7.8390     -0.8203     81.5126     21.7805      2.6635      0.2657
  2012.2000      7.8390     -0.4574     81.9030     19.9261      2.6575      0.2382
  2012.3000      7.7090      4.0371     84.2815     18.2052      2.5834      0.2083
  2012.4000      7.7090     13.0093     86.8138     16.9791      2.4353      0.1386
  2012.5000      7.7354     24.0359     86.7959     16.0183      2.2534      0.0347
  2012.6000      7.7354     32.9039     82.9209     15.0786      2.1071     -0.0261
  2012.7000      7.7354     37.6253     78.0928     14.3499      2.0292     -0.0126
  2012.8000      7.7904     39.1215     76.9007     14.2279      2.0045     -0.0096
  2012.9000      7.7904     38.2487     80.0911     14.7138      2.0189     -0.0390
  2013.0000      7.8676     35.2362     83.4310     15.2990      2.0686      0.1196
  2013.1000      7.8676     31.0546     84.7723     15.7439      2.1376      0.2059
  2013.2000      7.8676     26.6711     86.5352     16.5143      2.2099      0.2715
  2013.3000      7.9108     22.6804     89.5352     18.1205      2.2758      0.2991
  2013.4000      7.9108     19.8229     92.1029     20.3687      2.3229      0.2878
  2013.5000      7.9081     18.1494     93.8556     22.3192      2.3505      0.2449
  2013.6000      7.9081     16.5272     95.7999     23.4183      2.3773      0.1682
  2013.7000      7.9081     14.0650     99.4116     24.0197      2.4179      0.1037
  2013.8000      7.9176     11.2707    103.7367     24.6369      2.4640      0.1194
  2013.9000      7.9176      9.4205    105.1804     25.3050      2.4946      0.1461
  2014.0000      7.9102      8.9025    102.4222     25.5085      2.5031      0.0934
  2014.1000      7.9102      8.8933     98.5575     25.1542      2.5033      0.1031
  2014.2000      7.9102      8.9336     95.4689     24.7852      2.5026      0.1122
  2014.3000      7.9022      9.0687     92.5899     24.5838      2.5004      0.1084
  2014.4000      7.9022      9.2274     91.0481     24.3453      2.4977      0.1011
  2014.5000      7.9050      9.4339     93.0514     24.0866      2.4943      0.0848
  2014.6000      7.9050      9.6592     98.2428     23.9827      2.4906      0.0779
  2014.7000      7.9050     10.0982    102.3932     23.9516      2.4834      0.1179
  2014.8000      7.8907     11.1058    102.2099     23.8094      2.4668      0.0625
  2014.9000      7.8907     12.0965    100.8193     23.6253      2.4504      0.0247
  2015.0000      7.9209     12.0814    101.9628     23.6614      2.4507      0.0229
  2015.1000      7.9209     11.2268    104.8786     23.8203      2.4648      0.0715
  2015.2000      7.9209     10.2351    107.7040     23.6385      2.4811      0.0573
  2015.3000      7.9162      9.1670    107.7700     23.2496      2.4987      0.0482
  2015.4000      7.9162      8.1670    104.1661     23.0120      2.5152      0.0985
  2015.5000      7.8351      7.7969    100.5189     22.7100      2.5214      0.1213
  2015.6000      7.8351      8.0794     99.5208     22.0382      2.5167      0.1033
  2015.7000      7.8351      8.2647    100.5539     21.0493      2.5136      0.0819
  2015.8000      7.7979      8.4260    100.5873     20.0355      2.5110      0.1598
  2015.9000      7.7979      9.5875     98.3978     19.4915      2.4918      0.1285
  2016.0000      7.8083     11.4969     96.5535     19.5676      2.4603      0.0908
  2016.1000      7.8083     12.7342     96.7692     19.8325      2.4399      0.0503
  2016.2000      7.8083     12.7982     98.3082     20.0674      2.4388      0.1065
  2016.3000      7.8041     12.7754     98.9412     20.5943      2.4392      0.1055
  2016.4000      7.8041     13.8057     96.7217     21.4538      2.4222      0.1163
  2016.5000      7.8472     15.2952     92.3083     21.9988      2.3976      0.0188
  2016.6000      7.8472     15.5243     88.6018     21.9782      2.3938      0.0426
  2016.7000      7.8472     13.8753     88.4684     21.8152      2.4211      0.0194
  2016.8000      7.9555     11.5849     90.6937     21.8352      2.4588      0.0985
  2016.9000      7.9555     10.4245     92.7039     22.1108      2.4780      0.0865
  2017.0000      7.9528     10.3185     95.8372     22.5048      2.4797      0.0277
  2017.1000      7.9528      9.6768    100.8392     22.8214      2.4903      0.0063
  2017.2000      7.9528      8.4807    103.5143     23.0257      2.5101      0.0930
  2017.3000      7.9339      8.2517    102.8608     23.1619      2.5138      0.0401
  2017.4000      7.9339      8.9607    104.3669     23.2895      2.5021      0.0044
  2017.5000      7.9561      9.2636    107.5418     23.5478      2.4972      0.0236
  2017.6000      7.9561      8.9576    109.0960     23.9693      2.5022      0.0575
  2017.7000      7.9561      8.7843    110.6979     24.2709      2.5051      0.0540
  2017.8000      7.9984      8.8565    112.4117     24.2900      2.5039      0.0427
  2017.9000      7.9984      8.7621    112.5143     24.2971      2.5054      0.0445
  2018.0000      8.0203      8.7228    110.9078     24.5635      2.5061      0.0750
  2018.1000      8.0203      8.9675    108.3974     25.0786      2.5020      0.0163
  2018.2000      8.0203      8.7062    106.5076     25.7051      2.5063      0.0232
  2018.3000      8.0486      7.5899    105.8984     26.3046      2.5248      0.0744
  2018.4000      8.0486      6.4710    105.9742     26.6804      2.5432      0.0942
  2018.5000      7.9688      5.8103    105.7283     26.7104      2.5541      0.0808
  2018.6000      7.9688      5.0960    104.1080     26.6109      2.5659      0.0817
  2018.7000      7.9688      4.1059    101.9954     26.5545      2.5823      0.0952
  2018.8000      7.8724      3.2219    100.8705     26.3564      2.5968      0.1043
  2018.9000      7.8724      3.0103     99.9610     26.1647      2.6003      0.1303
  2019.0000      7.8360      3.9996     99.0570     26.2564      2.5840      0.0756
  2019.1000      7.8360      5.9588     99.4017     26.3677      2.5517      0.0483
  2019.2000      7.8360      7.7755    100.7016     26.0932      2.5217      0.0171
  2019.3000      7.7893      8.9045    101.8021     25.2566      2.5031      0.0722
  2019.4000      7.7893     10.2735    102.7068     24.0974      2.4805      0.0483
  2019.5000      7.8402     12.5857    104.1548     23.0852      2.4423      0.0010
  2019.6000      7.8402     15.6555    106.1168     22.3017      2.3917     -0.0071
  2019.7000      7.8402     19.6447    107.4265     21.5206      2.3259      0.0194
  2019.8000      7.9635     24.2887    105.6667     20.4099      2.2492     -0.0151
  2019.9000      7.9635     28.0938    100.1537     18.5886      2.1865     -0.0209
  2020.0000      7.9961     30.6853     93.9417     16.3534      2.1437     -0.0096
  2020.1000      7.9961     34.3989     88.4140     14.4805      2.0824      0.0384
  2020.2000      7.9961     42.1854     82.7296     13.0930      1.9539      0.0071
  2020.3000      8.0190     54.6028     77.9599     11.8208      1.7491      0.0227
  2020.4000      8.0190     68.6101     75.2401     10.4648      1.5179     -0.0749
  2020.5000      8.2046     78.9705     73.5000      9.0771      1.3470     -0.1501
  2020.6000      8.2046     82.2170     71.7011      8.0113      1.2934     -0.1230
  2020.7000      8.2046     79.2895     69.6764      7.4962      1.3417      0.0293
  2020.8000      8.4558     73.7838     67.4266      7.3432      1.4326      0.2507
  2020.9000      8.4558     68.2191     66.1064      7.5235      1.5244      0.3236
  2021.0000      8.8136     63.3521     66.0648      8.2295      1.6047      0.3808
  2021.1000      8.8136     59.7832     66.9634      9.3989      1.6636      0.3931
  2021.2000      8.8136     57.2912     69.4850     10.8212      1.7047      0.3861
