~Version Information
VERS.                      2.0: CWLS Log ASCII Standard - VERSION 2.0
WRAP.                       NO: One line per depth step
~Well Information Block
STRT.FT                -8.8000: 
STOP.FT              2006.2000: 
STEP.FT                 0.1000: 
NULL.                -999.2500: 
COMP.          Petrogulf Corporation: COMPANY
WELL.             J & P 12-33V: WELL
FLD.           Purgatorie River: FIELD
LOC.           2005' FSL & 1928' FEL: LOCATION
CNTY.               Las Animas: COUNTY
SRVC.                         : SERVICE COMPANY
DATE.          Fri Jul 29 13:37:28 2005: LOG DATE
UWI.                          : UNIQUE WELL ID
STAT.                 Colorado: STATE
~Curve Information Block
DEPT.FT            0 000 00 00: Depth
GR.GAPI                       : Gamma Ray
CCL.                          : Casing Collar Locator
TT3.usec                      : CBL 3' Travel Time
AMP3.mV                       : CBL 3' Amplitude
~Parameter Information Block
~A  Depth        GR         CCL         TT3         AMP3    
# ...
  1853.8000    152.9476      0.0000    254.6360     73.5056
  1853.9000    152.9476      0.0000    254.6360     73.5056
  1854.0000    150.5835      0.0000    254.6391     73.4420
  1854.1000    150.5835      0.0000    254.6391     73.4420
  1854.2000    150.5835      0.0000    254.6391     73.4420
  1854.3000    148.5182      0.0000    254.6488     73.4134
  1854.4000    148.5182      0.0000    254.6488     73.4134
  1854.5000    145.8777      0.0000    254.6670     73.4905
  1854.6000    145.8777      0.0000    254.6670     73.4905
  1854.7000    145.8777      0.0000    254.6670     73.4905
  1854.8000    142.1449      0.0000    254.6819     73.6442
  1854.9000    142.1449      0.0000    254.6819     73.6442
  1855.0000    137.9167      0.0000    254.6818     73.7847
  1855.1000    137.9167      0.0000    254.6818     73.7847
  1855.2000    137.9167      0.0000    254.6818     73.7847
  1855.3000    134.6280      0.0000    254.6761     73.8724
  1855.4000    134.6280      0.0000    254.6761     73.8724
  1855.5000    133.3451      0.0000    254.6816     73.9224
  1855.6000    133.3451      0.0000    254.6816     73.9224
  1855.7000    133.3451      0.0000    254.6816     73.9224
  1855.8000    133.6965      0.0000    254.6985     73.9471
  1855.9000    133.6965      0.0000    254.6985     73.9471
  1856.0000    133.7704      0.0000    254.7139     73.9549
  1856.1000    133.7704      0.0000    254.7139     73.9549
  1856.2000    133.7704      0.0000    254.7139     73.9549
  1856.3000    130.9374      0.0000    254.7192     73.9555
  1856.4000    130.9374      0.0000    254.7192     73.9555
  1856.5000    123.1503      0.0000    254.7161     73.9521
  1856.6000    123.1503      0.0000    254.7161     73.9521
  1856.7000    123.1503      0.0000    254.7161     73.9521
  1856.8000    110.1600      0.0000    254.7053     73.9445
  1856.9000    110.1600      0.0000    254.7053     73.9445
  1857.0000     93.8682      0.0000    254.6851     73.9387
  1857.1000     93.8682      0.0000    254.6851     73.9387
  1857.2000     93.8682      0.0000    254.6851     73.9387
  1857.3000     77.3666      0.0000    254.6658     73.9475
  1857.4000     77.3666      0.0000    254.6658     73.9475
  1857.5000     63.3917      0.0000    254.6635     73.9575
  1857.6000     63.3917      0.0000    254.6635     73.9575
  1857.7000     63.3917      0.0000    254.6635     73.9575
  1857.8000     53.3120      0.0000    254.6768     73.9184
  1857.9000     53.3120      0.0000    254.6768     73.9184
  1858.0000     46.8939      0.0000    254.6901     73.8133
  1858.1000     46.8939      0.0000    254.6901     73.8133
  1858.2000     46.8939      0.0000    254.6901     73.8133
  1858.3000     42.7039      0.0000    254.6956     73.6979
  1858.4000     42.7039      0.0000    254.6956     73.6979
  1858.5000     39.1566      0.0000    254.6958     73.6334
  1858.6000     39.1566      0.0000    254.6958     73.6334
  1858.7000     39.1566      0.0000    254.6958     73.6334
  1858.8000     35.6482      0.0000    254.6938     73.6253
  1858.9000     35.6482      0.0000    254.6938     73.6253
  1859.0000     32.7652      0.0000    254.6908     73.6445
  1859.1000     32.7652      0.0000    254.6908     73.6445
  1859.2000     32.7652      0.0000    254.6908     73.6445
  1859.3000     31.3739      0.0000    254.6900     73.6744
  1859.4000     31.3739      0.0000    254.6900     73.6744
  1859.5000     31.6570      0.0000    254.6949     73.7160
  1859.6000     31.6570      0.0000    254.6949     73.7160
  1859.7000     31.6570      0.0000    254.6949     73.7160
  1859.8000     33.0637      0.0000    254.7025     73.7568
  1859.9000     33.0637      0.0000    254.7025     73.7568
  1860.0000     34.9786      0.0000    254.7034     73.7711
  1860.1000     34.9786      0.0000    254.7034     73.7711
  1860.2000     34.9786      0.0000    254.7034     73.7711
  1860.3000     37.3551      0.0000    254.6930     73.7523
  1860.4000     37.3551      0.0000    254.6930     73.7523
  1860.5000     40.8807      0.0000    254.6768     73.7125
  1860.6000     40.8807      0.0000    254.6768     73.7125
  1860.7000     40.8807      0.0000    254.6768     73.7125
  1860.8000     46.5337      0.0000    254.6604     73.6693
  1860.9000     46.5337      0.0000    254.6604     73.6693
  1861.0000     54.6175      0.0000    254.6468     73.6548
  1861.1000     54.6175      0.0000    254.6468     73.6548
  1861.2000     54.6175      0.0000    254.6468     73.6548
  1861.3000     64.0579      0.0000    254.6435     73.6960
  1861.4000     64.0579      0.0000    254.6435     73.6960
  1861.5000     72.9171      0.0000    254.6556     73.7762
  1861.6000     72.9171      0.0000    254.6556     73.7762
  1861.7000     72.9171      0.0000    254.6556     73.7762
  1861.8000     79.8436      0.0000    254.6746     73.8553
  1861.9000     79.8436      0.0000    254.6746     73.8553
  1862.0000     85.0741      0.0000    254.6853     73.9071
  1862.1000     85.0741      0.0000    254.6853     73.9071
  1862.2000     85.0741      0.0000    254.6853     73.9071
  1862.3000     90.1584      0.0000    254.6822     73.9140
  1862.4000     90.1584      0.0000    254.6822     73.9140
  1862.5000     96.6156      0.0000    254.6723     73.8712
  1862.6000     96.6156      0.0000    254.6723     73.8712
  1862.7000     96.6156      0.0000    254.6723     73.8712
  1862.8000    104.3253      0.0000    254.6632     73.8140
  1862.9000    104.3253      0.0000    254.6632     73.8140
  1863.0000    111.0673      0.0000    254.6566     73.7882
  1863.1000    111.0673      0.0000    254.6566     73.7882
  1863.2000    111.0673      0.0000    254.6566     73.7882
  1863.3000    114.2749      0.0000    254.6513     73.7793
  1863.4000    114.2749      0.0000    254.6513     73.7793
  1863.5000    113.7128      0.0000    254.6469     73.7383
  1863.6000    113.7128      0.0000    254.6469     73.7383
  1863.7000    113.7128      0.0000    254.6469     73.7383
  1863.8000    111.9399      0.0000    254.6412     73.6695
  1863.9000    111.9399      0.0000    254.6412     73.6695
  1864.0000    111.6228      0.0000    254.6291     73.6084
  1864.1000    111.6228      0.0000    254.6291     73.6084
  1864.2000    111.6228      0.0000    254.6291     73.6084
  1864.3000    112.8383      0.0000    254.6095     73.5585
  1864.4000    112.8383      0.0000    254.6095     73.5585
  1864.5000    113.5746      0.0000    254.5895     73.5223
  1864.6000    113.5746      0.0000    254.5895     73.5223
  1864.7000    113.5746      0.0000    254.5895     73.5223
  1864.8000    112.4984      0.0000    254.5778     73.5166
  1864.9000    112.4984      0.0000    254.5778     73.5166
  1865.0000    110.4500      0.0000    254.5743     73.5214
  1865.1000    110.4500      0.0000    254.5743     73.5214
  1865.2000    110.4500      0.0000    254.5743     73.5214
  1865.3000    109.2757      0.0000    254.5740     73.5004
  1865.4000    109.2757      0.0000    254.5740     73.5004
  1865.5000    109.8730      0.0000    254.5746     73.4646
  1865.6000    109.8730      0.0000    254.5746     73.4646
  1865.7000    109.8730      0.0000    254.5746     73.4646
  1865.8000    111.6112      0.0000    254.5749     73.4475
  1865.9000    111.6112      0.0000    254.5749     73.4475
  1866.0000    113.3201      0.0000    254.5695     73.4528
  1866.1000    113.3201      0.0000    254.5695     73.4528
  1866.2000    113.3201      0.0000    254.5695     73.4528
  1866.3000    114.5363      0.0000    254.5545     73.4533
  1866.4000    114.5363      0.0000    254.5545     73.4533
  1866.5000    115.7101      0.0000    254.5344     73.4180
  1866.6000    115.7101      0.0000    254.5344     73.4180
  1866.7000    115.7101      0.0000    254.5344     73.4180
  1866.8000    117.3254      0.0000    254.5245     73.3591
  1866.9000    117.3254      0.0000    254.5245     73.3591
  1867.0000    119.1276      0.0000    254.5351     73.3235
  1867.1000    119.1276      0.0000    254.5351     73.3235
