~Version Information
VERS.                      2.0: CWLS Log ASCII Standard - VERSION 2.0
WRAP.                       NO: One line per depth step
~Well Information Block
STRT.FT               375.0000: 
STOP.FT              2637.2500: 
STEP.FT                 0.2500: 
NULL.                -999.2500: 
COMP.          Pioneer Natural Resources: COMPANY
WELL.            Cortina 23-25: WELL
FLD.           Purgatoire River: FIELD
LOC.           2344' FWL & 2526' FSL----: LOCATION
PROV.                 Colorado: PROVINCE
CNTY.               Las Animas: COUNTRY
SRVC.                Patterson: SERVICE COMPANY
DATE.          Wed Mar 23 19:09:49 2005: LOG DATE
UWI.           05 071 08340 00: UNIQUE WELL ID
~Curve Information Block
DEPT.FT            0 000 00 00: Depth
DIR.Ohm-m                     : IEL Induction Resistivity
SN.Ohm-m                      : IEL Short Normal
SP.mV                         : IEL Spontaneous Potential
GR.GAPI                       : Gamma Ray
~Parameter Information Block
~A  Depth       DIR          SN          SP          GR     
# ...
   676.5000     42.6446   2000.0000   2000.0000    102.8822
   676.7500     41.9701   2000.0000   2000.0000    105.5938
   677.0000     41.4783   2000.0000   2000.0000    106.0479
   677.2500     41.0767   2000.0000   2000.0000    104.2603
   677.5000     40.7322   2000.0000   2000.0000     99.7292
   677.7500     40.4897   2000.0000   2000.0000     96.2767
   678.0000     40.4396   2000.0000   2000.0000     91.2743
   678.2500     40.6686   2000.0000   2000.0000     88.2355
   678.5000     41.2199   2000.0000   2000.0000     84.3695
   678.7500     42.0787   2000.0000   2000.0000     82.4034
   679.0000     43.1741   2000.0000   2000.0000     80.3048
   679.2500     44.3911   2000.0000   2000.0000     79.2641
   679.5000     45.5839   2000.0000   2000.0000     78.1194
   679.7500     46.5974   2000.0000   2000.0000     77.7767
   680.0000     47.3002   2000.0000   2000.0000     77.9920
   680.2500     47.6194   2000.0000   2000.0000     78.4229
   680.5000     47.5496   2000.0000   2000.0000     79.1342
   680.7500     47.1256   2000.0000   2000.0000     79.6997
   681.0000     46.3809   2000.0000   2000.0000     81.0936
   681.2500     45.3227   2000.0000   2000.0000     82.5522
   681.5000     43.9428   2000.0000   2000.0000     85.4543
   681.7500     42.2553   2000.0000   2000.0000     87.6594
   682.0000     40.3332   2000.0000   2000.0000     90.9267
   682.2500     38.3108   2000.0000   2000.0000     92.8967
   682.5000     36.3448   2000.0000   2000.0000     95.6677
   682.7500     34.5607   2000.0000   2000.0000     97.6914
   683.0000     33.0247   2000.0000   2000.0000    101.3008
   683.2500     31.7460   2000.0000   2000.0000    103.8079
   683.5000     30.6931   2000.0000   2000.0000    106.5949
   683.7500     29.8138   2000.0000   2000.0000    107.2710
   684.0000     29.0547   2000.0000   2000.0000    106.5279
   684.2500     28.3801   2000.0000   2000.0000    105.3373
   684.5000     27.7849   2000.0000   2000.0000    103.5713
   684.7500     27.2934   2000.0000   2000.0000    102.9400
   685.0000     26.9454   2000.0000   2000.0000    103.2562
   685.2500     26.7788   2000.0000   2000.0000    104.1018
   685.5000     26.8153   2000.0000   2000.0000    105.1269
   685.7500     27.0553   2000.0000   2000.0000    104.8024
   686.0000     27.4815   2000.0000   2000.0000    102.2603
   686.2500     28.0686   2000.0000   2000.0000     99.6950
   686.5000     28.7920   2000.0000   2000.0000     95.7271
   686.7500     29.6318   2000.0000   2000.0000     93.0515
   687.0000     30.5793   2000.0000   2000.0000     88.0148
   687.2500     31.6477   2000.0000   2000.0000     83.6083
   687.5000     32.8809   2000.0000   2000.0000     75.9719
   687.7500     34.3411   2000.0000   2000.0000     70.8543
   688.0000     36.0729   2000.0000   2000.0000     64.0389
   688.2500     38.0536   2000.0000   2000.0000     60.4200
   688.5000     40.1523   2000.0000   2000.0000     56.8274
   688.7500     42.1205   2000.0000   2000.0000     55.8128
   689.0000     43.6324   2000.0000   2000.0000     56.4919
   689.2500     44.3795   2000.0000   2000.0000     58.4992
   689.5000     44.1821   2000.0000   2000.0000     63.8304
   689.7500     43.0604   2000.0000   2000.0000     68.5768
   690.0000     41.2261   2000.0000   2000.0000     76.3294
   690.2500     38.9991   2000.0000   2000.0000     81.4039
   690.5000     36.6959   2000.0000   2000.0000     88.9838
   690.7500     34.5465   2000.0000   2000.0000     94.4047
   691.0000     32.6702   2000.0000   2000.0000    103.0167
   691.2500     31.0999   2000.0000   2000.0000    108.2594
   691.5000     29.8240   2000.0000   2000.0000    113.4938
   691.7500     28.8222   2000.0000   2000.0000    114.6465
   692.0000     28.0820   2000.0000   2000.0000    113.3008
   692.2500     27.5990   2000.0000   2000.0000    111.0448
   692.5000     27.3674   2000.0000   2000.0000    106.6214
   692.7500     27.3713   2000.0000   2000.0000    103.3445
   693.0000     27.5828   2000.0000   2000.0000     98.5109
   693.2500     27.9670   2000.0000   2000.0000     95.6930
   693.5000     28.4877   2000.0000   2000.0000     92.4190
   693.7500     29.1038   2000.0000   2000.0000     90.8419
   694.0000     29.7557   2000.0000   2000.0000     89.1913
   694.2500     30.3574   2000.0000   2000.0000     88.5688
   694.5000     30.8119   2000.0000   2000.0000     88.5291
   694.7500     31.0462   2000.0000   2000.0000     89.1227
   695.0000     31.0426   2000.0000   2000.0000     90.6959
   695.2500     30.8400   2000.0000   2000.0000     91.9415
   695.5000     30.5080   2000.0000   2000.0000     93.6110
   695.7500     30.1144   2000.0000   2000.0000     94.3966
   696.0000     29.6993   2000.0000   2000.0000     95.1883
   696.2500     29.2664   2000.0000   2000.0000     95.7742
   696.5000     28.7977   2000.0000   2000.0000     97.2824
   696.7500     28.2823   2000.0000   2000.0000     98.8353
   697.0000     27.7386   2000.0000   2000.0000    101.9085
   697.2500     27.2117   2000.0000   2000.0000    104.3204
   697.5000     26.7480   2000.0000   2000.0000    108.1386
   697.7500     26.3675   2000.0000   2000.0000    110.5146
   698.0000     26.0506   2000.0000   2000.0000    113.1005
   698.2500     25.7450   2000.0000   2000.0000    113.6841
   698.5000     25.3880   2000.0000   2000.0000    112.3480
   698.7500     24.9377   2000.0000   2000.0000    110.2778
   699.0000     24.3948   2000.0000   2000.0000    107.1452
   699.2500     23.8025   2000.0000   2000.0000    106.2672
   699.5000     23.2275   2000.0000   2000.0000    107.5690
   699.7500     22.7333   2000.0000   2000.0000    109.4542
   700.0000     22.3619   2000.0000   2000.0000    111.6188
   700.2500     22.1249   2000.0000   2000.0000    111.8927
   700.5000     22.0064   2000.0000   2000.0000    111.0228
   700.7500     21.9745   2000.0000   2000.0000    110.2201
   701.0000     21.9965   2000.0000   2000.0000    108.9732
   701.2500     22.0488   2000.0000   2000.0000    107.9258
   701.5000     22.1150   2000.0000   2000.0000    106.2103
   701.7500     22.1783   2000.0000   2000.0000    105.4399
   702.0000     22.2178   2000.0000   2000.0000    105.3371
   702.2500     22.2167   2000.0000   2000.0000    105.8467
   702.5000     22.1756   2000.0000   2000.0000    107.1679
   702.7500     22.1177   2000.0000   2000.0000    108.4631
   703.0000     22.0810   2000.0000   2000.0000    111.1862
   703.2500     22.1021   2000.0000   2000.0000    113.3078
   703.5000     22.2049   2000.0000   2000.0000    115.8826
   703.7500     22.4004   2000.0000   2000.0000    116.4602
   704.0000     22.6955   2000.0000   2000.0000    114.9844
   704.2500     23.1046   2000.0000   2000.0000    112.6543
   704.5000     23.6529   2000.0000   2000.0000    108.2189
   704.7500     24.3719   2000.0000   2000.0000    105.2145
   705.0000     25.2866   2000.0000   2000.0000    100.7470
   705.2500     26.3971   2000.0000   2000.0000     97.3552
   705.5000     27.6562   2000.0000   2000.0000     91.0036
   705.7500     28.9506   2000.0000   2000.0000     86.1413
   706.0000     30.0994   2000.0000   2000.0000     79.2578
   706.2500     30.8844   2000.0000   2000.0000     75.8273
   706.5000     31.1118   2000.0000   2000.0000     73.3933
   706.7500     30.6847   2000.0000   2000.0000     73.8305
   707.0000     29.6479   2000.0000   2000.0000     77.7891
   707.2500     28.1682   2000.0000   2000.0000     82.5897
   707.5000     26.4596   2000.0000   2000.0000     92.1556
   707.7500     24.7061   2000.0000   2000.0000     99.0176
   708.0000     23.0282   2000.0000   2000.0000    107.8631
   708.2500     21.4925   2000.0000   2000.0000    111.9504
   708.5000     20.1351   2000.0000   2000.0000    115.1786
   708.7500     18.9796   2000.0000   2000.0000    115.8550
   709.0000     18.0415   2000.0000   2000.0000    115.7779
   709.2500     17.3269   2000.0000   2000.0000    115.5646
   709.5000     16.8283   2000.0000   2000.0000    115.5783
   709.7500     16.5234   2000.0000   2000.0000    115.8934
