~Version Information
VERS.                      2.0: CWLS Log ASCII Standard - VERSION 2.0
WRAP.                       NO: One line per depth step
~Well Information Block
STRT.FT               292.0000: 
STOP.FT               801.0000: 
STEP.FT                 0.1000: 
NULL.                -999.2500: 
COMP.          Pioneer Natural Resources: COMPANY
WELL.          HG Duran 34-27 Tr: WELL
FLD.           Purgatoire River: FIELD
LOC.           1076' FSL & 1465' FEL: LOCATION
PROV.                 Colorado: PROVINCE
CNTY.               Las Animas: COUNTRY
SRVC.                Patterson: SERVICE COMPANY
DATE.          Wed Apr 13 08:36:06 2005: LOG DATE
UWI.           05 071 08218 00: UNIQUE WELL ID
~Curve Information Block
DEPT.FT            0 000 00 00: Depth
DCAL.in                       : CDL Caliper
RHOB.g/cc                     : CDL Bulk Density
RHOC.g/cc                     : CDL Density Correction
DPOR.pu                       : CDL Density Porosity
GR.GAPI                       : Gamma Ray
NPOR.pu                       : Neutron Porosity
~Parameter Information Block
~A  Depth       DCAL        RHOB        RHOC        DPOR         GR         NPOR    
# ...
   791.2000      7.8847      2.4795      0.0374     10.3308   -999.2500   -999.2500
   791.3000      7.8769      2.4399     -0.0179     12.7321   -999.2500   -999.2500
   791.4000      7.8769      2.4283     -0.0227     13.4376   -999.2500   -999.2500
   791.5000      7.8736      2.4467      0.0145     12.3218   -999.2500   -999.2500
   791.6000      7.8736      2.4823      0.0549     10.1612   -999.2500   -999.2500
   791.7000      7.8736      2.5306      0.0593      7.2343   -999.2500   -999.2500
   791.8000      7.8787      2.5709      0.0943      4.7953   -999.2500   -999.2500
   791.9000      7.8787      2.5779      0.1048      4.3672   -999.2500   -999.2500
   792.0000      7.8681      2.5527      0.1297      5.8998   -999.2500   -999.2500
   792.1000      7.8681      2.5046      0.0837      8.8103   -999.2500   -999.2500
   792.2000      7.8681      2.4565      0.0177     11.7290   -999.2500   -999.2500
   792.3000      7.8558      2.4421     -0.0048     12.5996   -999.2500   -999.2500
   792.4000      7.8558      2.4643      0.0224     11.2540   -999.2500   -999.2500
   792.5000      7.8720      2.4921      0.0747      9.5692   -999.2500   -999.2500
   792.6000      7.8720      2.5069      0.0092      8.6728   -999.2500   -999.2500
   792.7000      7.8720      2.5066      0.0578      8.6906   -999.2500   -999.2500
   792.8000      7.8844      2.4893      0.0205      9.7405   -999.2500   -999.2500
   792.9000      7.8844      2.4751     -0.0309     10.6025   -999.2500   -999.2500
   793.0000      7.8801      2.4823      0.0284     10.1660   -999.2500   -999.2500
   793.1000      7.8801      2.4965      0.0359      9.3060   -999.2500   -999.2500
   793.2000      7.8801      2.5045      0.0294      8.8209   -999.2500   -999.2500
   793.3000      7.8444      2.5081      0.0306      8.6008   -999.2500   -999.2500
   793.4000      7.8444      2.5102      0.0296      8.4700   -999.2500   -999.2500
   793.5000      7.8405      2.5069      0.0824      8.6730   -999.2500   -999.2500
   793.6000      7.8405      2.4954     -0.0152      9.3713   -999.2500   -999.2500
   793.7000      7.8405      2.4844     -0.0157     10.0349   -999.2500   -999.2500
   793.8000      7.8643      2.4780      0.0234     10.4219   -999.2500   -999.2500
   793.9000      7.8643      2.4802     -0.0027     10.2880   -999.2500   -999.2500
   794.0000      7.8661      2.4923      0.0417      9.5563   -999.2500   -999.2500
   794.1000      7.8661      2.4953      0.0277      9.3786   -999.2500   -999.2500
   794.2000      7.8661      2.4858      0.0217      9.9511   -999.2500   -999.2500
   794.3000      7.8736      2.4842      0.0184     10.0488   -999.2500   -999.2500
   794.4000      7.8736      2.4922      0.0444      9.5620   -999.2500   -999.2500
   794.5000      7.8776      2.4929      0.0226      9.5214   -999.2500   -999.2500
   794.6000      7.8776      2.4833      0.0074     10.1057   -999.2500   -999.2500
   794.7000      7.8776      2.4730     -0.0162     10.7262   -999.2500   -999.2500
   794.8000      7.8753      2.4674     -0.0124     11.0658   -999.2500   -999.2500
   794.9000      7.8753      2.4666     -0.0082     11.1177   -999.2500   -999.2500
   795.0000      7.8806      2.4704      0.0268     10.8878   -999.2500   -999.2500
   795.1000      7.8806      2.4794      0.0233     10.3409   -999.2500   -999.2500
   795.2000      7.8806      2.4882      0.0489      9.8053   -999.2500   -999.2500
   795.3000      7.8888      2.4852      0.0496      9.9886   -999.2500   -999.2500
   795.4000      7.8888      2.4701      0.0508     10.9003   -999.2500   -999.2500
   795.5000      7.8942      2.4583      0.0255     11.6197   -999.2500   -999.2500
   795.6000      7.8942      2.4623      0.0093     11.3729   -999.2500   -999.2500
   795.7000      7.8942      2.4784      0.0361     10.4017   -999.2500   -999.2500
   795.8000      7.8871      2.4919      0.0156      9.5837   -999.2500   -999.2500
   795.9000      7.8871      2.4912      0.0509      9.6268   -999.2500   -999.2500
   796.0000      7.8490      2.4718      0.0413     10.7985   -999.2500   -999.2500
   796.1000      7.8490      2.4478      0.0106     12.2547   -999.2500   -999.2500
   796.2000      7.8490      2.4402      0.0130     12.7157   -999.2500   -999.2500
   796.3000      7.8258      2.4485      0.0444     12.2110   -999.2500   -999.2500
   796.4000      7.8258      2.4544      0.0637     11.8535   -999.2500   -999.2500
   796.5000      7.7935      2.4441      0.0522     12.4761   -999.2500   -999.2500
   796.6000      7.7935      2.4197      0.0332     13.9580   -999.2500   -999.2500
   796.7000      7.7935      2.4048      0.0027     14.8598   -999.2500   -999.2500
   796.8000      7.7320      2.4242      0.0760     13.6862   -999.2500   -999.2500
   796.9000      7.7320      2.4629      0.1306     11.3366   -999.2500   -999.2500
   797.0000      7.6100      2.4917      0.0824      9.5919   -999.2500   -999.2500
   797.1000      7.6100      2.5189      0.1347      7.9451   -999.2500   -999.2500
   797.2000      7.6100      2.5617      0.1657      5.3540   -999.2500   -999.2500
   797.3000      7.3941      2.5975      0.1912      3.1843   -999.2500   -999.2500
   797.4000      7.3941      2.5876      0.2761      3.7846   -999.2500   -999.2500
   797.5000      7.1992      2.5470      0.1440      6.2419   -999.2500   -999.2500
   797.6000      7.1992      2.5571      0.0869      5.6328   -999.2500   -999.2500
   797.7000      7.1992      2.5481      0.0835      6.1762   -999.2500   -999.2500
   797.8000      6.9382      2.1256      0.5051     31.7798   -999.2500   -999.2500
   797.9000      6.9382      1.2086      0.0000     87.3599   -999.2500   -999.2500
   798.0000      6.3939      0.4105      0.0000    135.7280   -999.2500   -999.2500
   798.1000      6.3939      0.0780   -999.2500    155.8765   -999.2500   -999.2500
   798.2000      6.3939      0.0080   -999.2500    160.1182   -999.2500   -999.2500
   798.3000      5.0716      0.0004   -999.2500    160.5795   -999.2500   -999.2500
   798.4000      5.0716      0.0000   -999.2500    160.6061   -999.2500   -999.2500
   798.5000      4.8989      0.0000   -999.2500    160.6061   -999.2500   -999.2500
   798.6000      4.8989   -999.2500   -999.2500   -999.2500   -999.2500   -999.2500
   798.7000      4.8989   -999.2500   -999.2500   -999.2500   -999.2500   -999.2500
   798.8000   -999.2500   -999.2500   -999.2500   -999.2500   -999.2500   -999.2500
   798.9000   -999.2500   -999.2500   -999.2500   -999.2500   -999.2500   -999.2500
   799.0000   -999.2500   -999.2500   -999.2500   -999.2500   -999.2500   -999.2500
   799.1000   -999.2500   -999.2500   -999.2500   -999.2500   -999.2500   -999.2500
   799.2000   -999.2500   -999.2500   -999.2500   -999.2500   -999.2500   -999.2500
   799.3000   -999.2500   -999.2500   -999.2500   -999.2500   -999.2500   -999.2500
   799.4000   -999.2500   -999.2500   -999.2500   -999.2500   -999.2500   -999.2500
   799.5000   -999.2500   -999.2500   -999.2500   -999.2500   -999.2500   -999.2500
   799.6000   -999.2500   -999.2500   -999.2500   -999.2500   -999.2500   -999.2500
   799.7000   -999.2500   -999.2500   -999.2500   -999.2500   -999.2500   -999.2500
   799.8000   -999.2500   -999.2500   -999.2500   -999.2500   -999.2500   -999.2500
   799.9000   -999.2500   -999.2500   -999.2500   -999.2500   -999.2500   -999.2500
   800.0000   -999.2500   -999.2500   -999.2500   -999.2500   -999.2500   -999.2500
   800.1000   -999.2500   -999.2500   -999.2500   -999.2500   -999.2500   -999.2500
   800.2000   -999.2500   -999.2500   -999.2500   -999.2500   -999.2500   -999.2500
   800.3000   -999.2500   -999.2500   -999.2500   -999.2500   -999.2500   -999.2500
   800.4000   -999.2500   -999.2500   -999.2500   -999.2500   -999.2500   -999.2500
   800.5000   -999.2500   -999.2500   -999.2500   -999.2500   -999.2500   -999.2500
   800.6000   -999.2500   -999.2500   -999.2500   -999.2500   -999.2500   -999.2500
   800.7000   -999.2500   -999.2500   -999.2500   -999.2500   -999.2500   -999.2500
