~Version Information
 VERS.                                  2.0 : CWLS LAS VERSION
 WRAP.                                   NO : WRAPING MODE
 SWARE .                 MController 2.5.0E : SOFTWARE VERSION
~Well Information
 WELL.                         Justin 32-10 : WELL
 COMP.             Evergreen Operating Corp : COMPANY
 FLD.                      Purgatorie River : FIELD
 LOC.                SW/NE Sec 10 T32S R65W : LOCATION
 DATE.                              8/29/04 : DATE(S) LOGGED
 SRVC.       Blanco Geological Services LLC : SERVICE COMPANY
 STAT.                                   CO : STATE
 CNTY.                           Las Animas : COUNTY
 CTRY.                                  USA : COUNTRY
 API.                       05-071-08053-00 : API NUMBER
 STRT.FT                             322.00 : START DEPTH
 STOP.FT                            1195.00 : STOP DEPTH
 STEP.FT                               1.00 : DEPTH INCREMENT
 NULL.                                -9999 : NULL VALUE
~Curve information
 DEPTH.FT                                   :
 ROP.MIN/FT                                 :
 GAS.UNITS                                  :
~ASCII Log data
# ...
      722.00        0.167          7.0 
      723.00        0.200          7.0 
      724.00        0.233          7.6 
      725.00        0.200          7.8 
      726.00        0.200          6.9 
      727.00        0.233          7.0 
      728.00        0.167          7.0 
      729.00        0.150          6.2 
      730.00        0.200          6.4 
      731.00        0.133          6.4 
      732.00        0.100          6.4 
      733.00        0.133          5.6 
      734.00        0.100          5.6 
      735.00        0.100          6.2 
      736.00        0.133          6.2 
      737.00        0.300          5.7 
      738.00       12.767         29.4 
      739.00        0.133          5.4 
      740.00        0.233          5.5 
      741.00        0.267          5.3 
      742.00        0.233          5.7 
      743.00        0.200          5.7 
      744.00        0.467          6.1 
      745.00        0.567          6.1 
      746.00       13.767        304.7 
      747.00        0.550          5.7 
      748.00        0.533          5.3 
      749.00        0.333          5.1 
      750.00        0.267          5.8 
      751.00        0.200          6.0 
      752.00        0.300          7.2 
      753.00        0.267         10.9 
      754.00        0.133         16.5 
      755.00        0.333         16.9 
      756.00        0.233         13.7 
      757.00        0.283         12.2 
      758.00        0.267          8.4 
      759.00        0.267          7.6 
      760.00        0.267          9.3 
      761.00        0.267          9.0 
      762.00        0.267          7.7 
      763.00        0.267          6.2 
      764.00        0.267          5.3 
      765.00        0.267          5.3 
      766.00        0.333          5.5 
      767.00        0.267          5.2 
      768.00        0.267          5.3 
      769.00        0.283          5.4 
      770.00        0.367          4.8 
      771.00        0.300          5.1 
      772.00        0.267          5.1 
      773.00        0.267          4.8 
      774.00        0.267          6.0 
      775.00        0.267          7.9 
      776.00       10.750       4756.4 
      777.00        0.600        948.2 
      778.00        0.067        935.1 
      779.00        0.117        935.1 
      780.00        0.200        933.4 
      781.00        0.267        931.7 
      782.00        0.300        928.7 
      783.00        0.233        929.7 
      784.00        0.267        928.7 
      785.00        0.200        930.0 
      786.00        0.100        930.0 
      787.00       20.333       3972.4 
      788.00        0.267        927.0 
      789.00        0.267        926.0 
      790.00        0.167        926.0 
      791.00        0.233        927.0 
      792.00        0.167        927.0 
      793.00        0.200        933.1 
      794.00        0.133        933.1 
      795.00        0.217        947.6 
      796.00        0.200        964.4 
      797.00        0.200        964.4 
      798.00        0.267        981.9 
      799.00        0.267        997.8 
      800.00        0.267       1017.0 
      801.00        0.267       1057.7 
      802.00        0.267       1115.0 
      803.00        0.267       1070.5 
      804.00        0.267       1013.3 
      805.00        0.267        970.5 
      806.00        2.117        949.6 
      807.00        0.267        929.0 
      808.00        0.300       1128.2 
      809.00        0.200       1128.2 
      810.00        0.267       1469.4 
      811.00        0.233       1736.3 
      812.00        0.233       1900.0 
      813.00        0.267       1787.2 
      814.00        0.283       1661.8 
      815.00        0.267       1671.9 
      816.00        0.333       1764.6 
      817.00        0.267       1883.8 
      818.00        0.233       2055.3 
      819.00        0.167       2124.1 
      820.00        0.167       2303.3 
      821.00        0.467       2399.3 
      822.00        0.267       2392.9 
      823.00        0.267       2345.1 
      824.00        0.533       2291.9 
      825.00        0.283       2245.0 
      826.00        0.533       2237.9 
      827.00        0.267       2140.6 
      828.00        0.267       2101.8 
      829.00        0.333       1873.4 
      830.00        0.267       1670.9 
      831.00        0.433       1699.6 
      832.00        0.267       2312.7 
      833.00        0.533       2881.5 
      834.00        0.167       3564.7 
      835.00        0.217       4488.5 
      836.00        3.983       5728.7 
      837.00        0.200       1712.7 
      838.00        0.400       1608.6 
      839.00        0.267       1496.1 
      840.00        0.300       1482.2 
      841.00        0.233       1344.8 
      842.00        0.233       1201.9 
      843.00        0.167       1165.9 
      844.00        0.233       1195.2 
      845.00        0.200       1210.0 
      846.00        0.200       1215.4 
      847.00        0.167       1215.4 
      848.00        0.217       1296.3 
      849.00        0.167       1394.6 
      850.00        0.167       1394.6 
      851.00        0.167       1412.2 
      852.00        0.233       1463.4 
      853.00        0.167       1463.4 
      854.00        0.167       1481.6 
      855.00        0.200       1343.1 
      856.00        0.200       1343.1 
      857.00        0.167       1298.6 
      858.00        0.167       1149.4 
      859.00        0.133       1099.8 
      860.00        0.167       1224.5 
      861.00        0.233       1224.5 
      862.00        0.167       1651.7 
      863.00        0.200       2098.5 
      864.00        0.200       2098.5 
      865.00        0.167       2553.3 
      866.00        4.600       4906.3 
      867.00        0.167       1110.0 
      868.00        0.333       1095.8 
      869.00        0.333        982.3 
      870.00        0.200        957.7 
      871.00        0.233        945.9 
      872.00        0.200        942.5 
      873.00        0.200        937.8 
      874.00        0.200        935.1 
      875.00        0.167        936.1 
      876.00        0.183        935.1 
      877.00        0.200        934.8 
      878.00        0.200        933.1 
      879.00        0.233        963.4 
      880.00        0.233       1044.3 
      881.00        0.233       1087.4 
      882.00        0.200       1129.8 
      883.00        0.200       1129.8 
      884.00        0.200       1105.6 
      885.00        0.233       1039.5 
      886.00        0.233       1009.2 
      887.00        0.167       1048.0 
      888.00        0.167       1048.0 
      889.00        0.133       1132.2 
      890.00        0.167       1132.2 
      891.00        0.133       1215.7 
      892.00        0.167       1486.3 
      893.00        0.167       1486.3 
      894.00        0.183       1856.9 
      895.00        0.200       2263.6 
      896.00        4.517       4192.4 
      897.00        0.267       1263.6 
      898.00        0.233       1173.6 
      899.00        0.200       1079.6 
      900.00        0.267        998.1 
      901.00        0.233        978.9 
      902.00        0.233        963.1 
      903.00        0.233        949.9 
      904.00        0.167        944.9 
      905.00        0.217        943.2 
      906.00        0.200        942.2 
      907.00        0.167        941.2 
      908.00        0.167        938.5 
      909.00        0.200        938.5 
      910.00        0.133        939.8 
      911.00        0.233        939.8 
      912.00        0.200        940.5 
      913.00        0.233        940.2 
      914.00        0.167        938.8 
      915.00        0.167        938.8 
      916.00        0.167        939.8 
      917.00        0.200        972.5 
      918.00        0.200        972.5 
      919.00        0.200       1054.4 
      920.00        0.167       1165.9 
      921.00        0.200       1165.9 
