~Version Information
VERS.                      2.0: CWLS Log ASCII Standard - VERSION 2.0
WRAP.                       NO: One line per depth step
~Well Information Block
STRT.FT               250.0000: 
STOP.FT              1573.7000: 
STEP.FT                 0.1000: 
NULL.                -999.2500: 
COMP.          Pioneer Natural Resources: COMPANY
WELL.          Big Cat Federal 44-1: WELL
FLD.           Purgatoire River: FIELD
LOC.           197' FSL & 973' FEL--: LOCATION
CNTY.               Las Animas: COUNTY
SRVC.                Patterson: SERVICE COMPANY
DATE.          Mon Apr 24 08:33:37 2006: LOG DATE
UWI.           05 071 08042 00: UNIQUE WELL ID
STAT.                 Colorado: STATE
~Curve Information Block
DEPT.FT            0 000 00 00: Depth
DCAL.in                       : CDL Caliper
RHOB.g/cc                     : CDL Bulk Density
RHOC.g/cc                     : CDL Density Correction
DPOR.pu                       : CDL Density Porosity
NPOR.pu                       : Neutron Porosity
GR.GAPI                       : Gamma Ray
~Parameter Information Block
~A  Depth       DCAL        RHOB        RHOC        DPOR        NPOR         GR     
# ...
  1373.2000      7.8629      2.5127      0.0522      8.3242     19.9266    135.9954
  1373.3000      7.8678      2.5177      0.0323      8.0204     20.3900    138.7832
  1373.4000      7.8678      2.5218      0.0206      7.7706     20.7170    145.1659
  1373.5000      7.8673      2.5297      0.0508      7.2926     20.6623    149.3593
  1373.6000      7.8673      2.5288      0.0795      7.3446     20.5804    145.2253
  1373.7000      7.8673      2.5105      0.0453      8.4525     20.3894    137.2323
  1373.8000      7.8689      2.4917      0.0240      9.5917     19.9991    134.4142
  1373.9000      7.8689      2.4808      0.0751     10.2521     19.7605    139.2390
  1374.0000      7.8772      2.4634      0.0247     11.3064     19.7264    148.8515
  1374.1000      7.8772      2.4355      0.0173     13.0013     19.7542    155.2105
  1374.2000      7.8772      2.4063      0.0020     14.7706     19.6878    151.6725
  1374.3000      7.8942      2.3822      0.0270     16.2328     19.1932    148.3380
  1374.4000      7.8942      2.3563      0.0360     17.8002     18.2522    151.4697
  1374.5000      7.9111      2.3157      0.0003     20.2606     17.2708    151.6125
  1374.6000      7.9111      2.2570      0.0184     23.8160     16.2880    146.0462
  1374.7000      7.9111      2.1754      0.0326     28.7654     15.1320    139.4842
  1374.8000      7.9194      2.0703     -0.0207     35.1348     13.8955    135.6165
  1374.9000      7.9194      1.9539      0.0020     42.1889     12.5732    133.4304
  1375.0000      7.9232      1.8309     -0.0381     49.6406     11.1979    129.3813
  1375.1000      7.9232      1.7141     -0.1278     56.7226      9.8327    125.0250
  1375.2000      7.9232      1.6224     -0.0954     62.2779      8.5411    121.0652
  1375.3000      7.9290      1.5497     -0.1071     66.6823      7.4474    111.1684
  1375.4000      7.9290      1.4825     -0.0765     70.7568      6.5543     95.5571
  1375.5000      7.9363      1.4321     -0.1019     73.8107      5.7330     83.4621
  1375.6000      7.9363      1.4234     -0.0591     74.3415      4.9609     77.8135
  1375.7000      7.9363      1.4624      0.0375     71.9753      4.3161     75.3241
  1375.8000      7.9399      1.5374      0.1044     67.4324      3.8666     77.6958
  1375.9000      7.9399      1.6417      0.1508     61.1112      3.7107     85.7040
  1376.0000      7.9378      1.7719      0.2337     53.2211      3.8168     90.7041
  1376.1000      7.9378      1.9053      0.3070     45.1326      4.0160     90.8228
  1376.2000      7.9378      2.0153      0.3132     38.4687      4.3674     95.7567
  1376.3000      7.9278      2.1079      0.2845     32.8553      5.0578    104.1309
  1376.4000      7.9278      2.2054      0.3193     26.9449      6.0055    104.4197
  1376.5000      7.9018      2.3025      0.3291     21.0599      6.9465     96.9976
  1376.6000      7.9018      2.3749      0.2875     16.6721      7.8421     95.3462
  1376.7000      7.9018      2.4166      0.1955     14.1475      8.7930    102.1365
  1376.8000      7.8622      2.4379      0.1708     12.8566      9.7969    108.2206
  1376.9000      7.8622      2.4460      0.1618     12.3645     10.8567    113.4926
  1377.0000      7.8331      2.4503      0.1047     12.1005     11.9619    123.2350
  1377.1000      7.8331      2.4560      0.1327     11.7548     13.1776    133.6097
  1377.2000      7.8331      2.4573      0.1415     11.6760     14.5330    139.5598
  1377.3000      7.8266      2.4555      0.1034     11.7870     15.7483    145.4428
  1377.4000      7.8266      2.4596      0.0905     11.5368     16.4572    151.9270
  1377.5000      7.8355      2.4690      0.0956     10.9698     16.5341    150.8665
  1377.6000      7.8355      2.4777      0.0716     10.4394     16.2161    142.4778
  1377.7000      7.8355      2.4830      0.0943     10.1235     16.0275    135.0793
  1377.8000      7.8482      2.4813      0.0344     10.2264     16.1727    134.2449
  1377.9000      7.8482      2.4699      0.0835     10.9170     16.2573    140.1737
  1378.0000      7.8548      2.4484      0.0394     12.2160     16.1375    145.2573
  1378.1000      7.8548      2.4290      0.0541     13.3921     16.1723    146.6871
  1378.2000      7.8548      2.4227      0.0300     13.7783     16.3981    148.0609
  1378.3000      7.8528      2.4225      0.0402     13.7874     16.6230    147.9125
  1378.4000      7.8528      2.4183      0.0222     14.0423     16.7098    145.4810
  1378.5000      7.8493      2.4097      0.0081     14.5650     16.4438    143.0529
  1378.6000      7.8493      2.3977      0.0436     15.2884     15.8220    141.4850
  1378.7000      7.8493      2.3870     -0.0423     15.9396     15.3374    142.2579
  1378.8000      7.8462      2.3856     -0.0086     16.0246     15.4538    144.4127
  1378.9000      7.8462      2.3895      0.0347     15.7875     15.9769    145.6369
  1379.0000      7.8434      2.3976      0.0190     15.2974     16.3247    143.5235
  1379.1000      7.8434      2.4183      0.0354     14.0404     16.0984    141.0451
  1379.2000      7.8434      2.4451      0.0596     12.4210     15.3024    143.3708
  1379.3000      7.8414      2.4592      0.0926     11.5634     14.3204    145.1851
  1379.4000      7.8414      2.4548      0.0779     11.8273     13.5893    140.2882
  1379.5000      7.8390      2.4479      0.0441     12.2466     13.3390    133.2071
  1379.6000      7.8390      2.4549      0.0735     11.8217     13.4256    131.0481
  1379.7000      7.8390      2.4722      0.0871     10.7783     13.5248    132.9630
  1379.8000      7.8359      2.4907      0.0779      9.6530     13.6582    135.5702
  1379.9000      7.8359      2.5091      0.0723      8.5393     14.1086    137.9355
  1380.0000      7.8335      2.5204      0.0791      7.8571     14.7634    139.4412
  1380.1000      7.8335      2.5127      0.0794      8.3225     15.2573    141.0773
  1380.2000      7.8335      2.4914      0.0261      9.6136     15.5997    142.9627
  1380.3000      7.8339      2.4795      0.0369     10.3324     15.9002    142.1222
  1380.4000      7.8339      2.4883      0.0538      9.7984     15.9141    138.5562
  1380.5000      7.8337      2.5086      0.0653      8.5718     15.6946    135.8568
  1380.6000      7.8337      2.5232      0.0683      7.6820     15.7275    133.2041
  1380.7000      7.8337      2.5207      0.0665      7.8384     15.9841    128.9401
  1380.8000      7.8325      2.5110      0.0103      8.4216     16.0015    128.3280
  1380.9000      7.8325      2.5129      0.0577      8.3109     15.7681    132.5880
  1381.0000      7.8336      2.5209      0.0875      7.8268     15.5760    135.7259
  1381.1000      7.8336      2.5163      0.1099      8.1052     15.5596    135.6495
  1381.2000      7.8336      2.4977      0.0289      9.2288     15.7357    131.9957
  1381.3000      7.8350      2.4806      0.0494     10.2657     15.9206    124.2220
  1381.4000      7.8350      2.4753      0.0355     10.5892     16.0252    116.7815
  1381.5000      7.8353      2.4831      0.0444     10.1127     16.2942    117.8002
  1381.6000      7.8353      2.4915      0.0974      9.6041     16.7834    127.9668
  1381.7000      7.8353      2.4818      0.0714     10.1950     17.0758    136.0644
  1381.8000      7.8348      2.4559      0.0290     11.7620     16.7542    135.1634
  1381.9000      7.8348      2.4304      0.0327     13.3116     15.9323    129.5929
  1382.0000      7.8317      2.4103      0.0312     14.5300     15.2475    123.9534
  1382.1000      7.8317      2.3985     -0.0028     15.2452     14.8546    122.2010
  1382.2000      7.8317      2.4010      0.0398     15.0881     14.3842    126.7763
  1382.3000      7.8287      2.4089      0.0769     14.6096     13.7728    134.0986
  1382.4000      7.8287      2.4186      0.0273     14.0268     13.2803    140.7213
  1382.5000      7.8303      2.4446      0.0420     12.4481     13.1986    144.0728
  1382.6000      7.8303      2.4814      0.1164     10.2170     13.6284    143.7703
  1382.7000      7.8303      2.5062      0.1246      8.7157     14.1334    142.8777
