~Version Information
 VERS.                      2.0: CWLS Log ASCII Standard - VERSION 2.0
 WRAP.                       NO: One line per depth step
 ~Well Information Block
 STRT.FT               763.7500: 
 STOP.FT              2577.0000: 
 STEP.FT                 0.2500: 
 NULL.                -999.2500: 
 COMP.          Petrogulf Corporation: COMPANY
 WELL.               J&P 12-33V: WELL
 FLD.           Purgatorie River: FIELD
 LOC.           2005' FSL & 1928' FEL: LOCATION
 CNTY.               Las Animas: COUNTY
 SRVC.                         : SERVICE COMPANY
 DATE.          Sat Aug 28 09:00:36 2004: LOG DATE
 UWI.           05 071 08092 00: UNIQUE WELL ID
 STAT.                 Colorado: STATE
 PROV.                         :Province
 ~Curve Information Block
 DEPT.FT            0 000 00 00: Depth
 SP.mV                         : DIL Spontaneous Potential
 RILD.Ohm-m                    : DIL Deep Resistivity
 RILM.Ohm-m                    : DIL Medium Resistivity
 RLL3.Ohm-m                    : DIL Shallow Resistivity
 GR.GAPI                       : Gamma Ray
 ~Parameter Information Block
 ~A  Depth        SP         RILD        RILM        RLL3         GR     
# ...
  1855.7500    -33.5694     21.3661     26.3957     78.4705     83.2326
  1856.0000    -33.8538     22.4326     28.6899     91.9698     63.1522
  1856.2500    -34.1204     23.6230     31.2433    104.6151     52.8393
  1856.5000    -34.3732     24.9384     34.0522    116.5294     41.8035
  1856.7500    -34.6128     26.3387     37.0905    127.8717     37.0155
  1857.0000    -34.8349     27.7197     40.2847    138.4859     33.1117
  1857.2500    -35.0301     28.9075     43.4789    147.8402     32.2693
  1857.5000    -35.1856     29.6873     46.4030    155.1842     32.5938
  1857.7500    -35.2882     29.8714     48.6666    159.7468     33.2651
  1858.0000    -35.3265     29.3754     49.8227    160.8779     34.3931
  1858.2500    -35.2925     28.2552     49.5136    158.1235     35.3039
  1858.5000    -35.1809     26.6800     47.6455    151.2623     37.7026
  1858.7500    -34.9888     24.8663     44.4656    140.3645     40.7214
  1859.0000    -34.7139     23.0145     40.4684    125.9274     48.5706
  1859.2500    -34.3551     21.2716     36.1975    109.0059     56.2583
  1859.5000    -33.9144     19.7212     32.0827     91.1273     70.5627
  1859.7500    -33.3987     18.3901     28.3797     73.9024     80.7710
  1860.0000    -32.8223     17.2641     25.1937     58.5413     94.8980
  1860.2500    -32.2073     16.3054     22.5298     45.6211    102.7381
  1860.5000    -31.5810     15.4702     20.3417     35.2256    112.2887
  1860.7500    -30.9722     14.7212     18.5628     27.2367    117.9174
  1861.0000    -30.4065     14.0364     17.1242     21.4957    126.0739
  1861.2500    -29.9024     13.4083     15.9629     17.7710    130.9375
  1861.5000    -29.4701     12.8386     15.0251     15.6870    135.9582
  1861.7500    -29.1123     12.3317     14.2665     14.7516    137.4779
  1862.0000    -28.8261     11.8903     13.6512     14.4765    138.0332
  1862.2500    -28.6059     11.5138     13.1505     14.4922    138.1707
  1862.5000    -28.4446     11.1989     12.7415     14.5890    138.7133
  1862.7500    -28.3350     10.9411     12.4059     14.6857    138.9957
  1863.0000    -28.2693     10.7356     12.1291     14.7684    138.5246
  1863.2500    -28.2391     10.5791     11.8996     14.8355    137.6171
  1863.5000    -28.2363     10.4709     11.7086     14.8667    136.3442
  1863.7500    -28.2532     10.4126     11.5503     14.8215    136.3603
  1864.0000    -28.2847     10.4073     11.4208     14.6617    138.8205
  1864.2500    -28.3279     10.4571     11.3178     14.3824    142.2328
  1864.5000    -28.3831     10.5597     11.2399     14.0271    148.6374
  1864.7500    -28.4519     10.7067     11.1853     13.6743    152.1031
  1865.0000    -28.5366     10.8838     11.1518     13.4021    153.5620
  1865.2500    -28.6383     11.0732     11.1361     13.2549    151.8804
  1865.5000    -28.7562     11.2589     11.1347     13.2291    147.5065
  1865.7500    -28.8878     11.4301     11.1442     13.2820    144.9057
  1866.0000    -29.0292     11.5830     11.1619     13.3526    142.7551
  1866.2500    -29.1763     11.7193     11.1866     13.3869    142.4601
  1866.5000    -29.3256     11.8425     11.2183     13.3592    143.4861
  1866.7500    -29.4755     11.9551     11.2577     13.2844    145.0696
  1867.0000    -29.6256     12.0581     11.3054     13.2101    148.2964
  1867.2500    -29.7765     12.1498     11.3608     13.1892    150.5730
  1867.5000    -29.9285     12.2265     11.4222     13.2533    153.8934
  1867.7500    -30.0806     12.2822     11.4858     13.4102    156.2785
  1868.0000    -30.2289     12.3085     11.5463     13.6618    160.5154
  1868.2500    -30.3667     12.2957     11.5974     14.0129    163.6582
  1868.5000    -30.4851     12.2357     11.6327     14.4509    168.0921
  1868.7500    -30.5743     12.1251     11.6468     14.9177    170.4644
  1869.0000    -30.6256     11.9674     11.6355     15.3134    173.0698
  1869.2500    -30.6337     11.7734     11.5967     15.5375    174.4133
  1869.5000    -30.5977     11.5586     11.5305     15.5360    176.1213
  1869.7500    -30.5225     11.3389     11.4386     15.3193    176.8349
  1870.0000    -30.4182     11.1260     11.3245     14.9438    176.2697
  1870.2500    -30.2989     10.9258     11.1925     14.4811    174.2378
  1870.5000    -30.1817     10.7389     11.0473     13.9946    168.5466
  1870.7500    -30.0839     10.5637     10.8942     13.5267    163.4434
  1871.0000    -30.0216     10.3997     10.7388     13.0955    155.0599
  1871.2500    -30.0067     10.2492     10.5869     12.6977    149.7300
  1871.5000    -30.0460     10.1166     10.4440     12.3202    143.2813
  1871.7500    -30.1400     10.0061     10.3156     11.9552    140.5063
  1872.0000    -30.2829      9.9194     10.2065     11.6111    138.8808
  1872.2500    -30.4640      9.8542     10.1200     11.3123    139.1975
  1872.5000    -30.6685      9.8049     10.0581     11.0894    140.6991
  1872.7500    -30.8798      9.7637     10.0207     10.9689    141.7243
  1873.0000    -31.0814      9.7234     10.0061     10.9662    142.8800
  1873.2500    -31.2582      9.6789     10.0111     11.0794    143.6283
  1873.5000    -31.3994      9.6297     10.0322     11.2828    145.0404
  1873.7500    -31.4997      9.5795     10.0662     11.5267    145.9784
  1874.0000    -31.5600      9.5367     10.1110     11.7494    147.1166
  1874.2500    -31.5874      9.5127     10.1663     11.8990    148.0871
  1874.5000    -31.5933      9.5196     10.2335     11.9530    150.7119
  1874.7500    -31.5910      9.5671     10.3154     11.9295    153.0219
  1875.0000    -31.5926      9.6589     10.4150     11.8869    155.9124
  1875.2500    -31.6067      9.7915     10.5353     11.9088    156.9718
  1875.5000    -31.6369      9.9549     10.6781     12.0764    157.6408
  1875.7500    -31.6810     10.1353     10.8438     12.4358    157.7374
  1876.0000    -31.7317     10.3195     11.0314     12.9784    157.0731
  1876.2500    -31.7784     10.4975     11.2389     13.6441    155.9709
  1876.5000    -31.8089     10.6644     11.4636     14.3431    154.0600
  1876.7500    -31.8125     10.8197     11.7031     14.9836    153.1810
  1877.0000    -31.7818     10.9663     11.9554     15.4937    152.4389
  1877.2500    -31.7142     11.1084     12.2192     15.8352    151.8604
  1877.5000    -31.6125     11.2492     12.4932     16.0108    150.7350
  1877.7500    -31.4842     11.3886     12.7761     16.0620    150.4237
  1878.0000    -31.3399     11.5221     13.0650     16.0580    151.6303
  1878.2500    -31.1920     11.6415     13.3553     16.0777    153.4068
  1878.5000    -31.0526     11.7381     13.6395     16.1983    156.2376
  1878.7500    -30.9323     11.8060     13.9073     16.4968    157.4319
  1879.0000    -30.8397     11.8454     14.1460     17.0607    157.3330
  1879.2500    -30.7803     11.8625     14.3421     17.9733    155.9215
  1879.5000    -30.7568     11.8671     14.4833     19.2466    152.4438
  1879.7500    -30.7685     11.8689     14.5610     20.7236    149.9237
  1880.0000    -30.8112     11.8747     14.5733     22.0404    146.9788
  1880.2500    -30.8782     11.8868     14.5256     22.7390    145.9288
  1880.5000    -30.9604     11.9043     14.4303     22.5045    145.6062
  1880.7500    -31.0485     11.9246     14.3044     21.3662    145.7965
  1881.0000    -31.1338     11.9447     14.1663     19.6919    145.9190
  1881.2500    -31.2100     11.9612     14.0324     17.9708    145.8945
  1881.5000    -31.2738     11.9695     13.9152     16.5590    146.7281
  1881.7500    -31.3251     11.9650     13.8218     15.5730    148.5416
  1882.0000    -31.3655     11.9441     13.7540     14.9620    153.0674
  1882.2500    -31.3981     11.9071     13.7093     14.6448    156.3513
  1882.5000    -31.4251     11.8586     13.6818     14.5864    159.6671
  1882.7500    -31.4481     11.8069     13.6639     14.7837    160.2195
  1883.0000    -31.4676     11.7623     13.6478     15.2092    159.2247
  1883.2500    -31.4837     11.7348     13.6278     15.7773    158.3365
  1883.5000    -31.4969     11.7332     13.6016     16.3578    157.9407
