~Version Information
VERS.                      2.0: CWLS Log ASCII Standard - VERSION 2.0
WRAP.                       NO: One line per depth step
~Well Information Block
STRT.FT                -3.0000: 
STOP.FT              1828.0000: 
STEP.FT                 0.2500: 
NULL.                -999.2500: 
COMP.          Pioneer Natural Resources: COMPANY
WELL.           Guajardo 24-16: WELL
FLD.           Purgatorie River: FIELD
LOC.           883' FSL & 2147' FWL--: LOCATION
PROV.                       CO: PROVINCE
CNTY.               Las Animas: COUNTRY
SRVC.          Patterson Wireline: SERVICE COMPANY
DATE.          Wed Aug 10 11:02:25 2005: LOG DATE
UWI.           05 071 08377 00: UNIQUE WELL ID
~Curve Information Block
DEPT.FT            0 000 00 00: Depth
CCL.                          : Casing Collar Locator
TT3.usec                      : CBL 3' Travel Time
AMP3.mV                       : CBL 3' Amplitude
GR.GAPI                       : Gamma Ray
~Parameter Information Block
~A  Depth       CCL         TT3         AMP3         GR     
# ...
  1806.0000      0.0000    675.2850      7.0336     87.4055
  1806.2500      0.0000    685.6412      6.9910     84.7768
  1806.5000      0.0000    701.6287      6.9587     80.7555
  1806.7500      0.0000    719.7723      6.9486     75.8311
  1807.0000      0.0000    735.3757      6.9664     71.3477
  1807.2500      0.0000    744.9120      7.0051     68.9069
  1807.5000      0.0000    747.4113      7.0472     69.4471
  1807.7500      0.0000    744.1884      7.0763     72.6270
  1808.0000      0.0000    737.9054      7.0892     77.0995
  1808.2500      0.0000    731.2070      7.0960     81.4018
  1808.5000      0.0000    725.2465      7.1071     84.5648
  1808.7500      0.0000    719.6199      7.1226     86.1132
  1809.0000      0.0000    713.6432      7.1356     85.9699
  1809.2500      0.0000    706.8093      7.1439     84.5374
  1809.5000      0.0000    698.4608      7.1552     82.5854
  1809.7500      0.0000    688.5775      7.1805     80.8520
  1810.0000      0.0000    678.7222      7.2239     79.8741
  1810.2500      0.0000    671.0401      7.2774     80.1245
  1810.5000      0.0000    666.4535      7.3261     81.8427
  1810.7500      0.0000    664.3666      7.3581     84.4921
  1811.0000      0.0000    663.6862      7.3702     86.6904
  1811.2500      0.0000    663.6105      7.3630     87.1915
  1811.5000      0.0000    663.7374      7.3362     86.1730
  1811.7500      0.0000    663.8900      7.2918     85.3196
  1812.0000      0.0000    663.9578      7.2393     86.3954
  1812.2500      0.0000    663.8561      7.1950     89.8615
  1812.5000      0.0000    663.5968      7.1734     94.8679
  1812.7500      0.0000    663.4127      7.1800    100.0018
  1813.0000      0.0000    663.8773      7.2091    103.6644
  1813.2500      0.0000    665.9883      7.2492    103.9909
  1813.5000      0.0000    670.7962      7.2895     98.8771
  1813.7500      0.0000    678.1792      7.3213     86.6692
  1814.0000      0.0000    685.6987      7.3368     67.7526
  1814.2500      0.0000    689.8018      7.3322     45.6980
  1814.5000      0.0000    689.2749      7.3112     25.8525
  1814.7500      0.0000    686.9642      7.2823     12.0061
  1815.0000      0.0000    687.0368      7.2536      4.5069
  1815.2500      0.0000    690.7535      7.2312      1.3527
  1815.5000      0.0000    695.4114      7.2167      0.3217
  1815.7500      0.0000    697.1382      7.2057      0.0599
  1816.0000      0.0000    694.3568      7.1922      0.0080
  1816.2500      0.0000    688.4951      7.1755      0.0000
  1816.5000      0.0000    681.8680      7.1616   -999.2500
  1816.7500      0.0000    675.8475      7.1562   -999.2500
  1817.0000      0.0000    670.9440      7.1617   -999.2500
  1817.2500      0.0000    667.3567      7.1769   -999.2500
  1817.5000      0.0000    664.8189      7.1983   -999.2500
  1817.7500      0.0000    662.5175      7.2197   -999.2500
  1818.0000      0.0000    659.7175      7.2331   -999.2500
  1818.2500      0.0000    655.9938      7.2259   -999.2500
  1818.5000      0.0000    649.4235      7.1687   -999.2500
  1818.7500      0.0000    632.8729      6.9933   -999.2500
  1819.0000      0.0000    592.5407      6.5836   -999.2500
  1819.2500      0.0000    514.6281      5.8275   -999.2500
  1819.5000      0.0000    398.9990      4.7316   -999.2500
  1819.7500      0.0000    266.7414      3.4907   -999.2500
  1820.0000      0.0000    149.5553      2.3955   -999.2500
  1820.2500      0.0000     68.8848      1.6426   -999.2500
  1820.5000      0.0000     25.6785      1.2395   -999.2500
  1820.7500      0.0000      7.6640      1.0715   -999.2500
  1821.0000      0.0000      1.8148      1.0169   -999.2500
  1821.2500      0.0000      0.3359      1.0031   -999.2500
  1821.5000      0.0000      0.0447      1.0004   -999.2500
  1821.7500      0.0000   -999.2500   -999.2500   -999.2500
  1822.0000      0.0000   -999.2500   -999.2500   -999.2500
  1822.2500      0.0000   -999.2500   -999.2500   -999.2500
  1822.5000      0.0000   -999.2500   -999.2500   -999.2500
  1822.7500      0.0000   -999.2500   -999.2500   -999.2500
  1823.0000      0.0000   -999.2500   -999.2500   -999.2500
  1823.2500      0.0000   -999.2500   -999.2500   -999.2500
  1823.5000      0.0000   -999.2500   -999.2500   -999.2500
  1823.7500      0.0000   -999.2500   -999.2500   -999.2500
  1824.0000      0.0000   -999.2500   -999.2500   -999.2500
  1824.2500      0.0000   -999.2500   -999.2500   -999.2500
  1824.5000      0.0000   -999.2500   -999.2500   -999.2500
  1824.7500      0.0000   -999.2500   -999.2500   -999.2500
  1825.0000      0.0000   -999.2500   -999.2500   -999.2500
  1825.2500      0.0000   -999.2500   -999.2500   -999.2500
  1825.5000      0.0000   -999.2500   -999.2500   -999.2500
  1825.7500      0.0000   -999.2500   -999.2500   -999.2500
  1826.0000      0.0000   -999.2500   -999.2500   -999.2500
  1826.2500      0.0000   -999.2500   -999.2500   -999.2500
  1826.5000      0.0000   -999.2500   -999.2500   -999.2500
  1826.7500      0.0000   -999.2500   -999.2500   -999.2500
  1827.0000      0.0000   -999.2500   -999.2500   -999.2500
  1827.2500      0.0000   -999.2500   -999.2500   -999.2500
  1827.5000   -999.2500   -999.2500   -999.2500   -999.2500
  1827.7500   -999.2500   -999.2500   -999.2500   -999.2500
  1828.0000   -999.2500   -999.2500   -999.2500   -999.2500
