~Version Information
VERS.                      2.0: CWLS Log ASCII Standard - VERSION 2.0
WRAP.                       NO: One line per depth step
~Well Information Block
STRT.FT                -3.7500: 
STOP.FT               930.7500: 
STEP.FT                 0.2500: 
NULL.                -999.2500: 
COMP.          Pioneer Natural Resources: COMPANY
WELL.                Pug 33-19: WELL
FLD.           Purgatorie River: FIELD
LOC.           1381' FSL & 2140' FEL--: LOCATION
PROV.                       CO: PROVINCE
CNTY.               Las Animas: COUNTRY
SRVC.                         : SERVICE COMPANY
DATE.          Mon Dec 20 15:44:45 2004: LOG DATE
UWI.                          : UNIQUE WELL ID
~Curve Information Block
DEPT.FT            0 000 00 00: Depth
GR.GAPI                       : Gamma Ray
CCL.                          : Casing Collar Locator
TT3.usec                      : CBL 3' Travel Time
AMP3.mV                       : CBL 3' Amplitude
~Parameter Information Block
~A  Depth        GR         CCL         TT3         AMP3    
# ...
   465.2500     81.3748      0.0000    711.1951      7.5477
   465.5000     83.5023      0.0000    724.5264      7.5305
   465.7500     86.7093      0.0000    738.7609      7.5223
   466.0000     90.4811      0.0000    746.9938      7.5224
   466.2500     93.8552      0.0000    747.4426      7.5259
   466.5000     96.0278      0.0000    743.1745      7.5246
   466.7500     96.6533      0.0000    738.7671      7.5113
   467.0000     95.6698      0.0000    737.1845      7.4820
   467.2500     93.2275      0.0000    738.6232      7.4397
   467.5000     89.8736      0.0000    741.3664      7.4012
   467.7500     86.4828      0.0000    743.6517      7.3940
   468.0000     83.8372      0.0000    745.1480      7.4383
   468.2500     82.4632      0.0000    747.0244      7.5248
   468.5000     82.7849      0.0000    750.6107      7.6095
   468.7500     84.8847      0.0000    755.8778      7.6355
   469.0000     87.9477      0.0000    761.3335      7.5654
   469.2500     90.5250      0.0000    765.3629      7.4031
   469.5000     91.7804      0.0000    767.3820      7.1926
   469.7500     92.2343      0.0000    767.7787      6.9981
   470.0000     93.0305      0.0000    767.2334      6.8710
   470.2500     94.7196      0.0000    766.2593      6.8244
   470.5000     96.9303      0.0000    765.0476      6.8324
   470.7500     98.9054      0.0000    763.3228      6.8571
   471.0000     99.9988      0.0000    760.3104      6.8787
   471.2500     99.7681      0.0000    755.2148      6.8983
   471.5000     97.9454      0.0000    748.2113      6.9182
   471.7500     94.5612      0.0000    741.1099      6.9264
   472.0000     90.1243      0.0000    736.7191      6.9034
   472.2500     85.5248      0.0000    737.1172      6.8396
   472.5000     81.5819      0.0000    742.2159      6.7444
   472.7500     78.6562      0.0000    749.8162      6.6394
   473.0000     76.7788      0.0000    757.0931      6.5482
   473.2500     76.1109      0.0000    762.2525      6.4883
   473.5000     77.0344      0.0000    765.0693      6.4632
   473.7500     79.6081      0.0000    766.2388      6.4549
   474.0000     83.1267      0.0000    766.4815      6.4238
   474.2500     86.5469      0.0000    766.1733      6.3285
   474.5000     89.3389      0.0000    765.6676      6.1617
   474.7500     91.7656      0.0000    766.3710      5.9652
   475.0000     94.4029      0.0000    771.8734      5.7935
   475.2500     97.6197      0.0000    786.9785      5.6683
   475.5000    101.4796      0.0000    813.5923      5.5953
   475.7500    105.8452      0.0000    847.1511      5.6082
   476.0000    110.4086      0.0000    878.6730      5.7508
   476.2500    114.9030      2.0000    901.0959      6.0103
   476.5000    119.5864      2.0000    913.0257      6.2999
   476.7500    125.4227      0.0000    916.7968      6.5160
   477.0000    133.4002      0.0000    914.3865      6.6197
   477.2500    143.3514      0.0000    905.4094      6.6761
   477.5000    153.3436      0.0000    888.2031      6.8008
   477.7500    160.4558      0.0000    862.5834      7.0386
   478.0000    162.6055      0.0000    831.8497      7.3081
   478.2500    159.8087      0.0000    802.0347      7.5032
   478.5000    153.7345      0.0000    778.7473      7.6163
   478.7500    146.4038      0.0000    764.2114      7.7146
   479.0000    139.5427      0.0000    756.7065      7.8360
   479.2500    134.8518      0.0000    752.6326      7.9586
   479.5000    134.1005      0.0000    749.5203      8.0482
   479.7500    138.1240      0.0000    747.4243      8.0928
   480.0000    145.7549      0.0000    747.4921      8.0963
   480.2500    154.5237      0.0000    749.5094      8.0629
   480.5000    162.4646      0.0000    751.3166      7.9961
   480.7500    168.6576      0.0000    750.6159      7.9063
   481.0000    172.2251      0.0000    747.0779      7.8143
   481.2500    171.8292      0.0000    742.6793      7.7414
   481.5000    166.5031      0.0000    739.9658      7.6956
   481.7500    156.6468      0.0000    739.7470      7.6672
   482.0000    144.0135      0.0000    740.5137      7.6389
   482.2500    130.6536      0.0000    740.3269      7.5983
   482.5000    117.9907      0.0000    739.1027      7.5423
   482.7500    107.1834      0.0000    738.5324      7.4766
   483.0000     99.7978      0.0000    739.8151      7.4120
   483.2500     97.0108      0.0000    742.1140      7.3563
   483.5000     98.2976      0.0000    743.4826      7.3092
   483.7500    102.0169      0.0000    742.8232      7.2683
   484.0000    107.3129      0.0000    740.7491      7.2390
   484.2500    114.6744      0.0000    739.0805      7.2363
   484.5000    124.6727      0.0000    739.7435      7.2756
   484.7500    136.6078      0.0000    743.5408      7.3600
   485.0000    148.2373      0.0000    749.5126      7.4788
   485.2500    156.6965      0.0000    755.6557      7.6154
   485.5000    160.2175      0.0000    760.4106      7.7556
   485.7500    159.3197      0.0000    763.4263      7.8911
   486.0000    155.9880      0.0000    765.1428      8.0188
   486.2500    151.7216      0.0000    766.0592      8.1332
   486.5000    146.9428      0.0000    766.4579      8.2167
   486.7500    142.0194      0.0000    766.5345      8.2450
   487.0000    137.8150      0.0000    766.5336      8.2077
   487.2500    134.9753      0.0000    766.6668      8.1192
   487.5000    133.3627      0.0000    766.9419      8.0044
   487.7500    132.7250      0.0000    767.1490      7.8783
   488.0000    133.6141      0.0000    767.0667      7.7431
   488.2500    136.9326      0.0000    766.6688      7.5971
   488.5000    142.2691      0.0000    766.1288      7.4417
   488.7500    147.2522      0.0000    765.6641      7.2810
   489.0000    149.3392      0.0000    765.3893      7.1197
   489.2500    148.3273      0.0000    765.2820      6.9615
   489.5000    146.7175      0.0000    765.2435      6.8096
   489.7500    147.5490      0.0000    765.1849      6.6709
   490.0000    152.0654      0.0000    765.0774      6.5538
   490.2500    159.0658      0.0000    764.9582      6.4622
   490.5000    165.7411      0.0000    764.9082      6.3928
   490.7500    169.3891      0.0000    765.0076      6.3419
   491.0000    169.4975      0.0000    765.2669      6.3126
   491.2500    168.4120      0.0000    765.5801      6.3110
   491.5000    168.9895      0.0000    765.7704      6.3366
   491.7500    171.4951      0.0000    765.7212      6.3784
   492.0000    173.7919      0.0000    765.4770      6.4200
   492.2500    174.3800      0.0000    765.2008      6.4516
   492.5000    173.9240      0.0000    765.0331      6.4736
   492.7500    173.9769      0.0000    765.0023      6.4899
   493.0000    175.6014      0.0000    765.0533      6.4986
   493.2500    179.2478      0.0000    765.1171      6.4928
   493.5000    184.5944      0.0000    765.1397      6.4682
   493.7500    190.0708      0.0000    765.0860      6.4280
   494.0000    193.4546      0.0000    764.9496      6.3794
   494.2500    193.6570      0.0000    764.7551      6.3262
   494.5000    192.0238      0.0000    764.5384      6.2661
   494.7500    191.6906      0.0000    764.3314      6.1945
   495.0000    195.2577      0.0000    764.1654      6.1086
   495.2500    202.8327      0.0000    764.0712      6.0099
   495.5000    212.3831      0.0000    764.0650      5.9088
   495.7500    221.5764      0.0000    764.1370      5.8255
   496.0000    228.7294      0.0000    764.2583      5.7788
   496.2500    232.4665      0.0000    764.3934      5.7682
   496.5000    231.6122      0.0000    764.5073      5.7707
   496.7500    226.1142      0.0000    764.5715      5.7599
   497.0000    218.1014      0.0000    764.5740      5.7251
   497.2500    211.2740      0.0000    764.5248      5.6731
   497.5000    208.1140      0.0000    764.4612      5.6157
   497.7500    207.4189      0.0000    764.4769      5.5580
   498.0000    205.2342      0.0000    764.8890      5.4948
   498.2500    198.4848      0.0000    766.5696      5.4143
   498.5000    187.4412      0.0000    771.1781      5.3093
