~Version Information
VERS.                      2.0: CWLS Log ASCII Standard - VERSION 2.0
WRAP.                       NO: One line per depth step
~Well Information Block
STRT.FT                -8.7500: 
STOP.FT              1126.7500: 
STEP.FT                 0.2500: 
NULL.                -999.2500: 
COMP.          Evergreen Operating Corp.: COMPANY
WELL.             Bernice 21-3: WELL
FLD.           Purgatorie River: FIELD
LOC.           201' FNL & 2575' FWL--: LOCATION
PROV.                       CO: PROVINCE
CNTY.               Las Animas: COUNTRY
SRVC.          Patterson Wireline: SERVICE COMPANY
DATE.          Mon Feb 02 12:04:59 2004: LOG DATE
UWI.              05 071 07912: UNIQUE WELL ID
~Curve Information Block
DEPT.FT            0 000 00 00: Depth
CCL.                          : Casing Collar Locator
TT3.usec                      : CBL 3' Travel Time
AMP3.mV                       : CBL 3' Amplitude
GR.GAPI                       : Gamma Ray
~Parameter Information Block
~A  Depth       CCL         TT3         AMP3         GR     
# ...
   493.7500      0.0000    810.8370      6.6125    126.7150
   494.0000      0.0000    817.0345      6.7137    129.8205
   494.2500      0.0000    827.0447      6.7410    132.1672
   494.5000      0.0000    838.8664      6.7069    132.3758
   494.7500      0.0000    849.3367      6.6569    130.0575
   495.0000      0.0000    856.9006      6.6377    126.0879
   495.2500      0.0000    861.4258      6.6685    122.2012
   495.5000      0.0000    863.0371      6.7243    120.0408
   495.7500      0.0000    862.1470      6.7541    120.2991
   496.0000      0.0000    859.9095      6.7289    122.6746
   496.2500      0.0000    857.7267      6.6719    126.6308
   496.5000      0.0000    856.2874      6.6412    131.8463
   496.7500      0.0000    855.2748      6.6800    137.8296
   497.0000      0.0000    853.8973      6.7764    143.8932
   497.2500      0.0000    851.6730      6.8661    149.8594
   497.5000      0.0000    848.8580      6.8868    156.1169
   497.7500      0.0000    846.0037      6.8420    162.6525
   498.0000      0.0000    843.0742      6.8096    168.3485
   498.2500      0.0000    839.5713      6.8743    171.3249
   498.5000      0.0000    835.8557      7.0443    169.9184
   498.7500      0.0000    833.3519      7.2433    163.7171
   499.0000      0.0000    832.7509      7.3914    154.0018
   499.2500      0.0000    833.1187      7.4894    143.0917
   499.5000      0.0000    833.7742      7.6202    133.0288
   499.7500      0.0000    835.8898      7.8636    124.7386
   500.0000      0.0000    841.0609      8.2027    118.2025
   500.2500      0.0000    849.1976      8.5186    113.2044
   500.5000      0.0000    858.7026      8.6858    110.0086
   500.7500      0.0000    867.7343      8.6707    109.3336
   501.0000      0.0000    874.5859      8.5407    111.3361
   501.2500      0.0000    877.9740      8.3946    114.5372
   501.5000      0.0000    878.1702      8.2975    116.3345
   501.7500      0.0000    877.4564      8.2606    114.9572
   502.0000      0.0000    878.5682      8.2483    110.6236
   502.2500      0.0000    882.5635      8.1987    104.7431
   502.5000      0.0000    888.5614      8.0660     98.5920
   502.7500      0.0000    895.0241      7.8662     92.9329
   503.0000      0.0000    900.2452      7.6825     88.3829
   503.2500      0.0000    901.7545      7.6092     85.8121
   503.5000      0.0000    896.9739      7.6804     86.5054
   503.7500      0.0000    885.6856      7.8448     91.7985
   504.0000      0.0000    871.2894      8.0075    101.9712
   504.2500      0.0000    858.7663      8.0931    115.2443
   504.5000      0.0000    851.4002      8.0819    128.2043
   504.7500      0.0000    849.2755      8.0127    137.5172
   505.0000      0.0000    850.2016      7.9590    141.5495
   505.2500      0.0000    851.6887      7.9823    140.9757
   505.5000      0.0000    852.2411      8.0835    138.3052
   505.7500      0.0000    851.2298      8.2024    136.3992
   506.0000      0.0000    848.3086      8.2696    136.7669
   506.2500      0.0000    843.7020      8.2575    139.0737
   506.5000      0.0000    839.0728      8.1845    142.0321
   506.7500      0.0000    837.0522      8.0817    144.3574
   507.0000      0.0000    839.0088      7.9688    145.1928
   507.2500      0.0000    843.6349      7.8602    144.2583
   507.5000      0.0000    848.2411      7.7763    141.7468
   507.7500      0.0000    850.9478      7.7306    137.9092
   508.0000      0.0000    851.1614      7.7083    132.8336
   508.2500      0.0000    848.8230      7.6778    126.7012
   508.5000      0.0000    844.4497      7.6227    120.0647
   508.7500      0.0000    839.9492      7.5507    113.7843
   509.0000      0.0000    838.1545      7.4811    108.7327
   509.2500      0.0000    840.5458      7.4351    105.4051
   509.5000      0.0000    845.7827      7.4191    103.5855
   509.7500      0.0000    851.0189      7.4041    102.2715
   510.0000      0.0000    854.2118      7.3424    100.0046
   510.2500      0.0000    854.7330      7.2226     95.6855
   510.5000      0.0000    852.2828      7.1035     89.5417
   510.7500      0.0000    845.9113      7.0786     83.2441
   511.0000      0.0000    834.4615      7.2039     78.7081
   511.2500      0.0000    818.2468      7.4565     76.7828
   511.5000      0.0000    800.2162      7.7551     77.3871
   511.7500      0.0000    784.9495      8.0151     80.7546
   512.0000      0.0000    776.3344      8.1904     87.9402
   512.2500      0.0000    776.3060      8.2777     99.6809
   512.5000      0.0000    784.9301      8.2970    114.8843
   512.7500      0.0000    800.2997      8.2751    130.4982
   513.0000      0.0000    818.3579      8.2434    142.9169
   513.2500      0.0000    834.2597      8.2289    149.5677
   513.5000      0.0000    844.8984      8.2316    149.6937
   513.7500      0.0000    849.9944      8.2198    144.4978
   514.0000      0.0000    850.9118      8.1656    136.7656
   514.2500      0.0000    849.0255      8.0867    129.6317
   514.5000      0.0000    845.4047      8.0365    124.9778
   514.7500      0.0000    841.7435      8.0370    122.7056
   515.0000      0.0000    841.0782      8.0297    121.3545
   515.2500      0.0000    846.5133      7.9220    119.3705
   515.5000      0.0000    858.0717      7.6899    115.9724
   515.7500      0.0000    871.0649      7.4104    111.1114
   516.0000      0.0000    879.1767      7.1891    105.0316
   516.2500      0.0000    880.1357      7.0795     98.2637
   516.5000      0.0000    877.9241      7.0684     91.8321
   516.7500      4.0000    878.2159      7.1051     86.8038
   517.0000      4.0000    881.2221      7.1476     83.4706
   517.2500      0.0000    880.2684      7.2125     81.3911
   517.5000      0.0000    868.2702      7.3790     80.2873
   517.7500      0.0000    844.8767      7.7035     80.4018
   518.0000      0.0000    817.1382      8.1062     81.7308
   518.2500      0.0000    794.2292      8.3818     83.3386
   518.5000      0.0000    781.6844      8.3655     83.9933
   518.7500      0.0000    779.0950      8.0729     83.3712
   519.0000      0.0000    781.5217      7.6538     82.1820
   519.2500      0.0000    783.0102      7.2569     81.2901
   519.5000      0.0000    780.1415      6.9653     81.1943
   519.7500      0.0000    773.2659      6.8072     82.2247
   520.0000      0.0000    764.7771      6.7760     84.8384
   520.2500      0.0000    756.7524      6.8492     89.7565
   520.5000      0.0000    750.2545      7.0092     97.6641
   520.7500      0.0000    745.8853      7.2345    108.2615
   521.0000      0.0000    744.0186      7.4668    119.6523
   521.2500      0.0000    744.2742      7.6195    129.2346
   521.5000      0.0000    745.2243      7.6398    135.3758
   521.7500      0.0000    745.3987      7.5577    138.1124
   522.0000      0.0000    744.7576      7.4601    138.3987
   522.2500      0.0000    744.6455      7.4188    137.1353
   522.5000      0.0000    746.1649      7.4437    135.0443
   522.7500      0.0000    748.9606      7.4962    133.0851
   523.0000      0.0000    751.4624      7.5333    132.3660
   523.2500      0.0000    752.2292      7.5329    133.2285
   523.5000      0.0000    751.6370      7.4900    134.6254
   523.7500      0.0000    752.6157      7.4066    134.9817
   524.0000      0.0000    759.1797      7.2904    133.8412
   524.2500      0.0000    773.4224      7.1571    132.5003
   524.5000      0.0000    793.4050      7.0249    133.0079
   524.7500      0.0000    813.7064      6.9038    136.4382
   525.0000      0.0000    828.4991      6.7935    141.7344
   525.2500      0.0000    835.2350      6.6957    146.1007
   525.5000      0.0000    836.1965      6.6282    146.9289
   525.7500      0.0000    836.3563      6.6213    143.5048
   526.0000      0.0000    839.2390      6.6930    136.8318
   526.2500      0.0000    844.6795      6.8232    128.5005
   526.5000      0.0000    850.1998      6.9533    120.5413
   526.7500      0.0000    853.5975      7.0192    115.6664
   527.0000      0.0000    853.8168      7.0017    115.9886
