~Version Information
VERS.                      2.0: CWLS Log ASCII Standard - VERSION 2.0
WRAP.                       NO: One line per depth step
~Well Information Block
STRT.FT               845.0000: 
STOP.FT              2308.2000: 
STEP.FT                 0.1000: 
NULL.                -999.2500: 
COMP.          Pioneer Natural Resources: COMPANY
WELL.             Vector 33-23: WELL
FLD.           Purgatoire River: FIELD
LOC.           1560' FEL & 1988' FSL----: LOCATION
PROV.                 Colorado: PROVINCE
CNTY.               Las Animas: COUNTRY
SRVC.                Patterson: SERVICE COMPANY
DATE.          Mon Mar 28 08:17:25 2005: LOG DATE
UWI.           05 071 08336 00: UNIQUE WELL ID
~Curve Information Block
DEPT.FT            0 000 00 00: Depth
DCAL.in                       : CDL Caliper
RHOB.g/cc                     : CDL Bulk Density
RHOC.g/cc                     : CDL Density Correction
DPOR.pu                       : CDL Density Porosity
NPOR.pu                       : Neutron Porosity
GR.GAPI                       : Gamma Ray
~Parameter Information Block
~A  Depth       DCAL        RHOB        RHOC        DPOR        NPOR         GR     
# ...
  1795.4000      8.3425      2.4553      0.1002     11.7986     31.3015    141.1461
  1795.5000      8.3568      2.4420      0.1143     12.6043     31.3834    140.2026
  1795.6000      8.3568      2.4217      0.0518     13.8343     30.8473    135.9286
  1795.7000      8.3568      2.4014      0.0358     15.0639     30.1585    134.4138
  1795.8000      8.3678      2.3925      0.0082     15.6066     30.1097    135.7876
  1795.9000      8.3678      2.4035      0.0505     14.9397     30.4605    133.6423
  1796.0000      8.3761      2.4213      0.0971     13.8623     30.6523    126.0986
  1796.1000      8.3761      2.4177      0.1071     14.0773     30.8878    121.3282
  1796.2000      8.3761      2.3863      0.0943     15.9834     31.3482    122.0946
  1796.3000      8.3843      2.3500      0.0862     18.1821     31.7158    121.5997
  1796.4000      8.3843      2.3344      0.0734     19.1289     31.6858    117.9063
  1796.5000      8.3979      2.3437      0.1255     18.5612     31.3482    117.4188
  1796.6000      8.3979      2.3619      0.1426     17.4604     31.1348    121.1706
  1796.7000      8.3979      2.3768      0.1224     16.5562     31.4229    125.0375
  1796.8000      8.3947      2.3929      0.1276     15.5831     31.9206    128.3244
  1796.9000      8.3947      2.4112      0.1487     14.4700     31.9866    128.0883
  1797.0000      8.3509      2.4149      0.1705     14.2512     31.7330    121.4575
  1797.1000      8.3509      2.3841      0.1947     16.1157     31.9506    114.8426
  1797.2000      8.3509      2.3154      0.1751     20.2768     32.6494    115.7197
  1797.3000      8.3063      2.2140      0.1395     26.4253     33.0993    121.0871
  1797.4000      8.3063      2.0877      0.0600     34.0758     33.2458    123.0119
  1797.5000      8.2747      1.9588      0.0034     41.8920     33.4476    119.5936
  1797.6000      8.2747      1.8569     -0.0516     48.0645     33.5562    112.7738
  1797.7000      8.2747      1.7981     -0.0803     51.6314     33.3591    103.7816
  1797.8000      8.2480      1.7807     -0.1015     52.6874     32.9414     94.2772
  1797.9000      8.2480      1.7996     -0.0693     51.5397     32.2015     86.5192
  1798.0000      8.2411      1.8519      0.0238     48.3698     31.0728     80.7854
  1798.1000      8.2411      1.9429      0.0838     42.8549     29.7244     77.8390
  1798.2000      8.2411      2.0795      0.2671     34.5732     28.6057     80.5166
  1798.3000      8.2491      2.2469      0.3066     24.4324     28.2343     89.3397
  1798.4000      8.2491      2.4017      0.3964     15.0498     28.0668     99.2076
  1798.5000      8.2524      2.5014      0.3385      9.0056     27.4137    105.2227
  1798.6000      8.2524      2.5487      0.2339      6.1375     26.6993    106.2266
  1798.7000      8.2524      2.5720      0.2122      4.7271     26.3608    102.8584
  1798.8000      8.2490      2.5797      0.1824      4.2601     26.2596     98.3958
  1798.9000      8.2490      2.5659      0.1257      5.0996     26.4033     97.1755
  1799.0000      8.2514      2.5367      0.0542      6.8662     26.8690     99.0495
  1799.1000      8.2514      2.5114      0.0587      8.4018     27.2308    100.5245
  1799.2000      8.2514      2.4951      0.0466      9.3897     27.2186    102.4909
  1799.3000      8.2624      2.4848     -0.0093     10.0098     27.2410    106.4612
  1799.4000      8.2624      2.4827      0.0294     10.1390     27.4653    107.4295
  1799.5000      8.2723      2.4837     -0.0091     10.0766     27.9118    102.5880
  1799.6000      8.2723      2.4776      0.0399     10.4493     28.3759    100.1746
  1799.7000      8.2723      2.4649     -0.0372     11.2178     28.3314    106.8792
  1799.8000      8.2754      2.4618      0.0114     11.4074     27.8557    114.4014
  1799.9000      8.2754      2.4708      0.0536     10.8577     27.5947    115.4645
  1800.0000      8.2755      2.4791      0.0434     10.3601     27.7668    113.8489
  1800.1000      8.2755      2.4829      0.0320     10.1285     28.0830    113.6693
  1800.2000      8.2755      2.4844      0.0435     10.0349     28.1133    119.3881
  1800.3000      8.2756      2.4881      0.0217      9.8128     27.7976    128.5502
  1800.4000      8.2756      2.5002      0.0567      9.0781     27.5891    133.1572
  1800.5000      8.2751      2.5112      0.0819      8.4108     27.7800    132.7945
  1800.6000      8.2751      2.5067      0.0308      8.6820     28.3242    128.9894
  1800.7000      8.2751      2.4943      0.0209      9.4387     29.0608    123.6624
  1800.8000      8.2743      2.4877      0.0106      9.8390     29.4875    120.4444
  1800.9000      8.2743      2.4819      0.0309     10.1883     29.2904    119.2040
  1801.0000      8.2768      2.4693     -0.0363     10.9486     29.0418    122.1039
  1801.1000      8.2768      2.4628     -0.0301     11.3478     29.0180    128.9075
  1801.2000      8.2768      2.4698      0.0161     10.9201     28.6931    131.6745
  1801.3000      8.2844      2.4751      0.0446     10.6018     28.1119    129.0020
  1801.4000      8.2844      2.4657      0.0101     11.1706     28.1444    125.3256
  1801.5000      8.2954      2.4413      0.0103     12.6499     29.0216    122.4606
  1801.6000      8.2954      2.4041      0.0217     14.9058     30.0157    121.1750
  1801.7000      8.2954      2.3730     -0.0645     16.7864     30.6525    120.0838
  1801.8000      8.3132      2.3728      0.0042     16.8024     31.0184    115.9138
  1801.9000      8.3132      2.3895      0.0632     15.7864     31.2975    110.3413
  1802.0000      8.3376      2.3908      0.0532     15.7079     31.5488    110.1146
  1802.1000      8.3376      2.3764      0.0251     16.5844     31.7101    114.8136
  1802.2000      8.3376      2.3740      0.0609     16.7255     31.8123    116.0386
  1802.3000      8.3579      2.3905      0.1596     15.7277     31.9254    109.1771
  1802.4000      8.3579      2.3976      0.2120     15.2970     32.2887     99.5885
  1802.5000      8.3813      2.3796      0.1456     16.3853     32.9478     94.8334
  1802.6000      8.3813      2.3510      0.1411     18.1183     33.2453     92.3972
  1802.7000      8.3813      2.3253      0.1276     19.6800     32.7430     91.6728
  1802.8000      8.4275      2.3032      0.1028     21.0177     31.8383    100.3585
  1802.9000      8.4275      2.2896      0.0718     21.8411     31.1963    114.4141
  1803.0000      8.4984      2.3003      0.0621     21.1931     31.0786    118.8300
  1803.1000      8.4984      2.3357      0.1520     19.0472     31.1379    111.1963
  1803.2000      8.4984      2.3744      0.1599     16.7015     30.8185    103.8475
  1803.3000      8.5727      2.4103      0.1484     14.5272     30.1898    104.5465
  1803.4000      8.5727      2.4569      0.1346     11.7007     29.9998    109.3694
  1803.5000      8.6556      2.5140      0.2372      8.2446     30.4001    111.6586
  1803.6000      8.6556      2.5582      0.3096      5.5650     30.4533    109.0541
  1803.7000      8.6556      2.5824      0.2676      4.0943     29.7549    105.8934
  1803.8000      8.7543      2.6134      0.2366      2.2199     28.9741    104.9167
  1803.9000      8.7543      2.6648      0.3167     -0.8939     28.4215    104.5118
  1804.0000      8.7917      2.7118      0.3071     -3.7439     27.8782    103.2945
  1804.1000      8.7917      2.7314      0.2512     -4.9311     27.4301     99.9693
  1804.2000      8.7917      2.7314      0.2046     -4.9363     27.3939     94.4185
  1804.3000      8.7004      2.7340      0.1827     -5.0890     27.5779     91.9437
  1804.4000      8.7004      2.7360      0.1745     -5.2131     27.3905     99.6356
  1804.5000      8.5225      2.7130      0.1142     -3.8170     26.6958    114.5222
  1804.6000      8.5225      2.6695      0.0368     -1.1824     25.9911    123.3820
  1804.7000      8.5225      2.6383      0.0483      0.7108     25.7270    119.1769
  1804.8000      8.3515      2.6314      0.0361      1.1285     25.9583    109.1723
  1804.9000      8.3515      2.6321      0.0310      1.0856     26.6321    102.6357
