~Version Information
VERS.                      2.0: CWLS Log ASCII Standard - VERSION 2.0
WRAP.                       NO: One line per depth step
~Well Information Block
STRT.FT               768.0000: 
STOP.FT              2637.5000: 
STEP.FT                 0.2500: 
NULL.                -999.2500: 
COMP.          Pioneer Natural Resources: COMPANY
WELL.               Zink 44-10: WELL
FLD.           Purgatoire River: FIELD
LOC.           548' FSL & 473' FEL: LOCATION
PROV.                 Colorado: PROVINCE
CNTY.               Las Animas: COUNTRY
SRVC.                Patterson: SERVICE COMPANY
DATE.          Mon May 30 05:59:42 2005: LOG DATE
UWI.           05 071 08380 00: UNIQUE WELL ID
~Curve Information Block
DEPT.FT            0 000 00 00: Depth
SN.Ohm-m                      : IEL Short Normal
SP.mV                         : IEL Spontaneous Potential
DIR.Ohm-m                     : IEL Induction Resistivity
GR.GAPI                       : Gamma Ray
~Parameter Information Block
~A  Depth        SN          SP         DIR          GR     
# ...
  2242.0000     15.7789    -17.2177     13.8603     89.5644
  2242.2500     16.1183    -17.0807     14.0899     85.4334
  2242.5000     16.6401    -16.9342     14.4184     78.3975
  2242.7500     17.4459    -16.7851     14.8498     73.7603
  2243.0000     18.5952    -16.6279     15.3859     67.3545
  2243.2500     20.0644    -16.4533     16.0240     63.3445
  2243.5000     21.6875    -16.2562     16.7531     57.6030
  2243.7500     23.2027    -16.0419     17.5483     54.2079
  2244.0000     24.4334    -15.8240     18.3673     50.4900
  2244.2500     25.3750    -15.6176     19.1510     49.1542
  2244.5000     26.0824    -15.4344     19.8366     48.5050
  2244.7500     26.5556    -15.2851     20.3783     48.4193
  2245.0000     26.7711    -15.1818     20.7627     47.8787
  2245.2500     26.7558    -15.1394     21.0037     47.0888
  2245.5000     26.5828    -15.1722     21.1247     45.9091
  2245.7500     26.3218    -15.2893     21.1461     45.7282
  2246.0000     26.0116    -15.4883     21.0867     46.7493
  2246.2500     25.6638    -15.7532     20.9712     47.8834
  2246.5000     25.2823    -16.0604     20.8312     49.0871
  2246.7500     24.8906    -16.3917     20.6989     49.1223
  2247.0000     24.5269    -16.7442     20.5996     48.0922
  2247.2500     24.2098    -17.1233     20.5469     47.0140
  2247.5000     23.9374    -17.5254     20.5452     45.4024
  2247.7500     23.7166    -17.9310     20.5938     44.5903
  2248.0000     23.5670    -18.3199     20.6913     43.9683
  2248.2500     23.5079    -18.6954     20.8377     43.8399
  2248.5000     23.5555    -19.0978     21.0369     43.5577
  2248.7500     23.7163    -19.5957     21.2957     43.0681
  2249.0000     23.9752    -20.2615     21.6206     41.8832
  2249.2500     24.3079    -21.1403     22.0085     40.9263
  2249.5000     24.6999    -22.2277     22.4396     39.4073
  2249.7500     25.1311    -23.4698     22.8758     38.4000
  2250.0000     25.5620    -24.7811     23.2698     36.9837
  2250.2500     25.9640    -26.0726     23.5812     36.1114
  2250.5000     26.3490    -27.2773     23.7899     34.8625
  2250.7500     26.7478    -28.3571     23.9037     34.0605
  2251.0000     27.1764    -29.2919     23.9613     32.9711
  2251.2500     27.6281    -30.0715     24.0258     32.3921
  2251.5000     28.0650    -30.6996     24.1658     31.8840
  2251.7500     28.4149    -31.1998     24.4258     31.8812
  2252.0000     28.5943    -31.6111     24.8006     32.5866
  2252.2500     28.5597    -31.9830     25.2322     33.6420
  2252.5000     28.3650    -32.3823     25.6313     36.0847
  2252.7500     28.1466    -32.8982     25.9129     38.0776
  2253.0000     28.0118    -33.6301     26.0276     41.0631
  2253.2500     27.9670    -34.6570     25.9721     42.7662
  2253.5000     27.9453    -36.0031     25.7755     44.5860
  2253.7500     27.8696    -37.6213     25.4685     45.2043
  2254.0000     27.7002    -39.4075     25.0522     45.1472
  2254.2500     27.4517    -41.2370     24.4921     44.4891
  2254.5000     27.1704    -42.9933     23.7447     42.8682
  2254.7500     26.8855    -44.5737     22.7981     41.6400
  2255.0000     26.5720    -45.8856     21.6941     40.0158
  2255.2500     26.1398    -46.8530     20.5137     39.2733
  2255.5000     25.4373    -47.4276     19.3419     39.1383
  2255.7500     24.3077    -47.5946     18.2417     40.2169
  2256.0000     22.7180    -47.3681     17.2462     44.7099
  2256.2500     20.8298    -46.7859     16.3644     50.0057
  2256.5000     18.9130    -45.9082     15.5905     60.9279
  2256.7500     17.1991    -44.8208     14.9117     69.3320
  2257.0000     15.8112    -43.6278     14.3132     81.9364
  2257.2500     14.7716    -42.4291     13.7803     89.5897
  2257.5000     14.0073    -41.2902     13.2990     99.1547
  2257.7500     13.3902    -40.2300     12.8553    104.0167
  2258.0000     12.8416    -39.2324     12.4376    108.9400
  2258.2500     12.3655    -38.2723     12.0409    110.6682
  2258.5000     11.9913    -37.3362     11.6703    111.0381
  2258.7500     11.7312    -36.4268     11.3392    110.1402
  2259.0000     11.5712    -35.5523     11.0633    108.5370
  2259.2500     11.4733    -34.7174     10.8546    108.3383
  2259.5000     11.3982    -33.9236     10.7191    110.1001
  2259.7500     11.3367    -33.1771     10.6567    112.0636
  2260.0000     11.3116    -32.4919     10.6626    114.0972
  2260.2500     11.3491    -31.8843     10.7290    113.8843
  2260.5000     11.4454    -31.3651     10.8468    111.2556
  2260.7500     11.5645    -30.9385     11.0058    108.7969
  2261.0000     11.6776    -30.6050     11.1942    105.4177
  2261.2500     11.7915    -30.3649     11.3969    103.6006
  2261.5000     11.9276    -30.2165     11.5974    101.1867
  2261.7500     12.1017    -30.1549     11.7815     99.5930
  2262.0000     12.3350    -30.1676     11.9416     97.3769
  2262.2500     12.6485    -30.2288     12.0777     96.2715
  2262.5000     13.0074    -30.2971     12.1939     95.3528
  2262.7500     13.3007    -30.3276     12.2949     95.1153
  2263.0000     13.4461    -30.2930     12.3846     95.1487
  2263.2500     13.4791    -30.1936     12.4681     95.5328
  2263.5000     13.4854    -30.0452     12.5526     97.0511
  2263.7500     13.5153    -29.8592     12.6469     98.8644
  2264.0000     13.5695    -29.6374     12.7582    102.5913
  2264.2500     13.6149    -29.3835     12.8893    105.2372
  2264.5000     13.6201    -29.1140     13.0371    108.2695
  2264.7500     13.5960    -28.8530     13.1944    109.2064
  2265.0000     13.5901    -28.6162     13.3548    108.9702
  2265.2500     13.6438    -28.4035     13.5183    108.0470
  2265.5000     13.7707    -28.2047     13.6937    106.1504
  2265.7500     13.9678    -28.0126     13.8930    104.6757
  2266.0000     14.2328    -27.8306     14.1242    101.8542
  2266.2500     14.5690    -27.6726     14.3870     99.4245
  2266.5000     14.9784    -27.5542     14.6767     95.4464
  2266.7500     15.4613    -27.4831     14.9907     93.1314
  2267.0000     16.0157    -27.4531     15.3298     90.6000
  2267.2500     16.6320    -27.4491     15.6934     89.2729
  2267.5000     17.2876    -27.4555     16.0741     87.1711
  2267.7500     17.9548    -27.4608     16.4587     85.6380
  2268.0000     18.6239    -27.4569     16.8370     83.5148
  2268.2500     19.3130    -27.4394     17.2071     82.3844
  2268.5000     20.0241    -27.4084     17.5728     81.1418
  2268.7500     20.6640    -27.3686     17.9390     80.6581
  2269.0000     21.0501    -27.3285     18.3095     80.6141
  2269.2500     21.0737    -27.3011     18.6870     81.0182
  2269.5000     20.8569    -27.3072     19.0688     82.0049
  2269.7500     20.6808    -27.3784     19.4406     82.7617
  2270.0000     20.7481    -27.5593     19.7783     83.7793
  2270.2500     21.0455    -27.9030     20.0571     84.1299
  2270.5000     21.4082    -28.4620     20.2615     83.6783
  2270.7500     21.6757    -29.2744     20.3879     82.5626
  2271.0000     21.8127    -30.3477     20.4402     79.7353
  2271.2500     21.9140    -31.6454     20.4268     77.3382
  2271.5000     22.0841    -33.0864     20.3605     73.8225
  2271.7500     22.3141    -34.5647     20.2595     72.1967
  2272.0000     22.4887    -35.9811     20.1433     71.7419
  2272.2500     22.5242    -37.2684     20.0233     72.8330
  2272.5000     22.4332    -38.3962     19.8950     75.8373
  2272.7500     22.2239    -39.3602     19.7381     78.0953
  2273.0000     21.8752    -40.1706     19.5262     80.8097
  2273.2500     21.4302    -40.8461     19.2401     81.7160
  2273.5000     21.0011    -41.4077     18.8774     81.3646
  2273.7500     20.6752    -41.8703     18.4558     80.0518
  2274.0000     20.4445    -42.2368     18.0088     76.8312
  2274.2500     20.2248    -42.5026     17.5768     74.0287
  2274.5000     19.9463    -42.6712     17.1966     69.0213
  2274.7500     19.6092    -42.7676     16.8935     65.4117
  2275.0000     19.2601    -42.8310     16.6772     60.7620
  2275.2500     18.9592    -42.8836     16.5420     59.0523
