~Version Information
VERS.                      2.0: CWLS Log ASCII Standard - VERSION 2.0
WRAP.                       NO: One line per depth step
~Well Information Block
STRT.FT               520.0000: 
STOP.FT              2183.5000: 
STEP.FT                 0.1000: 
NULL.                -999.2500: 
COMP.          Pioneer Natural Resources: COMPANY
WELL.             Enzo 43-8 Tr: WELL
FLD.           Purgatoire River: FIELD
LOC.           2303' FSL & 604' FEL: LOCATION
PROV.                 Colorado: PROVINCE
CNTY.               Las Animas: COUNTRY
SRVC.                Patterson: SERVICE COMPANY
DATE.          Sun Oct 31 15:10:54 2004: LOG DATE
UWI.           05 071 08213 00: UNIQUE WELL ID
~Curve Information Block
DEPT.FT            0 000 00 00: Depth
DCAL.in                       : CDL Caliper
RHOB.g/cc                     : CDL Bulk Density
RHOC.g/cc                     : CDL Density Correction
DPOR.pu                       : CDL Density Porosity
NPOR.pu                       : Neutron Porosity
GR.GAPI                       : Gamma Ray
~Parameter Information Block
~A  Depth       DCAL        RHOB        RHOC        DPOR        NPOR         GR     
# ...
   952.0000      8.1504      2.5826      0.0977      4.0855     21.0158    115.9488
   952.1000      8.1504      2.6042      0.0601      2.7743     21.1714    110.7322
   952.2000      8.1504      2.6183      0.0448      1.9201     21.8495    104.6982
   952.3000      8.1533      2.6361      0.0145      0.8400     22.7562     98.8722
   952.4000      8.1533      2.6682      0.0361     -1.1023     23.5198     92.6512
   952.5000      8.1547      2.7011      0.0723     -3.0982     24.0676     85.7281
   952.6000      8.1547      2.7231      0.0300     -4.4313     24.6696     80.4175
   952.7000      8.1547      2.7406      0.0409     -5.4909     25.4082     78.2338
   952.8000      8.1555      2.7483      0.0757     -5.9605     26.0683     76.0093
   952.9000      8.1555      2.7332      0.0099     -5.0397     26.5875     73.9395
   953.0000      8.1548      2.7018      0.0195     -3.1393     27.1108     74.9482
   953.1000      8.1548      2.6786     -0.0451     -1.7364     27.5001     76.9542
   953.2000      8.1548      2.6888     -0.0424     -2.3486     27.6379     76.5428
   953.3000      8.1529      2.7270      0.0036     -4.6673     27.7420     75.5994
   953.4000      8.1529      2.7542      0.0073     -6.3147     27.9845     76.3359
   953.5000      8.1526      2.7428      0.0042     -5.6248     28.1747     78.5359
   953.6000      8.1526      2.6993     -0.0198     -2.9870     28.0863     83.3402
   953.7000      8.1526      2.6486     -0.0640      0.0879     27.8836     88.8161
   953.8000      8.1544      2.6143     -0.0516      2.1654     27.7494     90.0435
   953.9000      8.1544      2.6065     -0.0553      2.6393     27.7751     87.1578
   954.0000      8.1563      2.6135     -0.0042      2.2092     27.9251     84.2554
   954.1000      8.1563      2.6151     -0.0157      2.1155     27.8535     86.6742
   954.2000      8.1563      2.6089      0.0181      2.4902     27.7374     95.5672
   954.3000      8.1551      2.6078     -0.0136      2.5605     27.9485    104.3750
   954.4000      8.1551      2.6128      0.0264      2.2568     28.2355    109.3807
   954.5000      8.1502      2.6134     -0.0189      2.2202     28.3714    113.8670
   954.6000      8.1502      2.6174     -0.0210      1.9773     28.3249    118.6754
   954.7000      8.1502      2.6346      0.0409      0.9333     28.0181    120.8794
   954.8000      8.1474      2.6503      0.0633     -0.0178     27.5927    120.7194
   954.9000      8.1474      2.6478      0.0520      0.1362     27.4115    120.6025
   955.0000      8.1503      2.6372     -0.0218      0.7760     27.4214    120.2766
   955.1000      8.1503      2.6385      0.0295      0.6940     27.3152    118.6527
   955.2000      8.1503      2.6509      0.0515     -0.0554     27.1265    117.0906
   955.3000      8.1515      2.6596      0.0621     -0.5799     27.1029    114.9807
   955.4000      8.1515      2.6629      0.0101     -0.7804     27.3799    109.2443
   955.5000      8.1508      2.6732      0.0558     -1.4033     27.6758    102.2163
   955.6000      8.1508      2.6872      0.0667     -2.2566     27.6273    100.3758
   955.7000      8.1508      2.6895      0.0518     -2.3928     27.3922    105.3876
   955.8000      8.1537      2.6780      0.0575     -1.6988     27.2517    111.1831
   955.9000      8.1537      2.6683     -0.0270     -1.1071     27.1839    111.5749
   956.0000      8.1614      2.6651      0.0285     -0.9162     27.2554    109.9462
   956.1000      8.1614      2.6544     -0.0095     -0.2689     27.5873    110.8842
   956.2000      8.1614      2.6457     -0.0785      0.2620     28.0177    112.8531
   956.3000      8.1721      2.6538     -0.0014     -0.2289     28.3064    114.3661
   956.4000      8.1721      2.6561      0.0177     -0.3721     28.3694    116.0051
   956.5000      8.1824      2.6369     -0.0560      0.7910     28.2808    120.0371
   956.6000      8.1824      2.6120     -0.0196      2.3028     28.1319    125.0602
   956.7000      8.1824      2.5929     -0.0220      3.4618     27.8574    126.5459
   956.8000      8.1865      2.5825      0.0200      4.0933     27.3397    124.9740
   956.9000      8.1865      2.5806     -0.0148      4.2040     26.7886    123.4747
   957.0000      8.1850      2.5812      0.0055      4.1701     26.6002    122.3703
   957.1000      8.1850      2.5789     -0.0044      4.3097     26.7740    121.2536
   957.2000      8.1850      2.5765      0.0036      4.4572     26.8807    123.3067
   957.3000      8.1843      2.5850     -0.0318      3.9394     26.4842    128.0439
   957.4000      8.1843      2.6092      0.0117      2.4711     25.8146    129.3503
   957.5000      8.1866      2.6289      0.0747      1.2771     25.4728    127.6646
   957.6000      8.1866      2.6253      0.0363      1.4961     25.6975    129.2037
   957.7000      8.1866      2.6075      0.0093      2.5755     26.2545    132.6299
   957.8000      8.1893      2.5890      0.0091      3.6972     26.7260    130.6371
   957.9000      8.1893      2.5779     -0.0252      4.3676     26.8756    123.8435
   958.0000      8.1909      2.5843      0.0094      3.9797     26.8652    119.3110
   958.1000      8.1909      2.6040      0.0285      2.7867     27.0289    121.3615
   958.2000      8.1909      2.6181      0.0627      1.9315     27.2118    128.4308
   958.3000      8.1913      2.6090      0.0466      2.4862     27.0102    133.7785
   958.4000      8.1913      2.5788      0.0055      4.3172     26.4864    134.4780
   958.5000      8.1908      2.5505     -0.0053      6.0327     26.0633    133.7034
   958.6000      8.1908      2.5343     -0.0055      7.0100     25.8813    131.4667
   958.7000      8.1908      2.5251     -0.0208      7.5680     25.9437    127.8127
   958.8000      8.1902      2.5267     -0.0342      7.4758     26.2066    125.4471
   958.9000      8.1902      2.5398      0.0012      6.6774     26.5245    123.2209
   959.0000      8.1901      2.5536     -0.0244      5.8419     26.8983    119.2590
   959.1000      8.1901      2.5664     -0.0238      5.0641     27.3417    115.6219
   959.2000      8.1901      2.5824      0.0071      4.0942     27.6391    113.1175
   959.3000      8.1911      2.6007      0.0026      2.9853     27.6583    111.8088
   959.4000      8.1911      2.6201      0.0450      1.8116     27.6765    114.3933
   959.5000      8.1932      2.6362      0.0412      0.8359     27.8578    119.8403
   959.6000      8.1932      2.6412      0.0302      0.5346     28.0004    123.0492
   959.7000      8.1932      2.6396      0.0098      0.6333     28.1463    124.7546
   959.8000      8.1953      2.6421      0.0422      0.4791     28.5155    126.5210
   959.9000      8.1953      2.6385      0.0662      0.6942     28.7532    124.3794
   960.0000      8.1975      2.6120      0.0417      2.3021     28.4043    118.6776
   960.1000      8.1975      2.5790     -0.0352      4.3041     27.9036    117.4006
   960.2000      8.1975      2.5811     -0.0042      4.1754     27.8778    120.7944
   960.3000      8.1996      2.6198      0.0667      1.8284     28.1441    121.8086
   960.4000      8.1996      2.6466      0.0702      0.2053     28.2061    120.7348
   960.5000      8.2008      2.6371      0.0280      0.7819     28.0791    119.1486
   960.6000      8.2008      2.6164      0.0050      2.0368     27.8567    116.4576
   960.7000      8.2008      2.6057      0.0176      2.6866     27.3373    114.1247
   960.8000      8.2019      2.6060      0.0363      2.6679     26.7414    112.5766
   960.9000      8.2019      2.6241      0.0550      1.5723     26.6011    111.3708
   961.0000      8.2052      2.6589      0.0719     -0.5364     26.9099    112.6269
   961.1000      8.2052      2.6822      0.1017     -1.9514     27.3394    116.6808
   961.2000      8.2052      2.6784      0.0844     -1.7231     27.6505    118.2113
   961.3000      8.2097      2.6652      0.0581     -0.9202     27.7448    115.1273
   961.4000      8.2097      2.6532      0.0946     -0.1938     27.7097    111.6041
   961.5000      8.2140      2.6410      0.0147      0.5457     27.7139    111.4807
