~Version Information
 VERS.                                  2.0 : CWLS LAS VERSION
 WRAP.                                   NO : WRAPING MODE
 SWARE .                 MController 2.5.0J : SOFTWARE VERSION
~Well Information
 WELL.                          Quack 22-24 : WELL
 COMP.    PIONEER NATURAL RESOURCES USA INC : COMPANY
 FLD.                      PURGATOIRE RIVER : FIELD
 LOC.                 SE/NW Sec 24 32S  67W : LOCATION
 DATE.                                  N/A : DATE(S) LOGGED
 SRVC.       Blanco Geological Services LLC : SERVICE COMPANY
 STAT.                                   CO : STATE
 CNTY.                           LAS ANIMAS : COUNTY
 CTRY.                                  USA : COUNTRY
 API.                       05-071-08402-00 : API NUMBER
 STRT.FT                             201.00 : START DEPTH
 STOP.FT                            2610.00 : STOP DEPTH
 STEP.FT                               1.00 : DEPTH INCREMENT
 NULL.                                -9999 : NULL VALUE
~Curve information
 DEPTH.FT                                   :
 ROP.MIN/FT                                 :
 GAS.UNITS                                  :
~ASCII Log data
# ...
      2401.0        13.03         60.0 
      2402.0         0.40          6.5 
      2403.0         0.60         10.1 
      2404.0         0.97         25.4 
      2405.0         1.00         25.4 
      2406.0         1.05         19.3 
      2407.0         1.00         17.6 
      2408.0         1.00         13.3 
      2409.0         1.12         -0.1 
      2410.0         0.97         -0.2 
      2411.0         0.83          8.5 
      2412.0         0.78          5.9 
      2413.0         0.73         23.2 
      2414.0         0.57         33.6 
      2415.0         0.57         41.1 
      2416.0         0.53         45.4 
      2417.0         0.53         48.4 
      2418.0         0.48         48.6 
      2419.0         0.37         47.2 
      2420.0         0.27         44.7 
      2421.0         0.33         43.8 
      2422.0         0.30         42.1 
      2423.0         0.33         41.1 
      2424.0         0.53         39.1 
      2425.0         0.50         37.3 
      2426.0         0.37         35.7 
      2427.0         0.58         76.5 
      2428.0         0.53         98.8 
      2429.0         0.47        100.7 
      2430.0         0.33         97.8 
      2431.0         9.18         90.7 
      2432.0         0.83         36.9 
      2433.0         0.50         22.8 
      2434.0         0.60         18.6 
      2435.0         0.40         16.1 
      2436.0         0.35         15.0 
      2437.0         0.20         12.9 
      2438.0         0.27         12.0 
      2439.0         0.57         12.7 
      2440.0         0.63         14.4 
      2441.0         0.73          8.3 
      2442.0         0.78         39.2 
      2443.0         0.70         62.3 
      2444.0         0.47         61.6 
      2445.0         0.30         50.9 
      2446.0         0.37         41.7 
      2447.0         0.53         33.4 
      2448.0         0.57         29.6 
      2449.0         0.58         30.0 
      2450.0         0.57         24.6 
      2451.0         0.33         11.9 
      2452.0         0.27         12.7 
      2453.0         0.40         21.9 
      2454.0         0.47         25.2 
      2455.0         0.40         23.6 
      2456.0         0.37         18.6 
      2457.0         0.58         14.9 
      2458.0         0.43         11.7 
      2459.0         0.37         16.6 
      2460.0         0.47         23.3 
      2461.0        12.20         98.6 
      2462.0         0.67         98.6 
      2463.0         0.87         89.0 
      2464.0         0.97         55.2 
      2465.0         0.85         56.0 
      2466.0         0.60         61.3 
      2467.0         0.67         60.8 
      2468.0         0.70         31.5 
      2469.0         0.70         14.0 
      2470.0         0.68          6.0 
      2471.0         0.47          3.5 
      2472.0         0.57          3.4 
      2473.0         0.77          4.6 
      2474.0         0.37          6.0 
      2475.0         0.33          9.0 
      2476.0         0.52         15.6 
      2477.0         0.60         20.1 
      2478.0         0.40         22.9 
      2479.0         0.53         23.7 
      2480.0         0.53         31.8 
      2481.0         0.60         54.5 
      2482.0         0.40         64.7 
      2483.0         0.48         69.9 
      2484.0         0.47         70.9 
      2485.0         0.53         71.8 
      2486.0         0.57         79.1 
      2487.0         0.53         89.9 
      2488.0         0.53        101.1 
      2489.0         0.58        100.8 
      2490.0         0.60         83.9 
      2491.0        63.28       2241.3 
      2492.0         1.53       2340.4 
      2493.0         1.18       2356.9 
      2494.0         1.77       2360.2 
      2495.0         1.75       2576.2 
      2496.0         1.50       2817.4 
      2497.0         1.10       3065.4 
      2498.0         0.98       3218.7 
      2499.0         0.97       3215.7 
      2500.0         1.07       2935.7 
      2501.0         1.32       2052.6 
      2502.0         0.97         17.0 
      2503.0         1.03         46.2 
      2504.0         1.28         59.8 
      2505.0         1.20         62.1 
      2506.0         1.30         66.4 
      2507.0         0.98         66.5 
      2508.0         0.90         60.9 
      2509.0         0.67         56.1 
      2510.0         0.67         53.1 
      2511.0         0.72         53.7 
      2512.0         0.67         43.8 
      2513.0         0.67         46.5 
      2514.0         0.67         48.8 
      2515.0         0.67         51.4 
      2516.0         0.57         53.6 
      2517.0         0.58         61.6 
      2518.0         0.57         61.2 
      2519.0         0.57         55.4 
      2520.0         0.67         55.4 
      2521.0        23.18       1613.6 
      2522.0         0.93         90.3 
      2523.0         0.72         89.7 
      2524.0         0.67         76.4 
      2525.0         0.67         69.4 
      2526.0         0.63         69.2 
      2527.0         0.73         75.1 
      2528.0         0.72         80.7 
      2529.0         0.73         83.7 
      2530.0         0.73         83.8 
      2531.0         0.67         86.0 
      2532.0         0.72         87.9 
      2533.0         0.80         88.4 
      2534.0         0.73         90.8 
      2535.0         1.78         91.6 
      2536.0         0.97        101.8 
      2537.0         0.80        107.2 
      2538.0         0.77        107.1 
      2539.0         0.78        104.5 
      2540.0         0.73        105.0 
      2541.0         0.77        104.9 
      2542.0         0.67        105.5 
      2543.0         0.73        106.3 
      2544.0         0.82        107.3 
      2545.0         0.80        108.5 
      2546.0         0.80        108.4 
      2547.0         0.80        108.4 
      2548.0         0.82        111.1 
      2549.0         0.87        111.4 
      2550.0         0.87        109.4 
      2551.0        25.17       1303.7 
      2552.0         1.00        133.4 
      2553.0         0.87        133.4 
      2554.0         0.73        148.9 
      2555.0         0.68        150.3 
      2556.0         0.67        120.4 
      2557.0         0.67         98.6 
      2558.0         0.67        103.5 
      2559.0         0.63        110.7 
      2560.0         0.68        120.8 
      2561.0         0.67        125.0 
      2562.0         0.77        127.4 
      2563.0         1.33        127.5 
      2564.0         0.75        118.6 
      2565.0         0.77        128.8 
      2566.0         0.70        125.8 
      2567.0         0.73        126.2 
      2568.0         0.78        127.6 
      2569.0         0.87        128.1 
      2570.0         1.03        127.6 
      2571.0         0.83        128.0 
      2572.0         0.98        156.1 
      2573.0         1.00        126.2 
      2574.0         1.13        128.4 
      2575.0         1.08        134.2 
      2576.0         0.97        140.3 
      2577.0         0.67        179.7 
      2578.0         0.60        183.8 
      2579.0         0.60        131.0 
      2580.0         1.08        107.2 
      2581.0        22.88       1279.4 
      2582.0         7.03       2293.5 
      2583.0         1.27         96.2 
      2584.0         0.67         87.8 
      2585.0         0.98         78.8 
      2586.0         0.73         72.5 
      2587.0         2.82        114.7 
      2588.0         0.73        146.1 
      2589.0         0.57        139.7 
      2590.0         0.73        133.4 
      2591.0         1.18        121.6 
      2592.0         1.13        128.0 
      2593.0         0.90        127.9 
      2594.0         1.45        116.7 
      2595.0         1.23        106.7 
      2596.0         1.23        124.8 
      2597.0         1.22        129.8 
      2598.0         1.57        129.6 
      2599.0         1.25        124.5 
      2600.0         0.67        125.7 
