~Version Information
VERS.                      2.0: CWLS Log ASCII Standard - VERSION 2.0
WRAP.                       NO: One line per depth step
~Well Information Block
STRT.FT                15.0000: 
STOP.FT              2565.5000: 
STEP.FT                 0.2500: 
NULL.                -999.2500: 
COMP.          Pioneer Natural Resources: COMPANY
WELL.           Costello 44-24: WELL
FLD.           Purgatoire River: FIELD
LOC.           327' FSL & 378' FEL: LOCATION
PROV.                 Colorado: PROVINCE
CNTY.               Las Animas: COUNTRY
SRVC.                Patterson: SERVICE COMPANY
DATE.          Mon Jul 25 10:15:19 2005: LOG DATE
UWI.           05 071 08413 00: UNIQUE WELL ID
~Curve Information Block
DEPT.FT            0 000 00 00: Depth
GR.GAPI                       : Gamma Ray
CCL.                          : Casing Collar Locator
TT3.usec                      : CBL 3' Travel Time
AMP3.mV                       : CBL 3' Amplitude
~Parameter Information Block
~A  Depth        GR         CCL         TT3         AMP3    
# ...
   517.5000    152.4794      0.0000    709.8043      6.8431
   517.7500    148.3377      0.0000    707.1667      6.8822
   518.0000    144.0992      0.0000    700.6678      6.9186
   518.2500    140.9904      0.0000    694.4907      6.9492
   518.5000    139.6757      0.0000    691.9529      6.9786
   518.7500    139.6809      0.0000    694.2057      7.0169
   519.0000    140.1668      0.0000    700.2017      7.0747
   519.2500    140.9129      0.0000    706.8323      7.1548
   519.5000    142.2691      0.0000    710.3987      7.2474
   519.7500    144.5073      0.0000    709.7615      7.3357
   520.0000    147.4032      0.0000    707.6924      7.4085
   520.2500    150.1074      0.0000    707.7207      7.4669
   520.5000    151.3144      0.0000    709.8195      7.5188
   520.7500    150.1581      0.0000    710.4089      7.5700
   521.0000    147.2661      0.0000    706.6758      7.6203
   521.2500    144.5317      0.0000    699.6456      7.6639
   521.5000    143.6498      0.0000    692.6411      7.6927
   521.7500    145.0852      0.0000    687.9584      7.7026
   522.0000    148.0558      0.0000    685.7645      7.6997
   522.2500    150.8135      0.0000    685.2948      7.7005
   522.5000    151.3754      0.0000    686.1849      7.7188
   522.7500    149.0335      0.0000    688.6696      7.7507
   523.0000    145.1310      0.0000    692.7583      7.7701
   523.2500    141.8569      0.0000    697.1272      7.7430
   523.5000    140.5524      0.0000    699.0743      7.6492
   523.7500    141.3468      0.0000    696.4483      7.5020
   524.0000    143.6943      0.0000    690.2194      7.3560
   524.2500    146.5249      0.0000    685.0441      7.2740
   524.5000    148.2308      0.0000    686.8068      7.2573
   524.7500    147.5172      0.0000    698.8409      7.2242
   525.0000    144.6141      0.0000    719.7355      7.1005
   525.2500    141.2198      0.0000    744.6802      6.9092
   525.5000    138.9535      0.0000    768.9188      6.7343
   525.7500    138.1180      0.0000    789.4982      6.6247
   526.0000    138.1131      3.0000    804.4066      6.5738
   526.2500    138.4337      1.7615    812.2667      6.5684
   526.5000    138.8030      0.0000    813.4744      6.6308
   526.7500    139.0030      0.0000    809.7568      6.8145
   527.0000    139.2750      0.0000    801.7400      7.1520
   527.2500    140.4306      0.0000    788.5310      7.5898
   527.5000    142.8784      0.0000    770.8194      7.9961
   527.7500    145.6964      0.0000    753.0339      8.2664
   528.0000    147.2862      0.0000    740.9757      8.3999
   528.2500    146.9743      0.0000    737.5033      8.4524
   528.5000    145.5597      0.0000    740.7004      8.4566
   528.7500    144.3037      0.0000    745.4283      8.4141
   529.0000    143.8361      0.0000    746.2658      8.3274
   529.2500    144.0925      0.0000    739.9761      8.2143
   529.5000    144.9361      0.0000    726.9590      8.0976
   529.7500    146.5515      0.0000    711.3766      7.9924
   530.0000    149.1536      0.0000    699.1757      7.9044
   530.2500    152.5321      0.0000    694.7177      7.8348
   530.5000    156.3110      0.0000    698.4120      7.7862
   530.7500    160.5013      0.0000    707.0221      7.7616
   531.0000    165.0589      0.0000    716.2139      7.7617
   531.2500    168.7778      0.0000    723.5964      7.7837
   531.5000    169.5805      0.0000    729.6684      7.8188
   531.7500    166.5097      0.0000    735.4894      7.8504
   532.0000    160.8207      0.0000    740.1146      7.8576
   532.2500    154.6950      0.0000    741.5582      7.8272
   532.5000    149.6105      0.0000    739.9145      7.7637
   532.7500    146.3241      0.0000    738.1246      7.6866
   533.0000    145.4171      0.0000    739.1832      7.6186
   533.2500    146.8721      0.0000    743.1870      7.5725
   533.5000    149.4185      0.0000    747.4794      7.5445
   533.7500    150.9521      0.0000    749.4377      7.5190
   534.0000    149.8077      0.0000    748.8041      7.4806
   534.2500    145.8345      0.0000    747.0956      7.4197
   534.5000    140.4912      0.0000    744.9799      7.3301
   534.7500    135.8185      0.0000    741.3289      7.2137
   535.0000    133.2427      0.0000    735.3795      7.0883
   535.2500    133.2137      0.0000    728.5145      6.9824
   535.5000    135.3796      0.0000    722.7734      6.9155
   535.7500    138.6823      0.0000    718.5163      6.8871
   536.0000    141.8215      0.0000    714.6202      6.8853
   536.2500    144.1945      0.0000    710.2808      6.9015
   536.5000    146.0374      0.0000    705.8050      6.9333
   536.7500    147.3523      0.0000    702.1014      6.9747
   537.0000    147.3176      0.0000    699.8438      7.0119
   537.2500    145.2559      0.0000    698.8641      7.0351
   537.5000    141.7343      0.0000    698.3542      7.0527
   537.7500    138.2667      0.0000    697.9568      7.0854
   538.0000    136.2349      0.0000    698.3397      7.1462
   538.2500    136.1841      0.0000    700.2773      7.2277
   538.5000    137.5463      0.0000    703.4196      7.3083
   538.7500    138.7558      0.0000    706.2056      7.3685
   539.0000    138.1986      0.0000    706.7837      7.4057
   539.2500    135.5519      0.0000    704.1564      7.4368
   539.5000    132.0669      0.0000    698.9662      7.4833
   539.7500    129.4794      0.0000    693.1742      7.5490
   540.0000    128.9349      0.0000    688.6779      7.6162
   540.2500    130.7886      0.0000    686.1802      7.6659
   540.5000    134.7338      0.0000    685.2567      7.6954
   540.7500    139.8237      0.0000    685.2134      7.7156
   541.0000    144.7945      0.0000    685.9570      7.7386
   541.2500    148.6165      0.0000    688.5165      7.7665
   541.5000    150.5686      0.0000    694.8125      7.7893
   541.7500    150.0277      0.0000    706.1774      7.7931
   542.0000    146.9736      0.0000    721.2626      7.7700
   542.2500    142.8142      0.0000    735.6604      7.7222
   542.5000    139.9392      0.0000    744.6061      7.6580
   542.7500    139.8898      0.0000    746.3224      7.5884
   543.0000    142.0757      0.0000    742.4103      7.5225
   543.2500    144.3362      0.0000    735.4617      7.4620
   543.5000    144.4994      0.0000    727.0884      7.4034
   543.7500    141.5571      0.0000    717.9573      7.3442
   544.0000    135.9105      0.0000    708.8272      7.2856
   544.2500    128.9482      0.0000    701.0582      7.2313
   544.5000    122.5475      0.0000    695.9045      7.1905
   544.7500    118.5654      0.0000    693.3060      7.1783
   545.0000    118.0314      0.0000    691.8085      7.2066
   545.2500    120.4483      0.0000    690.0146      7.2722
   545.5000    123.9553      0.0000    687.8884      7.3573
   545.7500    126.3019      0.0000    686.5710      7.4419
   546.0000    126.0519      0.0000    687.4594      7.5135
   546.2500    123.4163      0.0000    691.4873      7.5681
   546.5000    119.9858      0.0000    698.2634      7.6070
   546.7500    117.4116      0.0000    705.2870      7.6349
   547.0000    116.4034      0.0000    709.0674      7.6551
   547.2500    116.9404      0.0000    708.2059      7.6646
   547.5000    118.8994      0.0000    704.7722      7.6597
   547.7500    122.0245      0.0000    701.6876      7.6485
   548.0000    125.4912      0.0000    699.5710      7.6510
   548.2500    128.0460      0.0000    697.2220      7.6776
   548.5000    128.7787      0.0000    694.5316      7.7119
   548.7500    127.6376      0.0000    693.7524      7.7232
   549.0000    125.3036      0.0000    697.9017      7.6980
   549.2500    122.8540      0.0000    708.3380      7.6514
   549.5000    121.4150      0.0000    723.5439      7.6061
   549.7500    121.6581      0.0000    739.5807      7.5680
   550.0000    123.4095      0.0000    751.6862      7.5299
   550.2500    125.9051      0.0000    756.1166      7.4907
   550.5000    128.5332      0.0000    751.5230      7.4590
   550.7500    131.2620      0.0000    739.3666      7.4381
