~Version Information
VERS.                      2.0: CWLS Log ASCII Standard - VERSION 2.0
WRAP.                       NO: One line per depth step
~Well Information Block
STRT.FT               550.0000: 
STOP.FT              2042.5000: 
STEP.FT                 0.1000: 
NULL.                -999.2500: 
COMP.          Petrogulf Corporation: COMPANY
WELL.          Robinson 15-12V: WELL
FLD.           Purgatorie River: FIELD
LOC.           1788' FNL & 466' FWL: LOCATION
PROV.                 Colorado: PROVINCE
CNTY.               Las Animas: COUNTRY
SRVC.                Patterson: SERVICE COMPANY
DATE.          Mon Sep 12 10:04:59 2005: LOG DATE
UWI.                          : UNIQUE WELL ID
~Curve Information Block
DEPT.FT            0 000 00 00: Depth
DCAL.in                       : CDL Caliper
RHOB.g/cc                     : CDL Bulk Density
RHOC.g/cc                     : CDL Density Correction
DPOR.pu                       : CDL Density Porosity
GR.GAPI                       : Gamma Ray
NPOR.pu                       : Neutron Porosity
~Parameter Information Block
~A  Depth       DCAL        RHOB        RHOC        DPOR         GR         NPOR    
# ...
  1615.6000      7.9358      2.4750      0.0167     10.6060    130.1587     26.5732
  1615.7000      7.9358      2.4760     -0.0218     10.5427    134.6089     26.9724
  1615.8000      7.9485      2.4941      0.0191      9.4490    131.0029     26.7034
  1615.9000      7.9485      2.5184      0.0526      7.9766    123.9889     25.9599
  1616.0000      7.9430      2.5384      0.0642      6.7652    120.4726     25.2018
  1616.1000      7.9430      2.5520      0.0891      5.9385    119.4215     24.6952
  1616.2000      7.9430      2.5625      0.0756      5.3036    118.7534     24.3631
  1616.3000      7.9282      2.5735      0.1133      4.6372    119.6920     24.4035
  1616.4000      7.9282      2.5735      0.1281      4.6392    122.4696     24.8446
  1616.5000      7.9352      2.5449      0.1080      6.3682    123.5906     25.1418
  1616.6000      7.9352      2.4944      0.0442      9.4313    122.1001     25.1115
  1616.7000      7.9352      2.4513      0.0438     12.0441    122.4035     25.2682
  1616.8000      7.9271      2.4378      0.0176     12.8617    126.0458     25.8651
  1616.9000      7.9271      2.4553      0.0075     11.8016    127.8378     26.4128
  1617.0000      7.9238      2.4905      0.0683      9.6669    124.0330     26.2814
  1617.1000      7.9238      2.5267      0.0983      7.4755    118.2018     25.5234
  1617.2000      7.9238      2.5568      0.1090      5.6511    116.6722     24.9290
  1617.3000      7.9170      2.5791      0.1633      4.2978    121.9018     25.0735
  1617.4000      7.9170      2.5874      0.1645      3.7939    128.2893     25.8469
  1617.5000      7.9179      2.5833      0.1276      4.0429    130.1257     26.8341
  1617.6000      7.9179      2.5764      0.1191      4.4597    129.1838     27.6910
  1617.7000      7.9179      2.5674      0.1297      5.0048    127.9644     28.0529
  1617.8000      7.9040      2.5552      0.0892      5.7462    127.3751     27.6959
  1617.9000      7.9040      2.5457      0.0708      6.3200    127.8092     27.1489
  1618.0000      7.9200      2.5448      0.0882      6.3755    128.5486     27.1078
  1618.1000      7.9200      2.5501      0.0872      6.0528    129.5414     27.3086
  1618.2000      7.9200      2.5518      0.0881      5.9495    130.4656     27.3007
  1618.3000      7.9415      2.5430      0.0765      6.4857    129.7085     27.1916
  1618.4000      7.9415      2.5249      0.0753      7.5819    125.3696     27.1019
  1618.5000      7.9418      2.5067      0.0079      8.6818    119.1086     27.1173
  1618.6000      7.9418      2.5009      0.0077      9.0390    115.9779     27.1153
  1618.7000      7.9418      2.5027      0.0672      8.9247    116.7633     26.6491
  1618.8000      7.9396      2.4939      0.0540      9.4621    120.0481     26.0150
  1618.9000      7.9396      2.4775      0.0159     10.4558    123.3915     25.8487
  1619.0000      7.9400      2.4792     -0.0008     10.3507    121.5928     25.7517
  1619.1000      7.9400      2.5046      0.0715      8.8147    115.4497     25.5833
  1619.2000      7.9400      2.5331      0.1009      7.0851    110.9400     25.9516
  1619.3000      7.9366      2.5556      0.0769      5.7197    109.4820     26.5757
  1619.4000      7.9366      2.5792      0.1336      4.2901    110.1713     26.6817
  1619.5000      7.9221      2.6059      0.1492      2.6757    111.7491     26.4869
  1619.6000      7.9221      2.6200      0.1999      1.8167    112.1648     26.4491
  1619.7000      7.9221      2.6062      0.1388      2.6560    112.9566     26.5594
  1619.8000      7.9003      2.5824      0.1175      4.0986    116.6654     26.7137
  1619.9000      7.9003      2.5736      0.1606      4.6311    120.1417     26.5922
  1620.0000      7.9010      2.5743      0.1600      4.5901    118.8701     26.0680
  1620.1000      7.9010      2.5593      0.1703      5.4940    113.6837     25.8011
  1620.2000      7.9010      2.5138      0.0925      8.2529    107.6865     25.8526
  1620.3000      7.9082      2.4524      0.0627     11.9743    104.0521     25.4732
  1620.4000      7.9082      2.3935      0.0303     15.5443    103.0099     24.9581
  1620.5000      7.9371      2.3232      0.0104     19.8046    102.7036     25.2713
  1620.6000      7.9371      2.2061      0.0069     26.9051    102.3813     26.4867
  1620.7000      7.9371      2.0353     -0.0301     37.2516    101.4782     28.1548
  1620.8000      7.9663      1.8618     -0.1010     47.7686     99.0308     29.7959
  1620.9000      7.9663      1.7417     -0.0887     55.0468     93.9554     30.7688
  1621.0000      8.0801      1.6726     -0.0410     59.2362     88.1732     30.9371
  1621.1000      8.0801      1.6178     -0.0812     62.5549     84.1605     31.0260
  1621.2000      8.0801      1.5671     -0.0201     65.6298     82.2685     31.5298
  1621.3000      8.1556      1.5411      0.0029     67.2040     82.3350     32.2635
  1621.4000      8.1556      1.5565      0.0503     66.2710     83.2116     32.9728
  1621.5000      8.1853      1.6046      0.0749     63.3551     85.1066     33.5342
  1621.6000      8.1853      1.6676      0.1153     59.5364     89.6086     33.8068
  1621.7000      8.1853      1.7316      0.1435     55.6603     95.4342     33.6642
  1621.8000      8.1616      1.7810      0.1371     52.6675     99.6749     33.3769
  1621.9000      8.1616      1.7952      0.1664     51.8080    100.0845     33.3274
  1622.0000      8.1142      1.7659      0.0393     53.5848     95.1550     33.5551
  1622.1000      8.1142      1.7072      0.0377     57.1394     86.9325     33.8978
  1622.2000      8.1142      1.6295      0.0347     61.8507     80.3271     34.1512
  1622.3000      8.0703      1.5361      0.0240     67.5100     77.6021     34.1867
  1622.4000      8.0703      1.4473     -0.0451     72.8922     77.4512     33.9957
  1622.5000      8.0659      1.3959     -0.0432     76.0068     78.0786     33.9226
  1622.6000      8.0659      1.3997     -0.0316     75.7765     77.5843     34.3809
  1622.7000      8.0659      1.4590      0.0227     72.1833     74.7402     35.0315
  1622.8000      8.0910      1.5696      0.0492     65.4794     71.8344     35.1566
  1622.9000      8.0910      1.7150      0.1267     56.6661     73.3389     34.6773
  1623.0000      8.1235      1.8612      0.1889     47.8037     80.0512     34.2284
  1623.1000      8.1235      1.9882      0.1666     40.1087     87.6174     34.3443
  1623.2000      8.1235      2.1117      0.1921     32.6243     92.3913     34.8181
  1623.3000      8.0802      2.2469      0.2586     24.4273     94.4801     34.7720
  1623.4000      8.0802      2.3739      0.2344     16.7353     96.3141     33.7224
  1623.5000      8.0151      2.4511      0.2486     12.0541    101.2805     32.2229
  1623.6000      8.0151      2.4655      0.0783     11.1842    108.6181     30.9402
  1623.7000      8.0151      2.4557      0.0340     11.7782    113.5526     30.1533
  1623.8000      7.9914      2.4504      0.0560     12.0962    115.8245     30.0754
  1623.9000      7.9914      2.4428     -0.0070     12.5557    118.4705     30.3337
  1624.0000      8.0178      2.4338      0.0105     13.1041    121.1899     30.0593
  1624.1000      8.0178      2.4322      0.0472     13.1989    123.9628     29.2103
  1624.2000      8.0178      2.4395      0.0233     12.7601    126.6739     28.2425
  1624.3000      7.9744      2.4550      0.0191     11.8158    126.6534     27.4050
  1624.4000      7.9744      2.4769      0.0578     10.4917    125.0766     27.0899
  1624.5000      7.9407      2.4962      0.0891      9.3230    123.5353     27.2341
  1624.6000      7.9407      2.5034      0.0582      8.8878    121.0892     27.2516
  1624.7000      7.9407      2.4985      0.0687      9.1830    120.3819     27.0609
  1624.8000      7.9307      2.4902      0.0286      9.6840    121.4386     27.3124
  1624.9000      7.9307      2.4931      0.0321      9.5080    119.1608     28.0969
  1625.0000      7.9296      2.5111      0.0713      8.4182    114.0950     28.6149
  1625.1000      7.9296      2.5265      0.1088      7.4869    111.0079     28.5920
