~Version Information
VERS.                      2.0: CWLS Log ASCII Standard - VERSION 2.0
WRAP.                       NO: One line per depth step
~Well Information Block
STRT.FT                -8.2500: 
STOP.FT              2356.2500: 
STEP.FT                 0.2500: 
NULL.                -999.2500: 
COMP.          Petrogulf Corporation: COMPANY
WELL.             State 16-12V: WELL
FLD.           Purgatorie River: FIELD
LOC.           1992' FNL & 1237' FWL: LOCATION
PROV.                 Colorado: PROVINCE
CNTY.               Las Animas: COUNTRY
SRVC.                Patterson: SERVICE COMPANY
DATE.          Thu Aug 11 14:44:06 2005: LOG DATE
UWI.                          : UNIQUE WELL ID
~Curve Information Block
DEPT.FT            0 000 00 00: Depth
GR.GAPI                       : Gamma Ray
CCL.                          : Casing Collar Locator
TT3.usec                      : CBL 3' Travel Time
AMP3.mV                       : CBL 3' Amplitude
~Parameter Information Block
~A  Depth        GR         CCL         TT3         AMP3    
# ...
  1097.2500     82.1920      0.0000    295.3835     59.1973
  1097.5000     87.7934      0.0000    295.2197     59.8498
  1097.7500     93.2932      0.0000    295.0836     60.4906
  1098.0000     98.2340      0.0000    295.0981     61.0002
  1098.2500    102.4715      0.0000    295.2708     61.3469
  1098.5000    106.2713      0.0000    295.5067     61.6213
  1098.7500    110.1666      0.0000    295.7580     61.8409
  1099.0000    114.1236      0.0000    296.0335     61.8752
  1099.2500    117.1009      0.0000    296.2941     61.6134
  1099.5000    118.1013      0.0000    296.4644     61.0743
  1099.7500    117.6503      0.0000    296.5114     60.3550
  1100.0000    117.6951      0.0000    296.4514     59.5974
  1100.2500    119.8215      0.0000    296.3346     58.9798
  1100.5000    123.6024      0.0000    296.2375     58.6125
  1100.7500    126.6795      0.0000    296.2159     58.4662
  1101.0000    126.5722      0.0000    296.2699     58.4794
  1101.2500    122.7780      0.0000    296.3790     58.6489
  1101.5000    117.3618      0.0000    296.5161     58.9655
  1101.7500    113.3638      0.0000    296.6212     59.3896
  1102.0000    112.4616      0.0000    296.6382     59.9121
  1102.2500    114.1915      0.0000    296.6333     60.4420
  1102.5000    117.0768      0.0000    297.1691     60.4484
  1102.7500    119.8844      0.0000    300.1294     58.7542
  1103.0000    122.0387      0.0000    308.2418     54.3051
  1103.2500    123.4870      0.0000    320.1361     48.0620
  1103.5000    124.1648      0.0000    327.1139     43.0251
  1103.7500    123.4132      0.0000    322.9683     40.6233
  1104.0000    120.3715      0.0000    313.2729     39.4341
  1104.2500    115.1641      0.0000    306.4868     38.3710
  1104.5000    109.2635      0.0000    304.1528     37.6770
  1104.7500    104.5568      0.0000    303.7876     37.5059
  1105.0000    102.3197      0.0000    303.6837     37.7167
  1105.2500    102.8567      0.0000    303.6019     38.2340
  1105.5000    105.5332      0.0000    304.0924     39.1251
  1105.7500    109.0857      0.0000    305.5121     40.6564
  1106.0000    112.3187      0.0000    306.2609     43.4576
  1106.2500    114.6848      0.0000    303.4541     47.9840
  1106.5000    116.0770      0.0000    297.9553     53.1041
  1106.7500    116.2282      0.0000    294.4253     56.8482
  1107.0000    114.8500      0.0000    294.3998     58.8997
  1107.2500    112.4282      0.0000    295.4785     60.1548
  1107.5000    110.2288      0.0000    295.9706     60.9807
  1107.7500    109.1414      0.0000    295.7345     61.4299
  1108.0000    109.0730      0.0000    294.3356     61.7972
  1108.2500    109.7025      0.0000    290.2737     62.3893
  1108.5000    111.0106      0.0000    282.4341     63.2818
  1108.7500    112.7827      0.0000    272.5920     64.3547
  1109.0000    114.3368      0.0000    264.6153     65.3952
  1109.2500    115.0697      0.0000    260.4772     66.1938
  1109.5000    114.9621      0.0000    259.3399     66.6288
  1109.7500    114.5122      0.0000    260.3815     66.6258
  1110.0000    114.2831      0.0000    264.4868     66.0012
  1110.2500    114.3024      0.0000    272.5650     64.4272
  1110.5000    113.9081      0.0000    282.6973     61.6898
  1110.7500    112.5238      0.0000    291.0457     58.0183
  1111.0000    110.6031      0.0000    296.2280     54.0553
  1111.2500    109.4557      0.0000    301.0190     50.4169
  1111.5000    109.9822      0.0000    310.2982     47.3829
  1111.7500    111.5504      0.0000    326.9084     45.0249
  1112.0000    112.0869      0.0000    347.1801     43.3403
  1112.2500    109.3512      0.0000    363.3344     42.2046
  1112.5000    102.3026      0.0000    372.2179     41.4790
  1112.7500     91.6531      0.0000    378.4084     41.1871
  1113.0000     79.6715      0.0000    389.7740     41.3945
  1113.2500     69.4702      0.0000    409.6252     42.0501
  1113.5000     63.7111      0.0000    428.3279     43.1526
  1113.7500     63.3680      0.0000    428.7323     44.8058
  1114.0000     67.6413      0.0000    406.7003     46.8718
  1114.2500     74.9570      0.0000    375.7695     48.8356
  1114.5000     83.7570      0.0000    349.8271     50.1481
  1114.7500     92.3772      0.0000    334.4960     50.5135
  1115.0000     98.8393      0.0000    332.7549     49.8383
  1115.2500    101.5544      0.0000    348.9432     48.0121
  1115.5000    100.3954      0.0000    392.3314     44.8547
  1115.7500     96.7360      0.0000    481.5319     40.3630
  1116.0000     92.3228      0.0000    626.1614     34.9290
  1116.2500     88.1308      0.0000    793.5276     29.2256
  1116.5000     84.0941      0.0000    925.4440     23.9041
  1116.7500     79.6061      0.0000    996.8807     19.3770
  1117.0000     74.1605      0.0000   1024.8774     15.7872
  1117.2500     67.7355      0.0000   1027.5118     13.0643
  1117.5000     60.9173      0.0000   1012.5321     11.0091
  1117.7500     54.6568      0.0000    996.8743      9.4363
  1118.0000     49.6778      0.0000    983.5608      8.2434
  1118.2500     46.1239      0.0000    940.0795      7.3665
  1118.5000     43.8362      0.0000    866.3569      6.7604
  1118.7500     42.7031      0.0000    831.9876      6.3925
  1119.0000     42.6143      0.0000    891.1434      6.2153
  1119.2500     43.4226      0.0000   1010.4194      6.1774
  1119.5000     45.1455      0.0000   1109.9707      6.2582
  1119.7500     47.8515      0.0000   1145.8843      6.5011
  1120.0000     51.2223      0.0000   1133.3951      6.9848
  1120.2500     54.6600      0.0000   1111.1707      7.7404
  1120.5000     58.1539      0.0000   1092.2303      8.7816
  1120.7500     62.7297      0.0000   1056.3113     10.1842
  1121.0000     69.6691      0.0000    999.3633     12.0717
  1121.2500     79.2016      0.0000    946.8842     14.6500
  1121.5000     90.0181      0.0000    903.0607     18.2252
  1121.7500    100.1461      0.0000    833.9554     22.9292
  1122.0000    108.3385      0.0000    714.5289     28.4538
  1122.2500    114.6043      0.0000    567.0583     34.1412
  1122.5000    119.5152      0.0000    438.9352     39.3250
  1122.7500    123.2250      0.0000    357.1259     43.6841
  1123.0000    125.2896      0.0000    317.4369     47.2724
  1123.2500    125.3960      0.0000    302.7222     50.2733
  1123.5000    124.0336      0.0000    298.5681     52.7931
  1123.7500    122.1049      0.0000    297.5915     54.8329
  1124.0000    120.0787      0.0000    297.2861     56.4233
  1124.2500    118.1295      0.0000    297.0852     57.7102
  1124.5000    116.9483      0.0000    296.8764     58.8511
  1124.7500    117.5547      0.0000    296.4910     59.9042
  1125.0000    120.1165      0.0000    295.3511     60.8617
  1125.2500    123.3856      0.0000    292.4660     61.7065
  1125.5000    125.5369      0.0000    287.7687     62.3891
  1125.7500    125.6358      0.0000    283.3324     62.8185
  1126.0000    124.3568      0.0000    281.6882     62.9156
  1126.2500    123.1987      0.0000    283.7331     62.6622
  1126.5000    123.0317      0.0000    288.4338     62.1545
  1126.7500    123.5976      0.0000    293.1494     61.6513
  1127.0000    124.2387      0.0000    295.8370     61.4323
  1127.2500    124.4436      0.0000    296.6801     61.5716
  1127.5000    123.3969      0.0000    296.5640     61.9370
  1127.7500    119.6906      0.0000    295.3189     62.3420
  1128.0000    112.2681      0.0000    291.6854     62.6643
  1128.2500    101.5677      0.0000    285.4118     62.8613
  1128.5000     89.4755      0.0000    280.1331     62.8224
  1128.7500     78.4539      0.0000    281.3616     62.3008
  1129.0000     70.7309      0.0000    289.8747     61.1732
  1129.2500     67.6118      0.0000    300.1826     59.6744
  1129.5000     69.0726      0.0000    306.0035     58.2238
  1129.7500     74.1485      0.0000    305.6755     57.1032
  1130.0000     81.6685      0.0000    302.4725     56.3585
  1130.2500     90.3742      0.0000    299.9858     55.9339
  1130.5000     98.6927      0.0000    298.9833     55.8194
