~Version Information
VERS.                      2.0: CWLS Log ASCII Standard - VERSION 2.0
WRAP.                       NO: One line per depth step
~Well Information Block
STRT.FT               768.0000: 
STOP.FT              2637.5000: 
STEP.FT                 0.2500: 
NULL.                -999.2500: 
COMP.          Pioneer Natural Resources: COMPANY
WELL.               Zink 44-10: WELL
FLD.           Purgatoire River: FIELD
LOC.           548' FSL & 473' FEL: LOCATION
PROV.                 Colorado: PROVINCE
CNTY.               Las Animas: COUNTRY
SRVC.                Patterson: SERVICE COMPANY
DATE.          Mon May 30 05:59:42 2005: LOG DATE
UWI.           05 071 08380 00: UNIQUE WELL ID
~Curve Information Block
DEPT.FT            0 000 00 00: Depth
SN.Ohm-m                      : IEL Short Normal
SP.mV                         : IEL Spontaneous Potential
DIR.Ohm-m                     : IEL Induction Resistivity
GR.GAPI                       : Gamma Ray
~Parameter Information Block
~A  Depth        SN          SP         DIR          GR     
# ...
  1371.0000     19.7271   -138.6513 100000.0000     97.8873
  1371.2500     19.5379   -139.9139 100000.0000    102.3804
  1371.5000     18.7619   -141.4791 100000.0000    111.4847
  1371.7500     17.4659   -143.4999 100000.0000    118.4338
  1372.0000     15.9168   -146.1709 100000.0000    128.2997
  1372.2500     14.4467   -149.7435      7.7279    133.4210
  1372.5000     13.2064   -154.5522      1.7236    138.3006
  1372.7500     12.1087   -161.0182      0.7670    140.1642
  1373.0000     11.0210   -169.6050      0.4240    141.9691
  1373.2500      9.8489   -180.7241      0.2675    142.6360
  1373.5000      8.4741   -194.6313      0.1950    141.9779
  1373.7500      6.7853   -211.3038      0.1696    139.6027
  1374.0000      4.8638   -230.1949      0.1774    131.6346
  1374.2500      3.0709   -249.8818      0.2179    122.7685
  1374.5000      1.7786   -268.0646      0.3022    104.5136
  1374.7500      1.0749   -282.4147      0.4556     90.5097
  1375.0000      0.8105   -291.8199      0.7356     70.7420
  1375.2500      0.8230   -296.8421      1.2945     60.4980
  1375.5000      1.0508   -299.0017      2.6026     51.1351
  1375.7500      1.4657   -299.7444      6.8027     48.6179
  1376.0000      1.9339   -299.9478     85.4477     48.9621
  1376.2500      2.1895   -299.9920 100000.0000     51.0284
  1376.5000      2.0389   -299.9996 100000.0000     55.5036
  1376.7500      1.5838   -299.9994 100000.0000     58.6560
  1377.0000      1.1192   -299.9932 100000.0000     62.5324
  1377.2500      0.8316   -299.9625 100000.0000     64.1659
  1377.5000      0.7085   -299.8379 100000.0000     65.1166
  1377.7500      0.6885   -299.4484 100000.0000     64.8918
  1378.0000      0.8390   -298.5015 100000.0000     63.4247
  1378.2500      1.5043   -296.7100 100000.0000     61.7574
  1378.5000      3.3071   -294.0474 100000.0000     58.7017
  1378.7500      6.6403   -290.8104 100000.0000     56.8712
  1379.0000     10.7365   -287.2174 100000.0000     55.5506
  1379.2500     13.5771   -282.8835 100000.0000     56.1287
  1379.5000     13.4887   -276.8907 100000.0000     59.7637
  1379.7500     10.7477   -268.5181      5.0221     64.2497
  1380.0000      7.1218   -257.8192      1.5735     74.0386
  1380.2500      4.1983   -245.3031      0.8464     82.1150
  1380.5000      2.5313   -231.0806      0.5744     94.7722
  1380.7500      1.8979   -214.7218      0.4635    102.3002
  1381.0000      1.9662   -196.2982      0.4404    110.5518
  1381.2500      2.6996   -177.3662      0.4893    113.5745
  1381.5000      4.1659   -160.5335      0.6265    114.5126
  1381.7500      6.1904   -147.9501      0.9135    113.3397
  1382.0000      8.3716   -140.1649      1.5313    110.6905
  1382.2500     10.3681   -136.1713      3.1193    109.4469
  1382.5000     12.0558   -134.3084      9.6608    109.3581
  1382.7500     13.4097   -133.2067 100000.0000    110.2206
  1383.0000     14.4215   -132.1960 100000.0000    111.3205
  1383.2500     15.2135   -131.1548 100000.0000    110.9321
  1383.5000     15.9844   -130.1730 100000.0000    107.9601
  1383.7500     16.7247   -129.3257 100000.0000    104.7396
  1384.0000     17.2231   -128.6157 100000.0000     99.4986
  1384.2500     17.3866   -128.0030 100000.0000     96.7299
  1384.5000     17.3070   -127.4480 100000.0000     95.2846
  1384.7500     17.1142   -126.9342 100000.0000     96.7891
  1385.0000     16.9500   -126.4637     62.9799    102.6763
  1385.2500     16.9293   -126.0434     31.9198    108.0234
  1385.5000     17.0305   -125.6768     24.7379    115.5008
  1385.7500     17.1268   -125.3645     23.4143    118.9054
  1386.0000     17.1435   -125.1080     26.2240    121.3464
  1386.2500     17.1254   -124.9085     36.2510    121.8626
  1386.5000     17.1450   -124.7607     74.7060    122.1686
  1386.7500     17.1998   -124.6492 100000.0000    122.2674
  1387.0000     17.2553   -124.5491 100000.0000    121.9006
  1387.2500     17.3420   -124.4357 100000.0000    121.1249
  1387.5000     17.5052   -124.2957 100000.0000    119.4562
  1387.7500     17.7106   -124.1352 100000.0000    118.4307
  1388.0000     17.8484   -123.9737    147.6401    117.6036
  1388.2500     17.7831   -123.8302     42.2110    117.6659
  1388.5000     17.4551   -123.7115     24.5206    118.8607
  1388.7500     16.9546   -123.6111     17.9820    120.5237
  1389.0000     16.4436   -123.5157     14.9525    124.2521
  1389.2500     16.0090   -123.4124     13.4245    127.1062
  1389.5000     15.6246   -123.2947     12.6397    130.5358
  1389.7500     15.2730   -123.1655     12.2565    131.4993
  1390.0000     15.0045   -123.0340     12.1166    130.7221
  1390.2500     14.8353   -122.9071     12.1553    129.3153
  1390.5000     14.7092   -122.7810     12.3531    127.2950
  1390.7500     14.5944   -122.6406     12.7049    126.4722
  1391.0000     14.5254   -122.4680     13.2021    125.8427
  1391.2500     14.5418   -122.2565     13.8248    125.4595
  1391.5000     14.6609   -122.0205     14.5416    124.4817
  1391.7500     14.9016   -121.7939     15.3175    123.3696
  1392.0000     15.3120   -121.6128     16.1232    120.6088
  1392.2500     15.9422   -121.4952     16.9410    117.9668
  1392.5000     16.7500   -121.4346     17.7605    113.3612
  1392.7500     17.5926   -121.4115     18.5665    110.4256
  1393.0000     18.3448   -121.4079     19.3285    107.0415
  1393.2500     18.9601   -121.4082     20.0031    105.7039
  1393.5000     19.4557   -121.3966     20.5516    104.8122
  1393.7500     19.8817   -121.3609     20.9633    104.3599
  1394.0000     20.2324   -121.3024     21.2637    102.8804
  1394.2500     20.4053   -121.2377     21.4992    101.4081
  1394.5000     20.3347   -121.1933     21.7082     99.8632
  1394.7500     20.0959   -121.1950     21.9019    100.2297
  1395.0000     19.8180   -121.2579     22.0662    103.2239
  1395.2500     19.5909   -121.3799     22.1851    106.0640
  1395.5000     19.4726   -121.5435     22.2621    109.6878
  1395.7500     19.4867   -121.7271     22.3208    111.0515
  1396.0000     19.5966   -121.9162     22.3859    111.5598
  1396.2500     19.7455   -122.1057     22.4654    111.1474
  1396.5000     19.9255   -122.2926     22.5529    109.7364
  1396.7500     20.1606   -122.4724     22.6431    108.3266
  1397.0000     20.4533   -122.6473     22.7441    105.3590
  1397.2500     20.7918   -122.8313     22.8740    102.6991
  1397.5000     21.1731   -123.0409     23.0473     97.9881
  1397.7500     21.5977   -123.2815     23.2645     94.9675
  1398.0000     22.0519   -123.5424     23.5134     91.7732
  1398.2500     22.5065   -123.8055     23.7825     90.7418
  1398.5000     22.9465   -124.0586     24.0755     90.0626
  1398.7500     23.4120   -124.3032     24.4123     89.5324
  1399.0000     24.0059   -124.5510     24.8135     88.4077
  1399.2500     24.8429   -124.8143     25.2828     87.9333
  1399.5000     25.9453   -125.1007     25.8058     88.3002
  1399.7500     27.2106   -125.4150     26.3692     88.9068
  1400.0000     28.5406   -125.7618     26.9815     88.8596
  1400.2500     29.8817   -126.1423     27.6661     87.5925
  1400.5000     31.1744   -126.5457     28.4273     84.1628
  1400.7500     32.4719   -126.9477     29.2217     81.5983
  1401.0000     33.9338   -127.3174     29.9650     78.5425
  1401.2500     35.5553   -127.6307     30.5783     77.3394
  1401.5000     37.1274   -127.8819     31.0370     76.5282
  1401.7500     38.5123   -128.0870     31.3813     76.2155
  1402.0000     39.7582   -128.2760     31.6832     75.3838
  1402.2500     40.9220   -128.4764     32.0014     74.4791
  1402.5000     41.9096   -128.6978     32.3557     73.1880
  1402.7500     42.5335   -128.9343     32.7229     73.1023
  1403.0000     42.7237   -129.1817     33.0496     75.5456
  1403.2500     42.6228   -129.4488     33.2766     79.3269
  1403.5000     42.3604   -129.7480     33.3712     87.3895
  1403.7500     41.8741   -130.0820     33.3537     92.8710
  1404.0000     41.0745   -130.4444     33.2977     98.3262
  1404.2500     40.0054   -130.8291     33.2983     99.2794
