~Version Information
VERS.                      2.0: CWLS Log ASCII Standard - VERSION 2.0
WRAP.                       NO: One line per depth step
~Well Information Block
STRT.FT               533.0000: 
STOP.FT              1578.0000: 
STEP.FT                 0.2500: 
NULL.                -999.2500: 
COMP.          Pioneer Natural Resources: COMPANY
WELL.           Telna 24-22 Tr: WELL
FLD.           Purgatoire River: FIELD
LOC.           748' FSL & 1931' FWL: LOCATION
PROV.                 Colorado: PROVINCE
CNTY.               Las Animas: COUNTRY
SRVC.                Patterson: SERVICE COMPANY
DATE.          Sun May 01 14:14:42 2005: LOG DATE
UWI.           05 071 08304 00: UNIQUE WELL ID
~Curve Information Block
DEPT.FT            0 000 00 00: Depth
SN.Ohm-m                      : IEL Short Normal
SP.mV                         : IEL Spontaneous Potential
DIR.Ohm-m                     : IEL Induction Resistivity
GR.GAPI                       : Gamma Ray
~Parameter Information Block
~A  Depth        SN          SP         DIR          GR     
# ...
  1270.0000     23.3559     15.8772     20.8516    104.9047
  1270.2500     24.9488     16.0755     21.6087     99.9781
  1270.5000     27.0451     16.2839     22.3392     94.9993
  1270.7500     29.5763     16.5357     23.0736     92.5475
  1271.0000     32.2709     16.8306     23.8833     89.2718
  1271.2500     34.6688     17.1499     24.8447     87.4573
  1271.5000     36.3831     17.4765     25.9867     86.1152
  1271.7500     37.4431     17.8058     27.2546     86.3646
  1272.0000     38.1993     18.1373     28.5135     87.7053
  1272.2500     38.8614     18.4615     29.5869     88.4328
  1272.5000     39.3235     18.7566     30.3113     88.4041
  1272.7500     39.4282     19.0002     30.5828     87.7413
  1273.0000     39.2146     19.1844     30.3855     86.5893
  1273.2500     38.8683     19.3200     29.7962     86.1443
  1273.5000     38.4556     19.4296     28.9563     86.3277
  1273.7500     37.7895     19.5402     28.0181     87.1983
  1274.0000     36.6866     19.6734     27.0934     90.2084
  1274.2500     35.2170     19.8341     26.2346     93.7151
  1274.5000     33.5803     20.0056     25.4538    101.3300
  1274.7500     31.9195     20.1588     24.7568    107.5504
  1275.0000     30.2943     20.2688     24.1648    117.2034
  1275.2500     28.7249     20.3239     23.7065    122.8942
  1275.5000     27.2517     20.3242     23.3949    128.9015
  1275.7500     25.9849     20.2768     23.2095    130.6745
  1276.0000     25.0909     20.1922     23.0987    129.5181
  1276.2500     24.6924     20.0830     22.9995    126.2039
  1276.5000     24.7759     19.9655     22.8616    118.1639
  1276.7500     25.2112     19.8638     22.6595    111.7451
  1277.0000     25.8618     19.8095     22.3863    102.7361
  1277.2500     26.6687     19.8341     22.0415     98.1576
  1277.5000     27.6356     19.9556     21.6286     93.8589
  1277.7500     28.7186     20.1685     21.1641     92.3200
  1278.0000     29.7377     20.4432     20.6843     91.4553
  1278.2500     30.4254     20.7398     20.2373     92.0781
  1278.5000     30.5413     21.0316     19.8694     95.7441
  1278.7500     29.9690     21.3160     19.6142    100.1894
  1279.0000     28.8018     21.6005     19.4898    108.7985
  1279.2500     27.3044     21.8759     19.4993    114.5909
  1279.5000     25.7428     22.1035     19.6324    121.0991
  1279.7500     24.2987     22.2254     19.8687    123.0585
  1280.0000     23.0986     22.1954     20.1778    121.8460
  1280.2500     22.2393     22.0101     20.5187    118.4141
  1280.5000     21.8093     21.7194     20.8431    110.1377
  1280.7500     21.9228     21.4107     21.1101    103.3298
  1281.0000     22.7664     21.1723     21.3052     92.8765
  1281.2500     24.6422     21.0582     21.4506     86.4424
  1281.5000     27.8073     21.0720     21.5920     77.5370
  1281.7500     32.1001     21.1818     21.7682     71.7017
  1282.0000     36.8573     21.3532     21.9809     63.3661
  1282.2500     41.3345     21.5746     22.1832     59.0966
  1282.5000     45.0716     21.8554     22.2995     56.6778
  1282.7500     47.7696     22.2062     22.2698     58.2556
  1283.0000     49.0397     22.6218     22.0862     64.5793
  1283.2500     48.5112     23.0821     21.7880     70.2604
  1283.5000     46.1445     23.5669     21.4202     79.0075
  1283.7500     42.3478     24.0690     20.9948     84.3624
  1284.0000     37.8112     24.6000     20.4850     91.4655
  1284.2500     33.2365     25.1806     19.8518     95.5811
  1284.5000     29.1377     25.8232     19.0809    100.5412
  1284.7500     25.7439     26.5149     18.2028    102.7056
  1285.0000     23.0163     27.2165     17.2829    103.6979
  1285.2500     20.7760     27.8810     16.3901    102.8065
  1285.5000     18.8393     28.4788     15.5684     99.8762
  1285.7500     17.0828     29.0144     14.8278     97.7789
  1286.0000     15.4567     29.5193     14.1566     96.3693
  1286.2500     14.0468     30.0291     13.5425     97.4544
  1286.5000     13.0873     30.5584     12.9860    102.2325
  1286.7500     12.7404     31.0905     12.4965    106.7575
  1287.0000     12.8728     31.5876     12.0782    113.8330
  1287.2500     13.1606     32.0118     11.7196    118.1043
  1287.5000     13.3646     32.3445     11.3942    123.7123
  1287.7500     13.4140     32.5904     11.0716    127.1578
  1288.0000     13.3140     32.7672     10.7327    132.1833
  1288.2500     13.0758     32.8908     10.3766    135.3295
  1288.5000     12.7134     32.9661     10.0172    139.1146
  1288.7500     12.2770     32.9901      9.6735    140.6410
  1289.0000     11.8536     32.9612      9.3627    141.1960
  1289.2500     11.4972     32.8858      9.0965    140.5095
  1289.5000     11.1979     32.7794      8.8799    138.2261
  1289.7500     10.9328     32.6580      8.7111    136.1177
  1290.0000     10.6947     32.5306      8.5827    132.6413
  1290.2500     10.4662     32.3983      8.4841    130.4619
  1290.5000     10.1913     32.2633      8.4045    127.8137
  1290.7500      9.8041     32.1375      8.3350    126.5231
  1291.0000      9.3157     32.0426      8.2686    125.0371
  1291.2500      8.8257     31.9983      8.1998    124.0527
  1291.5000      8.4327     32.0074      8.1240    122.2012
  1291.7500      8.2018     32.0514      8.0385    120.6967
  1292.0000      8.1754     32.1023      7.9439    118.2177
  1292.2500      8.3108     32.1416      7.8462    116.5472
  1292.5000      8.4499     32.1706      7.7580    114.4081
  1292.7500      8.4493     32.2038      7.6965    113.5896
  1293.0000      8.3127     32.2550      7.6787    113.7222
  1293.2500      8.1921     32.3267      7.7139    114.6157
  1293.5000      8.2850     32.4086      7.7999    116.4533
  1293.7500      8.6714     32.4840      7.9228    117.4970
  1294.0000      9.2320     32.5398      8.0624    117.7038
  1294.2500      9.7603     32.5727      8.1976    116.0220
  1294.5000     10.1718     32.5906      8.3115    109.2562
  1294.7500     10.5612     32.6073      8.3949    101.8466
  1295.0000     11.0524     32.6325      8.4472     88.5008
  1295.2500     11.7250     32.6647      8.4755     80.1506
  1295.5000     12.6608     32.6916      8.4902     71.3653
  1295.7500     13.8888     32.7003      8.5015     68.6700
  1296.0000     15.2689     32.6878      8.5166     68.8151
  1296.2500     16.5095     32.6596      8.5408     70.8706
  1296.5000     17.2992     32.6174      8.5768     75.3922
  1296.7500     17.4183     32.5515      8.6246     78.6620
  1297.0000     16.8324     32.4509      8.6801     83.2832
  1297.2500     15.7317     32.3216      8.7378     86.2229
  1297.5000     14.4462     32.1872      8.7951     91.1075
  1297.7500     13.2960     32.0669      8.8558     95.0760
  1298.0000     12.4431     31.9563      8.9281    102.1330
  1298.2500     11.8345     31.8315      9.0168    107.1930
  1298.5000     11.3346     31.6671      9.1188    114.4860
  1298.7500     10.8843     31.4461      9.2244    118.8557
  1299.0000     10.5151     31.1604      9.3230    124.4860
  1299.2500     10.2795     30.8084      9.4096    127.4733
  1299.5000     10.1674     30.3966      9.4868    130.3702
  1299.7500     10.1199     29.9392      9.5615    131.1503
  1300.0000     10.1236     29.4504      9.6411    130.9587
  1300.2500     10.1970     28.9313      9.7294    130.1890
  1300.5000     10.3352     28.3619      9.8236    128.1607
  1300.7500     10.5187     27.7129      9.9126    126.1943
  1301.0000     10.7264     26.9690      9.9802    122.4862
  1301.2500     10.9236     26.1483     10.0107    119.6045
  1301.5000     11.0782     25.3023      9.9960    114.5003
  1301.7500     11.2027     24.4972      9.9390    110.4522
  1302.0000     11.3397     23.7861      9.8514    103.8143
  1302.2500     11.4453     23.1909      9.7479     99.7738
  1302.5000     11.3404     22.7043      9.6398     96.2016
  1302.7500     10.8992     22.3059      9.5334     96.5743
  1303.0000     10.2100     21.9782      9.4306    102.1940
  1303.2500      9.4906     21.7090      9.3315    108.8071
