~Version Information
VERS.                      2.0: CWLS Log ASCII Standard - VERSION 2.0
WRAP.                       NO: One line per depth step
~Well Information Block
STRT.FT               221.2000: 
STOP.FT              2260.4000: 
STEP.FT                 0.1000: 
NULL.                -999.2500: 
COMP.          Petrogulf Corporation: COMPANY
WELL.          Anderson 18-43V: WELL
FLD.           Purgatorie River: FIELD
LOC.           1782' FSL & 887' FEL--: LOCATION
CNTY.               Las Animas: COUNTY
SRVC.                         : SERVICE COMPANY
DATE.          Mon Sep 13 14:11:09 2004: LOG DATE
UWI.                          : UNIQUE WELL ID
STAT.                       CO: STATE
~Curve Information Block
DEPT.FT            0 000 00 00: Depth
TT3.usec                      : CBL 3' Travel Time
AMP3.mV                       : CBL 3' Amplitude
GR.GAPI                       : Gamma Ray
CCL.                          : Casing Collar Locator
~Parameter Information Block
~A  Depth       TT3         AMP3         GR         CCL     
# ...
   368.6000    647.7746      3.1953     89.8495      0.0000
   368.7000    647.7746      3.1953     89.8495      0.0000
   368.8000    657.4186      3.1995     85.9196      0.0000
   368.9000    657.4186      3.1995     85.9196      0.0000
   369.0000    661.3546      3.2361     82.9484      0.0000
   369.1000    661.3546      3.2361     82.9484      0.0000
   369.2000    661.3546      3.2361     82.9484      0.0000
   369.3000    657.5986      3.2892     82.2800      0.0000
   369.4000    657.5986      3.2892     82.2800      0.0000
   369.5000    644.7957      3.3234     84.4371      0.0000
   369.6000    644.7957      3.3234     84.4371      0.0000
   369.7000    644.7957      3.3234     84.4371      0.0000
   369.8000    622.5441      3.3206     88.4625      0.0000
   369.9000    622.5441      3.3206     88.4625      0.0000
   370.0000    593.5035      3.2963     92.3239      0.0000
   370.1000    593.5035      3.2963     92.3239      0.0000
   370.2000    593.5035      3.2963     92.3239      0.0000
   370.3000    563.5152      3.2827     94.2366      0.0000
   370.4000    563.5152      3.2827     94.2366      0.0000
   370.5000    536.8538      3.3009     93.7234      0.0000
   370.6000    536.8538      3.3009     93.7234      0.0000
   370.7000    536.8538      3.3009     93.7234      0.0000
   370.8000    512.0427      3.3564     91.7428      0.0000
   370.9000    512.0427      3.3564     91.7428      0.0000
   371.0000    485.5217      3.4470     89.9110      0.0000
   371.1000    485.5217      3.4470     89.9110      0.0000
   371.2000    485.5217      3.4470     89.9110      0.0000
   371.3000    458.9031      3.5621     89.0901      0.0000
   371.4000    458.9031      3.5621     89.0901      0.0000
   371.5000    439.6212      3.6720     88.6384      0.0000
   371.6000    439.6212      3.6720     88.6384      0.0000
   371.7000    439.6212      3.6720     88.6384      0.0000
   371.8000    434.6058      3.7350     87.5489      0.0000
   371.9000    434.6058      3.7350     87.5489      0.0000
   372.0000    444.7093      3.7308     86.1561      0.0000
   372.1000    444.7093      3.7308     86.1561      0.0000
   372.2000    444.7093      3.7308     86.1561      0.0000
   372.3000    464.1456      3.6865     85.8443      0.0000
   372.4000    464.1456      3.6865     85.8443      0.0000
   372.5000    484.0192      3.6614     87.0274      0.0000
   372.6000    484.0192      3.6614     87.0274      0.0000
   372.7000    484.0192      3.6614     87.0274      0.0000
   372.8000    497.4875      3.7047     88.2116      0.0000
   372.9000    497.4875      3.7047     88.2116      0.0000
   373.0000    503.5242      3.8323     87.3556      0.0000
   373.1000    503.5242      3.8323     87.3556      0.0000
   373.2000    503.5242      3.8323     87.3556      0.0000
   373.3000    506.9252      4.0287     83.7472      0.0000
   373.4000    506.9252      4.0287     83.7472      0.0000
   373.5000    514.8416      4.2526     78.6820      0.0000
   373.6000    514.8416      4.2526     78.6820      0.0000
   373.7000    514.8416      4.2526     78.6820      0.0000
   373.8000    532.3032      4.4428     74.8021      0.0000
   373.9000    532.3032      4.4428     74.8021      0.0000
   374.0000    559.0856      4.5414     74.4210      0.0000
   374.1000    559.0856      4.5414     74.4210      0.0000
   374.2000    559.0856      4.5414     74.4210      0.0000
   374.3000    589.5447      4.5261     77.5781      0.0000
   374.4000    589.5447      4.5261     77.5781      0.0000
   374.5000    615.7494      4.4225     81.6175      0.0000
   374.6000    615.7494      4.4225     81.6175      0.0000
   374.7000    615.7494      4.4225     81.6175      0.0000
   374.8000    632.0234      4.2880     83.3430      0.0000
   374.9000    632.0234      4.2880     83.3430      0.0000
   375.0000    637.6715      4.1801     81.7945      0.0000
   375.1000    637.6715      4.1801     81.7945      0.0000
   375.2000    637.6715      4.1801     81.7945      0.0000
   375.3000    636.4376      4.1287     78.6840      0.0000
   375.4000    636.4376      4.1287     78.6840      0.0000
   375.5000    633.6616      4.1281     76.5001      0.0000
   375.6000    633.6616      4.1281     76.5001      0.0000
   375.7000    633.6616      4.1281     76.5001      0.0000
   375.8000    633.1563      4.1506     76.5888      0.0000
   375.9000    633.1563      4.1506     76.5888      0.0000
   376.0000    635.7215      4.1684     78.6210      0.0000
   376.1000    635.7215      4.1684     78.6210      0.0000
   376.2000    635.7215      4.1684     78.6210      0.0000
   376.3000    639.9955      4.1671     81.2419      0.0000
   376.4000    639.9955      4.1671     81.2419      0.0000
   376.5000    644.4654      4.1475     83.3076      0.0000
   376.6000    644.4654      4.1475     83.3076      0.0000
   376.7000    644.4654      4.1475     83.3076      0.0000
   376.8000    648.6923      4.1231     84.7759      0.0000
   376.9000    648.6923      4.1231     84.7759      0.0000
   377.0000    652.9011      4.1102     86.4039      0.0000
   377.1000    652.9011      4.1102     86.4039      0.0000
   377.2000    652.9011      4.1102     86.4039      0.0000
   377.3000    656.8804      4.1125     88.5122      0.0000
   377.4000    656.8804      4.1125     88.5122      0.0000
   377.5000    659.6696      4.1144     90.2608      0.0000
   377.6000    659.6696      4.1144     90.2608      0.0000
   377.7000    659.6696      4.1144     90.2608      0.0000
   377.8000    660.4981      4.0951     90.3477      0.0000
   377.9000    660.4981      4.0951     90.3477      0.0000
   378.0000    659.8227      4.0492     88.2579      0.0000
   378.1000    659.8227      4.0492     88.2579      0.0000
   378.2000    659.8227      4.0492     88.2579      0.0000
   378.3000    658.9919      3.9886     84.6098      0.0000
   378.4000    658.9919      3.9886     84.6098      0.0000
   378.5000    658.8600      3.9242     80.3954      0.0000
   378.6000    658.8600      3.9242     80.3954      0.0000
   378.7000    658.8600      3.9242     80.3954      0.0000
   378.8000    659.0700      3.8507     76.1416      0.0000
   378.9000    659.0700      3.8507     76.1416      0.0000
   379.0000    658.5197      3.7534     71.7993      0.0000
   379.1000    658.5197      3.7534     71.7993      0.0000
   379.2000    658.5197      3.7534     71.7993      0.0000
   379.3000    655.1520      3.6264     67.1944      0.0000
   379.4000    655.1520      3.6264     67.1944      0.0000
   379.5000    644.3644      3.4819     62.3608      0.0000
   379.6000    644.3644      3.4819     62.3608      0.0000
   379.7000    644.3644      3.4819     62.3608      0.0000
   379.8000    619.4420      3.3491     57.6337      0.0000
   379.9000    619.4420      3.3491     57.6337      0.0000
   380.0000    576.9548      3.2648     53.6779      0.0000
   380.1000    576.9548      3.2648     53.6779      0.0000
   380.2000    576.9548      3.2648     53.6779      0.0000
   380.3000    522.7470      3.2632     51.1870      0.0000
   380.4000    522.7470      3.2632     51.1870      0.0000
   380.5000    470.3283      3.3676     50.3677      0.0000
   380.6000    470.3283      3.3676     50.3677      0.0000
   380.7000    470.3283      3.3676     50.3677      0.0000
   380.8000    431.8869      3.5792     50.8462      0.0000
   380.9000    431.8869      3.5792     50.8462      0.0000
   381.0000    411.7789      3.8558     52.0271      0.0000
   381.1000    411.7789      3.8558     52.0271      2.0000
   381.2000    411.7789      3.8558     52.0271     -2.0000
   381.3000    408.4711      4.1130     53.3343      0.0000
   381.4000    408.4711      4.1130     53.3343      0.0000
   381.5000    420.0436      4.2795     54.3192      0.0000
   381.6000    420.0436      4.2795     54.3192      0.0000
   381.7000    420.0436      4.2795     54.3192      0.0000
   381.8000    445.2571      4.3763     54.9199      0.0000
   381.9000    445.2571      4.3763     54.9199      0.0000
