~Version Information
VERS.                      2.0: CWLS Log ASCII Standard - VERSION 2.0
WRAP.                       NO: One line per depth step
~Well Information Block
STRT.FT               454.0000: 
STOP.FT              1392.0000: 
STEP.FT                 0.2500: 
NULL.                -999.2500: 
COMP.          Pioneer Natural Resources: COMPANY
WELL.          Lorencito 6-3-34-66: WELL
FLD.           Purgatoire River: FIELD
LOC.           2545' FNL & 1914' FWL: LOCATION
STAT.                 Colorado: State
CNTY.               Las Animas: COUNTY
CTRY. USA : Country
SECT. 3 : Section
TOWN. 34S : Township
RANG. 66W : Range
SRVC.                Patterson: SERVICE COMPANY
DATE.          Fri Sep 09 22:07:39 2005: LOG DATE
API.           05 071 08369 00: UNIQUE WELL ID
~Curve Information Block
DEPT.FT            0 000 00 00: Depth
SN.Ohm-m                      : IEL Short Normal
SP.mV                         : IEL Spontaneous Potential
DIR.Ohm-m                     : IEL Induction Resistivity
GR.GAPI                       : Gamma Ray
~Parameter Information Block
~A  Depth        SN          SP         DIR          GR     
# ...
   990.0000     14.4239    -16.2049     11.8848    108.3484
   990.2500     14.8183    -15.9249     11.9300    104.5241
   990.5000     15.3145    -15.6220     12.0035    102.1649
   990.7500     15.7827    -15.3555     12.1022    102.7401
   991.0000     16.1099    -15.1518     12.2246    106.3428
   991.2500     16.2396    -14.9944     12.3718    110.2034
   991.5000     16.1849    -14.8449     12.5485    116.8960
   991.7500     16.0080    -14.6724     12.7611    120.8744
   992.0000     15.7857    -14.4660     13.0159    124.6844
   992.2500     15.5811    -14.2326     13.3162    125.5574
   992.5000     15.4349    -13.9946     13.6586    124.5619
   992.7500     15.3732    -13.7905     14.0307    122.3820
   993.0000     15.4159    -13.6608     14.4110    116.8444
   993.2500     15.5769    -13.6301     14.7727    112.1683
   993.5000     15.8642    -13.7017     15.0895    105.6300
   993.7500     16.2825    -13.8723     15.3468    102.5475
   994.0000     16.8353    -14.1409     15.5477     99.7808
   994.2500     17.5191    -14.5000     15.7143     98.3468
   994.5000     18.3150    -14.9201     15.8816     95.4751
   994.7500     19.1876    -15.3463     16.0868     92.8157
   995.0000     20.0952    -15.7111     16.3587     88.1044
   995.2500     21.0004    -15.9567     16.7097     85.0307
   995.5000     21.8680    -16.0580     17.1317     81.7119
   995.7500     22.6522    -16.0375     17.5962     81.0460
   996.0000     23.2935    -15.9522     18.0599     83.1191
   996.2500     23.7439    -15.8596     18.4739     86.3747
   996.5000     24.0072    -15.7913     18.7988     92.2747
   996.7500     24.1517    -15.7471     19.0183     95.3258
   997.0000     24.2755    -15.6945     19.1437     96.6428
   997.2500     24.4486    -15.5792     19.2084     95.2815
   997.5000     24.6801    -15.3704     19.2544     91.3054
   997.7500     24.9301    -15.1227     19.3174     88.4181
   998.0000     25.1472    -14.9760     19.4162     84.8030
   998.2500     25.3019    -15.0622     19.5513     82.8040
   998.5000     25.3980    -15.3983     19.7056     79.5187
   998.7500     25.4650    -15.8772     19.8535     76.8024
   999.0000     25.5370    -16.3560     19.9704     72.7021
   999.2500     25.6350    -16.7483     20.0414     70.9362
   999.5000     25.7608    -17.0532     20.0682     70.7889
   999.7500     25.9032    -17.3223     20.0686     72.1978
  1000.0000     26.0457    -17.6144     20.0712     75.9075
  1000.2500     26.1676    -17.9806     20.1062     79.2716
  1000.5000     26.2481    -18.4616     20.1969     85.0248
  1000.7500     26.2869    -19.0677     20.3543     88.4019
  1001.0000     26.3337    -19.7575     20.5742     91.3157
  1001.2500     26.4858    -20.4596     20.8423     91.8889
  1001.5000     26.8377    -21.1230     21.1387     92.0925
  1001.7500     27.4128    -21.7403     21.4468     92.3412
  1002.0000     28.1420    -22.3199     21.7578     92.2111
  1002.2500     28.9129    -22.8588     22.0725     90.9341
  1002.5000     29.6510    -23.3550     22.3980     86.7292
  1002.7500     30.3706    -23.8227     22.7430     82.9925
  1003.0000     31.1564    -24.2691     23.1138     77.5318
  1003.2500     32.0893    -24.6715     23.5109     74.5284
  1003.5000     33.1663    -24.9990     23.9288     70.9577
  1003.7500     34.2768    -25.2483     24.3555     68.8465
  1004.0000     35.2539    -25.4336     24.7736     65.5575
  1004.2500     35.9619    -25.5464     25.1607     63.3561
  1004.5000     36.3484    -25.5538     25.4933     60.8407
  1004.7500     36.4304    -25.4646     25.7481     60.1902
  1005.0000     36.2510    -25.3879     25.9069     60.9795
  1005.2500     35.8545    -25.4834     25.9597     62.4061
  1005.5000     35.2940    -25.8338     25.9059     65.0969
  1005.7500     34.6402    -26.3805     25.7545     66.7665
  1006.0000     33.9671    -26.9771     25.5228     68.3615
  1006.2500     33.3204    -27.4795     25.2339     68.5625
  1006.5000     32.6934    -27.7960     24.9147     67.5266
  1006.7500     32.0340    -27.8998     24.5926     66.1174
  1007.0000     31.2877    -27.8221     24.2930     63.6027
  1007.2500     30.4553    -27.6307     24.0351     62.2664
  1007.5000     29.6199    -27.4079     23.8291     61.6055
  1007.7500     28.9139    -27.2359     23.6744     61.9786
  1008.0000     28.4352    -27.1742     23.5593     62.6560
  1008.2500     28.1752    -27.2219     23.4640     62.5220
  1008.5000     28.0200    -27.3068     23.3654     61.1196
  1008.7500     27.8333    -27.3283     23.2453     59.6182
  1009.0000     27.5576    -27.2171     23.0938     57.0061
  1009.2500     27.2509    -26.9571     22.9144     55.2104
  1009.5000     27.0260    -26.5814     22.7215     52.8222
  1009.7500     26.9508    -26.1686     22.5337     51.7121
  1010.0000     26.9968    -25.8125     22.3694     50.9101
  1010.2500     27.0735    -25.5405     22.2404     50.7680
  1010.5000     27.1042    -25.2577     22.1511     50.9201
  1010.7500     27.0679    -24.8198     22.0992     51.4709
  1011.0000     26.9826    -24.1789     22.0788     53.8133
  1011.2500     26.8602    -23.4259     22.0830     56.8075
  1011.5000     26.6772    -22.6928     22.1057     63.2545
  1011.7500     26.3852    -22.0520     22.1411     67.9715
  1012.0000     25.9522    -21.5083     22.1827     73.2861
  1012.2500     25.4049    -21.0433     22.2229     74.4765
  1012.5000     24.8373    -20.6489     22.2552     72.2845
  1012.7500     24.3743    -20.3286     22.2776     68.8454
  1013.0000     24.1081    -20.0777     22.2962     62.5515
  1013.2500     24.0531    -19.8733     22.3255     58.5900
  1013.5000     24.1461    -19.6935     22.3846     54.1953
  1013.7500     24.2913    -19.5501     22.4896     52.5903
  1014.0000     24.4156    -19.4892     22.6463     51.8295
  1014.2500     24.5023    -19.5582     22.8440     51.8362
  1014.5000     24.5874    -19.7702     23.0569     51.5472
  1014.7500     24.7264    -20.0934     23.2483     50.8023
  1015.0000     24.9537    -20.4707     23.3826     48.9087
  1015.2500     25.2617    -20.8487     23.4372     47.4721
  1015.5000     25.6107    -21.1958     23.4103     45.8746
  1015.7500     25.9639    -21.5013     23.3200     45.5582
  1016.0000     26.3202    -21.7634     23.1964     46.2308
  1016.2500     26.7197    -21.9743     23.0714     47.0596
  1016.5000     27.2121    -22.1145     22.9697     48.0936
  1016.7500     27.8188    -22.1672     22.9081     48.5143
  1017.0000     28.5247    -22.1429     22.8961     49.0928
  1017.2500     29.3054    -22.0880     22.9430     49.6313
  1017.5000     30.1548    -22.0619     23.0596     50.5009
  1017.7500     31.0782    -22.1019     23.2605     50.8260
  1018.0000     32.0643    -22.1993     23.5590     50.4327
  1018.2500     33.0688    -22.2990     23.9586     49.4060
  1018.5000     34.0258    -22.3255     24.4462     46.7913
  1018.7500     34.8788    -22.2333     24.9875     44.7131
  1019.0000     35.6121    -22.0513     25.5339     42.2444
  1019.2500     36.2750    -21.8777     26.0338     41.6602
  1019.5000     36.9837    -21.8167     26.4559     42.6641
  1019.7500     37.8864    -21.9042     26.8038     44.2468
  1020.0000     39.0943    -22.0834     27.1189     47.2113
  1020.2500     40.6154    -22.2568     27.4659     49.3493
  1020.5000     42.3375    -22.3779     27.9102     52.6360
  1020.7500     44.0787    -22.4899     28.4938     54.5657
  1021.0000     45.6693    -22.6636     29.2204     55.8875
  1021.2500     47.0133    -22.9025     30.0486     55.0158
  1021.5000     48.0946    -23.1248     30.9001     50.9801
  1021.7500     48.9420    -23.2439     31.6806     47.3004
  1022.0000     49.5882    -23.2666     32.3148     42.4123
  1022.2500     50.0495    -23.3063     32.7751     40.5192
  1022.5000     50.3290    -23.4880     33.0925     40.3132
  1022.7500     50.4310    -23.8365     33.3367     41.8027
  1023.0000     50.3734    -24.2557     33.5879     45.7199
  1023.2500     50.1880    -24.6037     33.9008     48.7411
