~Version Information
VERS.                      2.0: CWLS Log ASCII Standard - VERSION 2.0
WRAP.                       NO: One line per depth step
~Well Information Block
STRT.FT                -0.2500: 
STOP.FT              2376.7500: 
STEP.FT                 0.2500: 
NULL.                -999.2500: 
COMP.          Petrogulf Corporation: COMPANY
WELL.             State 16-23V: WELL
FLD.           Purgatorie River: FIELD
LOC.           2414' FSL & 2215' FWL: LOCATION
PROV.                 Colorado: PROVINCE
CNTY.               Las Animas: COUNTRY
SRVC.          Patterson Wireline: SERVICE COMPANY
DATE.          Wed Jun 25 14:56:54 2003: LOG DATE
UWI.           05 071 07865 00: UNIQUE WELL ID
~Curve Information Block
DEPT.FT            0 000 00 00: Depth
CCL.                          : Casing Collar Locator
TT3.usec                      : CBL 3' Travel Time
AMP3.mV                       : CBL 3' Amplitude
GR.GAPI                       : Gamma Ray
~Parameter Information Block
~A  Depth       CCL         TT3         AMP3         GR     
# ...
  2043.2500      0.0000    717.5805      5.3974     84.2026
  2043.5000      0.0000    708.7815      5.0815     82.1690
  2043.7500      0.0000    707.2420      4.7419     81.4998
  2044.0000      0.0000    713.2208      4.3496     81.7834
  2044.2500      0.0000    723.2023      3.9426     82.4910
  2044.5000      2.0000    733.2006      3.6164     83.4417
  2044.7500      0.0000    741.4574      3.4383     84.6200
  2045.0000      2.0000    748.2937      3.4012     85.9796
  2045.2500      0.0000    754.3480      3.4465     87.6414
  2045.5000      0.0000    759.3370      3.5212     89.9541
  2045.7500      0.0000    762.3000      3.6236     93.0636
  2046.0000      0.0000    762.5748      3.7925     96.4874
  2046.2500      0.0000    760.1797      4.0351     99.2401
  2046.5000      0.0000    755.6619      4.2791    100.4149
  2046.7500      0.0000    750.3763      4.4235     99.8072
  2047.0000      0.0000    746.6167      4.4297     98.1741
  2047.2500      0.0000    746.3499      4.3464     96.6838
  2047.5000      0.0000    749.4429      4.2573     95.8578
  2047.7500      0.0000    753.6210      4.2135     95.2896
  2048.0000      0.0000    756.3608      4.2060     94.5961
  2048.2500      0.0000    756.7298      4.1877     94.2372
  2048.5000      0.0000    755.7197      4.1161     94.9194
  2048.7500      0.0000    755.1310      3.9782     96.3717
  2049.0000      0.0000    756.0060      3.7904     97.3163
  2049.2500      0.0000    757.9391      3.5832     96.8279
  2049.5000      0.0000    759.8079      3.3871     95.3796
  2049.7500      0.0000    760.9097      3.2243     94.3700
  2050.0000      0.0000    761.2856      3.1093     94.8489
  2050.2500      0.0000    761.2812      3.0519     96.7554
  2050.5000      0.0000    761.1293      3.0559     99.0645
  2050.7500      0.0000    760.9047      3.1203    100.5922
  2051.0000      0.0000    760.6663      3.2451    100.9162
  2051.2500      0.0000    760.5417      3.4249    100.4577
  2051.5000      0.0000    760.6989      3.6260     99.5532
  2051.7500      0.0000    761.2474      3.7868     97.7972
  2052.0000      0.0000    762.1604      3.8591     94.6177
  2052.2500      0.0000    763.2739      3.8388     90.3088
  2052.5000      0.0000    764.3416      3.7464     86.1386
  2052.7500      0.0000    765.0120      3.6045     83.3234
  2053.0000      0.0000    764.6767      3.4531     81.9578
  2053.2500      0.0000    762.4179      3.3571     81.0730
  2053.5000      0.0000    757.4326      3.3686     79.7256
  2053.7500      0.0000    749.8660      3.4773     77.9247
  2054.0000      0.0000    741.2331      3.6038     76.6373
  2054.2500      0.0000    733.6490      3.6448     76.9889
  2054.5000      0.0000    728.4005      3.5371     79.2077
  2054.7500      0.0000    725.2819      3.3003     82.1922
  2055.0000      0.0000    723.2270      3.0287     84.1962
  2055.2500      0.0000    721.2924      2.8361     84.0611
  2055.5000      0.0000    718.6693      2.7914     81.9873
  2055.7500      0.0000    713.6956      2.8857     79.2237
  2056.0000      0.0000    704.1389      3.0386     77.0323
  2056.2500      0.0000    690.2593      3.1439     76.0964
  2056.5000      0.0000    676.9774      3.1507     76.8188
  2056.7500      0.0000    670.3370      3.1160     79.4591
  2057.0000      0.0000    671.7003      3.1508     83.4428
  2057.2500      0.0000    677.8483      3.3001     87.1107
  2057.5000      0.0000    686.4877      3.4881     88.8826
  2057.7500      0.0000    698.7496      3.5907     88.4503
  2058.0000      0.0000    715.7141      3.5426     86.4281
  2058.2500      0.0000    734.6578      3.3666     83.3558
  2058.5000      0.0000    750.1494      3.1235     79.5912
  2058.7500      0.0000    758.4905      2.8621     75.7005
  2059.0000      0.0000    760.5223      2.6249     72.2703
  2059.2500      0.0000    760.3006      2.4714     69.3941
  2059.5000      0.0000    761.3896      2.4605     66.7439
  2059.7500      0.0000    764.2764      2.5941     64.2632
  2060.0000      0.0000    767.1675      2.7960     62.7534
  2060.2500      0.0000    768.8135      2.9771     63.6380
  2060.5000      0.0000    769.5624      3.1284     67.9114
  2060.7500      0.0000    769.3306      3.3378     75.1836
  2061.0000      0.0000    765.8713      3.7119     83.8275
  2061.2500      0.0000    756.8025      4.3002     92.0992
  2061.5000      0.0000    743.6371      5.0858     99.0163
  2061.7500      0.0000    732.4469      6.0049    104.3107
  2062.0000      0.0000    729.2089      6.9504    108.0067
  2062.2500      0.0000    734.6454      7.7858    110.1599
  2062.5000      0.0000    744.2618      8.3785    110.6673
  2062.7500      0.0000    752.8226      8.6352    109.2048
  2063.0000      0.0000    757.8298      8.5460    105.6919
  2063.2500      0.0000    759.3758      8.2154    101.0291
  2063.5000      0.0000    758.4202      7.8198     96.9878
  2063.7500      0.0000    755.9624      7.4988     94.7965
  2064.0000      0.0000    753.1764      7.2830     93.8555
  2064.2500      0.0000    751.1591      7.1277     92.2914
  2064.5000      0.0000    750.0589      6.9818     88.9002
  2064.7500      0.0000    748.9200      6.8119     84.1776
  2065.0000      0.0000    746.9028      6.5978     79.3585
  2065.2500      0.0000    744.3727      6.3283     74.9941
  2065.5000      0.0000    742.3212      5.9983     70.9658
  2065.7500      0.0000    740.8907      5.6251     67.5821
  2066.0000      0.0000    738.8954      5.2652     65.7983
  2066.2500      0.0000    735.0184      4.9812     65.9426
  2066.5000      0.0000    729.3428      4.7826     66.7391
  2066.7500      0.0000    723.4213      4.6258     66.1976
  2067.0000      0.0000    718.7484      4.4768     63.3679
  2067.2500      0.0000    715.5693      4.3437     58.8897
  2067.5000      0.0000    713.6311      4.2469     54.0309
  2067.7500      0.0000    713.9103      4.1970     49.6411
  2068.0000      0.0000    718.5410      4.2057     46.0258
  2068.2500      0.0000    728.1653      4.2849     43.3596
  2068.5000      0.0000    740.0835      4.4156     41.8119
  2068.7500      0.0000    750.0777      4.5290     41.2439
  2069.0000      0.0000    755.5936      4.5410     41.1231
  2069.2500      0.0000    756.5865      4.4180     40.9757
  2069.5000      0.0000    754.2227      4.2032     40.8896
  2069.7500      0.0000    749.7286      3.9862     41.4257
  2070.0000      0.0000    744.0808      3.8571     43.0200
  2070.2500      0.0000    738.0009      3.8727     45.5895
  2070.5000      0.0000    732.0575      4.0354     48.7897
  2070.7500      0.0000    726.8189      4.2953     52.3385
  2071.0000      0.0000    722.7316      4.5703     55.7269
  2071.2500      0.0000    719.9089      4.7691     57.9331
  2071.5000      0.0000    718.1684      4.8285     58.1092
  2071.7500      0.0000    717.1920      4.7535     56.6274
  2072.0000      0.0000    716.5123      4.6061     54.9139
  2072.2500      0.0000    715.3806      4.4509     54.1697
  2072.5000      0.0000    712.8209      4.3266     54.6053
  2072.7500      0.0000    708.1524      4.2513     55.6733
  2073.0000      0.0000    701.8721      4.2239     56.4669
  2073.2500      0.0000    696.0125      4.2330     56.0336
  2073.5000      0.0000    692.9422      4.2753     53.9275
  2073.7500      0.0000    693.2871      4.3517     50.6263
  2074.0000      0.0000    695.3310      4.4527     47.2184
  2074.2500      0.0000    696.9091      4.5570     44.5310
  2074.5000      0.0000    697.4520      4.6223     42.5409
  2074.7500      0.0000    697.4850      4.5766     40.6934
  2075.0000      0.0000    696.7025      4.3649     38.7764
  2075.2500      0.0000    693.9213      4.0258     37.2190
  2075.5000      0.0000    689.0966      3.6887     36.3982
  2075.7500      0.0000    684.3515      3.4842     35.9993
  2076.0000      0.0000    682.6448      3.4661     35.4763
  2076.2500      0.0000    685.7439      3.6027     34.9309
  2076.5000      0.0000    693.2137      3.8163     34.9954
