~Version Information
VERS.                      2.0: CWLS Log ASCII Standard - VERSION 2.0
WRAP.                       NO: One line per depth step
~Well Information Block
STRT.FT               595.0000: 
STOP.FT              1508.7500: 
STEP.FT                 0.2500: 
NULL.                -999.2500: 
COMP.          Pioneer Natural Resources: COMPANY
WELL.          Sumatra 34-22 Tr: WELL
FLD.           Purgatoire River: FIELD
LOC.           443' FSL & 2424' FEL--: LOCATION
PROV.                 Colorado: PROVINCE
CNTY.               Las Animas: COUNTRY
SRVC.                Patterson: SERVICE COMPANY
DATE.          Wed Jun 08 23:53:01 2005: LOG DATE
UWI.           05 071 08383 00: UNIQUE WELL ID
~Curve Information Block
DEPT.FT            0 000 00 00: Depth
SN.Ohm-m                      : IEL Short Normal
SP.mV                         : IEL Spontaneous Potential
DIR.Ohm-m                     : IEL Induction Resistivity
GR.GAPI                       : Gamma Ray
~Parameter Information Block
~A  Depth        SN          SP         DIR          GR     
# ...
   930.0000    682.8896   -529.2850     15.8187    123.1592
   930.2500    682.8896   -529.2871     15.8353    122.8544
   930.5000    682.8896   -529.2880     15.9136    120.6236
   930.7500    682.8896   -529.2875     16.0700    118.0052
   931.0000    682.8896   -529.2856     16.3186    112.6915
   931.2500    682.8896   -529.2830     16.6688    108.7693
   931.5000    682.8896   -529.2802     17.1226    103.6343
   931.7500    682.8896   -529.2776     17.6718    101.2785
   932.0000    682.8896   -529.2760     18.2958     99.4489
   932.2500    682.8896   -529.2755     18.9604     99.0476
   932.5000    682.8896   -529.2761     19.6229     99.0397
   932.7500    682.8896   -529.2775     20.2464     99.1550
   933.0000    682.8896   -529.2794     20.8141     99.1806
   933.2500    682.8896   -529.2813     21.3353     98.9791
   933.5000    682.8896   -529.2827     21.8333     98.2373
   933.7500    682.8896   -529.2833     22.3275     97.3846
   934.0000    682.8896   -529.2831     22.8211     95.4409
   934.2500    682.8896   -529.2822     23.3045     93.7064
   934.5000    682.8896   -529.2805     23.7679     90.6651
   934.7500    682.8896   -529.2785     24.2117     88.5265
   935.0000    682.8896   -529.2764     24.6440     85.4537
   935.2500    682.8896   -529.2745     25.0645     83.6684
   935.5000    682.8896   -529.2729     25.4506     81.6457
   935.7500    682.8896   -529.2717     25.7520     80.8375
   936.0000    682.8896   -529.2709     25.9008     80.5645
   936.2500    682.8896   -529.2703     25.8297     81.0614
   936.5000    682.8896   -529.2698     25.4947     82.8091
   936.7500    682.8896   -529.2694     24.8928     84.6235
   937.0000    682.8896   -529.2691     24.0636     88.4384
   937.2500    682.8896   -529.2689     23.0722     91.7999
   937.5000    682.8896   -529.2688     21.9852     97.8022
   937.7500    682.8896   -529.2689     20.8542    101.9081
   938.0000    682.8896   -529.2690     19.7147    106.9065
   938.2500    682.8896   -529.2693     18.5929    108.7905
   938.5000    682.8896   -529.2698     17.5137    109.2785
   938.7500    682.8896   -529.2704     16.5016    108.8146
   939.0000    682.8896   -529.2712     15.5778    109.0168
   939.2500    682.8896   -529.2722     14.7550    110.4644
   939.5000    682.8896   -529.2733     14.0348    114.0509
   939.7500    682.8896   -529.2748     13.4091    116.5360
   940.0000    682.8896   -529.2764     12.8634    119.5377
   940.2500    682.8896   -529.2784     12.3804    121.1942
   940.5000    682.8896   -529.2806     11.9435    124.0667
   940.7500    682.8896   -529.2831     11.5390    126.7011
   941.0000    682.8896   -529.2856     11.1596    131.6396
   941.2500    682.8896   -529.2881     10.8067    134.9941
   941.5000    682.8896   -529.2903     10.4900    139.0834
   941.7500    682.8896   -529.2917     10.2235    141.0608
   942.0000    682.8896   -529.2923     10.0203    143.4115
   942.2500    682.8896   -529.2918      9.8900    144.7979
   942.5000    682.8896   -529.2903      9.8394    146.3235
   942.7500    682.8896   -529.2879      9.8755    146.5443
   943.0000    682.8896   -529.2849     10.0074    145.1284
   943.2500    682.8896   -529.2817     10.2466    142.9272
   943.5000    682.8896   -529.2787     10.6044    137.6131
   943.7500    682.8896   -529.2763     11.0891    132.5065
   944.0000    682.8896   -529.2745     11.7047    122.3532
   944.2500    682.8896   -529.2737     12.4520    114.4623
   944.5000    682.8896   -529.2737     13.3297    103.0088
   944.7500    682.8896   -529.2746     14.3316     96.8458
   945.0000    682.8896   -529.2759     15.4348     90.6625
   945.2500    682.8896   -529.2775     16.5823     88.3553
   945.5000    682.8896   -529.2789     17.6673     86.8975
   945.7500    682.8896   -529.2797     18.5358     86.9765
   946.0000    682.8896   -529.2797     19.0212     88.3299
   946.2500    682.8896   -529.2788     19.0084     89.8479
   946.5000    682.8896   -529.2771     18.4909     92.8699
   946.7500    682.8896   -529.2748     17.5755     95.5409
   947.0000    682.8896   -529.2722     16.4296    101.1027
   947.2500    682.8896   -529.2697     15.2136    105.9461
   947.5000    682.8896   -529.2676     14.0433    114.1386
   947.7500    682.8896   -529.2662     12.9858    119.4242
   948.0000    682.8896   -529.2657     12.0727    125.9865
   948.2500    682.8896   -529.2661     11.3141    129.1376
   948.5000    682.8896   -529.2672     10.7061    131.8311
   948.7500    682.8896   -529.2689     10.2349    132.2331
   949.0000    682.8896   -529.2710      9.8799    130.8277
   949.2500    682.8896   -529.2731      9.6175    128.7962
   949.5000    682.8896   -529.2751      9.4256    125.1563
   949.7500    682.8896   -529.2769      9.2869    123.2631
   950.0000    682.8896   -529.2784      9.1898    122.5736
   950.2500    682.8896   -529.2798      9.1252    123.7150
   950.5000    682.8896   -529.2811      9.0834    126.9457
   950.7500    682.8896   -529.2824      9.0511    129.3153
   951.0000    682.8896   -529.2839      9.0119    132.1752
   951.2500    682.8896   -529.2855      8.9509    133.3303
   951.5000    682.8896   -529.2870      8.8589    133.6688
   951.7500    682.8896   -529.2881      8.7367    133.0102
   952.0000    682.8896   -529.2886      8.5953    131.5918
   952.2500    682.8896   -529.2884      8.4544    131.1454
   952.5000    682.8896   -529.2874      8.3374    131.6926
   952.7500    682.8896   -529.2860      8.2660    132.3421
   953.0000    682.8896   -529.2844      8.2558    132.5131
   953.2500    682.8896   -529.2830      8.3145    131.8885
   953.5000    682.8896   -529.2819      8.4436    130.5459
   953.7500    682.8896   -529.2814      8.6406    129.9261
   954.0000    682.8896   -529.2812      8.9000    129.4697
   954.2500    682.8896   -529.2811      9.2133    128.8545
   954.5000    682.8896   -529.2807      9.5684    126.2636
   954.7500    682.8896   -529.2797      9.9501    123.3639
   955.0000    682.8896   -529.2780     10.3430    118.4772
   955.2500    682.8896   -529.2758     10.7352    115.8331
   955.5000    682.8896   -529.2733     11.1207    114.0177
   955.7500    682.8896   -529.2709     11.4991    114.6381
   956.0000    682.8896   -529.2690     11.8716    118.3763
   956.2500    682.8896   -529.2679     12.2369    122.0485
   956.5000    682.8896   -529.2676     12.5889    126.6585
   956.7500    682.8896   -529.2678     12.9210    127.4587
   957.0000    682.8896   -529.2683     13.2321    124.1833
   957.2500    682.8896   -529.2688     13.5323    119.7373
   957.5000    682.8896   -529.2689     13.8432    112.0594
   957.7500    682.8896   -529.2684     14.1922    107.5663
   958.0000    682.8896   -529.2673     14.6027    103.0881
   958.2500    682.8896   -529.2656     15.0818    101.7486
   958.5000    682.8896   -529.2633     15.6076    101.6259
   958.7500    682.8896   -529.2607     16.1229    102.3460
   959.0000    682.8896   -529.2581     16.5450    104.0716
   959.2500    682.8896   -529.2555     16.7958    105.3242
   959.5000    682.8896   -529.2532     16.8359    106.5212
   959.7500    682.8896   -529.2513     16.6789    106.4856
   960.0000    682.8896   -529.2499     16.3727    105.5169
   960.2500    682.8896   -529.2489     15.9680    105.0096
   960.5000    682.8896   -529.2484     15.4966    105.5898
   960.7500    682.8896   -529.2480     14.9713    106.8689
   961.0000    682.8896   -529.2479     14.3979    109.0925
   961.2500    682.8896   -529.2479     13.7870    110.1745
   961.5000    682.8896   -529.2477     13.1588    111.1125
   961.7500    682.8896   -529.2475     12.5389    111.7911
   962.0000    682.8896   -529.2469     11.9514    114.0724
   962.2500    682.8896   -529.2458     11.4139    116.8927
   962.5000    682.8896   -529.2441     10.9350    122.8922
   962.7500    682.8896   -529.2418     10.5161    127.3650
   963.0000    682.8896   -529.2384     10.1538    133.1151
   963.2500    682.8896   -529.2341      9.8425    135.5351
