~Version Information
VERS.                      2.0: CWLS Log ASCII Standard - VERSION 2.0
WRAP.                       NO: One line per depth step
~Well Information Block
STRT.FT                -7.5000: 
STOP.FT              1129.7500: 
STEP.FT                 0.2500: 
NULL.                -999.2500: 
COMP.          Pioneer Natural Resources: COMPANY
WELL.          Drewmeister 34-34: WELL
FLD.           Purgatorie River: FIELD
LOC.           958' FSL & 1857' FEL: LOCATION
STAT.                       CO: State
CNTY.               Las Animas: COUNTRY
CTRY. USA : Country
SECT. 34 : Section
TOWN. 32S : Township
RANG. 65W : Range
SRVC.          Patterson Wireline: SERVICE COMPANY
DATE.          Fri Oct 14 14:02:00 2005: LOG DATE
API.           05 071 08131 00: UNIQUE WELL ID
~Curve Information Block
DEPT.FT            0 000 00 00: Depth
CCL.                          : Casing Collar Locator
TT3.usec                      : CBL 3' Travel Time
AMP3.mV                       : CBL 3' Amplitude
GR.GAPI                       : Gamma Ray
~Parameter Information Block
~A  Depth       CCL         TT3         AMP3         GR     
# ...
   662.5000      0.0000    753.7180     10.0939    128.3909
   662.7500      0.0000    758.1161      9.9751    128.8513
   663.0000      0.0000    760.4753      9.8886    129.4837
   663.2500      0.0000    760.8990      9.8407    131.3847
   663.5000      0.0000    760.8450      9.8180    134.6065
   663.7500      0.0000    761.7953      9.7915    137.7944
   664.0000      0.0000    763.3619      9.7377    139.0480
   664.2500      0.0000    763.3372      9.6575    137.1600
   664.5000      0.0000    760.1334      9.5691    132.6214
   664.7500      0.0000    754.8703      9.4904    127.8013
   665.0000      0.0000    750.7532      9.4421    125.5537
   665.2500      0.0000    750.5203      9.4595    126.8033
   665.5000      0.0000    754.3925      9.5776    129.3513
   665.7500      0.0000    760.0954      9.7968    129.4482
   666.0000      0.0000    764.8457     10.0745    124.9346
   666.2500      0.0000    767.5959     10.3556    117.0132
   666.5000      0.0000    769.3967     10.6081    108.9214
   666.7500      0.0000    771.6740     10.8282    102.9969
   667.0000      0.0000    774.6291     11.0175     99.3925
   667.2500      0.0000    777.4297     11.1615     97.3546
   667.5000      0.0000    779.3048     11.2392     96.7907
   667.7500      0.0000    779.9435     11.2565     98.3701
   668.0000      0.0000    779.0702     11.2552    102.8132
   668.2500      0.0000    776.0884     11.2748    110.3029
   668.5000      0.0000    770.4048     11.3124    120.0608
   668.7500      0.0000    762.2642     11.3328    130.1909
   669.0000      0.0000    753.1929     11.3135    138.2247
   669.2500      0.0000    745.2991     11.2623    142.2895
   669.5000      0.0000    739.9393     11.1926    142.1591
   669.7500      0.0000    737.1133     11.1007    139.3453
   670.0000      0.0000    735.9899     10.9725    135.9792
   670.2500      0.0000    735.7231     10.7975    133.3801
   670.5000      0.0000    735.8016     10.5717    131.6549
   670.7500      0.0000    735.9823     10.3024    130.4838
   671.0000      0.0000    736.1632     10.0192    129.9623
   671.2500      0.0000    736.3082      9.7697    130.5060
   671.5000      0.0000    736.4025      9.5856    132.0395
   671.7500      0.0000    736.2316      9.4410    133.4856
   672.0000      0.0000    734.9780      9.2460    133.2840
   672.2500      0.0000    730.9131      8.9033    130.6655
   672.5000      0.0000    722.4463      8.3983    126.4823
   672.7500      0.0000    711.6868      7.8259    122.6756
   673.0000      0.0000    707.3733      7.3131    120.7911
   673.2500      0.0000    720.1519      6.9304    120.7165
   673.5000      0.0000    751.0416      6.6880    120.7106
   673.7500      0.0000    787.7634      6.5704    119.1228
   674.0000      0.0000    816.8148      6.5417    116.3425
   674.2500      0.0000    836.2759      6.5555    114.5689
   674.5000      2.0000    852.9289      6.5911    115.5889
   674.7500      0.0000    869.8611      6.6625    119.3661
   675.0000      0.0000    879.7216      6.8031    124.6765
   675.2500      0.0000    869.1511      7.0708    130.2731
   675.5000      0.0000    831.7636      7.5258    135.2389
   675.7500      0.0000    779.6640      8.1381    138.7778
   676.0000      0.0000    738.3206      8.7484    140.0163
   676.2500      0.0000    725.3990      9.2009    138.1037
   676.5000      0.0000    737.1340      9.4842    133.0159
   676.7500      0.0000    756.8614      9.6804    126.5406
   677.0000      0.0000    771.6360      9.8344    121.7427
   677.2500      0.0000    778.2765      9.9395    120.7015
   677.5000      0.0000    778.9449     10.0013    122.8992
   677.7500      0.0000    776.2288     10.0499    126.1209
   678.0000      0.0000    771.8641     10.0969    128.5907
   678.2500      0.0000    767.1224     10.1186    130.0921
   678.5000      0.0000    762.7251     10.0846    131.5194
   678.7500      0.0000    758.5756      9.9930    133.6572
   679.0000      0.0000    754.1373      9.8775    136.1381
   679.2500      0.0000    749.3364      9.7855    137.5060
   679.5000      0.0000    744.8624      9.7485    136.5378
   679.7500      0.0000    741.5356      9.7650    133.4202
   680.0000      0.0000    739.5891      9.8141    129.4735
   680.2500      0.0000    738.6658      9.8859    126.1176
   680.5000      0.0000    738.3277      9.9895    124.2901
   680.7500      0.0000    738.4728     10.1277    124.3298
   681.0000      0.0000    739.4983     10.2828    126.0497
   681.2500      0.0000    742.2335     10.4402    128.7769
   681.5000      0.0000    747.4889     10.6107    131.1138
   681.7500      0.0000    755.1685     10.8214    131.2125
   682.0000      0.0000    763.6781     11.0961    128.2622
   682.2500      0.0000    770.4330     11.4471    123.7098
   682.5000      0.0000    773.2079     11.8728    120.2783
   682.7500      0.0000    771.2759     12.3573    119.7933
   683.0000      0.0000    765.8110     12.8716    122.2842
   683.2500      0.0000    759.4229     13.3687    126.6771
   683.5000      0.0000    754.6515     13.7801    131.5321
   683.7500      0.0000    752.2249     14.0389    135.1882
   684.0000      0.0000    750.8860     14.1238    136.1603
   684.2500      0.0000    749.1209     14.0780    134.1570
   684.5000      0.0000    746.7151     13.9753    130.5834
   684.7500      0.0000    744.4875     13.8654    127.5387
   685.0000      0.0000    743.0865     13.7571    126.2795
   685.2500      0.0000    742.4591     13.6433    126.6405
   685.5000      0.0000    742.1592     13.5257    127.4525
   685.7500      0.0000    741.7114     13.4079    127.4481
   686.0000      0.0000    740.6323     13.2797    126.2639
   686.2500      0.0000    738.3152     13.1171    124.6469
   686.5000      0.0000    734.2003     12.8994    123.4281
   686.7500      0.0000    728.3271     12.6297    122.7401
   687.0000      0.0000    721.7670     12.3415    122.7579
   687.2500      0.0000    716.2737     12.0801    124.4870
   687.5000      0.0000    713.3658     11.8700    128.6830
   687.7500      0.0000    713.7211     11.6984    134.1223
   688.0000      0.0000    717.1609     11.5316    137.9958
   688.2500      0.0000    722.7571     11.3513    138.3931
   688.5000      0.0000    728.9708     11.1719    136.0325
   688.7500      0.0000    734.1761     11.0177    133.4159
   689.0000      0.0000    737.3862     10.8902    132.7054
   689.2500      0.0000    738.4759     10.7727    134.5204
   689.5000      0.0000    737.8345     10.6592    138.2077
   689.7500      0.0000    736.1039     10.5638    142.4759
   690.0000      0.0000    734.2305     10.5013    145.4588
   690.2500      0.0000    733.2827     10.4702    144.9380
   690.5000      0.0000    733.7842     10.4503    139.8066
   690.7500      0.0000    735.2979     10.4113    131.7814
   691.0000      0.0000    736.8881     10.3304    124.8015
   691.2500      0.0000    737.9184     10.1989    121.8213
   691.5000      0.0000    738.3309     10.0125    122.2024
   691.7500      0.0000    738.3790      9.7672    122.6446
   692.0000      0.0000    738.3063      9.4756    120.7087
   692.2500      0.0000    738.2401      9.1733    117.0488
   692.5000      0.0000    738.2403      8.8939    113.9545
   692.7500      0.0000    738.3578      8.6501    112.2855
   693.0000      0.0000    738.6637      8.4489    110.9000
   693.2500      0.0000    739.3084      8.3104    108.8485
   693.5000      0.0000    740.6530      8.2505    106.6472
   693.7500      0.0000    743.2672      8.2586    104.9875
   694.0000      0.0000    747.4445      8.3031    103.4410
   694.2500      0.0000    752.3671      8.3513    101.1185
   694.5000      0.0000    755.9648      8.3831     98.0515
   694.7500      0.0000    756.2767      8.3960     95.5336
   695.0000      0.0000    753.1977      8.3992     95.1185
   695.2500      0.0000    748.5449      8.3963     97.2806
   695.5000      0.0000    744.2907      8.3764    101.0243
   695.7500      0.0000    740.9714      8.3291    104.7414
