~Version Information
VERS.                      2.0: CWLS Log ASCII Standard - VERSION 2.0
WRAP.                       NO: One line per depth step
~Well Information Block
STRT.FT               545.0000: 
STOP.FT              1920.5000: 
STEP.FT                 0.1000: 
NULL.                -999.2500: 
COMP.          Pioneer Natural Resources: COMPANY
WELL.            Summers 21-19: WELL
FLD.           Purgatoire River: FIELD
LOC.           900' FNL & 1950' FWL: LOCATION
PROV.                 Colorado: PROVINCE
CNTY.               Las Animas: COUNTRY
SRVC.                Patterson: SERVICE COMPANY
DATE.          Mon Oct 17 07:05:22 2005: LOG DATE
UWI.           05 071 08315 00: UNIQUE WELL ID
~Curve Information Block
DEPT.FT            0 000 00 00: Depth
DCAL.in                       : CDL Caliper
RHOB.g/cc                     : CDL Bulk Density
RHOC.g/cc                     : CDL Density Correction
DPOR.pu                       : CDL Density Porosity
GR.GAPI                       : Gamma Ray
NPOR.pu                       : Neutron Porosity
~Parameter Information Block
~A  Depth       DCAL        RHOB        RHOC        DPOR         GR         NPOR    
# ...
  1908.2000      7.8143      2.5417      0.0854      6.5625   -999.2500   -999.2500
  1908.3000      7.8499      2.5669      0.1212      5.0363   -999.2500   -999.2500
  1908.4000      7.8499      2.5850      0.1700      3.9383   -999.2500   -999.2500
  1908.5000      7.8917      2.5835      0.2076      4.0311   -999.2500   -999.2500
  1908.6000      7.8917      2.5563      0.1513      5.6796   -999.2500   -999.2500
  1908.7000      7.8917      2.5180      0.0781      7.9976   -999.2500   -999.2500
  1908.8000      7.7077      2.4878      0.0693      9.8317   -999.2500   -999.2500
  1908.9000      7.7077      2.4749      0.0521     10.6091   -999.2500   -999.2500
  1909.0000      7.6409      2.4807      0.0626     10.2589   -999.2500   -999.2500
  1909.1000      7.6409      2.4945      0.0864      9.4246   -999.2500   -999.2500
  1909.2000      7.6409      2.5009      0.0579      9.0336   -999.2500   -999.2500
  1909.3000      7.7545      2.4956      0.0599      9.3604   -999.2500   -999.2500
  1909.4000      7.7545      2.4826      0.0590     10.1443   -999.2500   -999.2500
  1909.5000      7.8141      2.4679      0.0546     11.0347   -999.2500   -999.2500
  1909.6000      7.8141      2.4601     -0.0221     11.5079   -999.2500   -999.2500
  1909.7000      7.8141      2.4594      0.0302     11.5531   -999.2500   -999.2500
  1909.8000      7.8167      2.4520      0.0319     12.0023   -999.2500   -999.2500
  1909.9000      7.8167      2.4391      0.0210     12.7834   -999.2500   -999.2500
  1910.0000      7.8252      2.4381      0.0022     12.8422   -999.2500   -999.2500
  1910.1000      7.8252      2.4497      0.0392     12.1403   -999.2500   -999.2500
  1910.2000      7.8252      2.4590      0.0176     11.5782   -999.2500   -999.2500
  1910.3000      7.8295      2.4607      0.0434     11.4715   -999.2500   -999.2500
  1910.4000      7.8295      2.4541      0.0336     11.8714   -999.2500   -999.2500
  1910.5000      7.8321      2.4422      0.0098     12.5937   -999.2500   -999.2500
  1910.6000      7.8321      2.4439     -0.0179     12.4904   -999.2500   -999.2500
  1910.7000      7.8321      2.4672      0.0336     11.0789   -999.2500   -999.2500
  1910.8000      7.8311      2.4961      0.0447      9.3252   -999.2500   -999.2500
  1910.9000      7.8311      2.5247      0.0069      7.5914   -999.2500   -999.2500
  1911.0000      7.8235      2.5494      0.0876      6.0977   -999.2500   -999.2500
  1911.1000      7.8235      2.5547      0.0504      5.7764   -999.2500   -999.2500
  1911.2000      7.8235      2.5457      0.0483      6.3189   -999.2500   -999.2500
  1911.3000      7.8109      2.5406      0.0608      6.6310   -999.2500   -999.2500
  1911.4000      7.8109      2.5425      0.0660      6.5139   -999.2500   -999.2500
  1911.5000      7.8018      2.5545      0.0259      5.7860   -999.2500   -999.2500
  1911.6000      7.8018      2.5859      0.0512      3.8859   -999.2500   -999.2500
  1911.7000      7.8018      2.6238      0.1183      1.5865   -999.2500   -999.2500
  1911.8000      7.7618      2.6391      0.1072      0.6600   -999.2500   -999.2500
  1911.9000      7.7618      2.6193      0.1196      1.8586   -999.2500   -999.2500
  1912.0000      7.7499      2.5772      0.0862      4.4119   -999.2500   -999.2500
  1912.1000      7.7499      2.5472     -0.0059      6.2290   -999.2500   -999.2500
  1912.2000      7.7499      2.5520      0.0333      5.9390   -999.2500   -999.2500
  1912.3000      7.7561      2.5763      0.0646      4.4647   -999.2500   -999.2500
  1912.4000      7.7561      2.5971      0.0488      3.2070   -999.2500   -999.2500
  1912.5000      7.7228      2.6125      0.0480      2.2752   -999.2500   -999.2500
  1912.6000      7.7228      2.6299      0.0759      1.2153   -999.2500   -999.2500
  1912.7000      7.7228      2.6377      0.1077      0.7445   -999.2500   -999.2500
  1912.8000      7.7400      2.6133      0.1182      2.2261   -999.2500   -999.2500
  1912.9000      7.7400      2.5682      0.0344      4.9561   -999.2500   -999.2500
  1913.0000      7.7568      2.5433      0.0161      6.4675   -999.2500   -999.2500
  1913.1000      7.7568      2.5475      0.0685      6.2120   -999.2500   -999.2500
  1913.2000      7.7568      2.5580      0.0124      5.5768   -999.2500   -999.2500
  1913.3000      7.7524      2.5603      0.0853      5.4389   -999.2500   -999.2500
  1913.4000      7.7524      2.5612     -0.0312      5.3831   -999.2500   -999.2500
  1913.5000      7.7439      2.5788      0.0601      4.3163   -999.2500   -999.2500
  1913.6000      7.7439      2.6117      0.0626      2.3216   -999.2500   -999.2500
  1913.7000      7.7439      2.6463      0.1052      0.2236   -999.2500   -999.2500
  1913.8000      7.7778      2.6689      0.1510     -1.1462   -999.2500   -999.2500
  1913.9000      7.7778      2.6713      0.1460     -1.2916   -999.2500   -999.2500
  1914.0000      7.7733      2.6656      0.1080     -0.9445   -999.2500   -999.2500
  1914.1000      7.7733      2.6626      0.1478     -0.7613   -999.2500   -999.2500
  1914.2000      7.7733      2.6468      0.1294      0.1912   -999.2500   -999.2500
  1914.3000      7.7357      2.6105      0.0670      2.3918   -999.2500   -999.2500
  1914.4000      7.7357      2.5722      0.0657      4.7155   -999.2500   -999.2500
  1914.5000      7.7226      2.5499      0.0133      6.0663   -999.2500   -999.2500
  1914.6000      7.7226      2.5406      0.0732      6.6303   -999.2500   -999.2500
  1914.7000      7.7226      2.5293      0.0227      7.3159   -999.2500   -999.2500
  1914.8000      7.7272      2.5155      0.0169      8.1486   -999.2500   -999.2500
  1914.9000      7.7272      2.5142     -0.0246      8.2322   -999.2500   -999.2500
  1915.0000      7.7705      2.5380     -0.0076      6.7867   -999.2500   -999.2500
  1915.1000      7.7705      2.5777      0.0684      4.3842   -999.2500   -999.2500
  1915.2000      7.7705      2.6089      0.1063      2.4934   -999.2500   -999.2500
  1915.3000      7.7779      2.6232      0.1019      1.6224   -999.2500   -999.2500
  1915.4000      7.7779      2.6290      0.1281      1.2735   -999.2500   -999.2500
  1915.5000      7.7611      2.6309      0.1461      1.1589   -999.2500   -999.2500
  1915.6000      7.7611      2.6268      0.1503      1.4040   -999.2500   -999.2500
  1915.7000      7.7611      2.6181      0.1541      1.9314   -999.2500   -999.2500
  1915.8000      7.7586      2.6111      0.1183      2.3592   -999.2500   -999.2500
  1915.9000      7.7586      2.6114      0.1073      2.3420   -999.2500   -999.2500
  1916.0000      7.6811      2.6150      0.1063      2.1200   -999.2500   -999.2500
  1916.1000      7.6811      2.6130      0.1027      2.2445   -999.2500   -999.2500
  1916.2000      7.6811      2.6012      0.0938      2.9557   -999.2500   -999.2500
  1916.3000      7.6898      2.5768      0.0638      4.4339   -999.2500   -999.2500
  1916.4000      7.6898      2.5443      0.0530      6.4083   -999.2500   -999.2500
  1916.5000      7.7371      2.5214      0.0690      7.7915   -999.2500   -999.2500
  1916.6000      7.7371      2.5219      0.0818      7.7606   -999.2500   -999.2500
  1916.7000      7.7371      2.5463      0.0792      6.2865   -999.2500   -999.2500
  1916.8000      7.7484      2.6022      0.1164      2.8994   -999.2500   -999.2500
  1916.9000      7.7484      2.7174      0.1173     -4.0828   -999.2500   -999.2500
  1917.0000      7.6606      2.7688      0.1500     -7.1975   -999.2500   -999.2500
  1917.1000      7.6606      2.3241      0.6307     19.7505   -999.2500   -999.2500
  1917.2000      7.6606      1.3211      0.0100     80.5424   -999.2500   -999.2500
  1917.3000      7.5868      0.4480      0.0100    133.4522   -999.2500   -999.2500
  1917.4000      7.5868      0.0851   -999.2500    155.4499   -999.2500   -999.2500
  1917.5000      7.2929      0.0088   -999.2500    160.0746   -999.2500   -999.2500
  1917.6000      7.2929      0.0005   -999.2500    160.5772   -999.2500   -999.2500
  1917.7000      7.2929      0.0000   -999.2500    160.6061   -999.2500   -999.2500
