~Version Information
VERS.                      2.0: CWLS Log ASCII Standard - VERSION 2.0
WRAP.                       NO: One line per depth step
~Well Information Block
STRT.FT               590.0000: 
STOP.FT              1563.5000: 
STEP.FT                 0.2500: 
NULL.                -999.2500: 
COMP.          Petrogulf Corporation: COMPANY
WELL.             State 16-43R: WELL
FLD.           Purgatorie River: FIELD
LOC.           2538' FSL & 716' FEL: LOCATION
PROV.                 Colorado: PROVINCE
CNTY.               Las Animas: COUNTRY
SRVC.                Patterson: SERVICE COMPANY
DATE.          Tue Aug 09 14:21:37 2005: LOG DATE
UWI.                          : UNIQUE WELL ID
~Curve Information Block
DEPT.FT            0 000 00 00: Depth
RILD.Ohm-m                    : DIL Deep Resistivity
RILM.Ohm-m                    : DIL Medium Resistivity
GR.GAPI                       : Gamma Ray
~Parameter Information Block
~A  Depth       RILD        RILM         GR     
# ...
   965.7500     16.6668     20.6798    137.4359
   966.0000     16.3663     18.6113    140.3135
   966.2500     16.1616     17.8771    140.9738
   966.5000     15.7597     17.2022    139.5755
   966.7500     15.2736     15.6993    149.3017
   967.0000     14.7821     14.9045    163.4987
   967.2500     14.2441     14.1651    163.3043
   967.5000     13.6530     13.2084    159.8410
   967.7500     13.3958     12.9980    161.9255
   968.0000     12.7089     12.4898    167.9772
   968.2500     12.2459     12.2599    163.4552
   968.5000     11.9867     12.1597    169.6689
   968.7500     11.6785     12.1038    169.6068
   969.0000     11.2979     12.0543    166.3968
   969.2500     11.0435     11.8443    162.3110
   969.5000     10.5480     11.5412    164.1796
   969.7500     10.0474     11.1144    163.5975
   970.0000     10.1643     10.5764    172.5066
   970.2500     10.2357      9.9718    162.2900
   970.5000     10.1754      9.7969    167.2244
   970.7500     10.1506      9.6671    172.4169
   971.0000     10.2421      9.7059    174.0387
   971.2500     10.5147      9.6576    171.0362
   971.5000     10.5562      9.6058    165.4576
   971.7500     10.5371      9.8486    155.2503
   972.0000     10.7430     10.1860    155.3421
   972.2500     10.6380     10.5399    151.8806
   972.5000     10.4410     10.7406    134.2766
   972.7500     10.5791     11.1554    127.5238
   973.0000     10.8178     11.4633    123.2281
   973.2500     11.4089     11.9966    112.2904
   973.5000     11.6608     12.0238    116.4668
   973.7500     12.0070     11.8589    119.3637
   974.0000     12.4352     11.9226    122.4972
   974.2500     12.5005     12.3278    125.5792
   974.5000     13.3514     12.7640    120.5826
   974.7500     14.2656     13.2034    120.2978
   975.0000     14.6664     13.8308    111.4768
   975.2500     15.4206     14.3828    105.9535
   975.5000     16.3259     15.6212    108.0009
   975.7500     15.9682     16.2847    103.8669
   976.0000     15.8523     18.1244     94.1069
   976.2500     16.9131     20.2096     88.1860
   976.5000     17.3341     21.3314     85.4349
   976.7500     17.2506     22.8951     83.0773
   977.0000     17.9873     22.8917     87.8307
   977.2500     17.7748     24.4709     94.8035
   977.5000     17.8521     25.5110     86.4454
   977.7500     18.0814     25.6785     84.5301
   978.0000     17.5854     26.3544     92.3950
   978.2500     16.5753     24.2748     96.5632
   978.5000     16.0182     21.6601    113.5692
   978.7500     14.6258     18.6938    124.2238
   979.0000     14.3879     16.7398    136.0536
   979.2500     14.2587     14.1707    151.2167
   979.5000     13.5444     13.3983    161.3429
   979.7500     14.1235     12.2226    163.4177
   980.0000     12.7772     11.1710    170.7247
   980.2500     12.2175     10.8964    175.9586
   980.5000     12.0883     10.9777    161.3684
   980.7500     11.5124     10.6650    152.2494
   981.0000     11.1472     10.6895    142.5548
   981.2500     10.9097     10.6478    139.6294
   981.5000     10.7582     10.3114    149.8102
   981.7500     10.9699     10.0902    154.2361
   982.0000     11.2272     10.1629    154.4013
   982.2500     11.6700     10.2316    144.2632
   982.5000     12.0901     10.7337    160.3771
   982.7500     12.7415     11.0711    160.1588
   983.0000     13.4191     12.1332    142.7121
   983.2500     14.3133     14.2430    123.7593
   983.5000     14.0925     19.2988    109.2314
   983.7500     14.5346     19.0959     98.0817
   984.0000     15.3591     19.1034     94.5370
   984.2500     15.3013     23.2301     95.0009
   984.5000     15.2148     20.9847     95.4962
   984.7500     15.1353     20.6408     95.4047
   985.0000     14.9980     19.5458    105.4301
   985.2500     15.3684     18.6283    118.2221
   985.5000     15.5036     17.5915    134.1169
   985.7500     16.0174     16.5406    146.6039
   986.0000     16.2978     15.8174    150.0028
   986.2500     16.3016     15.7012    148.4813
   986.5000     15.7180     15.1681    157.1160
   986.7500     15.0000     14.9173    153.5086
   987.0000     14.3666     14.6685    149.4362
   987.2500     14.4869     15.0132    148.2766
   987.5000     13.8932     14.6754    151.5979
   987.7500     13.8473     13.9872    143.9523
   988.0000     13.9305     13.6100    147.1184
   988.2500     14.1244     13.3668    144.8590
   988.5000     14.4171     13.9776    146.2682
   988.7500     15.2172     14.5697    138.2591
   989.0000     16.2154     15.1784    127.2392
   989.2500     17.4139     16.3250    110.2142
   989.5000     16.8780     17.4543     97.0125
   989.7500     17.7209     18.2333     95.7004
   990.0000     16.9959     19.3971     99.4901
   990.2500     17.9572     20.0388    103.7517
   990.5000     17.1331     20.9246    110.3454
   990.7500     17.3043     21.4391    117.2467
   991.0000     18.3427     20.6218    122.8272
   991.2500     18.6989     20.8822    131.7599
   991.5000     18.8161     20.3586    134.3851
   991.7500     19.8163     20.4411    138.3700
   992.0000     21.2042     21.5331    128.5017
   992.2500     21.7951     21.2507    115.7768
   992.5000     21.0683     22.5612     99.3550
   992.7500     21.3023     24.7225     90.3058
   993.0000     21.6070     26.7871     83.8835
   993.2500     23.4023     24.8400     83.0596
   993.5000     22.6301     28.7639     79.3178
   993.7500     21.5160     34.8881     80.9283
   994.0000     22.5739     26.0051     99.5466
   994.2500     22.4606     27.0590    106.3490
   994.5000     23.5046     26.8064     97.4605
   994.7500     24.6846     26.6311    107.0602
   995.0000     26.1699     27.4568    105.3901
   995.2500     26.4337     29.4093    102.2781
   995.5000     26.1623     29.1705     99.6844
   995.7500     25.9290     28.7439     99.9443
   996.0000     26.0561     28.5309     92.2602
   996.2500     26.1325     29.2453     95.7319
   996.5000     26.4671     27.6326    109.2592
   996.7500     24.3855     27.5407    113.0772
   997.0000     22.6726     24.8703    106.9722
   997.2500     21.8649     25.1418    105.3630
   997.5000     21.1540     25.4566    111.7543
   997.7500     20.6594     23.7359    114.2406
   998.0000     19.6636     23.0788    122.1788
   998.2500     19.4556     21.8464    131.7064
   998.5000     18.7149     19.5935    129.7096
   998.7500     17.4417     18.5662    129.6522
   999.0000     16.8907     17.5874    122.4137
   999.2500     16.4251     16.8198    123.2880
   999.5000     16.6026     16.1839    128.4481
   999.7500     15.8643     15.6255    136.2940
  1000.0000     15.0262     14.7096    144.9019
  1000.2500     14.2259     14.4103    152.4389
  1000.5000     13.4933     13.4828    146.8725
  1000.7500     13.5776     13.3822    139.3602
  1001.0000     12.8306     13.1799    146.4287
  1001.2500     12.9829     12.3851    152.9192
  1001.5000     12.3834     12.1383    164.7859
  1001.7500     12.0874     11.9592    160.9896
  1002.0000     11.9837     11.5245    157.4186
  1002.2500     12.1221     11.6869    153.7842
  1002.5000     11.9091     11.2393    159.3019
  1002.7500     11.6641     10.9833    159.7418
  1003.0000     11.7683     11.0272    164.0839
  1003.2500     12.1490     12.0236    164.1744
  1003.5000     11.9080     11.0981    157.3429
  1003.7500     12.3167     10.9818    158.0236
  1004.0000     12.4357     11.4181    150.8832
  1004.2500     12.8866     11.6918    148.1287
  1004.5000     12.8401     12.8640    147.1485
  1004.7500     13.5176     13.6216    143.0486
  1005.0000     13.8186     14.3214    127.2077
  1005.2500     14.1086     15.9192    123.8240
  1005.5000     14.0807     16.7117    119.3693
  1005.7500     13.8026     17.1667    115.9050
  1006.0000     13.4843     17.7624    113.3677
  1006.2500     12.9126     18.0098    121.3294
  1006.5000     12.7769     17.8180    131.7618
  1006.7500     12.6165     16.7324    126.0711
  1007.0000     12.1646     14.9046    129.6439
  1007.2500     11.7482     13.7927    137.1129
