~Version Information
VERS.                      2.0: CWLS Log ASCII Standard - VERSION 2.0
WRAP.                       NO: One line per depth step
~Well Information Block
STRT.FT                15.0000: 
STOP.FT              1211.0000: 
STEP.FT                 0.2500: 
NULL.                -999.2500: 
COMP.          Pioneer Natural Resources: COMPANY
WELL.          Santa Fe 43-27 Tr: WELL
FLD.           Purgatoire River: FIELD
LOC.           2018' FSL & 534' FEL: LOCATION
PROV.                 Colorado: PROVINCE
CNTY.               Las Animas: COUNTRY
SRVC.                Patterson: SERVICE COMPANY
DATE.          Mon Mar 14 15:43:40 2005: LOG DATE
UWI.           05 071 08303 00: UNIQUE WELL ID
~Curve Information Block
DEPT.FT            0 000 00 00: Depth
GR.GAPI                       : Gamma Ray
CCL.                          : Casing Collar Locator
TT3.usec                      : CBL 3' Travel Time
AMP3.mV                       : CBL 3' Amplitude
AMP5.mV                       : CBL 5' Amplitude
~Parameter Information Block
~A  Depth        GR         CCL         TT3         AMP3        AMP5    
# ...
   491.0000    128.9465      0.0000    803.2067     12.4346      2.2381
   491.2500    131.9205      0.0000    803.2243     12.4446      2.2399
   491.5000    132.6673      0.0000    803.1751     12.4680      2.2494
   491.7500    130.9079      0.0000    803.0518     12.4970      2.2597
   492.0000    127.9893      0.0000    802.8732     12.5284      2.2615
   492.2500    126.2479      0.0000    802.6680     12.5623      2.2479
   492.5000    127.2120      0.0000    802.4946     12.5927      2.2182
   492.7500    130.5028      0.0000    802.5084     12.6067      2.1763
   493.0000    134.2115      0.0000    803.0565     12.5999      2.1277
   493.2500    136.0444      0.0000    804.6536     12.5777      2.0779
   493.5000    134.6754      0.0000    807.8310     12.5326      2.0329
   493.7500    130.7125      0.0000    813.3541     12.4335      1.9988
   494.0000    126.2147      0.0000    823.2781     12.2573      1.9804
   494.2500    122.9098      0.0000    841.4371     12.0248      1.9795
   494.5000    121.0093      0.0000    870.2797     11.7897      1.9926
   494.7500    119.8122      0.0000    905.1094     11.5984      2.0112
   495.0000    118.8777      0.0000    933.9255     11.4683      2.0232
   495.2500    118.3397      0.0000    947.9695     11.3945      2.0200
   495.5000    118.5213      0.0000    952.9001     11.3581      2.0000
   495.7500    119.5184      0.0000    964.2880     11.3253      1.9687
   496.0000    120.9206      0.0000    988.9977     11.2563      1.9330
   496.2500    121.7677      0.0000   1014.8872     11.1274      1.8982
   496.5000    120.9491      0.0000   1023.5679     10.9422      1.8687
   496.7500    117.8171      0.0000   1010.5796     10.7241      1.8485
   497.0000    112.5213      0.0000    986.8434     10.5084      1.8392
   497.2500    106.0363      0.0000    962.4828     10.3389      1.8371
   497.5000    100.1566      0.0000    937.8397     10.2587      1.8341
   497.7500     97.1696      0.0000    910.7501     10.2903      1.8251
   498.0000     98.6926      0.0000    884.2939     10.4215      1.8130
   498.2500    104.2358      0.0000    864.1000     10.6136      1.8070
   498.5000    111.0032      0.0000    852.3897     10.8261      1.8158
   498.7500    115.5426      0.0000    847.2267     11.0371      1.8432
   499.0000    116.0782      0.0000    845.5045     11.2508      1.8877
   499.2500    113.5918      0.0000    845.0946     11.4905      1.9432
   499.5000    110.5060      0.0000    845.0643     11.7815      2.0019
   499.7500    108.0934      0.0000    845.1160     12.1291      2.0575
   500.0000    105.5329      0.0000    845.1791     12.5085      2.1063
   500.2500    101.6732      0.0000    845.2560     12.8791      2.1469
   500.5000     96.7852      0.0000    845.3696     13.2082      2.1800
   500.7500     91.9046      0.0000    845.5235     13.4788      2.2093
   501.0000     87.2452      0.0000    845.6917     13.6803      2.2400
   501.2500     82.1649      0.0000    845.8267     13.8089      2.2766
   501.5000     76.3563      0.0000    845.8873     13.8742      2.3204
   501.7500     70.3976      0.0000    845.8792     13.8943      2.3690
   502.0000     65.2259      0.0000    845.8645     13.8827      2.4156
   502.2500     61.4179      0.0000    845.8784     13.8498      2.4511
   502.5000     58.8418      0.0000    845.7570     13.8172      2.4682
   502.7500     56.8090      0.0000    844.9436     13.8138      2.4688
   503.0000     54.7422      0.0000    842.4617     13.8465      2.4646
   503.2500     52.7947      0.0000    837.3611     13.8848      2.4690
   503.5000     51.6981      0.0000    829.6095     13.8890      2.4869
   503.7500     51.9068      0.0000    820.6302     13.8497      2.5113
   504.0000     52.9191      0.0000    812.6312     13.7914      2.5300
   504.2500     53.5487      0.0000    807.2086     13.7442      2.5339
   504.5000     52.9607      0.0000    804.6874     13.7166      2.5200
   504.7500     51.3796      0.0000    804.7465     13.6923      2.4914
   505.0000     49.7474      0.0000    807.3287     13.6486      2.4560
   505.2500     48.8546      0.0000    812.6920     13.5776      2.4241
   505.5000     48.9172      0.0000    820.5689     13.4863      2.4030
   505.7500     49.7688      0.0000    829.6378     13.3798      2.3933
   506.0000     51.1786      0.0000    838.3013     13.2501      2.3888
   506.2500     52.9418      0.0000    846.1774     13.0851      2.3802
   506.5000     54.8187      0.0000    854.3754     12.8863      2.3593
   506.7500     56.4722      0.0000    863.6436     12.6782      2.3224
   507.0000     57.4843      0.0000    872.4921     12.4926      2.2725
   507.2500     57.6060      0.0000    878.7296     12.3410      2.2167
   507.5000     57.1532      0.0000    884.5255     12.2087      2.1626
   507.7500     56.9407      0.0000    899.2010     12.0803      2.1156
   508.0000     57.5205      0.0000    934.1169     11.9582      2.0774
   508.2500     58.6031      0.0000    992.0176     11.8460      2.0463
   508.5000     59.6039      0.0000   1060.4215     11.7268      2.0185
   508.7500     60.7598      0.0000   1116.0566     11.5724      1.9904
   509.0000     63.1300      0.0000   1137.3438     11.3735      1.9624
   509.2500     67.0355      0.0000   1116.0983     11.1502      1.9393
   509.5000     70.8383      0.0000   1062.2621     10.9347      1.9270
   509.7500     71.9335      0.0000   1000.0489     10.7553      1.9260
   510.0000     69.0793      0.0000    955.9938     10.6357      1.9298
   510.2500     63.4992      0.0000    944.3570     10.5982      1.9281
   510.5000     57.7358      0.0000    961.2422     10.6571      1.9158
   510.7500     53.6728      0.0000    994.2537     10.8107      1.8959
   511.0000     51.5503      0.0000   1037.2117     11.0385      1.8772
   511.2500     50.4625      0.0000   1090.4875     11.3059      1.8673
   511.5000     49.5903      0.0000   1146.2294     11.5753      1.8687
   511.7500     49.0611      0.0000   1181.3784     11.8183      1.8780
   512.0000     49.7577      0.0000   1172.0448     12.0125      1.8878
   512.2500     52.3285      0.0000   1114.1135     12.1296      1.8914
   512.5000     56.4047      0.0000   1028.2711     12.1339      1.8860
   512.7500     60.8480      0.0000    945.4553     12.0030      1.8741
   513.0000     64.7674      0.0000    887.0895     11.7485      1.8610
   513.2500     68.2536      0.0000    856.6431     11.4176      1.8512
   513.5000     72.2368      0.0000    845.4939     11.0738      1.8463
   513.7500     77.7797      0.0000    843.3114     10.7724      1.8445
   514.0000     85.2715      0.0000    843.6719     10.5452      1.8424
   514.2500     93.8875      0.0000    844.0903     10.4025      1.8385
   514.5000    101.7415      0.0000    844.1415     10.3395      1.8352
   514.7500    106.8914      0.0000    844.1334     10.3405      1.8381
   515.0000    108.7233      0.0000    844.9742     10.3807      1.8534
   515.2500    108.6405      0.0000    849.1497     10.4366      1.8862
   515.5000    109.0862      0.0000    862.3626     10.5011      1.9390
   515.7500    111.4738      0.0000    893.9410     10.5881      2.0124
   516.0000    115.1652      0.0000    952.5848     10.7227      2.1042
   516.2500    118.5096      0.0000   1037.5287     10.9341      2.2088
   516.5000    120.4918      0.0000   1133.3771     11.2570      2.3173
   516.7500    121.3528      0.0000   1217.0000     11.7266      2.4199
   517.0000    122.1063      0.0000   1271.1340     12.3656      2.5081
   517.2500    123.6707      0.0000   1290.3212     13.1683      2.5739
   517.5000    126.2720      0.0000   1276.3488     14.0868      2.6093
   517.7500    129.4157      0.0000   1235.3401     15.0196      2.6102
   518.0000    132.1769      0.0000   1182.8676     15.8170      2.5812
   518.2500    133.5108      0.0000   1145.3096     16.3121      2.5325
   518.5000    132.6942      0.0000   1145.3324     16.3719      2.4677
   518.7500    129.7172      0.0000   1183.0874     15.9480      2.3780
