~Version Information
VERS.                      2.0: CWLS Log ASCII Standard - VERSION 2.0
WRAP.                       NO: One line per depth step
~Well Information Block
STRT.FT               -12.5000: 
STOP.FT              1613.0000: 
STEP.FT                 0.2500: 
NULL.                -999.2500: 
COMP.          Pioneer Natural Resources: COMPANY
WELL.          Peregrine 12-20: WELL
FLD.           Purgatorie River: FIELD
LOC.           1722' FNL & 999' FWL--: LOCATION
PROV.                       CO: PROVINCE
CNTY.               Las Animas: COUNTRY
SRVC.          Patterson Wireline: SERVICE COMPANY
DATE.          Fri Jul 22 12:50:00 2005: LOG DATE
UWI.           05 071 08428 00: UNIQUE WELL ID
~Curve Information Block
DEPT.FT            0 000 00 00: Depth
CCL.                          : Casing Collar Locator
TT3.usec                      : CBL 3' Travel Time
AMP3.mV                       : CBL 3' Amplitude
GR.GAPI                       : Gamma Ray
~Parameter Information Block
~A  Depth       CCL         TT3         AMP3         GR     
# ...
  1394.5000      0.0000    734.5745      7.7307     79.1145
  1394.7500      0.0000    739.9438      7.7905     83.0600
  1395.0000      0.0000    749.4359      7.8110     88.3282
  1395.2500      0.0000    762.7525      7.7853     94.4987
  1395.5000      0.0000    777.1406      7.7302    100.3720
  1395.7500      0.0000    788.3063      7.6791    104.3357
  1396.0000      0.0000    792.6397      7.6638    105.4224
  1396.2500      0.0000    789.0728      7.6907    103.6707
  1396.5000      0.0000    779.7183      7.7296     99.7366
  1396.7500      0.0000    769.0531      7.7354     94.6922
  1397.0000      0.0000    761.4907      7.6844     89.9229
  1397.2500      0.0000    758.7243      7.5873     86.4200
  1397.5000      0.0000    759.3316      7.4786     84.0452
  1397.7500      0.0000    760.8107      7.3967     82.0128
  1398.0000      0.0000    761.5302      7.3686     80.2393
  1398.2500      0.0000    760.8965      7.4001     79.7436
  1398.5000      0.0000    758.5576      7.4762     81.4414
  1398.7500      0.0000    754.1182      7.5674     84.8393
  1399.0000      0.0000    747.6998      7.6361     88.3296
  1399.2500      0.0000    740.4504      7.6472     90.6626
  1399.5000      0.0000    734.1113      7.5891     91.5933
  1399.7500      0.0000    729.8914      7.4855     91.1023
  1400.0000      0.0000    727.7321      7.3748     88.9253
  1400.2500      0.0000    726.4334      7.2793     85.3114
  1400.5000      0.0000    724.2474      7.2006     81.5417
  1400.7500      0.0000    719.6697      7.1386     79.0610
  1401.0000      0.0000    712.3857      7.1025     78.3505
  1401.2500      0.0000    703.7648      7.1080     78.8991
  1401.5000      0.0000    696.2164      7.1616     80.0368
  1401.7500      0.0000    691.9036      7.2430     81.5305
  1402.0000      0.0000    692.2370      7.2940     83.4029
  1402.2500      0.0000    698.2750      7.2322     85.4702
  1402.5000      0.0000    710.6639      7.0022     87.4735
  1402.7500      0.0000    728.5961      6.6371     89.6061
  1403.0000      0.0000    749.1597      6.2586     92.2412
  1403.2500      0.0000    768.0991      5.9943     94.9339
  1403.5000      0.0000    781.4157      5.8862     96.4191
  1403.7500      0.0000    787.2309      5.8820     96.0472
  1404.0000      2.0000    787.0751      5.9017     94.5494
  1404.2500      2.0000    784.3210      5.8958     92.8353
  1404.5000      0.0000    780.0710      5.8404     90.6963
  1404.7500      0.0000    771.7162      5.7112     87.3478
  1405.0000      0.0000    757.0422      5.4932     82.8691
  1405.2500      0.0000    738.9980      5.2078     78.5488
  1405.5000      0.0000    724.9567      4.8996     75.9455
  1405.7500      0.0000    721.1623      4.6001     75.7575
  1406.0000      0.0000    728.2693      4.3264     77.1950
  1406.2500      0.0000    741.5524      4.1000     78.0686
  1406.5000      0.0000    754.3191      3.9396     75.9516
  1406.7500      0.0000    761.5239      3.8376     70.0353
  1407.0000      0.0000    762.0393      3.7595     62.0814
  1407.2500      0.0000    758.6334      3.6724     55.3762
  1407.5000      0.0000    755.3489      3.5792     52.5776
  1407.7500      0.0000    754.5393      3.5331     54.1345
  1408.0000      0.0000    756.4595      3.6168     58.1585
  1408.2500      0.0000    760.5296      3.8959     61.7300
  1408.5000      0.0000    765.2188      4.3891     62.8654
  1408.7500      0.0000    766.6567      5.0838     61.5818
  1409.0000      0.0000    758.1577      5.9681     59.1996
  1409.2500      0.0000    731.3268      7.0293     56.8463
  1409.5000      0.0000    678.9598      8.2302     54.6197
  1409.7500      0.0000    600.8236      9.5129     51.8440
  1410.0000      0.0000    508.9202     10.8274     48.0503
  1410.2500      0.0000    423.8444     12.1413     43.8713
  1410.5000      0.0000    362.1024     13.4417     40.8782
  1410.7500      0.0000    326.9658     14.7567     40.3527
  1411.0000      0.0000    311.1609     16.1608     42.3597
  1411.2500      0.0000    305.3788     17.7171     46.0379
  1411.5000      0.0000    303.4815     19.4031     50.3076
  1411.7500      0.0000    302.7503     21.1045     54.0934
  1412.0000      0.0000    302.3257     22.6802     56.5269
  1412.2500      0.0000    302.0302     24.0144     57.5180
  1412.5000      0.0000    301.8451     25.0115     57.8972
  1412.7500      0.0000    301.7798     25.5789     58.7072
  1413.0000      0.0000    301.8218     25.6463     60.6238
  1413.2500      0.0000    301.9399     25.2024     63.9707
  1413.5000      0.0000    302.0980     24.3013     68.7432
  1413.7500      0.0000    302.2710     23.0446     74.5234
  1414.0000      0.0000    302.4889     21.5633     80.6805
  1414.2500      0.0000    302.9132     19.9967     86.6332
  1414.5000      0.0000    304.2229     18.4523     91.9006
  1414.7500      0.0000    308.6334     16.9794     96.2169
  1415.0000      0.0000    321.5483     15.5838     99.5980
  1415.2500      0.0000    352.0639     14.2613    102.0227
  1415.5000      0.0000    409.0287     13.0141    103.2491
  1415.7500      0.0000    492.5941     11.8499    103.3131
  1416.0000      0.0000    588.8677     10.7806    102.9025
  1416.2500      0.0000    675.9167      9.8240    102.7381
  1416.5000      0.0000    737.2091      9.0029    102.8019
  1416.7500      0.0000    769.6202      8.3310    102.6699
  1417.0000      0.0000    780.6048      7.7895    102.4286
  1417.2500      0.0000    780.4772      7.3316    102.7284
  1417.5000      0.0000    776.7094      6.9224    103.8223
  1417.7500      0.0000    772.4194      6.5648    104.8882
  1418.0000      0.0000    768.0757      6.2746    104.8909
  1418.2500      0.0000    763.8528      6.0491    104.1354
  1418.5000      0.0000    760.4108      5.8734    104.1128
  1418.7500      0.0000    758.2682      5.7398    105.5158
  1419.0000      0.0000    757.4270      5.6455    107.2379
  1419.2500      0.0000    757.6954      5.5825    107.7129
  1419.5000      0.0000    758.9720      5.5344    106.6575
  1419.7500      0.0000    760.8271      5.4790    105.2755
  1420.0000      0.0000    761.9032      5.3983    104.9374
  1420.2500      0.0000    760.4013      5.2932    105.6415
  1420.5000      0.0000    755.8083      5.1874    106.0398
  1420.7500      0.0000    749.9077      5.1135    105.2797
  1421.0000      0.0000    745.4859      5.0953    104.1579
  1421.2500      0.0000    743.9951      5.1269    103.6517
  1421.5000      0.0000    744.6379      5.1564    102.9087
  1421.7500      0.0000    745.5840      5.1099     99.8151
  1422.0000      0.0000    745.8475      4.9561     93.3875
  1422.2500      0.0000    745.8220      4.7440     84.8845
  1422.5000      0.0000    746.0707      4.5593     76.8612
  1422.7500      0.0000    746.2151      4.4540     71.7263
  1423.0000      0.0000    745.4810      4.4377     70.7626
  1423.2500      0.0000    743.9624      4.5131     73.6647
  1423.5000      0.0000    742.6260      4.6728     78.7041
  1423.7500      0.0000    742.0730      4.8639     83.6981
  1424.0000      0.0000    742.0313      5.0033     87.3312
  1424.2500      0.0000    742.3221      5.0453     89.7152
  1424.5000      0.0000    743.5949      5.0215     91.5737
  1424.7500      0.0000    746.4883      5.0098     93.0112
  1425.0000      0.0000    750.5629      5.0697     93.2763
  1425.2500      0.0000    754.6964      5.2044     91.6800
  1425.5000      0.0000    758.4543      5.3724     88.6247
  1425.7500      0.0000    762.7724      5.5311     85.6613
  1426.0000      0.0000    769.2838      5.6644     84.2957
  1426.2500      0.0000    778.7939      5.7713     84.6411
  1426.5000      0.0000    789.9952      5.8375     85.5604
  1426.7500      0.0000    799.5847      5.8345     86.2278
  1427.0000      0.0000    804.0900      5.7478     87.0279
  1427.2500      0.0000    802.2934      5.5880     88.7329
  1427.5000      0.0000    796.2889      5.3725     91.3050
  1427.7500      0.0000    790.0081      5.1189     93.8861
