~Version Information
VERS.                      2.0: CWLS Log ASCII Standard - VERSION 2.0
WRAP.                       NO: One line per depth step
~Well Information Block
STRT.FT               860.0000: 
STOP.FT              2733.7500: 
STEP.FT                 0.2500: 
NULL.                -999.2500: 
COMP.          Pioneer Natural Resources: COMPANY
WELL.          Beacon 11-18 Tr: WELL
FLD.           Purgatoire River: FIELD
LOC.           409' FNL & 203' FWL: LOCATION
PROV.                 Colorado: PROVINCE
CNTY.               Las Animas: COUNTRY
SRVC.                Patterson: SERVICE COMPANY
DATE.          Sun Jan 16 19:36:19 2005: LOG DATE
UWI.           05 071 08251 00: UNIQUE WELL ID
~Curve Information Block
DEPT.FT            0 000 00 00: Depth
SN.Ohm-m                      : IEL Short Normal
SP.mV                         : IEL Spontaneous Potential
DIR.Ohm-m                     : IEL Induction Resistivity
GR.GAPI                       : Gamma Ray
~Parameter Information Block
~A  Depth        SN          SP         DIR          GR     
# ...
  2468.0000     24.0644     -2.4113     19.9234     99.2382
  2468.2500     25.3665     -2.6200     21.0494     92.7343
  2468.5000     26.9664     -2.8612     22.3354     83.8918
  2468.7500     28.8979     -3.1285     23.7766     79.5488
  2469.0000     31.1560     -3.4117     25.3805     75.8440
  2469.2500     33.6714     -3.6967     27.1412     74.7463
  2469.5000     36.3121     -3.9674     29.0103     73.7694
  2469.7500     38.9156     -4.2096     30.8889     73.0514
  2470.0000     41.3355     -4.4140     32.6523     71.8569
  2470.2500     43.4739     -4.5792     34.1901     71.1370
  2470.5000     45.2838     -4.7116     35.4281     70.1889
  2470.7500     46.7561     -4.8236     36.3307     69.6745
  2471.0000     47.9110     -4.9315     36.9097     69.5207
  2471.2500     48.7970     -5.0532     37.2349     70.0474
  2471.5000     49.4821     -5.2060     37.4187     71.3361
  2471.7500     50.0289     -5.4046     37.5718     71.8636
  2472.0000     50.4691     -5.6588     37.7618     71.3672
  2472.2500     50.7984     -5.9706     38.0001     70.3360
  2472.5000     50.9946     -6.3325     38.2486     68.7556
  2472.7500     51.0431     -6.7273     38.4387     68.1124
  2473.0000     50.9464     -7.1299     38.4999     67.4772
  2473.2500     50.7111     -7.5110     38.3925     66.7406
  2473.5000     50.3310     -7.8427     38.1141     64.8049
  2473.7500     49.7859     -8.1022     37.6681     63.3683
  2474.0000     49.0500     -8.2734     37.0198     61.9450
  2474.2500     48.0872     -8.3447     36.0961     61.6343
  2474.5000     46.8385     -8.3051     34.8380     61.8497
  2474.7500     45.2271     -8.1426     33.2567     62.4795
  2475.0000     43.1851     -7.8469     31.4412     64.7304
  2475.2500     40.6887     -7.4176     29.5111     67.2813
  2475.5000     37.7887     -6.8723     27.5657     72.0686
  2475.7500     34.6238     -6.2488     25.6630     75.2008
  2476.0000     31.3961     -5.5991     23.8298     78.9734
  2476.2500     28.3098     -4.9757     22.0827     80.9323
  2476.5000     25.5092     -4.4167     20.4387     83.9142
  2476.7500     23.0535     -3.9368     18.9116     86.5177
  2477.0000     20.9331     -3.5276     17.5038     91.8247
  2477.2500     19.1080     -3.1678     16.2053     96.1753
  2477.5000     17.5431     -2.8362     15.0052    103.3511
  2477.7500     16.2257     -2.5221     13.9063    108.2863
  2478.0000     15.1583     -2.2287     12.9296    115.6143
  2478.2500     14.3388     -1.9690     12.1041    120.1646
  2478.5000     13.7429     -1.7599     11.4511    125.4326
  2478.7500     13.3213     -1.6174     10.9738    127.1215
  2479.0000     13.0142     -1.5532     10.6569    126.1255
  2479.2500     12.7738     -1.5737     10.4722    123.2717
  2479.5000     12.5822     -1.6776     10.3867    116.7261
  2479.7500     12.4534     -1.8535     10.3705    111.5277
  2480.0000     12.4207     -2.0789     10.4024    103.8029
  2480.2500     12.5115     -2.3220     10.4720     99.7740
  2480.5000     12.7198     -2.5491     10.5756     97.3124
  2480.7500     12.9935     -2.7332     10.7088     98.5539
  2481.0000     13.2487     -2.8615     10.8596    103.9960
  2481.2500     13.4043     -2.9376     11.0081    109.0208
  2481.5000     13.4132     -2.9769     11.1343    117.0269
  2481.7500     13.2745     -2.9970     11.2283    121.9603
  2482.0000     13.0268     -3.0086     11.2950    127.7328
  2482.2500     12.7349     -3.0106     11.3503    129.9630
  2482.5000     12.4715     -2.9920     11.4106    130.3098
  2482.7500     12.2918     -2.9397     11.4833    128.4693
  2483.0000     12.2091     -2.8462     11.5636    122.9889
  2483.2500     12.1934     -2.7149     11.6393    118.2303
  2483.5000     12.2063     -2.5582     11.7009    111.7770
  2483.7500     12.2463     -2.3926     11.7484    109.5946
  2484.0000     12.3629     -2.2327     11.7921    111.3105
  2484.2500     12.6149     -2.0879     11.8452    115.5782
  2484.5000     13.0108     -1.9629     11.9158    124.3524
  2484.7500     13.4875     -1.8586     12.0005    130.0477
  2485.0000     13.9436     -1.7739     12.0839    136.1647
  2485.2500     14.2860     -1.7053     12.1431    138.0635
  2485.5000     14.4484     -1.6470     12.1575    137.4765
  2485.7500     14.3922     -1.5928     12.1178    134.9037
  2486.0000     14.1151     -1.5388     12.0282    128.4974
  2486.2500     13.6613     -1.4856     11.9004    123.4923
  2486.5000     13.1094     -1.4378     11.7449    117.1119
  2486.7500     12.5428     -1.4005     11.5660    114.6502
  2487.0000     12.0251     -1.3747     11.3629    114.2370
  2487.2500     11.5870     -1.3547     11.1320    115.9200
  2487.5000     11.2248     -1.3303     10.8697    120.5461
  2487.7500     10.9110     -1.2919     10.5730    124.3956
  2488.0000     10.6134     -1.2353     10.2419    130.0779
  2488.2500     10.3106     -1.1638      9.8808    133.2122
  2488.5000      9.9947     -1.0865      9.4988    136.5972
  2488.7500      9.6678     -1.0137      9.1083    138.1693
  2489.0000      9.3376     -0.9528      8.7223    140.0133
  2489.2500      9.0155     -0.9042      8.3537    141.0827
  2489.5000      8.7130     -0.8610      8.0142    142.5220
  2489.7500      8.4379     -0.8123      7.7124    143.4262
  2490.0000      8.1930     -0.7481      7.4520    144.9798
  2490.2500      7.9790     -0.6648      7.2307    146.3113
  2490.5000      7.7967     -0.5672      7.0417    148.7175
  2490.7500      7.6461     -0.4666      6.8766    150.4270
  2491.0000      7.5254     -0.3758      6.7277    153.0052
  2491.2500      7.4310     -0.3041      6.5901    154.8069
  2491.5000      7.3559     -0.2551      6.4616    157.6207
  2491.7500      7.2894     -0.2267      6.3419    159.2367
  2492.0000      7.2182     -0.2145      6.2329    160.2314
  2492.2500      7.1344     -0.2140      6.1375    159.4736
  2492.5000      7.0401     -0.2225      6.0597    156.3453
  2492.7500      6.9465     -0.2391      6.0037    153.4639
  2493.0000      6.8707     -0.2642      5.9729    148.9208
  2493.2500      6.8322     -0.2982      5.9686    146.2078
  2493.5000      6.8469     -0.3407      5.9903    143.3375
  2493.7500      6.9193     -0.3908      6.0366    142.3791
  2494.0000      7.0392     -0.4463      6.1068    141.7262
  2494.2500      7.1867     -0.5040      6.1995    141.2297
  2494.5000      7.3375     -0.5586      6.3105    140.1562
  2494.7500      7.4688     -0.6024      6.4306    139.5963
  2495.0000      7.5655     -0.6258      6.5463    139.7540
  2495.2500      7.6276     -0.6202      6.6437    140.7037
  2495.5000      7.6715     -0.5808      6.7147    143.0381
  2495.7500      7.7198     -0.5084      6.7610    144.6162
  2496.0000      7.7885     -0.4083      6.7947    145.8675
  2496.2500      7.8809     -0.2861      6.8343    145.6097
  2496.5000      7.9923     -0.1444      6.8995    143.7417
  2496.7500      8.1180      0.0163      7.0063    141.8704
  2497.0000      8.2564      0.1924      7.1644    138.8816
  2497.2500      8.4019      0.3713      7.3764    137.0584
  2497.5000      8.5362      0.5305      7.6378    134.1987
  2497.7500      8.6292      0.6435      7.9380    131.4059
  2498.0000      8.6536      0.6915      8.2611    124.4342
  2498.2500      8.6074      0.6728      8.5887    117.8930
  2498.5000      8.5299      0.6047      8.9026    107.5341
  2498.7500      8.4955      0.5173      9.1881    102.4819
  2499.0000      8.5771      0.4412      9.4342    100.4886
  2499.2500      8.7983      0.3978      9.6310    102.9790
  2499.5000      9.1086      0.3939      9.7654    110.5053
  2499.7500      9.4076      0.4220      9.8217    116.6486
  2500.0000      9.6053      0.4664      9.7888    125.8363
  2500.2500      9.6714      0.5097      9.6700    131.4536
  2500.5000      9.6375      0.5380      9.4874    138.8382
  2500.7500      9.5599      0.5436      9.2775    142.9424
  2501.0000      9.4853      0.5231      9.0815    147.4051
  2501.2500      9.4426      0.4743      8.9372    148.9301
