~Version Information
VERS.                      2.0: CWLS Log ASCII Standard - VERSION 2.0
WRAP.                       NO: One line per depth step
~Well Information Block
STRT.FT               800.0000: 
STOP.FT              1933.5000: 
STEP.FT                 0.2500: 
NULL.                -999.2500: 
COMP.          Pioneer Natural Resources: COMPANY
WELL.            Nova 11-14 Tr: WELL
FLD.           Purgatoire River: FIELD
LOC.           706' FNL & 1109' FWL: LOCATION
PROV.                 Colorado: PROVINCE
CNTY.               Las Animas: COUNTRY
SRVC.                Patterson: SERVICE COMPANY
DATE.          Wed Jul 20 23:28:11 2005: LOG DATE
UWI.           05 071 08434 00: UNIQUE WELL ID
~Curve Information Block
DEPT.FT            0 000 00 00: Depth
SN.Ohm-m                      : IEL Short Normal
SP.mV                         : IEL Spontaneous Potential
DIR.Ohm-m                     : IEL Induction Resistivity
GR.GAPI                       : Gamma Ray
~Parameter Information Block
~A  Depth        SN          SP         DIR          GR     
# ...
  1771.5000     26.7237    -36.3379     26.9674     67.9302
  1771.7500     27.0288    -36.2239     26.9622     68.2023
  1772.0000     27.2226    -36.1106     26.9039     67.9563
  1772.2500     27.2613    -36.0671     26.7714     67.0511
  1772.5000     27.2579    -36.1534     26.5935     64.7453
  1772.7500     27.3037    -36.3945     26.4372     63.0638
  1773.0000     27.3417    -36.7652     26.3702     61.3944
  1773.2500     27.2749    -37.1971     26.4261     61.2858
  1773.5000     27.1268    -37.6072     26.5934     62.5955
  1773.7500     26.9918    -37.9253     26.8332     63.9634
  1774.0000     26.8730    -38.1089     27.1096     65.6419
  1774.2500     26.7518    -38.1472     27.4082     66.0658
  1774.5000     26.6980    -38.0608     27.7251     65.5210
  1774.7500     26.7293    -37.8973     28.0385     64.5375
  1775.0000     26.7504    -37.7163     28.2952     62.6389
  1775.2500     26.7231    -37.5689     28.4313     61.5119
  1775.5000     26.7307    -37.4782     28.4124     60.6839
  1775.7500     26.8458    -37.4309     28.2549     60.7901
  1776.0000     27.0223    -37.3854     28.0129     61.6681
  1776.2500     27.1308    -37.2952     27.7478     62.6613
  1776.5000     27.0706    -37.1328     27.5045     64.9227
  1776.7500     26.8381    -36.8982     27.3066     66.9239
  1777.0000     26.5417    -36.6164     27.1649     70.1267
  1777.2500     26.3308    -36.3290     27.0870     71.9586
  1777.5000     26.2339    -36.0810     27.0776     73.7983
  1777.7500     26.1523    -35.9002     27.1280     74.4012
  1778.0000     26.0309    -35.7786     27.2103     74.4274
  1778.2500     25.9059    -35.6717     27.2888     73.7711
  1778.5000     25.8266    -35.5191     27.3437     71.6479
  1778.7500     25.8128    -35.2784     27.3835     69.7280
  1779.0000     25.8369    -34.9484     27.4332     67.1508
  1779.2500     25.8532    -34.5643     27.5104     66.1749
  1779.5000     25.8692    -34.1690     27.6131     65.8879
  1779.7500     25.9282    -33.7874     27.7299     66.1236
  1780.0000     26.0158    -33.4260     27.8572     66.6184
  1780.2500     26.0848    -33.0918     28.0035     67.0390
  1780.5000     26.2130    -32.8035     28.1721     68.0041
  1780.7500     26.5430    -32.5815     28.3455     68.8295
  1781.0000     27.0172    -32.4285     28.4931     69.8532
  1781.2500     27.3875    -32.3190     28.5993     70.0124
  1781.5000     27.5122    -32.2108     28.6774     69.0363
  1781.7500     27.4933    -32.0689     28.7528     67.5872
  1782.0000     27.5096    -31.8849     28.8397     64.6997
  1782.2500     27.6557    -31.6786     28.9390     62.7332
  1782.5000     27.9436    -31.4813     29.0558     60.4426
  1782.7500     28.3236    -31.3172     29.2077     59.6153
  1783.0000     28.7019    -31.1946     29.4097     59.3428
  1783.2500     29.0089    -31.1127     29.6508     59.4744
  1783.5000     29.2271    -31.0738     29.8925     59.5829
  1783.7500     29.3538    -31.0870     30.0952     59.5323
  1784.0000     29.4229    -31.1574     30.2489     59.4209
  1784.2500     29.5516    -31.2686     30.3811     59.2770
  1784.5000     29.8620    -31.3740     30.5348     58.6142
  1784.7500     30.3358    -31.4079     30.7414     57.7679
  1785.0000     30.8314    -31.3127     31.0097     56.0820
  1785.2500     31.2444    -31.0658     31.3301     54.9057
  1785.5000     31.5742    -30.6893     31.6799     53.4662
  1785.7500     31.8515    -30.2388     32.0239     52.9522
  1786.0000     32.1044    -29.7796     32.3189     53.1089
  1786.2500     32.4259    -29.3619     32.5311     53.8239
  1786.5000     32.9473    -29.0080     32.6617     55.3756
  1786.7500     33.6473    -28.7194     32.7496     56.1622
  1787.0000     34.2974    -28.4908     32.8449     55.7586
  1787.2500     34.7066    -28.3182     32.9714     54.1164
  1787.5000     34.9312    -28.1975     33.1087     50.5427
  1787.7500     35.1714    -28.1252     33.2044     48.5983
  1788.0000     35.5515    -28.1076     33.2065     47.8624
  1788.2500     36.0526    -28.1667     33.0955     48.7537
  1788.5000     36.5902    -28.3295     32.8974     50.6437
  1788.7500     37.0842    -28.6002     32.6638     51.4039
  1789.0000     37.4913    -28.9369     32.4391     51.7164
  1789.2500     37.8142    -29.2595     32.2472     52.0564
  1789.5000     38.0606    -29.4907     32.1050     53.7266
  1789.7500     38.1845    -29.5935     32.0325     55.4875
  1790.0000     38.0757    -29.5745     32.0346     58.0923
  1790.2500     37.6527    -29.4592     32.0698     59.3051
  1790.5000     36.9926    -29.2687     32.0447     60.2264
  1790.7500     36.2945    -29.0124     31.8541     60.5649
  1791.0000     35.6835    -28.6928     31.4479     61.3793
  1791.2500     35.1000    -28.3116     30.8716     62.3435
  1791.5000     34.4115    -27.8733     30.2457     64.2389
  1791.7500     33.5999    -27.3853     29.6938     65.4785
  1792.0000     32.7973    -26.8555     29.2779     66.6723
  1792.2500     32.1643    -26.2929     28.9824     66.7484
  1792.5000     31.7583    -25.7092     28.7496     65.6882
  1792.7500     31.4983    -25.1209     28.5318     64.4071
  1793.0000     31.2652    -24.5467     28.3164     62.2560
  1793.2500     31.0447    -24.0028     28.1130     60.9793
  1793.5000     30.9222    -23.4982     27.9305     59.4930
  1793.7500     30.9440    -23.0318     27.7721     58.7777
  1794.0000     31.0328    -22.5917     27.6444     58.1352
  1794.2500     31.0758    -22.1557     27.5605     57.9993
  1794.5000     31.0801    -21.6971     27.5312     58.0411
  1794.7500     31.1403    -21.1925     27.5558     58.0312
  1795.0000     31.2904    -20.6312     27.6281     57.7074
  1795.2500     31.4667    -20.0179     27.7482     57.2311
  1795.5000     31.5899    -19.3625     27.9245     56.1633
  1795.7500     31.6628    -18.6612     28.1583     55.3676
  1796.0000     31.7572    -17.8856     28.4247     54.6041
  1796.2500     31.9037    -16.9939     28.6703     54.6968
  1796.5000     32.0489    -15.9610     28.8384     55.6952
  1796.7500     32.1493    -14.8045     28.9053     56.5078
  1797.0000     32.2461    -13.5826     28.8967     57.1104
  1797.2500     32.4047    -12.3634     28.8687     56.9296
  1797.5000     32.6372    -11.1921     28.8697     56.1059
  1797.7500     32.9037    -10.0821     28.9159     55.4587
  1798.0000     33.1873     -9.0308     28.9949     54.4989
  1798.2500     33.5459     -8.0352     29.0936     53.8582
  1798.5000     34.0219     -7.0900     29.2252     53.1742
  1798.7500     34.5376     -6.1763     29.4282     53.2569
  1799.0000     34.9815     -5.2591     29.7316     54.5421
  1799.2500     35.3542     -4.3049     30.1113     56.0050
  1799.5000     35.7453     -3.3037     30.4697     58.6190
  1799.7500     36.1921     -2.2765     30.6494     60.6047
  1800.0000     36.6153     -1.2659     30.4770     64.1437
  1800.2500     36.9065     -0.3219     29.8182     66.6880
  1800.5000     36.9926      0.5143     28.6243     69.6056
  1800.7500     36.7843      1.2275     26.9510     70.1385
  1801.0000     36.1669      1.8387     24.9394     68.3311
  1801.2500     35.0408      2.3949     22.7717     65.9979
  1801.5000     33.2856      2.9351     20.6198     63.1875
  1801.7500     30.7595      3.4561     18.6111     63.4724
  1802.0000     27.4729      3.9110     16.8167     69.5530
  1802.2500     23.7411      4.2505     15.2579     77.9855
  1802.5000     20.0814      4.4646     13.9231     96.2336
  1802.7500     16.9499      4.5859     12.7856    110.4418
  1803.0000     14.5328      4.6589     11.8169    130.9974
  1803.2500     12.7467      4.7159     10.9919    142.1843
  1803.5000     11.4002      4.7742     10.2862    153.1907
  1803.7500     10.3081      4.8434      9.6746    156.6075
  1804.0000      9.3616      4.9255      9.1342    157.1770
  1804.2500      8.6031      5.0123      8.6512    155.5585
  1804.5000      8.1579      5.0855      8.2234    151.5905
  1804.7500      8.0288      5.1248      7.8572    148.5763
