~Version Information
 VERS.                                  2.0 : CWLS LAS VERSION
 WRAP.                                   NO : WRAPING MODE
 SWARE .                 MController 2.5.0N : SOFTWARE VERSION
~Well Information
 WELL.                     Commander 43-25Tr : WELL
 COMP.    Pioneer Natural Resources USA Inc : COMPANY
 FLD.                      Purgatoire River : FIELD
 LOC.                NE/SE Sec 26 T32S R67W : LOCATION
 DATE.                              4/14/05 : DATE(S) LOGGED
 SRVC.       Blanco Geological Services LLC : SERVICE COMPANY
 STAT.                                   CO : STATE
 CNTY.                           Las Animas : COUNTY
 CTRY.                                  USA : COUNTRY
 API.                       05-071-08341-00 : API NUMBER
 STRT.FT                             275.00 : START DEPTH
 STOP.FT                            1979.00 : STOP DEPTH
 STEP.FT                               1.00 : DEPTH INCREMENT
 NULL.                                -9999 : NULL VALUE
~Curve information
 DEPTH.FT                                   :
 ROP.MIN/FT                                 :
 GAS.UNITS                                  :
~ASCII Log data
# ...
       875.0         0.23          1.6 
       876.0         0.23          1.7 
       877.0         0.27          1.4 
       878.0         0.20          1.1 
       879.0         0.25          1.5 
       880.0         0.23          1.8 
       881.0         0.23          1.5 
       882.0         0.23          1.6 
       883.0         0.20          1.6 
       884.0         0.20          1.4 
       885.0         0.23          1.1 
       886.0         0.20          1.4 
       887.0         0.23          1.2 
       888.0         0.20          1.3 
       889.0         0.17          1.2 
       890.0         0.20          1.5 
       891.0         0.13          1.2 
       892.0         0.17          1.3 
       893.0         0.23          2.3 
       894.0         0.17          2.0 
       895.0         0.20          2.5 
       896.0         3.18          2.6 
       897.0         0.32          3.0 
       898.0         0.27          3.5 
       899.0         0.27          2.8 
       900.0         0.27          2.5 
       901.0         0.23          1.2 
       902.0         0.23          0.7 
       903.0         0.13          0.9 
       904.0         0.10          1.2 
       905.0         0.10          0.9 
       906.0         0.17          1.2 
       907.0         0.23          1.2 
       908.0         0.23          3.6 
       909.0         0.23          5.5 
       910.0         0.20          7.4 
       911.0         0.23          9.1 
       912.0         0.23         10.0 
       913.0         0.25          9.8 
       914.0         0.23          9.5 
       915.0         0.17          9.2 
       916.0         0.17          9.8 
       917.0         0.23          8.6 
       918.0         0.20          7.8 
       919.0         0.20          8.5 
       920.0         0.20          7.6 
       921.0         0.20          8.0 
       922.0         0.20          7.5 
       923.0         0.20          7.9 
       924.0         0.23          7.3 
       925.0         0.20          7.1 
       926.0         4.33         22.5 
       927.0         0.13         12.5 
       928.0         0.30         11.0 
       929.0         0.20          8.9 
       930.0         0.27          8.5 
       931.0         0.30          8.3 
       932.0         0.23          8.5 
       933.0         0.27          8.2 
       934.0         0.27          8.3 
       935.0         0.23          8.7 
       936.0         0.23          8.1 
       937.0         0.23          7.0 
       938.0         0.23          6.2 
       939.0         0.28          5.9 
       940.0         0.23          5.3 
       941.0         0.20          5.6 
       942.0         0.20          5.3 
       943.0         0.13          5.7 
       944.0         0.20          5.3 
       945.0         0.20          6.0 
       946.0         0.20          4.7 
       947.0         0.20          5.1 
       948.0         0.23          4.9 
       949.0         0.27          4.7 
       950.0         0.20          5.3 
       951.0         0.23          4.8 
       952.0         0.20          5.6 
       953.0         0.23          4.9 
       954.0         0.28          4.7 
       955.0         0.20          4.9 
       956.0         0.47          5.0 
       957.0         2.85         20.5 
       958.0         0.30         20.2 
       959.0         0.33         17.8 
       960.0         0.30         14.3 
       961.0         0.27         11.3 
       962.0         0.27         10.3 
       963.0         0.30          8.5 
       964.0         0.27          8.2 
       965.0         0.27          8.2 
       966.0         0.23          7.3 
       967.0         0.27          7.1 
       968.0         0.23          6.5 
       969.0         0.32          7.5 
       970.0         0.27          8.5 
       971.0         0.27          9.3 
       972.0         0.27         10.4 
       973.0         0.27         11.7 
       974.0         0.27         12.4 
       975.0         0.27         12.7 
       976.0         0.30         13.2 
       977.0         0.23         14.4 
       978.0         0.27         14.0 
       979.0         0.27         15.0 
       980.0         0.27         14.9 
       981.0         0.32         15.3 
       982.0         0.27         15.6 
       983.0         0.23         16.1 
       984.0         0.23         16.4 
       985.0         0.27         16.0 
       986.0         2.85         94.6 
       987.0         0.10         98.0 
       988.0         0.17         98.8 
       989.0         0.20         97.4 
       990.0         0.17         88.5 
       991.0         0.20         79.0 
       992.0         0.27         69.6 
       993.0         0.20         61.5 
       994.0         0.17         57.8 
       995.0         0.23         55.4 
       996.0         0.27         52.6 
       997.0         0.23         51.4 
       998.0         0.27         50.2 
       999.0         0.28         48.8 
      1000.0         0.33         47.8 
      1001.0         0.17         45.1 
      1002.0         0.33         43.1 
      1003.0         0.17         40.3 
      1004.0         0.17         38.1 
      1005.0         0.17         37.6 
      1006.0         0.17         36.4 
      1007.0         0.17         35.8 
      1008.0         0.20         34.6 
      1009.0         0.20         34.6 
      1010.0         0.17         35.7 
      1011.0         0.17         33.7 
      1012.0         0.20         32.5 
      1013.0         0.17         32.5 
      1014.0         0.20         31.5 
      1015.0         0.23         31.0 
      1016.0         2.82        132.8 
      1017.0         0.30        132.8 
      1018.0         0.25        119.0 
      1019.0         0.13        102.4 
      1020.0         0.10         94.2 
      1021.0         0.10         88.9 
      1022.0         0.23         84.1 
      1023.0         0.20         75.2 
      1024.0         0.23         69.3 
      1025.0         0.27         64.0 
      1026.0         0.20         62.6 
      1027.0         0.20         62.9 
      1028.0         0.20         61.0 
      1029.0         0.13         59.8 
      1030.0         0.13         59.5 
      1031.0         0.13         58.5 
      1032.0         0.13         56.0 
      1033.0         0.10         53.1 
      1034.0         0.10         51.2 
      1035.0         0.13         49.0 
      1036.0         0.10         48.1 
      1037.0         0.13         45.4 
      1038.0         0.10         44.5 
      1039.0         0.10         42.6 
      1040.0         0.10         42.1 
      1041.0         0.15         44.1 
      1042.0         0.17         45.8 
      1043.0         0.23         46.0 
      1044.0         0.27         46.6 
      1045.0         0.27         52.3 
      1046.0         9.68        438.8 
      1047.0         0.43         59.6 
      1048.0         0.40         59.7 
      1049.0         0.33         67.3 
      1050.0         0.27         73.6 
      1051.0         0.33         74.4 
      1052.0         0.33         73.2 
      1053.0         0.27         70.6 
      1054.0         0.32         66.4 
      1055.0         0.27         62.1 
      1056.0         0.20         57.1 
      1057.0         0.20         54.1 
      1058.0         0.20         53.4 
      1059.0         0.20         51.6 
      1060.0         0.23         47.4 
      1061.0         0.20         44.3 
      1062.0         0.17         42.7 
      1063.0         0.13         42.2 
      1064.0         0.20         42.4 
      1065.0         0.20         40.8 
      1066.0         0.20         38.8 
      1067.0         0.20         41.0 
      1068.0         0.20         45.8 
      1069.0         0.17         51.3 
      1070.0         0.20         56.1 
      1071.0         0.22         57.1 
      1072.0         0.20         56.8 
      1073.0         0.13         56.0 
      1074.0         0.13         56.2 
