~Version Information
 VERS.                                  2.0 : CWLS LAS VERSION
 WRAP.                                   NO : WRAPING MODE
 SWARE .                 MController 2.5.0J : SOFTWARE VERSION
~Well Information
 WELL.            Rabbit Bush Federal 44-19 : WELL
 COMP.  Pioneer Natural Resources USA, Inc. : COMPANY
 FLD.                      Purgatoire River : FIELD
 LOC.              SE/SE  Sec 19 T32S  R66W : LOCATION
 DATE.                      8/24/06-8/25/06 : DATE(S) LOGGED
 SRVC.       BLANCO Geological Services LLC : SERVICE COMPANY
 STAT.                                   CO : STATE
 CNTY.                            Las Animas: COUNTY
 CTRY.                               U.S.A. : COUNTRY
 API.                       05-071-08149-00 : API NUMBER
 STRT.FT                             539.00 : START DEPTH
 STOP.FT                            2785.00 : STOP DEPTH
 STEP.FT                               1.00 : DEPTH INCREMENT
 NULL.                                -9999 : NULL VALUE
~Curve information
 DEPTH.FT                                   :
 ROP.MIN/FT                                 :
 GAS.UNITS                                  :
~ASCII Log data
# ...
       739.0         0.33          1.9 
       740.0         0.28          2.2 
       741.0         0.23          2.1 
       742.0         0.30          1.8 
       743.0         0.33          2.2 
       744.0         0.30          1.9 
       745.0         0.23          2.0 
       746.0         3.85          2.1 
       747.0         0.40          2.4 
       748.0         0.37          2.6 
       749.0         0.33          3.0 
       750.0         0.30          3.2 
       751.0         0.32          3.6 
       752.0         0.27          3.8 
       753.0         0.23          3.5 
       754.0         0.37          3.9 
       755.0         0.37          3.9 
       756.0         0.27          4.1 
       757.0         0.27          3.8 
       758.0         0.23          3.9 
       759.0         0.27          3.5 
       760.0         0.23          3.0 
       761.0         0.27          3.3 
       762.0         0.23          3.2 
       763.0         0.28          3.1 
       764.0         0.27          3.6 
       765.0         0.27          3.6 
       766.0         0.30          3.5 
       767.0         0.30          3.3 
       768.0         0.27          3.6 
       769.0         0.23          3.4 
       770.0         0.27          3.3 
       771.0         0.33          3.4 
       772.0         0.33          2.7 
       773.0         0.23          2.3 
       774.0         0.30          2.3 
       775.0         0.42          3.1 
       776.0         3.38          3.8 
       777.0         0.40          2.7 
       778.0         0.33          2.8 
       779.0         0.33          2.9 
       780.0         0.27          1.7 
       781.0         0.27          0.6 
       782.0         0.27          0.2 
       783.0         0.23          0.3 
       784.0         0.23          0.8 
       785.0         0.23          0.8 
       786.0         0.17          1.2 
       787.0         0.22          1.4 
       788.0         0.23          0.9 
       789.0         0.17          1.0 
       790.0         0.20          0.7 
       791.0         0.20          0.2 
       792.0         0.20          0.8 
       793.0         0.20          1.3 
       794.0         0.20          1.5 
       795.0         0.23          2.0 
       796.0         0.17          2.0 
       797.0         0.20          1.8 
       798.0         0.17          2.4 
       799.0         0.20          2.4 
       800.0         0.17          2.6 
       801.0         0.20          2.8 
       802.0         0.17          2.2 
       803.0         0.20          2.7 
       804.0         0.25          2.8 
       805.0         0.27          2.4 
       806.0         3.45          2.9 
       807.0         0.33          2.3 
       808.0         0.30          2.1 
       809.0         0.30          2.2 
       810.0         0.27          2.7 
       811.0         0.27          2.5 
       812.0         0.20          1.9 
       813.0         0.30          2.6 
       814.0         0.23          2.6 
       815.0         0.20          2.4 
       816.0         0.20          2.1 
       817.0         0.17          2.3 
       818.0         0.25          2.5 
       819.0         0.23          2.2 
       820.0         0.27          2.6 
       821.0         0.23          2.5 
       822.0         0.27          2.3 
       823.0         0.23          2.0 
       824.0         0.20          2.5 
       825.0         0.23          1.9 
       826.0         0.23          2.2 
       827.0         0.23          2.4 
       828.0         0.23          2.4 
       829.0         0.23          2.3 
       830.0         0.20          1.9 
       831.0         0.17          2.5 
       832.0         0.20          2.4 
       833.0         0.22          2.7 
       834.0         0.20          2.0 
       835.0         0.20          2.2 
       836.0         3.25          2.9 
       837.0         0.30          2.2 
       838.0         0.33          2.9 
       839.0         0.30          2.7 
       840.0         0.27          2.6 
       841.0         0.37          2.6 
       842.0         0.20          2.7 
       843.0         0.17          2.7 
       844.0         0.23          2.9 
       845.0         0.23          2.1 
       846.0         0.20          2.7 
       847.0         0.23          2.9 
       848.0         0.22          3.0 
       849.0         0.23          2.3 
       850.0         0.20          2.5 
       851.0         0.23          2.5 
       852.0         0.23          2.2 
       853.0         0.20          2.6 
       854.0         0.20          2.4 
       855.0         0.20          2.5 
       856.0         0.23          2.6 
       857.0         0.20          2.8 
       858.0         0.20          2.3 
       859.0         0.23          2.7 
       860.0         0.17          2.4 
       861.0         0.20          2.7 
       862.0         0.20          3.0 
       863.0         0.20          2.9 
       864.0         0.22          2.9 
       865.0         0.33          2.8 
       866.0         3.68          3.2 
       867.0         0.57          2.8 
       868.0         0.37          2.8 
       869.0         0.40          2.7 
       870.0         0.40          3.1 
       871.0         0.53          2.9 
       872.0         0.78          3.2 
       873.0         0.57          3.1 
       874.0         0.43          2.9 
       875.0         0.53          2.8 
       876.0         0.40          3.2 
       877.0         0.23          3.0 
       878.0         0.20          2.9 
       879.0         0.23          2.5 
       880.0         0.23          2.8 
       881.0         0.22          2.4 
       882.0         0.23          2.2 
       883.0         0.20          2.4 
       884.0         0.23          2.8 
       885.0         0.23          2.9 
       886.0         0.23          2.5 
       887.0         0.23          2.3 
       888.0         0.23          2.1 
       889.0         0.23          2.7 
       890.0         0.27          2.7 
       891.0         0.37          2.7 
       892.0         0.20          2.8 
       893.0         0.23          2.6 
       894.0         0.27          2.9 
       895.0         0.35          3.2 
       896.0         5.45          3.1 
       897.0         0.23          2.6 
       898.0         0.27          2.1 
       899.0         0.23          2.5 
       900.0         0.22          2.6 
       901.0         0.20          2.6 
       902.0         0.13          2.1 
       903.0         0.17          2.4 
       904.0         0.23          2.5 
       905.0         0.20          2.3 
       906.0         0.27          2.4 
       907.0         0.30          2.3 
       908.0         0.23          2.1 
       909.0         0.27          2.5 
       910.0         0.23          2.1 
       911.0         0.23          2.1 
       912.0         0.23          2.2 
       913.0         0.20          2.3 
       914.0         0.23          2.3 
       915.0         0.22          2.2 
       916.0         0.23          2.4 
       917.0         0.20          2.3 
       918.0         0.20          2.2 
       919.0         0.23          1.6 
       920.0         0.23          1.2 
       921.0         0.27          1.4 
       922.0         0.30          1.4 
       923.0         0.27          1.9 
       924.0         0.33          1.3 
       925.0         0.23          0.1 
       926.0         3.85          3.0 
       927.0         0.23          3.0 
       928.0         0.18          3.0 
       929.0         0.27          2.3 
       930.0         0.27          2.6 
       931.0         0.23          2.3 
       932.0         0.30          2.3 
       933.0         0.27          2.4 
       934.0         0.40          2.5 
       935.0         0.33          2.3 
       936.0         0.23          2.5 
       937.0         0.23          2.4 
       938.0         0.27          4.5 
