~Version Information
 VERS.                                  2.0 : CWLS LAS VERSION
 WRAP.                                   NO : WRAPING MODE
 SWARE .                 MController 2.5.0N : SOFTWARE VERSION
~Well Information
 WELL.                        Paradise 13-8 : WELL
 COMP.        Pioneer Natural Resources Inc : COMPANY
 FLD.                      Purgatoire River : FIELD
 LOC.                 NW/SW Sec 8 T32S R66W : LOCATION
 DATE.                           1/21-22/05 : DATE(S) LOGGED
 SRVC.       Blanco Geological Services LLC : SERVICE COMPANY
 STAT.                                   CO : STATE
 CNTY.                           Las Animas : COUNTY
 CTRY.                                  USA : COUNTRY
 API.                       05-071-07946-00 : API NUMBER
 STRT.FT                             855.00 : START DEPTH
 STOP.FT                            3151.00 : STOP DEPTH
 STEP.FT                               1.00 : DEPTH INCREMENT
 NULL.                                -9999 : NULL VALUE
~Curve information
 DEPTH.FT                                   :
 ROP.MIN/FT                                 :
 GAS.UNITS                                  :
~ASCII Log data
# ...
      1855.0         0.47         19.5 
      1856.0         0.47         22.5 
      1857.0         0.47         23.5 
      1858.0         0.48         20.2 
      1859.0         0.43         14.8 
      1860.0         0.50          7.2 
      1861.0         0.53          5.8 
      1862.0         0.40          5.6 
      1863.0         0.43          7.2 
      1864.0         5.63         56.7 
      1865.0         0.53         22.2 
      1866.0         0.67         22.7 
      1867.0         0.43         21.5 
      1868.0         0.45         21.7 
      1869.0         0.37         21.6 
      1870.0         0.47         20.6 
      1871.0         0.40         20.9 
      1872.0         0.27         19.6 
      1873.0         0.20         19.7 
      1874.0         0.33         19.0 
      1875.0         0.37         16.7 
      1876.0         0.23         15.4 
      1877.0         0.23         15.0 
      1878.0         0.23         16.1 
      1879.0         0.32         16.9 
      1880.0         0.37         16.2 
      1881.0         0.27         15.0 
      1882.0         0.27         12.2 
      1883.0         0.43         11.1 
      1884.0         0.27          6.3 
      1885.0         0.27          5.6 
      1886.0         0.30          5.1 
      1887.0         0.27          5.2 
      1888.0         0.30          5.2 
      1889.0         0.30          5.0 
      1890.0         0.45          5.0 
      1891.0         0.43          5.1 
      1892.0         0.23          5.0 
      1893.0         0.30          5.4 
      1894.0         7.20         63.5 
      1895.0         0.33         24.1 
      1896.0         0.23         22.2 
      1897.0         0.23         20.2 
      1898.0         0.37         18.1 
      1899.0         0.38         17.3 
      1900.0         0.47         11.5 
      1901.0         0.40          9.1 
      1902.0         0.40          9.2 
      1903.0         0.43          9.5 
      1904.0         0.40          8.6 
      1905.0         0.23          7.6 
      1906.0         0.20          7.2 
      1907.0         0.27          6.6 
      1908.0         0.23          6.5 
      1909.0         0.28          6.0 
      1910.0         0.47          6.1 
      1911.0         0.37          5.9 
      1912.0         0.37          6.3 
      1913.0         0.37          5.8 
      1914.0         0.37          5.1 
      1915.0         0.33          5.5 
      1916.0         0.33          6.3 
      1917.0         0.40          7.3 
      1918.0         0.65         11.6 
      1919.0         0.67         16.0 
      1920.0         0.63         20.8 
      1921.0         0.40         23.6 
      1922.0         0.23         26.0 
      1923.0         0.33         29.5 
      1924.0         4.83         91.4 
      1925.0         0.93         20.4 
      1926.0         0.50         22.8 
      1927.0         0.37         23.2 
      1928.0         0.33         22.9 
      1929.0         0.42         25.0 
      1930.0         0.37         24.5 
      1931.0         0.40         23.2 
      1932.0         0.43         18.2 
      1933.0         0.43         11.6 
      1934.0         0.50         10.8 
      1935.0         0.70          6.1 
      1936.0         0.68          8.7 
      1937.0         0.67         13.9 
      1938.0         0.90         19.5 
      1939.0         0.53         21.1 
      1940.0         0.37         19.7 
      1941.0         0.30         18.5 
      1942.0         0.23         17.2 
      1943.0         0.28         17.3 
      1944.0         0.30         15.0 
      1945.0         0.30         10.9 
      1946.0         0.27          8.0 
      1947.0         0.27          6.8 
      1948.0         0.20          5.8 
      1949.0         0.20          5.8 
      1950.0         0.20          5.3 
      1951.0         0.33          5.0 
      1952.0         0.23          5.4 
      1953.0         0.27          5.4 
      1954.0         9.45         67.5 
      1955.0         0.23         23.9 
      1956.0         0.23         22.7 
      1957.0         0.30         20.2 
      1958.0         0.20         14.9 
      1959.0         0.28         11.9 
      1960.0         0.37         11.2 
      1961.0         0.20          6.8 
      1962.0         0.33          6.8 
      1963.0         0.77          6.6 
      1964.0         0.70         10.5 
      1965.0         0.80         19.5 
      1966.0         0.38         21.4 
      1967.0         0.17         22.7 
      1968.0         0.23         22.7 
      1969.0         0.37         24.2 
      1970.0         0.37         23.8 
      1971.0         0.37         21.7 
      1972.0         0.20         19.3 
      1973.0         0.17         15.7 
      1974.0         0.30         12.0 
      1975.0         0.23         11.7 
      1976.0         0.17          8.6 
      1977.0         0.13          7.0 
      1978.0         0.17          6.5 
      1979.0         0.22          6.1 
      1980.0         0.40          5.6 
      1981.0         0.50          6.0 
      1982.0         0.50          5.3 
      1983.0         0.33          5.1 
      1984.0         4.58         35.6 
      1985.0         0.78          6.7 
      1986.0         0.63         11.1 
      1987.0         0.63         16.6 
      1988.0         0.40         19.8 
      1989.0         0.40         21.1 
      1990.0         0.40         18.9 
      1991.0         0.52         15.2 
      1992.0         0.47          9.1 
      1993.0         0.47          7.7 
      1994.0         0.43          8.4 
      1995.0         0.40          8.8 
      1996.0         0.37          9.4 
      1997.0         0.30          9.2 
      1998.0         0.17          8.8 
      1999.0         0.27          8.1 
      2000.0         0.38          7.5 
      2001.0         0.43          7.0 
      2002.0         0.47          5.0 
      2003.0         0.50          6.3 
      2004.0         0.47          9.3 
      2005.0         0.47         12.2 
      2006.0         0.47         16.2 
      2007.0         0.47         17.9 
      2008.0         0.52         18.2 
      2009.0         0.53         11.7 
      2010.0         0.47          8.8 
      2011.0         0.43          5.4 
      2012.0         0.47          5.0 
      2013.0         0.47          5.9 
      2014.0         7.52         90.4 
      2015.0         0.33         13.9 
      2016.0         0.40         17.4 
      2017.0         0.30         19.0 
      2018.0         0.47         23.6 
      2019.0         0.50         26.1 
      2020.0         0.50         24.4 
      2021.0         0.50         19.9 
      2022.0         0.52         13.2 
      2023.0         0.53         10.7 
      2024.0         0.50         12.7 
      2025.0         0.40         15.8 
      2026.0         0.23         17.3 
      2027.0         0.30         20.0 
      2028.0         0.43         26.1 
      2029.0         0.43         33.7 
      2030.0         0.52         46.2 
      2031.0         0.40         49.3 
      2032.0         0.63         48.6 
      2033.0         0.37         36.4 
      2034.0         0.33         26.5 
      2035.0         0.37         21.8 
      2036.0         0.60         18.2 
      2037.0         0.62         12.1 
      2038.0         0.57          6.6 
      2039.0         0.47          5.2 
      2040.0         0.47          4.5 
      2041.0         0.43          4.5 
      2042.0         0.43          5.0 
      2043.0         0.53          5.6 
      2044.0         4.97         57.7 
      2045.0         0.63         18.2 
      2046.0         0.63          7.3 
      2047.0         0.33          8.0 
      2048.0         0.35          9.8 
      2049.0         0.30         13.0 
      2050.0         0.23         13.2 
      2051.0         0.40         14.9 
      2052.0         0.40         14.9 
      2053.0         0.47         12.5 
      2054.0         0.47         10.1 
