~Version Information
 VERS.                                  2.0 : CWLS LAS VERSION
 WRAP.                                   NO : WRAPING MODE
 SWARE .                 MController 2.5.0E : SOFTWARE VERSION
~Well Information
 WELL.                                  N/A : WELL
 COMP.                                  N/A : COMPANY
 FLD.                                   N/A : FIELD
 LOC.                                   N/A : LOCATION
 DATE.                                  N/A : DATE(S) LOGGED
 SRVC.                                  N/A : SERVICE COMPANY
 STAT.                                  N/A : STATE
 CNTY.                                  N/A : COUNTY
 CTRY.                                  N/A : COUNTRY
 API.                                   N/A : API NUMBER
 STRT.FT                             838.00 : START DEPTH
 STOP.FT                            2499.00 : STOP DEPTH
 STEP.FT                               1.00 : DEPTH INCREMENT
 NULL.                                -9999 : NULL VALUE
~Curve information
 DEPTH.FT                                   :
 ROP.MIN/FT                                 :
 GAS.UNITS                                  :
~ASCII Log data
# ...
     1038.00        0.200          4.6 
     1039.00        0.200          4.6 
     1040.00        0.167          4.3 
     1041.00        0.167          4.4 
     1042.00        0.167          4.4 
     1043.00        0.167          4.3 
     1044.00        0.167          4.3 
     1045.00        0.200          4.3 
     1046.00        2.617          4.8 
     1047.00        0.467          4.7 
     1048.00        0.200          4.6 
     1049.00        0.183          4.5 
     1050.00        0.200          4.6 
     1051.00        0.167          4.4 
     1052.00        0.167          4.4 
     1053.00        0.133          4.6 
     1054.00        0.167          4.4 
     1055.00        0.133          4.4 
     1056.00        0.233          4.8 
     1057.00        0.333          4.7 
     1058.00        0.233          5.3 
     1059.00        0.167          4.9 
     1060.00        0.200          5.1 
     1061.00        0.133          5.0 
     1062.00        0.167          5.0 
     1063.00        0.167          5.4 
     1064.00        0.233          4.9 
     1065.00        0.133          4.9 
     1066.00        0.133          4.8 
     1067.00        0.183          4.8 
     1068.00        0.133          4.5 
     1069.00        0.133          4.5 
     1070.00        0.167          5.0 
     1071.00        0.133          5.0 
     1072.00        0.133          4.7 
     1073.00        0.133          4.7 
     1074.00        0.167          5.1 
     1075.00        0.267          9.6 
     1076.00        1.667          9.6 
     1077.00        0.300          5.5 
     1078.00        0.283          5.7 
     1079.00        0.233          6.1 
     1080.00        0.200          6.2 
     1081.00        0.200          6.4 
     1082.00        0.167          6.7 
     1083.00        0.200          6.9 
     1084.00        0.133          7.4 
     1085.00        0.133          7.4 
     1086.00        0.133          7.3 
     1087.00        0.133          7.4 
     1088.00        0.167          7.0 
     1089.00        0.167          7.3 
     1090.00        0.167          7.3 
     1091.00        0.167          7.2 
     1092.00        0.167          7.2 
     1093.00        0.133          7.2 
     1094.00        0.133          7.5 
     1095.00        0.133          7.5 
     1096.00        0.100          7.4 
     1097.00        0.100          7.4 
     1098.00        0.133          7.4 
     1099.00        0.117          7.1 
     1100.00        0.133          7.1 
     1101.00        0.167          6.8 
     1102.00        0.167          6.6 
     1103.00        0.133          6.6 
     1104.00        0.133          6.7 
     1105.00        0.133          6.7 
     1106.00        2.067          7.5 
     1107.00        0.300          7.9 
     1108.00        0.250          7.8 
     1109.00        0.233          7.2 
     1110.00        0.200          7.5 
     1111.00        0.200          7.5 
     1112.00        0.200          7.3 
     1113.00        0.167          7.3 
     1114.00        0.133          7.3 
     1115.00        0.167          7.3 
     1116.00        0.200          7.7 
     1117.00        0.167          7.8 
     1118.00        0.100          7.8 
     1119.00        0.100          7.8 
     1120.00        0.133          8.4 
     1121.00        0.100          8.4 
     1122.00        0.133          9.5 
     1123.00        0.133          9.5 
     1124.00        0.133          8.3 
     1125.00        0.133          8.3 
     1126.00        0.133          7.2 
     1127.00        0.133          7.2 
     1128.00        0.133          7.1 
     1129.00        0.150          7.1 
     1130.00        0.133          7.2 
     1131.00        0.133          7.2 
     1132.00        0.133          7.3 
     1133.00        0.133          7.3 
     1134.00        0.100          7.3 
     1135.00        0.100          7.5 
     1136.00        2.267          7.6 
     1137.00        0.267          7.1 
     1138.00        0.183          7.1 
     1139.00        0.200          7.3 
     1140.00        0.200          7.4 
     1141.00        0.200          7.2 
     1142.00        0.233          7.6 
     1143.00        0.167          7.5 
     1144.00        0.300          8.1 
     1145.00        0.300          7.8 
     1146.00        0.300          7.8 
     1147.00        0.200          7.6 
     1148.00        0.133          7.2 
     1149.00        0.167          6.9 
     1150.00        0.133          7.2 
     1151.00        0.233          7.2 
     1152.00        0.167          6.7 
     1153.00        0.133          6.8 
     1154.00        0.183          6.8 
     1155.00        0.167          7.0 
     1156.00        0.133          7.0 
     1157.00        0.133          7.2 
     1158.00        0.167          7.2 
     1159.00        0.133          7.2 
     1160.00        0.133          7.2 
     1161.00        0.133          6.9 
     1162.00        0.133          6.9 
     1163.00        0.167          7.1 
     1164.00        0.133          7.0 
     1165.00        0.133          7.0 
     1166.00        2.250         11.0 
     1167.00        0.333         10.1 
     1168.00        0.233          9.5 
     1169.00        0.133          8.7 
     1170.00        0.100          8.2 
     1171.00        0.133          8.2 
     1172.00        0.200          8.1 
     1173.00        0.200          8.3 
     1174.00        0.200          7.7 
     1175.00        0.333          7.8 
     1176.00        0.200          7.3 
     1177.00        0.167          7.8 
     1178.00        0.167          8.6 
     1179.00        0.200          9.0 
     1180.00        0.133          9.5 
     1181.00        0.183          9.0 
     1182.00        0.167          9.0 
     1183.00        0.167          8.9 
     1184.00        0.200          9.8 
     1185.00        0.167          8.5 
     1186.00        0.167          7.1 
     1187.00        0.167          5.9 
     1188.00        0.167          5.9 
     1189.00        0.167          5.7 
     1190.00        0.133          5.7 
     1191.00        0.167          6.0 
     1192.00        0.167          5.6 
     1193.00        0.133          5.9 
     1194.00        0.133          5.9 
     1195.00        0.133          5.9 
     1196.00        1.917          7.7 
     1197.00        0.233          6.3 
     1198.00        0.233          6.3 
     1199.00        0.233          6.5 
     1200.00        0.267          6.2 
     1201.00        0.233          6.6 
     1202.00        0.200          6.4 
     1203.00        0.233          6.2 
     1204.00        0.200          5.9 
     1205.00        0.200          5.6 
     1206.00        0.200          5.6 
     1207.00        0.167          5.6 
     1208.00        0.217          5.6 
     1209.00        0.167          6.2 
     1210.00        0.133          6.2 
     1211.00        0.100          6.1 
     1212.00        0.167          6.3 
     1213.00        0.100          6.3 
     1214.00        0.133          6.5 
     1215.00        0.100          6.5 
     1216.00        0.167          6.7 
     1217.00        0.167          6.7 
     1218.00        0.167          6.4 
     1219.00        0.167          6.4 
     1220.00        0.233          6.0 
     1221.00        0.200          5.7 
     1222.00        0.233          5.8 
     1223.00        0.200          5.5 
     1224.00        0.167          5.5 
     1225.00        0.200          6.0 
     1226.00        2.550          8.3 
     1227.00        0.367          6.0 
     1228.00        0.533          6.4 
     1229.00        0.417          6.2 
     1230.00        0.167          5.9 
     1231.00        0.167          5.9 
     1232.00        0.133          5.8 
     1233.00        0.200          6.0 
     1234.00        0.100          6.0 
     1235.00        0.167          5.9 
     1236.00        0.267          6.0 
     1237.00        0.167          5.9 
