~Version Information
VERS.                      2.0: CWLS Log ASCII Standard - VERSION 2.0
WRAP.                       NO: One line per depth step
~Well Information Block
STRT.FT               998.8000: 
STOP.FT              2235.5000: 
STEP.FT                 0.1000: 
NULL.                -999.2500: 
COMP.          Petrogulf Corporation: COMPANY
WELL.          Latiluppe 8-13R: WELL
FLD.           Purgatorie River: FIELD
LOC.           1495' FSL & 946' FWL: LOCATION
CNTY.               Las Animas: COUNTY
SRVC.                         : SERVICE COMPANY
DATE.          Wed Apr 21 10:46:16 2004: LOG DATE
UWI.           05 071 08035 00: UNIQUE WELL ID
STAT.                 Colorado: STATE
~Curve Information Block
DEPT.FT            0 000 00 00: Depth
DCAL.in                       : CDL Caliper
RHOB.g/cc                     : CDL Bulk Density
RHOC.g/cc                     : CDL Density Correction
DPOR.pu                       : CDL Density Porosity
NPOR.pu                       : Neutron Porosity
GR.GAPI                       : Gamma Ray
~Parameter Information Block
~A  Depth       DCAL        RHOB        RHOC        DPOR        NPOR         GR     
# ...
  2122.0000      7.7109      2.5634      0.1582      5.2475     18.9511    142.6739
  2122.1000      7.7109      2.5620      0.1478      5.3303     19.4950    134.2908
  2122.2000      7.7109      2.5567      0.1112      5.6532     19.6461    128.0199
  2122.3000      7.7113      2.5501      0.1115      6.0526     19.6513    124.7563
  2122.4000      7.7113      2.5423      0.0892      6.5288     19.6595    121.7628
  2122.5000      7.7102      2.5426      0.0591      6.5074     19.2864    116.0690
  2122.6000      7.7102      2.5518      0.0987      5.9514     18.4441    108.8550
  2122.7000      7.7102      2.5554      0.0805      5.7309     17.6560    102.6528
  2122.8000      7.7114      2.5434      0.0994      6.4589     17.2385     99.4264
  2122.9000      7.7114      2.5192      0.0440      7.9247     16.9095     99.4090
  2123.0000      7.7128      2.4971      0.0351      9.2654     16.4919     96.7187
  2123.1000      7.7128      2.4837      0.0512     10.0774     16.1647     87.8804
  2123.2000      7.7128      2.4771      0.0558     10.4795     15.9569     77.9689
  2123.3000      7.7143      2.4791      0.0527     10.3588     15.7225     74.5778
  2123.4000      7.7143      2.4817      0.1158     10.2014     15.3034     79.2095
  2123.5000      7.6983      2.4729      0.0633     10.7339     14.7542     83.7682
  2123.6000      7.6983      2.4644      0.0568     11.2478     14.3443     82.0461
  2123.7000      7.6983      2.4664      0.0695     11.1245     14.1628     77.8992
  2123.8000      7.7069      2.4686      0.0855     10.9928     14.0861     78.4349
  2123.9000      7.7069      2.4704      0.0424     10.8872     14.0388     83.2687
  2124.0000      7.7090      2.4792      0.0940     10.3509     13.9022     85.1324
  2124.1000      7.7090      2.4845      0.1073     10.0280     13.6633     83.9101
  2124.2000      7.7090      2.4805      0.0712     10.2733     13.7275     87.1572
  2124.3000      7.7146      2.4844      0.0495     10.0336     14.3677     94.4158
  2124.4000      7.7146      2.5101      0.0729      8.4789     14.9330     98.1205
  2124.5000      7.7492      2.5462      0.1003      6.2882     14.8223     97.4596
  2124.6000      7.7492      2.5714      0.1105      4.7645     14.4860     99.4188
  2124.7000      7.7492      2.5798      0.1006      4.2560     14.2171    107.0555
  2124.8000      7.7082      2.5757      0.1085      4.5020     14.1135    117.5511
  2124.9000      7.7082      2.5597      0.1011      5.4741     14.3591    127.1199
  2125.0000      7.7085      2.5329      0.0558      7.0941     14.6202    129.8996
  2125.1000      7.7085      2.5071      0.0277      8.6605     14.6326    123.6299
  2125.2000      7.7085      2.4966      0.0068      9.2946     14.6562    115.5524
  2125.3000      7.7114      2.5046      0.0032      8.8127     14.9488    113.4693
  2125.4000      7.7114      2.5237      0.0189      7.6547     15.3767    115.3191
  2125.5000      7.7146      2.5439      0.0592      6.4307     15.5224    113.4648
  2125.6000      7.7146      2.5604      0.0751      5.4303     15.3345    107.9425
  2125.7000      7.7146      2.5752      0.0995      4.5354     15.1264    104.9520
  2125.8000      7.7245      2.5866      0.0783      3.8395     15.2231    108.4830
  2125.9000      7.7245      2.5919      0.0683      3.5204     16.0863    116.2336
  2126.0000      7.7083      2.5951      0.0864      3.3254     17.8218    120.6871
  2126.1000      7.7083      2.6019      0.0708      2.9174     19.5725    123.8965
  2126.2000      7.7083      2.6091      0.0929      2.4818     20.4959    136.3482
  2126.3000      7.7116      2.6076      0.0768      2.5714     21.0487    154.5973
  2126.4000      7.7116      2.5957      0.0445      3.2886     21.8536    168.1510
  2126.5000      7.7121      2.5872      0.0262      3.8075     22.5395    176.3500
  2126.6000      7.7121      2.5889      0.0774      3.7042     22.6577    180.2640
  2126.7000      7.7121      2.5885      0.0440      3.7273     22.3356    179.1407
  2126.8000      7.7102      2.5823      0.0653      4.1022     22.0487    179.1683
  2126.9000      7.7102      2.5721      0.0901      4.7212     22.3025    184.1865
  2127.0000      7.7095      2.5557      0.0372      5.7148     23.0299    190.3875
  2127.1000      7.7095      2.5448      0.0180      6.3787     23.6137    195.8928
  2127.2000      7.7095      2.5533      0.0443      5.8605     23.5659    196.5628
  2127.3000      7.7013      2.5749      0.0699      4.5532     23.0828    188.7496
  2127.4000      7.7013      2.5871      0.0806      3.8101     22.8323    178.3893
  2127.5000      7.7004      2.5764      0.0805      4.4624     23.0479    172.0259
  2127.6000      7.7004      2.5586      0.0031      5.5417     23.3301    170.1307
  2127.7000      7.7004      2.5559      0.0971      5.7056     23.4982    170.6645
  2127.8000      7.6981      2.5659      0.0936      5.0960     23.7337    172.5803
  2127.9000      7.6981      2.5816      0.0858      4.1446     23.8241    177.9367
  2128.0000      7.7035      2.5985      0.0976      3.1230     23.5515    187.4248
  2128.1000      7.7035      2.6039      0.0777      2.7960     23.2953    195.5442
  2128.2000      7.7035      2.5880      0.0809      3.7602     23.3187    197.1512
  2128.3000      7.7039      2.5629      0.0299      5.2772     23.3723    192.2812
  2128.4000      7.7039      2.5539      0.0363      5.8245     23.1169    186.3249
  2128.5000      7.6960      2.5622      0.0477      5.3200     22.4049    186.4658
  2128.6000      7.6960      2.5669      0.0536      5.0349     21.3226    192.0690
  2128.7000      7.6960      2.5625      0.0425      5.3015     20.2349    197.6302
  2128.8000      7.6890      2.5652      0.0383      5.1382     19.6976    195.8217
  2128.9000      7.6890      2.5844      0.0801      3.9734     19.6524    182.0701
  2129.0000      7.6995      2.6088      0.0986      2.4964     19.3552    163.4765
  2129.1000      7.6995      2.6192      0.0869      1.8653     18.5522    152.3586
  2129.2000      7.6995      2.6069      0.0999      2.6102     17.6961    150.2647
  2129.3000      7.6969      2.5873      0.0540      3.7981     17.0454    149.7704
  2129.4000      7.6969      2.5785      0.0623      4.3317     16.6009    144.4390
  2129.5000      7.6986      2.5717      0.0900      4.7452     16.3021    132.1392
  2129.6000      7.6986      2.5565      0.0362      5.6674     15.9041    116.5369
  2129.7000      7.6986      2.5345      0.0727      7.0029     15.3164    103.8362
  2129.8000      7.7010      2.5029      0.0777      8.9160     15.1555     97.6693
  2129.9000      7.7010      2.4655      0.0347     11.1837     15.6518     96.8598
  2130.0000      7.6980      2.4324      0.0176     13.1886     16.0930     96.7512
  2130.1000      7.6980      2.4080     -0.0013     14.6657     15.9777     91.9146
  2130.2000      7.6980      2.3954      0.0284     15.4293     15.2256     81.6823
  2130.3000      7.6974      2.3976      0.0132     15.2994     14.1470     72.9701
  2130.4000      7.6974      2.4130      0.0590     14.3662     13.5593     68.8367
  2130.5000      7.7000      2.4289      0.0842     13.3984     13.8406     67.1143
  2130.6000      7.7000      2.4301      0.0612     13.3301     14.4410     67.7326
  2130.7000      7.7000      2.4148      0.0883     14.2535     14.4585     71.1414
  2130.8000      7.6980      2.3972      0.0545     15.3229     13.8828     74.1392
  2130.9000      7.6980      2.3933      0.0768     15.5559     13.4537     73.1934
  2131.0000      7.7092      2.4035      0.0666     14.9386     13.2329     68.9671
  2131.1000      7.7092      2.4171      0.0480     14.1130     12.7305     63.6827
  2131.2000      7.7092      2.4235      0.1118     13.7257     11.7508     57.9524
  2131.3000      7.7174      2.4153      0.0659     14.2218     10.7985     52.3711
  2131.4000      7.7174      2.3985      0.0640     15.2416     10.3077     49.5605
  2131.5000      7.7227      2.3837      0.0512     16.1392     10.2287     51.9889
