~Version Information
VERS.                      2.0: CWLS Log ASCII Standard - VERSION 2.0
WRAP.                       NO: One line per depth step
~Well Information Block
STRT.FT                -4.2500: 
STOP.FT              2500.7500: 
STEP.FT                 0.2500: 
NULL.                -999.2500: 
COMP.          Pioneer Natural Resources: COMPANY
WELL.          Cock-a-doodle-doo 44-27: WELL
FLD.           Purgatoire River: FIELD
LOC.           163' FSL & 54' FEL--: LOCATION
PROV.                 Colorado: PROVINCE
CNTY.               Las Animas: COUNTRY
SRVC.                Patterson: SERVICE COMPANY
DATE.          Wed Jul 06 10:56:34 2005: LOG DATE
UWI.                071 08429 : UNIQUE WELL ID
~Curve Information Block
DEPT.FT            0 000 00 00: Depth
CCL.                          : Casing Collar Locator
TT3.usec                      : CBL 3' Travel Time
AMP3.mV                       : CBL 3' Amplitude
GR.GAPI                       : Gamma Ray
~Parameter Information Block
~A  Depth       CCL         TT3         AMP3         GR     
# ...
  1972.2500      0.0000    613.0333      6.7112     65.7687
  1972.5000      0.0000    612.9584      6.7050     67.3041
  1972.7500      0.0000    613.0355      6.6590     68.8030
  1973.0000      0.0000    615.1901      6.5858     69.7848
  1973.2500      0.0000    620.9045      6.5119     70.8077
  1973.5000      0.0000    629.4316      6.4733     72.7052
  1973.7500      0.0000    636.4258      6.4971     75.6802
  1974.0000      0.0000    636.9960      6.5773     79.1108
  1974.2500      0.0000    631.7766      6.6730     82.1505
  1974.5000      0.0000    628.1513      6.7382     84.7823
  1974.7500      0.0000    633.5762      6.7554     88.4064
  1975.0000      0.0000    648.5553      6.7405     95.0026
  1975.2500      0.0000    666.7606      6.7191    105.5108
  1975.5000      0.0000    680.0252      6.7066    118.9746
  1975.7500      0.0000    682.8346      6.7051    132.9649
  1976.0000      0.0000    674.9266      6.7100    144.7096
  1976.2500      0.0000    661.4183      6.7109    152.2778
  1976.5000      0.0000    648.2028      6.6946    155.3920
  1976.7500      0.0000    634.8737      6.6548    155.4042
  1977.0000      0.0000    613.7318      6.5996    154.0919
  1977.2500      0.0000    578.5150      6.5429    152.1909
  1977.5000      0.0000    533.1384      6.4922    149.3424
  1977.7500      0.0000    489.5418      6.4471    145.1837
  1978.0000      0.0000    457.6183      6.4073    139.8244
  1978.2500      0.0000    439.1635      6.3754    133.4481
  1978.5000      0.0000    430.4025      6.3533    126.2109
  1978.7500      0.0000    427.6409      6.3405    118.7454
  1979.0000      0.0000    429.8578      6.3380    112.3944
  1979.2500      0.0000    437.2380      6.3480    108.6631
  1979.5000      0.0000    448.2675      6.3705    108.3011
  1979.7500      0.0000    458.9037      6.4031    110.8455
  1980.0000      0.0000    464.9373      6.4448    115.0667
  1980.2500      0.0000    464.9554      6.4947    119.8891
  1980.5000      0.0000    460.6521      6.5448    124.8076
  1980.7500      0.0000    454.6265      6.5793    129.4628
  1981.0000      0.0000    448.2344      6.5861    133.1342
  1981.2500      0.0000    441.2886      6.5702    134.9316
  1981.5000      0.0000    433.3247      6.5513    134.5042
  1981.7500      0.0000    424.8003      6.5475    132.3345
  1982.0000      0.0000    416.9901      6.5609    129.2090
  1982.2500      0.0000    411.0071      6.5800    125.4561
  1982.5000      0.0000    407.2423      6.5908    120.8815
  1982.7500      0.0000    405.5327      6.5858    115.5831
  1983.0000      0.0000    405.2323      6.5691    110.5312
  1983.2500      0.0000    405.0268      6.5564    106.8991
  1983.5000      0.0000    403.3270      6.5656    104.8555
  1983.7500      0.0000    399.4424      6.6008    103.2542
  1984.0000      0.0000    394.2270      6.6536    100.4786
  1984.2500      0.0000    389.5321      6.7166     95.7394
  1984.5000      0.0000    387.5269      6.7911     89.8592
  1984.7500      0.0000    390.9157      6.8787     84.8350
  1985.0000      0.0000    402.8708      6.9684     82.4261
  1985.2500      0.0000    424.8823      7.0300     82.9663
  1985.5000      0.0000    454.2300      7.0230     85.2812
  1985.7500      0.0000    485.4932      6.9271     87.6085
  1986.0000      0.0000    515.2029      6.7686     88.9710
  1986.2500      0.0000    541.8774      6.6100     90.0904
  1986.5000      0.0000    560.8389      6.5076     92.8016
  1986.7500      0.0000    564.5724      6.4823     98.0714
  1987.0000      0.0000    551.2557      6.5212    104.6313
  1987.2500      0.0000    528.5436      6.5967    109.9158
  1987.5000      0.0000    506.1121      6.6863    112.1872
  1987.7500      0.0000    487.8454      6.7818    111.5666
  1988.0000      0.0000    472.9468      6.8840    109.5328
  1988.2500      0.0000    460.7185      6.9899    107.7910
  1988.5000      0.0000    451.6230      7.0877    107.3378
  1988.7500      0.0000    446.2037      7.1639    108.4026
  1989.0000      0.0000    445.9988      7.2129    111.1729
  1989.2500      0.0000    455.1083      7.2386    116.0037
  1989.5000      0.0000    478.3809      7.2517    122.4458
  1989.7500      0.0000    516.4475      7.2679    128.6143
  1990.0000      0.0000    563.1818      7.3077    132.4656
  1990.2500      0.0000    609.0989      7.3897    133.8537
  1990.5000      0.0000    646.9865      7.5134    134.6343
  1990.7500      0.0000    674.2532      7.6492    136.2326
  1991.0000      0.0000    691.6608      7.7508    137.5644
  1991.2500      0.0000    701.2470      7.7849    136.0353
  1991.5000      0.0000    705.0625      7.7479    130.3976
  1991.7500      0.0000    704.9221      7.6593    122.1119
  1992.0000      0.0000    702.3578      7.5454    114.2121
  1992.2500      0.0000    697.7764      7.4284    109.2994
  1992.5000      0.0000    689.0141      7.3185    108.2022
  1992.7500      0.0000    671.0884      7.2025    109.8213
  1993.0000      0.0000    639.2058      7.0398    112.3824
  1993.2500      0.0000    594.3332      6.7958    115.1630
  1993.5000      0.0000    545.8794      6.5082    118.6094
  1993.7500      0.0000    506.1478      6.2992    122.5125
  1994.0000      0.0000    480.6934      6.2647    124.8876
  1994.2500      0.0000    465.4314      6.3527    123.4476
  1994.5000      0.0000    453.1990      6.4094    117.7292
  1994.7500      0.0000    440.5855      6.3385    109.3240
  1995.0000      0.0000    428.0007      6.1638    100.6313
  1995.2500      2.0000    416.4408      5.9605     93.7758
  1995.5000     -2.0000    406.6031      5.7818     90.0385
  1995.7500     -2.0000    400.2481      5.6446     89.5079
  1996.0000      2.0000    400.9066      5.5458     91.1026
  1996.2500      0.0000    412.4572      5.4830     93.1502
  1996.5000      0.0000    435.4279      5.4588     94.2710
  1996.7500      0.0000    463.0734      5.4620     93.8820
  1997.0000      0.0000    482.4016      5.4629     92.0190
  1997.2500      0.0000    482.9104      5.4477     89.0235
  1997.5000      0.0000    465.5632      5.4416     85.5262
  1997.7500      0.0000    441.5248      5.4776     82.3039
  1998.0000      0.0000    422.5383      5.5537     79.8771
  1998.2500      0.0000    414.3811      5.6364     78.4673
  1998.5000      0.0000    417.5904      5.6919     78.2641
  1998.7500      0.0000    429.8411      5.7052     79.2430
  1999.0000      0.0000    446.3032      5.6795     80.7974
  1999.2500      0.0000    460.1804      5.6282     82.1690
  1999.5000      0.0000    465.4263      5.5646     83.2519
  1999.7500      0.0000    459.7166      5.4980     84.3641
  2000.0000      0.0000    445.1800      5.4352     85.2062
  2000.2500      0.0000    427.0162      5.3846     84.8076
  2000.5000      0.0000    411.3028      5.3536     82.9132
  2000.7500      0.0000    402.7761      5.3387     80.9087
  2001.0000      0.0000    403.5772      5.3276     80.8791
  2001.2500      0.0000    413.7442      5.3139     83.7457
  2001.5000      0.0000    432.4709      5.3084     88.3264
  2001.7500      0.0000    458.1895      5.3301     92.0288
  2002.0000      0.0000    487.2809      5.3861     92.6023
  2002.2500      0.0000    514.0822      5.4610     89.6026
  2002.5000      0.0000    534.0160      5.5260     84.3906
  2002.7500      0.0000    546.5559      5.5585     78.8973
  2003.0000      0.0000    553.8198      5.5556     74.5083
  2003.2500      0.0000    557.1140      5.5285     71.8708
  2003.5000      0.0000    556.9218      5.4875     71.3341
  2003.7500      0.0000    555.5460      5.4342     73.3332
  2004.0000      0.0000    556.2860      5.3705     78.1756
  2004.2500      0.0000    558.1995      5.3098     85.3468
  2004.5000      0.0000    554.3253      5.2715     93.2559
  2004.7500      0.0000    539.0688      5.2634    100.0396
  2005.0000      0.0000    517.4579      5.2725    104.6799
  2005.2500      0.0000    504.0040      5.2758    107.3351
  2005.5000      0.0000    510.7610      5.2589    108.9126
