~Version Information
VERS.                      2.0: CWLS Log ASCII Standard - VERSION 2.0
WRAP.                       NO: One line per depth step
~Well Information Block
STRT.FT               780.0000: 
STOP.FT              3152.2000: 
STEP.FT                 0.1000: 
NULL.                -999.2500: 
COMP.          Pioneer Natural Resources: COMPANY
WELL.            Paradise 13-8: WELL
FLD.           Purgatoire River: FIELD
LOC.           1896' FSL & 1120' FWL: LOCATION
PROV.                 Colorado: PROVINCE
CNTY.               Las Animas: COUNTRY
SRVC.                Patterson: SERVICE COMPANY
DATE.          Sat Jan 22 20:51:32 2005: LOG DATE
UWI.           05 071 07946 00: UNIQUE WELL ID
~Curve Information Block
DEPT.FT            0 000 00 00: Depth
DCAL.in                       : CDL Caliper
RHOB.g/cc                     : CDL Bulk Density
RHOC.g/cc                     : CDL Density Correction
DPOR.pu                       : CDL Density Porosity
NPOR.pu                       : Neutron Porosity
GR.GAPI                       : Gamma Ray
~Parameter Information Block
~A  Depth       DCAL        RHOB        RHOC        DPOR        NPOR         GR     
# ...
  2181.6000      7.9421      2.5154      0.1519      8.1546     23.8444    125.2568
  2181.7000      7.9421      2.5650      0.1688      5.1526     23.2401    114.7767
  2181.8000      7.9419      2.5869      0.1701      3.8214     22.9677    108.5156
  2181.9000      7.9419      2.5799      0.1170      4.2458     22.8258    108.3276
  2182.0000      7.9415      2.5600      0.0768      5.4535     22.7091    112.3838
  2182.1000      7.9415      2.5499      0.0202      6.0696     22.7036    114.6676
  2182.2000      7.9415      2.5608      0.0490      5.4053     22.8309    110.9901
  2182.3000      7.9410      2.5732      0.0795      4.6564     23.2471    105.3739
  2182.4000      7.9410      2.5552      0.0741      5.7427     24.1846    103.5210
  2182.5000      7.9389      2.5078      0.0000      8.6160     25.5122    103.3314
  2182.6000      7.9389      2.4597      0.0125     11.5337     26.6885    103.4530
  2182.7000      7.9389      2.4130      0.0240     14.3653     27.4150    107.2649
  2182.8000      7.9303      2.3403     -0.0179     18.7700     28.2135    113.5416
  2182.9000      7.9303      2.2310     -0.0560     25.3927     29.3863    119.0740
  2183.0000      7.9231      2.1078     -0.0876     32.8599     30.2390    121.9187
  2183.1000      7.9231      2.0011     -0.1123     39.3285     30.5117    115.9455
  2183.2000      7.9231      1.9081     -0.0969     44.9610     30.8711    102.0036
  2183.3000      7.9294      1.8032     -0.1332     51.3235     31.6933     90.6887
  2183.4000      7.9294      1.6859     -0.1474     58.4281     32.4813     85.3084
  2183.5000      7.9343      1.5874     -0.1634     64.4000     33.1424     80.7505
  2183.6000      7.9343      1.5284     -0.0741     67.9741     34.4706     76.0656
  2183.7000      7.9343      1.4950     -0.0232     69.9998     36.2508     74.1767
  2183.8000      7.9191      1.4634      0.0335     71.9148     37.0751     72.4197
  2183.9000      7.9191      1.4318      0.0081     73.8281     36.4352     63.8263
  2184.0000      7.8517      1.4174      0.0491     74.7018     35.3309     51.7440
  2184.1000      7.8517      1.4263      0.0817     74.1659     34.6788     44.8775
  2184.2000      7.8517      1.4413      0.0948     73.2530     34.5494     44.3056
  2184.3000      7.7316      1.4437      0.0725     73.1118     34.7584     46.2642
  2184.4000      7.7316      1.4376      0.0400     73.4788     35.1243     45.5788
  2184.5000      7.6456      1.4423      0.0765     73.1954     35.1880     42.0528
  2184.6000      7.6456      1.4599      0.1217     72.1301     34.6294     40.1479
  2184.7000      7.6456      1.4733      0.1438     71.3166     33.8915     40.6964
  2184.8000      7.6350      1.4748      0.1079     71.2233     33.4531     42.1715
  2184.9000      7.6350      1.4783      0.0795     71.0137     33.1172     42.9497
  2185.0000      7.6602      1.4995      0.0876     69.7268     32.6992     41.6694
  2185.1000      7.6602      1.5469      0.0766     66.8543     32.0494     41.4273
  2185.2000      7.6602      1.6299      0.0831     61.8250     31.1082     46.5466
  2185.3000      7.7033      1.7519      0.1230     54.4313     30.2172     57.1328
  2185.4000      7.7033      1.8962      0.2439     45.6839     29.4504     65.1528
  2185.5000      7.7841      2.0354      0.2949     37.2508     28.5469     62.9066
  2185.6000      7.7841      2.1554      0.3436     29.9771     27.1411     59.5782
  2185.7000      7.7841      2.2618      0.3698     23.5272     25.1876     64.2169
  2185.8000      7.8709      2.3662      0.3481     17.1976     23.2091     71.7511
  2185.9000      7.8709      2.4677      0.3448     11.0507     21.6269     78.8973
  2186.0000      7.9138      2.5504      0.2709      6.0358     20.5514     88.0794
  2186.1000      7.9138      2.6013      0.1950      2.9527     19.9160     98.1981
  2186.2000      7.9138      2.6175      0.1462      1.9715     19.8273    104.3356
  2186.3000      7.9144      2.6136      0.0693      2.2076     20.1155    104.1469
  2186.4000      7.9144      2.6083      0.1104      2.5291     20.2275    102.0282
  2186.5000      7.9059      2.6062      0.0989      2.6567     19.9907    103.4482
  2186.6000      7.9059      2.6120      0.0748      2.3053     19.2906    106.5807
  2186.7000      7.9059      2.6287      0.0611      1.2912     18.0253    108.5590
  2186.8000      7.9029      2.6473      0.1063      0.1662     16.9239    109.3867
  2186.9000      7.9029      2.6557      0.1297     -0.3440     16.7120    104.8223
  2187.0000      7.9000      2.6535      0.0682     -0.2142     17.2585     94.7622
  2187.1000      7.9000      2.6486      0.1114      0.0854     18.0066     87.4682
  2187.2000      7.9000      2.6413      0.0771      0.5295     18.4476     85.5789
  2187.3000      7.8965      2.6342      0.0688      0.9553     18.4166     86.9318
  2187.4000      7.8965      2.6368      0.0586      0.7980     18.0291     91.2704
  2187.5000      7.8982      2.6473      0.0810      0.1647     17.2511     95.3165
  2187.6000      7.8982      2.6479      0.0922      0.1245     16.4000     95.1793
  2187.7000      7.8982      2.6301      0.0829      1.2082     16.2021     93.5454
  2187.8000      7.9010      2.6099      0.0579      2.4315     16.7864     96.5369
  2187.9000      7.9010      2.6045      0.0478      2.7581     17.8206    104.3670
  2188.0000      7.9004      2.6127      0.0391      2.2618     18.8608    109.9552
  2188.1000      7.9004      2.6140      0.1115      2.1797     19.4402    109.9370
  2188.2000      7.9004      2.6010      0.0308      2.9679     19.5533    107.7062
  2188.3000      7.8977      2.5947      0.0232      3.3500     19.4866    104.0501
  2188.4000      7.8977      2.5968      0.1022      3.2250     19.1920     97.2467
  2188.5000      7.8955      2.5931      0.0498      3.4499     18.7162     89.2106
  2188.6000      7.8955      2.5928      0.0621      3.4652     18.6201     86.3533
  2188.7000      7.8955      2.6033      0.0443      2.8303     19.0052     90.8994
  2188.8000      7.8956      2.6120      0.0822      2.3028     19.3297     99.1218
  2188.9000      7.8956      2.6144      0.0711      2.1575     19.4512    107.4344
  2189.0000      7.8966      2.6185      0.0928      1.9077     19.4978    112.7822
  2189.1000      7.8966      2.6258      0.0896      1.4692     19.3259    115.0401
  2189.2000      7.8966      2.6353      0.0650      0.8886     19.3873    114.8038
  2189.3000      7.8983      2.6453      0.0608      0.2854     20.1170    112.5417
  2189.4000      7.8983      2.6459      0.1007      0.2480     20.8831    110.6685
  2189.5000      7.9034      2.6294      0.0758      1.2507     21.0082    109.6870
  2189.6000      7.9034      2.6067      0.0454      2.6252     20.6389    109.5605
  2189.7000      7.9034      2.5997      0.0217      3.0507     20.1587    112.0181
  2189.8000      7.9081      2.6129      0.0591      2.2477     19.8387    115.7833
  2189.9000      7.9081      2.6304      0.0529      1.1907     20.0693    116.4418
  2190.0000      7.9057      2.6412      0.0739      0.5349     20.7009    111.2369
  2190.1000      7.9057      2.6451      0.0592      0.2983     20.7953    101.5305
  2190.2000      7.9057      2.6406      0.0718      0.5712     20.0658     94.4275
  2190.3000      7.9003      2.6375      0.0254      0.7581     19.4187     95.0751
  2190.4000      7.9003      2.6456      0.0965      0.2657     19.2363     98.4837
  2190.5000      7.8978      2.6544      0.0551     -0.2662     18.6646     98.8279
  2190.6000      7.8978      2.6586      0.0823     -0.5217     17.4802     97.3527
  2190.7000      7.8978      2.6668      0.0343     -1.0174     16.6818     96.0359
  2190.8000      7.8976      2.6841      0.0769     -2.0671     16.7375     91.9868
  2190.9000      7.8976      2.6967      0.0845     -2.8278     17.1442     86.6251
  2191.0000      7.8973      2.6917      0.0809     -2.5253     17.4416     83.8095
  2191.1000      7.8973      2.6862      0.0143     -2.1948     17.5802     81.1991
