~Version Information
VERS.                      2.0: CWLS Log ASCII Standard - VERSION 2.0
WRAP.                       NO: One line per depth step
~Well Information Block
STRT.FT               400.0000: 
STOP.FT              2201.0000: 
STEP.FT                 0.2500: 
NULL.                -999.2500: 
COMP.          Evergreen Operating Corporation: COMPANY
WELL.            Triumph 13-10: WELL
FLD.           Purgatorie River: FIELD
LOC.           1551' FSL & 522' FWL: LOCATION
PROV.                 Colorado: PROVINCE
CNTY.               Las Animas: COUNTRY
SRVC.                Patterson: SERVICE COMPANY
DATE.          Fri Jul 23 20:28:37 2004: LOG DATE
UWI.           05 071 08108 00: UNIQUE WELL ID
~Curve Information Block
DEPT.FT            0 000 00 00: Depth
SN.Ohm-m                      : IEL Short Normal
SP.mV                         : IEL Spontaneous Potential
DIR.Ohm-m                     : IEL Induction Resistivity
GR.GAPI                       : Gamma Ray
~Parameter Information Block
~A  Depth        SN          SP         DIR          GR     
# ...
  1706.5000     30.4457     74.9308     20.0177     47.6807
  1706.7500     27.1044     75.1311     18.3284     50.7466
  1707.0000     24.0670     75.3560     16.8334     58.9084
  1707.2500     21.5122     75.5750     15.5362     67.3553
  1707.5000     19.4132     75.7517     14.4155     83.9617
  1707.7500     17.6526     75.8647     13.4405     96.1939
  1708.0000     16.1327     75.9195     12.5829    113.0718
  1708.2500     14.8156     75.9365     11.8230    121.9268
  1708.5000     13.6987     75.9336     11.1497    130.6858
  1708.7500     12.7838     75.9201     10.5572    133.7652
  1709.0000     12.0720     75.9014     10.0413    135.5458
  1709.2500     11.5587     75.8823      9.5975    135.6810
  1709.5000     11.2364     75.8653      9.2201    135.2599
  1709.7500     11.1011     75.8483      8.9020    134.7995
  1710.0000     11.1183     75.8255      8.6335    133.9497
  1710.2500     11.1884     75.7907      8.4027    133.2990
  1710.5000     11.1860     75.7414      8.1965    132.4038
  1710.7500     11.0448     75.6822      8.0041    132.0737
  1711.0000     10.7956     75.6234      7.8204    132.1513
  1711.2500     10.5183     75.5760      7.6482    132.4851
  1711.5000     10.2725     75.5453      7.4964    133.0704
  1711.7500     10.0905     75.5255      7.3749    133.2179
  1712.0000      9.9963     75.4994      7.2886    132.4130
  1712.2500      9.9683     75.4421      7.2352    130.9962
  1712.5000      9.9209     75.3320      7.2063    127.9243
  1712.7500      9.8192     75.1634      7.1919    125.7046
  1713.0000      9.7555     74.9540      7.1826    122.7173
  1713.2500      9.8059     74.7401      7.1716    121.1549
  1713.5000      9.9120     74.5624      7.1532    119.9407
  1713.7500      9.9609     74.4469      7.1242    120.3305
  1714.0000      9.9037     74.3932      7.0856    123.2608
  1714.2500      9.7796     74.3751      7.0449    126.5638
  1714.5000      9.6628     74.3555      7.0145    132.1386
  1714.7500      9.6103     74.3058      7.0081    135.2557
  1715.0000      9.6618     74.2150      7.0345    137.9690
  1715.2500      9.8485     74.0857      7.0954    138.4634
  1715.5000     10.1375     73.9241      7.1869    137.7712
  1715.7500     10.3925     73.7329      7.3040    136.6324
  1716.0000     10.5075     73.5088      7.4440    134.3210
  1716.2500     10.5476     73.2432      7.6068    132.7932
  1716.5000     10.6434     72.9308      7.7926    131.3758
  1716.7500     10.8403     72.5758      8.0003    131.1548
  1717.0000     11.1199     72.1922      8.2282    131.3508
  1717.2500     11.4542     71.7933      8.4749    131.5877
  1717.5000     11.8065     71.3812      8.7398    132.5534
  1717.7500     12.1574     70.9480      9.0233    133.9244
  1718.0000     12.5283     70.4887      9.3278    136.4431
  1718.2500     12.9353     70.0178      9.6591    137.4516
  1718.5000     13.3760     69.5695     10.0281    136.6776
  1718.7500     13.8797     69.1741     10.4493    134.6839
  1719.0000     14.4901     68.8263     10.9377    130.6965
  1719.2500     15.2162     68.4760     11.5031    128.2302
  1719.5000     16.0398     68.0583     12.1471    125.7515
  1719.7500     16.9468     67.5364     12.8658    125.0096
  1720.0000     17.9607     66.9210     13.6557    124.7848
  1720.2500     19.1416     66.2618     14.5185    124.6866
  1720.5000     20.5284     65.6309     15.4577    123.5532
  1720.7500     22.1064     65.1081     16.4676    121.7577
  1721.0000     23.8263     64.7627     17.5242    117.6021
  1721.2500     25.6404     64.6441     18.5853    114.0516
  1721.5000     27.5241     64.7970     19.6060    107.3640
  1721.7500     29.4399     65.2763     20.5574    101.7499
  1722.0000     31.3158     66.1212     21.4262     92.0746
  1722.2500     33.0886     67.3081     22.1856     85.8640
  1722.5000     34.6810     68.7436     22.7557     79.0695
  1722.7500     35.8972     70.3219     22.9944     76.6483
  1723.0000     36.4163     71.9942     22.7506     74.7515
  1723.2500     35.9530     73.8009     21.9655     73.4777
  1723.5000     34.4395     75.8599     20.7375     71.3614
  1723.7500     32.0541     78.2983     19.2809     70.8587
  1724.0000     29.1081     81.1249     17.8141     73.1778
  1724.2500     25.9565     84.1229     16.4796     76.8120
  1724.5000     22.9728     86.8933     15.3330     84.0569
  1724.7500     20.4526     89.0652     14.3734     89.2390
  1725.0000     18.4984     90.4989     13.5754     97.0388
  1725.2500     17.0547     91.3104     12.9099    102.4646
  1725.5000     16.0132     91.7286     12.3520    111.1726
  1725.7500     15.2624     91.9431     11.8808    116.9654
  1726.0000     14.7001     92.0499     11.4775    124.2010
  1726.2500     14.2601     92.0812     11.1252    127.3059
  1726.5000     13.9241     92.0471     10.8125    129.2499
  1726.7500     13.6975     91.9547     10.5379    129.4232
  1727.0000     13.5754     91.8140     10.3081    129.5828
  1727.2500     13.5242     91.6465     10.1309    130.1319
  1727.5000     13.5100     91.4909     10.0075    131.3369
  1727.7500     13.5444     91.3934      9.9313    131.7386
  1728.0000     13.6583     91.3859      9.8911    130.5234
  1728.2500     13.8410     91.4742      9.8756    128.2293
  1728.5000     14.0387     91.6425      9.8740    123.3996
  1728.7500     14.1838     91.8642      9.8750    120.2809
  1729.0000     14.2066     92.1048      9.8657    117.3383
  1729.2500     14.0549     92.3216      9.8345    116.9008
  1729.5000     13.7344     92.4745      9.7749    118.0736
  1729.7500     13.3270     92.5508      9.6874    119.3823
  1730.0000     12.9488     92.5814      9.5782    120.8636
  1730.2500     12.6603     92.6268      9.4552    121.1485
  1730.5000     12.4423     92.7378      9.3246    120.9633
  1730.7500     12.2720     92.9273      9.1909    121.1721
  1731.0000     12.1620     93.1749      9.0575    123.1033
  1731.2500     12.1251     93.4445      8.9287    125.5284
  1731.5000     12.1445     93.6900      8.8103    129.7234
  1731.7500     12.1800     93.8585      8.7098    131.8332
  1732.0000     12.1932     93.9088      8.6353    132.5245
  1732.2500     12.1745     93.8399      8.5934    131.1633
  1732.5000     12.1538     93.6993      8.5879    127.4921
  1732.7500     12.1692     93.5594      8.6208    125.1678
  1733.0000     12.2192     93.4706      8.6941    123.6371
  1733.2500     12.2817     93.4331      8.8116    124.0348
  1733.5000     12.3702     93.4185      8.9787    125.4065
  1733.7500     12.5300     93.4226      9.1990    126.0189
  1734.0000     12.7791     93.4845      9.4710    126.1917
  1734.2500     13.1170     93.6420      9.7867    125.9775
  1734.5000     13.5847     93.8720     10.1334    125.0443
  1734.7500     14.2369     94.0820     10.4982    123.7950
  1735.0000     15.0595     94.1694     10.8712    120.9246
  1735.2500     15.9344     94.0968     11.2469    118.3730
  1735.5000     16.6900     93.9150     11.6249    113.2932
  1735.7500     17.2333     93.7189     12.0113    108.9796
  1736.0000     17.6341     93.5839     12.4202    102.0155
  1736.2500     18.0505     93.5339     12.8722     98.1947
  1736.5000     18.5972     93.5477     13.3872     95.7481
  1736.7500     19.2756     93.5847     13.9724     96.8894
  1737.0000     19.9606     93.6099     14.6113    102.0821
  1737.2500     20.4826     93.6072     15.2629    106.6765
  1737.5000     20.7960     93.5786     15.8771    112.9777
  1737.7500     21.0148     93.5363     16.4225    115.9221
  1738.0000     21.2686     93.4919     16.9019    118.2673
  1738.2500     21.6103     93.4481     17.3404    118.9217
  1738.5000     22.0487     93.3959     17.7560    119.6173
  1738.7500     22.5745     93.3226     18.1397    120.2559
  1739.0000     23.1608     93.2222     18.4583    121.1701
  1739.2500     23.8078     93.1031     18.6754    121.1801
  1739.5000     24.5568     92.9870     18.7706    119.7139
  1739.7500     25.4237     92.9003     18.7423    118.0371
