~Version Information
VERS.                      2.0: CWLS Log ASCII Standard - VERSION 2.0
WRAP.                       NO: One line per depth step
~Well Information Block
STRT.FT               743.8000: 
STOP.FT              1975.8000: 
STEP.FT                 0.1000: 
NULL.                -999.2500: 
COMP.          Petrogulf Corporation: COMPANY
WELL.            Montoya 6-14V: WELL
FLD.           Purgatorie River: FIELD
LOC.           318' FSL & 882' FWL: LOCATION
CNTY.               Las Animas: COUNTY
SRVC.                         : SERVICE COMPANY
DATE.          Sat Aug 14 09:19:43 2004: LOG DATE
UWI.           05 071 08020 00: UNIQUE WELL ID
STAT.                 Colorado: STATE
~Curve Information Block
DEPT.FT            0 000 00 00: Depth
DCAL.in                       : CDL Caliper
RHOB.g/cc                     : CDL Bulk Density
RHOC.g/cc                     : CDL Density Correction
DPOR.pu                       : CDL Density Porosity
GR.GAPI                       : Gamma Ray
NPOR.pu                       : Neutron Porosity
~Parameter Information Block
~A  Depth       DCAL        RHOB        RHOC        DPOR         GR         NPOR    
# ...
  1339.0000      7.9925      2.4109     -0.1349     14.4925    130.3170     27.7553
  1339.1000      7.9925      2.4223     -0.0225     13.7973    131.7810     28.0195
  1339.2000      7.9925      2.4533      0.0084     11.9226    131.0238     28.1290
  1339.3000      8.0299      2.4822      0.0617     10.1713    128.8468     28.1202
  1339.4000      8.0299      2.5076      0.0819      8.6294    127.0293     27.7871
  1339.5000      8.2252      2.5381      0.1580      6.7840    123.0588     27.1359
  1339.6000      8.2252      2.5683      0.2302      4.9513    119.1587     26.7952
  1339.7000      8.2252      2.5757      0.2357      4.5037    120.2703     26.9882
  1339.8000      8.2730      2.5501      0.1570      6.0538    122.2489     27.2997
  1339.9000      8.2730      2.5075      0.1657      8.6385    122.9594     27.6805
  1340.0000      8.3282      2.4687      0.1596     10.9908    125.0794     28.2521
  1340.1000      8.3282      2.4276      0.2419     13.4814    125.8983     28.2573
  1340.2000      8.3282      2.3582      0.1835     17.6840    124.5056     27.1743
  1340.3000      8.6999      2.2635      0.1314     23.4217    123.3700     26.2322
  1340.4000      8.6999      2.1779      0.1102     28.6139    122.1508     26.5061
  1340.5000      8.7576      2.1280      0.0804     31.6352    122.4771     27.0913
  1340.6000      8.7576      2.1236      0.1102     31.9042    125.5919     27.1418
  1340.7000      8.7576      2.1709      0.1162     29.0379    129.4069     27.1280
  1340.8000      8.4045      2.2672      0.2545     23.2024    131.2314     27.4977
  1340.9000      8.4045      2.3879      0.4022     15.8827    133.2935     27.7670
  1341.0000      8.2089      2.5048      0.4208      8.7993    139.0670     27.3874
  1341.1000      8.2089      2.5940      0.4626      3.3927    145.1522     27.0580
  1341.2000      8.2089      2.6360      0.4242      0.8478    147.1300     27.2938
  1341.3000      8.0123      2.6393      0.3445      0.6470    141.8699     27.6253
  1341.4000      8.0123      2.6238      0.3233      1.5879    134.1830     27.6842
  1341.5000      7.9943      2.5861      0.2925      3.8743    138.0199     27.5425
  1341.6000      7.9943      2.5237      0.1874      7.6548    150.5427     27.5386
  1341.7000      7.9943      2.4544      0.1242     11.8528    155.4928     27.6733
  1341.8000      7.9892      2.3978      0.0535     15.2855    153.6985     27.6648
  1341.9000      7.9892      2.3638      0.0590     17.3453    155.9198     27.6906
  1342.0000      7.9764      2.3519      0.0507     18.0642    161.8869     27.9365
  1342.1000      7.9764      2.3565      0.0745     17.7874    162.9812     27.7153
  1342.2000      7.9764      2.3698      0.1203     16.9842    157.0257     27.1003
  1342.3000      7.9875      2.3844      0.1197     16.0953    149.8518     27.2401
  1342.4000      7.9875      2.3953      0.1427     15.4392    147.7262     28.2265
  1342.5000      7.9733      2.3991      0.1235     15.2072    152.2437     29.1766
  1342.6000      7.9733      2.4013      0.0680     15.0718    156.6398     29.6392
  1342.7000      7.9733      2.4117      0.0540     14.4441    157.4624     29.8385
  1342.8000      7.9986      2.4276      0.0759     13.4798    158.1514     29.7299
  1342.9000      7.9986      2.4386      0.0444     12.8125    157.6921     29.1760
  1343.0000      7.9704      2.4409      0.0643     12.6722    155.5288     28.8230
  1343.1000      7.9704      2.4355      0.0206     12.9976    156.0943     29.1620
  1343.2000      7.9704      2.4277      0.0222     13.4711    158.9531     29.4757
  1343.3000      7.9470      2.4236      0.0513     13.7213    154.0970     29.1684
  1343.4000      7.9470      2.4227      0.0771     13.7749    140.0102     28.6845
  1343.5000      7.9422      2.4242      0.0591     13.6843    131.2719     28.3531
  1343.6000      7.9422      2.4358      0.0603     12.9848    134.6933     27.9686
  1343.7000      7.9422      2.4578      0.0836     11.6467    143.6929     27.4419
  1343.8000      7.9403      2.4756      0.1232     10.5707    154.3756     26.9947
  1343.9000      7.9403      2.4774      0.0953     10.4621    164.4589     26.5709
  1344.0000      7.9463      2.4746      0.0282     10.6302    170.0281     26.2084
  1344.1000      7.9463      2.4881      0.0440      9.8130    169.6404     26.4031
  1344.2000      7.9463      2.5133      0.0674      8.2878    164.8367     26.8823
  1344.3000      7.9426      2.5293      0.0375      7.3163    159.8431     27.0205
  1344.4000      7.9426      2.5352      0.0202      6.9574    156.4925     26.8200
  1344.5000      7.9381      2.5396      0.0527      6.6933    149.4066     26.3540
  1344.6000      7.9381      2.5385      0.0634      6.7591    138.0942     25.9829
  1344.7000      7.9381      2.5296      0.0144      7.2978    132.7769     25.9500
  1344.8000      7.9247      2.5190      0.0265      7.9415    136.3432     25.7725
  1344.9000      7.9247      2.5135     -0.0014      8.2704    141.6421     25.4820
  1345.0000      7.9430      2.5186      0.0035      7.9616    145.9270     25.5337
  1345.1000      7.9430      2.5321     -0.0067      7.1480    150.6024     25.9056
  1345.2000      7.9430      2.5441      0.0207      6.4179    156.4480     26.1390
  1345.3000      7.9665      2.5475     -0.0047      6.2149    162.9606     25.9442
  1345.4000      7.9665      2.5427     -0.0053      6.5020    168.4568     25.5744
  1345.5000      7.9539      2.5307      0.0057      7.2282    172.1057     25.3466
  1345.6000      7.9539      2.5147     -0.0368      8.2028    171.1851     25.4378
  1345.7000      7.9539      2.5027     -0.0430      8.9260    164.3338     25.9719
  1345.8000      7.9101      2.4957     -0.0242      9.3504    158.7073     26.6822
  1345.9000      7.9101      2.4906     -0.0249      9.6636    159.8735     26.9621
  1346.0000      7.9366      2.4904     -0.0289      9.6710    163.7768     26.6046
  1346.1000      7.9366      2.4968     -0.0310      9.2841    165.6857     26.0998
  1346.2000      7.9366      2.5040      0.0061      8.8515    165.4473     25.5799
  1346.3000      7.9127      2.5099     -0.0331      8.4933    163.7260     24.8890
  1346.4000      7.9127      2.5231     -0.0180      7.6886    159.4234     24.4924
  1346.5000      7.9067      2.5456      0.0039      6.3289    152.3387     24.8681
  1346.6000      7.9067      2.5620      0.0409      5.3346    146.8053     25.5303
  1346.7000      7.9067      2.5594      0.0534      5.4920    145.0989     25.7412
  1346.8000      7.9006      2.5491     -0.0063      6.1166    142.8790     25.6203
  1346.9000      7.9006      2.5519      0.0234      5.9432    138.4699     25.4544
  1347.0000      7.9073      2.5657      0.0231      5.1070    136.7385     25.3237
  1347.1000      7.9073      2.5747     -0.0030      4.5651    139.7885     25.6077
  1347.2000      7.9073      2.5705      0.0253      4.8180    144.9892     26.2606
  1347.3000      7.9056      2.5560     -0.0062      5.6947    147.7840     26.5294
  1347.4000      7.9056      2.5483     -0.0307      6.1665    144.8032     26.1248
  1347.5000      7.8875      2.5564      0.0091      5.6739    140.0268     25.3518
  1347.6000      7.8875      2.5677      0.0511      4.9864    139.8354     24.7498
  1347.7000      7.8875      2.5776      0.0363      4.3907    142.3634     24.4346
  1347.8000      7.8637      2.5935      0.0766      3.4214    144.1085     24.1894
  1347.9000      7.8637      2.6066      0.0910      2.6286    147.2936     24.1353
  1348.0000      7.8562      2.6041      0.0984      2.7823    150.2236     23.8348
  1348.1000      7.8562      2.5947      0.0569      3.3532    149.9355     22.7666
  1348.2000      7.8562      2.5937      0.0607      3.4121    148.1639     21.4657
  1348.3000      7.8573      2.6015      0.0872      2.9423    145.1631     20.6754
  1348.4000      7.8573      2.6121      0.0572      2.2991    139.7556     20.4673
  1348.5000      7.8435      2.6172      0.0917      1.9869    130.0699     20.2569
