~Version Information
VERS.                      2.0: CWLS Log ASCII Standard - VERSION 2.0
WRAP.                       NO: One line per depth step
~Well Information Block
STRT.FT               555.5000: 
STOP.FT              2179.0000: 
STEP.FT                 0.2500: 
NULL.                -999.2500: 
COMP.          Petrogulf Corporation: COMPANY
WELL.            Montoya 6-14R: WELL
FLD.           Purgatorie River: FIELD
LOC.           867' FSL & 751' FWL: LOCATION
CNTY.               Las Animas: COUNTY
SRVC.                         : SERVICE COMPANY
DATE.          Mon Nov 15 07:02:23 2004: LOG DATE
UWI.           05 071 08242 00: UNIQUE WELL ID
STAT.                 Colorado: STATE
~Curve Information Block
DEPT.FT            0 000 00 00: Depth
SP.mV                         : DIL Spontaneous Potential
RILD.Ohm-m                    : DIL Deep Resistivity
RILM.Ohm-m                    : DIL Medium Resistivity
RLL3.Ohm-m                    : DIL Shallow Resistivity
GR.GAPI                       : Gamma Ray
~Parameter Information Block
~A  Depth        SP         RILD        RILM        RLL3         GR     
# ...
  1199.5000   -172.9440     19.3417     21.6306     28.4075     84.6089
  1199.7500   -174.7402     18.6901     20.5057     25.4126     89.6353
  1200.0000   -176.6876     18.0159     19.3858     22.7396     98.4064
  1200.2500   -178.5831     17.3433     18.3142     20.4482    104.2455
  1200.5000   -180.2454     16.6913     17.3157     18.5642    110.8445
  1200.7500   -181.5335     16.0737     16.4009     17.0873    112.9151
  1201.0000   -182.3560     15.5003     15.5725     15.9921    113.0466
  1201.2500   -182.6676     14.9778     14.8291     15.2273    112.4854
  1201.5000   -182.4720     14.5103     14.1689     14.7202    112.8245
  1201.7500   -181.8089     14.1005     13.5908     14.3860    114.0913
  1202.0000   -180.7598     13.7506     13.0952     14.1428    116.2840
  1202.2500   -179.4354     13.4624     12.6839     13.9257    117.0352
  1202.5000   -177.9787     13.2378     12.3592     13.6989    116.6993
  1202.7500   -176.5388     13.0785     12.1231     13.4621    116.0173
  1203.0000   -175.2533     12.9861     11.9775     13.2509    115.5779
  1203.2500   -174.2237     12.9615     11.9236     13.1283    116.2017
  1203.5000   -173.4906     13.0051     11.9624     13.1703    118.7285
  1203.7500   -173.0343     13.1168     12.0951     13.4473    121.0438
  1204.0000   -172.7766     13.2956     12.3233     14.0058    123.7765
  1204.2500   -172.6092     13.5403     12.6500     14.8589    124.1527
  1204.5000   -172.4244     13.8495     13.0794     15.9881    122.4089
  1204.7500   -172.1377     14.2221     13.6169     17.3575    120.4458
  1205.0000   -171.7075     14.6573     14.2688     18.9346    117.2491
  1205.2500   -171.1306     15.1550     15.0410     20.7087    114.7532
  1205.5000   -170.4330     15.7159     15.9373     22.6991    109.8331
  1205.7500   -169.6525     16.3409     16.9564     24.9453    106.0558
  1206.0000   -168.8294     17.0308     18.0889     27.4781    101.2522
  1206.2500   -168.0037     17.7850     19.3136     30.2797     99.4317
  1206.5000   -167.2198     18.6001     20.5959     33.2447     98.7066
  1206.7500   -166.5291     19.4684     21.8890     36.1644     98.6849
  1207.0000   -165.9872     20.3757     23.1386     38.7496     97.5089
  1207.2500   -165.6449     21.3003     24.2924     40.7048     95.4336
  1207.5000   -165.5404     22.2111     25.3088     41.8333     91.2018
  1207.7500   -165.6879     23.0686     26.1647     42.1422     88.9063
  1208.0000   -166.0812     23.8266     26.8548     41.9032     88.2438
  1208.2500   -166.6939     24.4358     27.3860     41.6337     89.8280
  1208.5000   -167.4824     24.8514     27.7691     41.9837     93.6118
  1208.7500   -168.3891     25.0410     28.0111     43.5451     95.6904
  1209.0000   -169.3406     24.9935     28.1111     46.6327     96.3956
  1209.2500   -170.2558     24.7234     28.0621     51.1071     94.7751
  1209.5000   -171.0556     24.2692     27.8562     56.3155     89.1408
  1209.7500   -171.6753     23.6859     27.4929     61.2022     83.8187
  1210.0000   -172.0808     23.0330     26.9832     64.5809     75.9033
  1210.2500   -172.2644     22.3641     26.3518     65.4905     72.4877
  1210.5000   -172.2444     21.7198     25.6338     63.5042     72.1090
  1210.7500   -172.0462     21.1255     24.8685     58.8629     74.7621
  1211.0000   -171.6980     20.5926     24.0940     52.3783     80.5331
  1211.2500   -171.2285     20.1214     23.3417     45.1537     83.6607
  1211.5000   -170.6702     19.7062     22.6345     38.2475     85.2607
  1211.7500   -170.0736     19.3390     21.9870     32.4154     84.5455
  1212.0000   -169.5133     19.0119     21.4067     28.0119     83.2397
  1212.2500   -169.0846     18.7196     20.8962     25.0449     83.6708
  1212.5000   -168.8846     18.4593     20.4537     23.3116     87.1218
  1212.7500   -168.9824     18.2307     20.0734     22.5337     90.7880
  1213.0000   -169.3984     18.0344     19.7461     22.4390     96.7711
  1213.2500   -170.0815     17.8718     19.4597     22.7819    100.2272
  1213.5000   -170.9277     17.7440     19.1994     23.3298    103.4979
  1213.7500   -171.8040     17.6514     18.9511     23.8522    104.0839
  1214.0000   -172.5911     17.5941     18.7037     24.1368    103.0085
  1214.2500   -173.2174     17.5714     18.4523     24.0293    101.7717
  1214.5000   -173.6679     17.5818     18.2004     23.4780    100.4849
  1214.7500   -173.9763     17.6231     17.9594     22.5575    100.3587
  1215.0000   -174.1942     17.6920     17.7461     21.4553    101.1986
  1215.2500   -174.3663     17.7838     17.5793     20.4189    102.2381
  1215.5000   -174.5128     17.8922     17.4757     19.6817    103.8799
  1215.7500   -174.6354     18.0096     17.4474     19.3956    104.4521
  1216.0000   -174.7301     18.1266     17.4992     19.5915    103.7520
  1216.2500   -174.7974     18.2344     17.6285     20.1787    102.3507
  1216.5000   -174.8519     18.3243     17.8249     20.9806     99.8996
  1216.7500   -174.9108     18.3907     18.0719     21.7916     98.6524
  1217.0000   -174.9821     18.4318     18.3478     22.4337     97.7894
  1217.2500   -175.0622     18.4499     18.6284     22.7958     97.8518
  1217.5000   -175.1368     18.4518     18.8896     22.8450     98.7502
  1217.7500   -175.1912     18.4463     19.1101     22.6126     99.8525
  1218.0000   -175.2202     18.4430     19.2736     22.1664    102.3162
  1218.2500   -175.2271     18.4492     19.3706     21.5846    104.4424
  1218.5000   -175.2204     18.4686     19.3982     20.9370    107.7907
  1218.7500   -175.2036     18.5004     19.3604     20.2804    109.6524
  1219.0000   -175.1741     18.5388     19.2660     19.6585    111.5384
  1219.2500   -175.1313     18.5752     19.1279     19.1044    112.4560
  1219.5000   -175.0903     18.6001     18.9609     18.6418    114.0499
  1219.7500   -175.0969     18.6066     18.7805     18.2845    115.3009
  1220.0000   -175.2205     18.5921     18.6011     18.0363    116.5745
  1220.2500   -175.5332     18.5594     18.4355     17.8924    116.5087
  1220.5000   -176.0799     18.5167     18.2938     17.8420    115.4036
  1220.7500   -176.8482     18.4744     18.1830     17.8715    114.7441
  1221.0000   -177.7639     18.4423     18.1071     17.9679    114.5010
  1221.2500   -178.7032     18.4271     18.0670     18.1227    114.4925
  1221.5000   -179.5340     18.4304     18.0602     18.3369    113.8613
  1221.7500   -180.1512     18.4473     18.0811     18.6262    112.8989
  1222.0000   -180.5068     18.4686     18.1211     19.0223    110.9383
  1222.2500   -180.6139     18.4827     18.1686     19.5676    109.4834
  1222.5000   -180.5320     18.4774     18.2090     20.2995    107.3530
  1222.7500   -180.3364     18.4439     18.2268     21.2263    106.1532
  1223.0000   -180.0880     18.3770     18.2064     22.3018    104.8735
  1223.2500   -179.8190     18.2764     18.1341     23.4106    104.2010
  1223.5000   -179.5262     18.1454     18.0012     24.3769    102.8626
  1223.7500   -179.1874     17.9897     17.8056     25.0009    101.6860
  1224.0000   -178.7767     17.8159     17.5531     25.1149    100.4371
  1224.2500   -178.2801     17.6309     17.2565     24.6395    100.7961
  1224.5000   -177.6997     17.4403     16.9342     23.6201    103.9635
  1224.7500   -177.0492     17.2495     16.6074     22.2251    107.5963
  1225.0000   -176.3449     17.0633     16.2964     20.7086    113.7146
  1225.2500   -175.5967     16.8876     16.0190     19.3504    116.9788
  1225.5000   -174.8059     16.7285     15.7882     18.3936    119.2108
  1225.7500   -173.9679     16.5944     15.6116     17.9982    118.9352
  1226.0000   -173.0837     16.4947     15.4913     18.2147    116.7946
  1226.2500   -172.1719     16.4397     15.4253     18.9791    114.6525
  1226.5000   -171.2758     16.4395     15.4085     20.1252    110.5145
  1226.7500   -170.4613     16.5026     15.4347     21.4153    107.0848
  1227.0000   -169.8086     16.6347     15.4994     22.5908    101.1629
  1227.2500   -169.3903     16.8381     15.6011     23.4379     97.3020
