~Version Information
VERS.                      2.0: CWLS Log ASCII Standard - VERSION 2.0
WRAP.                       NO: One line per depth step
~Well Information Block
STRT.FT                -7.2500: 
STOP.FT               765.5000: 
STEP.FT                 0.2500: 
NULL.                -999.2500: 
COMP.          Pioneer Natural Resources: COMPANY
WELL.          Barrelman 41-27: WELL
FLD.           Purgatorie River: FIELD
LOC.           371' FNL & 493' FEL--: LOCATION
PROV.                       CO: PROVINCE
CNTY.               Las Animas: COUNTRY
SRVC.          Patterson Wireline: SERVICE COMPANY
DATE.          Wed May 25 09:32:20 2005: LOG DATE
UWI.           05 071 08334 00: UNIQUE WELL ID
~Curve Information Block
DEPT.FT            0 000 00 00: Depth
CCL.                          : Casing Collar Locator
TT3.usec                      : CBL 3' Travel Time
AMP3.mV                       : CBL 3' Amplitude
GR.GAPI                       : Gamma Ray
~Parameter Information Block
~A  Depth       CCL         TT3         AMP3         GR     
# ...
   696.2500      0.0000    805.1490      7.8919     58.1985
   696.5000      0.0000    805.1990      7.9030     57.0985
   696.7500      0.0000    805.2432      7.9090     56.3010
   697.0000      0.0000    805.3329      7.9254     56.2007
   697.2500      0.0000    805.4807      7.9714     56.5520
   697.5000      0.0000    805.7076      8.0544     56.4948
   697.7500      0.0000    806.0465      8.1661     55.5736
   698.0000      0.0000    806.5237      8.2883     54.5068
   698.2500      0.0000    807.1278      8.4037     54.4189
   698.5000      0.0000    807.7947      8.5008     55.4737
   698.7500      0.0000    808.4233      8.5721     56.7579
   699.0000      0.0000    808.9102      8.6118     57.3477
   699.2500      0.0000    809.1860      8.6179     57.0628
   699.5000      0.0000    809.2407      8.5938     56.3921
   699.7500      0.0000    809.0999      8.5463     56.1302
   700.0000      0.0000    808.7099      8.4809     56.9983
   700.2500      0.0000    807.7697      8.4018     59.1600
   700.5000      0.0000    805.7051      8.3147     61.8861
   700.7500      0.0000    802.0454      8.2273     63.9712
   701.0000      0.0000    797.1607      8.1463     64.7622
   701.2500      0.0000    792.6596      8.0744     64.5257
   701.5000      0.0000    790.6359      8.0088     63.6605
   701.7500      0.0000    792.0983      7.9448     62.1248
   702.0000      0.0000    796.1248      7.8807     59.9764
   702.2500      0.0000    800.6760      7.8204     57.9100
   702.5000      0.0000    804.1542      7.7706     56.8415
   702.7500      0.0000    806.1580      7.7368     57.2764
   703.0000      0.0000    807.0976      7.7236     59.2206
   703.2500      0.0000    807.4995      7.7367     62.1798
   703.5000      0.0000    807.6754      7.7802     65.0679
   703.7500      0.0000    807.7419      7.8507     66.7055
   704.0000      0.0000    807.7305      7.9324     66.7687
   704.2500      0.0000    807.6490      8.0021     66.0110
   704.5000      0.0000    807.5048      8.0414     65.3613
   704.7500      0.0000    807.3105      8.0443     64.9845
   705.0000      0.0000    807.0854      8.0162     64.3040
   705.2500      0.0000    806.8500      7.9681     62.6933
   705.5000      0.0000    806.6172      7.9163     59.9676
   705.7500      0.0000    806.3881      7.8779     56.4323
   706.0000      0.0000    806.1567      7.8632     52.7933
   706.2500      0.0000    805.9186      7.8712     49.9723
   706.5000      0.0000    805.6798      7.8940     48.7372
   706.7500      0.0000    805.4616      7.9235     49.3907
   707.0000      0.0000    805.2955      7.9515     51.7592
   707.2500      0.0000    805.2021      7.9676     55.2810
   707.5000      0.0000    805.1700      7.9618     59.1260
   707.7500      0.0000    805.1619      7.9304     62.5211
   708.0000      0.0000    805.1458      7.8816     65.0018
   708.2500      0.0000    805.1188      7.8382     66.2236
   708.5000      0.0000    805.0999      7.8283     65.7506
   708.7500      0.0000    805.1044      7.8683     63.3574
   709.0000      0.0000    805.1259      7.9511     59.5123
   709.2500      0.0000    805.1115      8.0479     55.4010
   709.5000      0.0000    804.8967      8.1208     52.4671
   709.7500      0.0000    804.1088      8.1386     51.7434
   710.0000      0.0000    802.1624      8.0894     53.2800
   710.2500      0.0000    798.5436      7.9850     56.2274
   710.5000      0.0000    793.3387      7.8536     59.6479
   710.7500      0.0000    787.4959      7.7265     63.0613
   711.0000      0.0000    782.3460      7.6249     66.1464
   711.2500      0.0000    778.7318      7.5522     68.4230
   711.5000      0.0000    776.6302      7.4974     69.5928
   711.7500      0.0000    775.5240      7.4470     69.7768
   712.0000      0.0000    774.9558      7.3951     69.0628
   712.2500      0.0000    774.7650      7.3439     67.3094
   712.5000      0.0000    775.0437      7.2966     64.8660
   712.7500      0.0000    776.0637      7.2537     63.0452
   713.0000      0.0000    778.2074      7.2188     63.3309
   713.2500      0.0000    781.7053      7.2040     66.1851
   713.5000      0.0000    786.1417      7.2250     70.6939
   713.7500      0.0000    790.2358      7.2879     75.1305
   714.0000      0.0000    792.5637      7.3811     77.9353
   714.2500      0.0000    792.8727      7.4837     78.5613
   714.5000      0.0000    792.5309      7.5813     77.5699
   714.7500      0.0000    793.3164      7.6742     75.8590
   715.0000      0.0000    795.7728      7.7686     73.8648
   715.2500      0.0000    798.9518      7.8640     71.6441
   715.5000      0.0000    801.5748      7.9508     69.4687
   715.7500      0.0000    803.0786      8.0205     67.8724
   716.0000      0.0000    803.6517      8.0747     67.0818
   716.2500      0.0000    803.7324      8.1240     66.7999
   716.5000      0.0000    803.6614      8.1777     66.7196
   716.7500      0.0000    803.6254      8.2354     67.0317
   717.0000      0.0000    803.7108      8.2862     68.1926
   717.2500      0.0000    803.9417      8.3178     70.2560
   717.5000      0.0000    804.2519      8.3243     72.5714
   717.7500      0.0000    804.4060      8.3098     74.2550
   718.0000      0.0000    803.9316      8.2860     74.9805
   718.2500      0.0000    802.2010      8.2667     75.1857
   718.5000      0.0000    798.8019      8.2608     75.4034
   718.7500      0.0000    794.0931      8.2687     75.5271
   719.0000      0.0000    789.3400      8.2845     74.9227
   719.2500      0.0000    785.9011      8.3000     73.2671
   719.5000      0.0000    784.0653      8.3079     71.1289
   719.7500      0.0000    782.9191      8.3035     69.6259
   720.0000      0.0000    781.4819      8.2855     69.5218
   720.2500      0.0000    779.7093      8.2544     70.7560
   720.5000      0.0000    778.3143      8.2104     72.7627
   720.7500      0.0000    778.0494      8.1547     74.9364
   721.0000      0.0000    779.3853      8.0912     76.6393
   721.2500      0.0000    782.4611      8.0269     77.1101
   721.5000      0.0000    786.7904      7.9693     75.7801
   721.7500      0.0000    791.0421      7.9253     72.7956
   722.0000      0.0000    793.5828      7.9002     69.1848
   722.2500      0.0000    793.5314      7.8954     66.3830
   722.5000      0.0000    791.2095      7.9042     65.4553
   722.7500      0.0000    787.6600      7.9132     66.7024
   723.0000      0.0000    784.0231      7.9113     69.7389
   723.2500      0.0000    781.3165      7.8977     73.5480
   723.5000      0.0000    780.2792      7.8809     76.6269
   723.7500      0.0000    780.9771      7.8677     77.7780
   724.0000      0.0000    782.4885      7.8482     77.1238
   724.2500      0.0000    783.1548      7.7840     76.0829
   724.5000      0.0000    781.6837      7.6152     76.0801
   724.7500      0.0000    778.7963      7.3116     77.3687
   725.0000      0.0000    777.8267      6.9447     79.0904
   725.2500      0.0000    782.4205      6.6795     80.1559
   725.5000      0.0000    792.7912      6.6328     79.9407
   725.7500      0.0000    805.2558      6.7476     78.4212
   726.0000      0.0000    816.0024      6.8651     75.9273
   726.2500      0.0000    823.8618      6.8985     72.8037
   726.5000      0.0000    829.0847      6.8760     69.3259
   726.7500      0.0000    831.5252      6.8504     65.9786
   727.0000      2.0000    830.6512      6.8409     63.6271
   727.2500      2.0000    825.7849      6.8580     63.0571
   727.5000      0.0000    815.4672      6.9411     64.2371
   727.7500      0.0000    797.8344      7.1586     66.2781
   728.0000      0.0000    773.7003      7.5503     68.3164
   728.2500      0.0000    749.7557      8.0443     70.2327
   728.5000      0.0000    736.0737      8.4571     72.3282
   728.7500      0.0000    737.7488      8.6345     74.6357
   729.0000      0.0000    750.0151      8.5804     76.9061
   729.2500      0.0000    763.3123      8.4194     79.0012
   729.5000      0.0000    771.6716      8.2649     80.9428
