~Version Information
VERS.                      2.0: CWLS Log ASCII Standard - VERSION 2.0
WRAP.                       NO: One line per depth step
~Well Information Block
STRT.FT               860.0000: 
STOP.FT              2733.7500: 
STEP.FT                 0.2500: 
NULL.                -999.2500: 
COMP.          Pioneer Natural Resources: COMPANY
WELL.          Beacon 11-18 Tr: WELL
FLD.           Purgatoire River: FIELD
LOC.           409' FNL & 203' FWL: LOCATION
PROV.                 Colorado: PROVINCE
CNTY.               Las Animas: COUNTRY
SRVC.                Patterson: SERVICE COMPANY
DATE.          Sun Jan 16 19:36:19 2005: LOG DATE
UWI.           05 071 08251 00: UNIQUE WELL ID
~Curve Information Block
DEPT.FT            0 000 00 00: Depth
SN.Ohm-m                      : IEL Short Normal
SP.mV                         : IEL Spontaneous Potential
DIR.Ohm-m                     : IEL Induction Resistivity
GR.GAPI                       : Gamma Ray
~Parameter Information Block
~A  Depth        SN          SP         DIR          GR     
# ...
  2099.5000     23.5217    -43.9338     20.3712     74.4655
  2099.7500     26.0510    -44.2029     22.1199     66.6604
  2100.0000     28.8736    -44.4592     24.2919     57.4843
  2100.2500     31.9296    -44.6968     26.8701     53.4213
  2100.5000     35.1142    -44.9103     29.7167     50.2031
  2100.7500     38.2670    -45.0945     32.6127     49.4348
  2101.0000     41.1917    -45.2446     35.3556     49.0459
  2101.2500     43.7090    -45.3571     37.8287     48.6247
  2101.5000     45.7148    -45.4308     39.9796     47.1713
  2101.7500     47.2048    -45.4684     41.7559     45.6583
  2102.0000     48.2509    -45.4781     43.0888     42.9685
  2102.2500     48.9532    -45.4741     43.9427     41.1720
  2102.5000     49.3997    -45.4754     44.3764     38.6720
  2102.7500     49.6501    -45.5030     44.5430     37.1454
  2103.0000     49.7405    -45.5759     44.6295     35.4392
  2103.2500     49.6979    -45.7084     44.7847     35.1944
  2103.5000     49.5508    -45.9072     45.0828     36.7909
  2103.7500     49.3294    -46.1691     45.5222     39.0012
  2104.0000     49.0562    -46.4798     46.0384     43.0321
  2104.2500     48.7352    -46.8132     46.5215     45.6231
  2104.5000     48.3438    -47.1343     46.8399     48.9280
  2104.7500     47.8299    -47.4041     46.8723     50.8318
  2105.0000     47.1206    -47.5877     46.5381     53.7605
  2105.2500     46.1378    -47.6610     45.8182     56.1235
  2105.5000     44.8116    -47.6149     44.7579     60.8348
  2105.7500     43.1007    -47.4545     43.4373     65.0329
  2106.0000     41.0281    -47.1947     41.9263     73.1209
  2106.2500     38.7142    -46.8537     40.2650     79.4618
  2106.5000     36.3646    -46.4484     38.4923     89.4366
  2106.7500     34.2014    -45.9932     36.6868     95.8819
  2107.0000     32.3834    -45.5010     34.9610    104.9865
  2107.2500     30.9665    -44.9865     33.4170    110.7912
  2107.5000     29.9176    -44.4673     32.1102    119.0953
  2107.7500     29.1569    -43.9638     31.0486    123.9303
  2108.0000     28.5990    -43.4964     30.2120    128.6256
  2108.2500     28.1763    -43.0828     29.5669    129.1473
  2108.5000     27.8448    -42.7354     29.0723    125.5744
  2108.7500     27.5793    -42.4595     28.6891    120.8453
  2109.0000     27.3696    -42.2530     28.3966    111.6467
  2109.2500     27.2226    -42.1071     28.2025    104.7420
  2109.5000     27.1603    -42.0078     28.1343     94.2511
  2109.7500     27.2026    -41.9386     28.2107     87.8892
  2110.0000     27.3422    -41.8831     28.4120     80.0066
  2110.2500     27.5326    -41.8276     28.6717     75.6253
  2110.5000     27.6995    -41.7629     28.8970     69.5118
  2110.7500     27.7689    -41.6863     29.0080     65.6036
  2111.0000     27.6956    -41.6013     28.9651     60.6341
  2111.2500     27.4764    -41.5156     28.7734     58.5135
  2111.5000     27.1448    -41.4381     28.4686     57.9787
  2111.7500     26.7523    -41.3738     28.1010     59.5887
  2112.0000     26.3519    -41.3217     27.7208     64.4126
  2112.2500     25.9883    -41.2757     27.3695     68.3096
  2112.5000     25.6911    -41.2277     27.0757     73.1863
  2112.7500     25.4715    -41.1730     26.8506     75.1287
  2113.0000     25.3268    -41.1125     26.6861     76.6569
  2113.2500     25.2492    -41.0527     26.5606     77.7494
  2113.5000     25.2348    -41.0018     26.4581     80.8363
  2113.7500     25.2868    -40.9663     26.3904     83.8926
  2114.0000     25.4110    -40.9483     26.4031     88.8843
  2114.2500     25.6054    -40.9448     26.5561     91.6424
  2114.5000     25.8530    -40.9491     26.8921     94.1580
  2114.7500     26.1270    -40.9530     27.4102     94.9772
  2115.0000     26.4040    -40.9491     28.0605     95.7834
  2115.2500     26.6779    -40.9342     28.7598     96.1570
  2115.5000     26.9621    -40.9098     29.4234     95.9033
  2115.7500     27.2759    -40.8823     29.9965     95.0628
  2116.0000     27.6261    -40.8593     30.4684     93.5206
  2116.2500     27.9984    -40.8471     30.8599     92.7747
  2116.5000     28.3675    -40.8471     31.1991     91.9929
  2116.7500     28.7078    -40.8561     31.5005     91.2590
  2117.0000     28.9950    -40.8677     31.7609     89.2933
  2117.2500     29.2035    -40.8766     31.9722     87.4371
  2117.5000     29.3107    -40.8815     32.1247     84.5425
  2117.7500     29.3041    -40.8871     32.1811     83.2989
  2118.0000     29.1862    -40.9033     32.0285     83.8732
  2118.2500     28.9730    -40.9433     31.4783     86.2395
  2118.5000     28.6898    -41.0199     30.3835     91.9842
  2118.7500     28.3654    -41.1414     28.8063     96.2910
  2119.0000     28.0276    -41.3086     27.0457    101.9428
  2119.2500     27.7007    -41.5114     25.4776    104.7153
  2119.5000     27.4045    -41.7307     24.4009    107.3473
  2119.7500     27.1531    -41.9432     24.0206    108.4004
  2120.0000     26.9537    -42.1317     24.5365    109.6164
  2120.2500     26.8076    -42.2952     26.2596    110.3187
  2120.5000     26.7152    -42.4534     29.6987    110.7957
  2120.7500     26.6822    -42.6424     35.4773    110.4295
  2121.0000     26.7239    -42.9024     43.4365    108.7841
  2121.2500     26.8643    -43.2629     49.9286    107.1537
  2121.5000     27.1243    -43.7343     48.2353    104.5455
  2121.7500     27.5046    -44.3086     39.5354    103.2579
  2122.0000     27.9789    -44.9679     31.5175    102.8027
  2122.2500     28.5094    -45.6952     27.7506    103.3935
  2122.5000     29.0724    -46.4821     29.6116    104.4218
  2122.7500     29.6659    -47.3316     44.0608    104.4200
  2123.0000     30.2952    -48.2563    198.1695    102.8217
  2123.2500     30.9513    -49.2756 100000.0000    100.8442
  2123.5000     31.6056    -50.4126 100000.0000     97.1018
  2123.7500     32.2215    -51.6928 100000.0000     94.4160
  2124.0000     32.7710    -53.1448    236.0017     90.5362
  2124.2500     33.2427    -54.8032     24.6763     88.2578
  2124.5000     33.6384    -56.7096     12.0187     85.5773
  2124.7500     33.9594    -58.9118      8.2455     84.3544
  2125.0000     34.1859    -61.4582      6.8471     83.2297
  2125.2500     34.2628    -64.3886      6.4655     82.6755
  2125.5000     34.1061    -67.7236      6.6146     81.6300
  2125.7500     33.6259    -71.4591      6.8890     80.8867
  2126.0000     32.7355    -75.5678      6.7128     80.7609
  2126.2500     31.3348    -80.0144      5.7214     81.8615
  2126.5000     29.3072    -84.7830      4.3130     84.6687
  2126.7500     26.5719    -89.9147      3.0870     86.2087
  2127.0000     23.1751    -95.5368      2.2401     86.6430
  2127.2500     19.3543   -101.8647      1.7139     85.8441
  2127.5000     15.5134   -109.1588      1.4163     84.3698
  2127.7500     12.0847   -117.6412      1.2902     83.7920
  2128.0000      9.3424   -127.3950      1.3195     83.2774
  2128.2500      7.3022   -138.2909      1.5204     82.4715
  2128.5000      5.7865   -149.9794      1.8800     79.5464
  2128.7500      4.5932   -161.9623      2.0945     76.3988
  2129.0000      3.6209   -173.7254      1.6606     70.6963
  2129.2500      2.8731   -184.8831      0.9886     67.0188
  2129.5000      2.3834   -195.2813      0.5573     63.1744
  2129.7500      2.1519   -205.0203      0.3373     62.4218
  2130.0000      2.1277   -214.3928      0.2393     64.1916
  2130.2500      2.2201   -223.7547      0.2190     66.6831
  2130.5000      2.3208   -233.3624      0.2690     70.6935
  2130.7500      2.3410   -243.2075      0.4265     72.6905
  2131.0000      2.2501   -252.8873      0.8485     73.8849
  2131.2500      2.0831   -261.5488      2.6543     73.3632
  2131.5000      1.9043   -267.9500 100000.0000     70.7020
  2131.7500      1.7636   -270.6603 100000.0000     67.9209
  2132.0000      1.6779   -268.3789 100000.0000     63.3735
  2132.2500      1.6395   -260.2896 100000.0000     61.1801
  2132.5000      1.6305   -246.3364 100000.0000     60.9213
  2132.7500      1.6368   -227.3056 100000.0000     63.3083
