~Version Information
VERS.                      2.0: CWLS Log ASCII Standard - VERSION 2.0
WRAP.                       NO: One line per depth step
~Well Information Block
STRT.FT               -10.8000: 
STOP.FT              2238.7000: 
STEP.FT                 0.1000: 
NULL.                -999.2500: 
COMP.          Petrogulf Corporation: COMPANY
WELL.             McLeod 9-42V: WELL
FLD.           Purgatorie River: FIELD
LOC.           1658' FNL & 415' FEL----: LOCATION
CNTY.               Las Animas: COUNTY
SRVC.                         : SERVICE COMPANY
DATE.          Wed Nov 17 12:01:16 2004: LOG DATE
UWI.                          : UNIQUE WELL ID
STAT.                       CO: STATE
~Curve Information Block
DEPT.FT            0 000 00 00: Depth
GR.GAPI                       : Gamma Ray
CCL.                          : Casing Collar Locator
TT3.usec                      : CBL 3' Travel Time
AMP3.mV                       : CBL 3' Amplitude
~Parameter Information Block
~A  Depth        GR         CCL         TT3         AMP3    
# ...
  2213.6000     75.0972      0.0000    716.7556      7.1441
  2213.7000     75.0972      0.0000    716.7556      7.1441
  2213.8000     76.2634      0.0000    716.9033      7.2269
  2213.9000     76.2634      0.0000    716.9033      7.2269
  2214.0000     78.4498      0.0000    717.4797      7.2461
  2214.1000     78.4498      0.0000    717.4797      7.2461
  2214.2000     78.4498      0.0000    717.4797      7.2461
  2214.3000     80.5075      0.0000    718.9714      7.1825
  2214.4000     80.5075      0.0000    718.9714      7.1825
  2214.5000     81.4986      0.0000    721.8292      7.0587
  2214.6000     81.4986      0.0000    721.8292      7.0587
  2214.7000     81.4986      0.0000    721.8292      7.0587
  2214.8000     81.0546      0.0000    725.8716      6.9265
  2214.9000     81.0546      0.0000    725.8716      6.9265
  2215.0000     79.0382      0.0000    730.0361      6.8446
  2215.1000     79.0382      0.0000    730.0361      6.8446
  2215.2000     79.0382      0.0000    730.0361      6.8446
  2215.3000     75.5271      0.0000    733.6979      6.8639
  2215.4000     75.5271      0.0000    733.6979      6.8639
  2215.5000     71.4252      0.0000    738.9451      7.0167
  2215.6000     71.4252      0.0000    738.9451      7.0167
  2215.7000     71.4252      0.0000    738.9451      7.0167
  2215.8000     68.5599      0.0000    750.7045      7.3109
  2215.9000     68.5599      0.0000    750.7045      7.3109
  2216.0000     68.5228      0.0000    773.0659      7.7501
  2216.1000     68.5228      0.0000    773.0659      7.7501
  2216.2000     68.5228      0.0000    773.0659      7.7501
  2216.3000     71.2471      0.0000    804.7833      8.3774
  2216.4000     71.2471      0.0000    804.7833      8.3774
  2216.5000     74.8727      0.0000    838.2681      9.3144
  2216.6000     74.8727      0.0000    838.2681      9.3144
  2216.7000     74.8727      0.0000    838.2681      9.3144
  2216.8000     77.2462      0.0000    863.1567     10.7513
  2216.9000     77.2462      0.0000    863.1567     10.7513
  2217.0000     77.6839      0.0000    872.0213     12.8488
  2217.1000     77.6839      0.0000    872.0213     12.8488
  2217.2000     77.6839      0.0000    872.0213     12.8488
  2217.3000     77.2256      0.0000    864.5347     15.5796
  2217.4000     77.2256      0.0000    864.5347     15.5796
  2217.5000     77.2658      0.0000    847.3475     18.6341
  2217.6000     77.2658      0.0000    847.3475     18.6341
  2217.7000     77.2658      0.0000    847.3475     18.6341
  2217.8000     78.2764      0.0000    829.8450     21.5083
  2217.9000     78.2764      0.0000    829.8450     21.5083
  2218.0000     79.8438      0.0000    819.3502     23.7159
  2218.1000     79.8438      0.0000    819.3502     23.7159
  2218.2000     79.8438      0.0000    819.3502     23.7159
  2218.3000     81.3254      0.0000    819.1753     24.9428
  2218.4000     81.3254      0.0000    819.1753     24.9428
  2218.5000     82.1179      0.0000    828.9606     25.0634
  2218.6000     82.1179      0.0000    828.9606     25.0634
  2218.7000     82.1179      0.0000    828.9606     25.0634
  2218.8000     81.8671      0.0000    844.7024     24.1084
  2218.9000     81.8671      0.0000    844.7024     24.1084
  2219.0000     81.1485      0.0000    859.1958     22.2657
  2219.1000     81.1485      0.0000    859.1958     22.2657
  2219.2000     81.1485      0.0000    859.1958     22.2657
  2219.3000     81.6024      0.0000    865.8321     19.8720
  2219.4000     81.6024      0.0000    865.8321     19.8720
  2219.5000     84.4631      0.0000    864.1120     17.3421
  2219.6000     84.4631      0.0000    864.1120     17.3421
  2219.7000     84.4631      0.0000    864.1120     17.3421
  2219.8000     88.8142      0.0000    860.2765     15.0727
  2219.9000     88.8142      0.0000    860.2765     15.0727
  2220.0000     91.9188      0.0000    861.1304     13.3778
  2220.1000     91.9188      0.0000    861.1304     13.3778
  2220.2000     91.9188      0.0000    861.1304     13.3778
  2220.3000     91.5485      0.0000    868.1873     12.4594
  2220.4000     91.5485      0.0000    868.1873     12.4594
  2220.5000     87.7100      0.0000    878.2064     12.3944
  2220.6000     87.7100      0.0000    878.2064     12.3944
  2220.7000     87.7100      0.0000    878.2064     12.3944
  2220.8000     82.1825      0.0000    887.1833     13.1349
  2220.9000     82.1825      0.0000    887.1833     13.1349
  2221.0000     76.9994      0.0000    892.5960     14.5362
  2221.1000     76.9994      0.0000    892.5960     14.5362
  2221.2000     76.9994      0.0000    892.5960     14.5362
  2221.3000     73.5322      0.0000    893.8301     16.4007
  2221.4000     73.5322      0.0000    893.8301     16.4007
  2221.5000     72.2885      0.0000    892.1932     18.5005
  2221.6000     72.2885      0.0000    892.1932     18.5005
  2221.7000     72.2885      0.0000    892.1932     18.5005
  2221.8000     72.9721      0.0000    889.5696     20.5714
  2221.9000     72.9721      0.0000    889.5696     20.5714
  2222.0000     74.7630      0.0000    885.8854     22.3158
  2222.1000     74.7630      0.0000    885.8854     22.3158
  2222.2000     74.7630      0.0000    885.8854     22.3158
  2222.3000     76.7002      0.0000    878.5869     23.4156
  2222.4000     76.7002      0.0000    878.5869     23.4156
  2222.5000     77.8954      0.0000    865.8266     23.5731
  2222.6000     77.8954      0.0000    865.8266     23.5731
  2222.7000     77.8954      0.0000    865.8266     23.5731
  2222.8000     77.6872      0.0000    850.1390     22.6413
  2222.9000     77.6872      0.0000    850.1390     22.6413
  2223.0000     75.8807      0.0000    838.3029     20.7990
  2223.1000     75.8807      0.0000    838.3029     20.7990
  2223.2000     75.8807      0.0000    838.3029     20.7990
  2223.3000     72.8154      0.0000    837.0668     18.5683
  2223.4000     72.8154      0.0000    837.0668     18.5683
  2223.5000     69.0056      0.0000    848.2745     16.5924
  2223.6000     69.0056      0.0000    848.2745     16.5924
  2223.7000     69.0056      0.0000    848.2745     16.5924
  2223.8000     64.5377      0.0000    867.1936     15.3658
  2223.9000     64.5377      0.0000    867.1936     15.3658
  2224.0000     58.9357      0.0000    885.5858     15.0762
  2224.1000     58.9357      0.0000    885.5858     15.0762
  2224.2000     58.9357      0.0000    885.5858     15.0762
  2224.3000     51.9610      0.0000    896.9103     15.5505
  2224.4000     51.9610      0.0000    896.9103     15.5505
  2224.5000     44.5289      0.0000    898.1890     16.3295
  2224.6000     44.5289      0.0000    898.1890     16.3295
  2224.7000     44.5289     -2.0000    898.1890     16.3295
  2224.8000     38.3819      2.0000    886.6332     16.9097
  2224.9000     38.3819      0.0000    886.6332     16.9097
  2225.0000     34.6890      0.0000    855.7911     16.9856
  2225.1000     34.6890      0.0000    855.7911     16.9856
  2225.2000     34.6890      0.0000    855.7911     16.9856
  2225.3000     33.2512      0.0000    797.6823     16.4715
  2225.4000     33.2512      0.0000    797.6823     16.4715
  2225.5000     33.1104      0.0000    709.8553     15.3272
  2225.6000     33.1104      0.0000    709.8553     15.3272
  2225.7000     33.1104      0.0000    709.8553     15.3272
  2225.8000     33.6446      0.0000    598.6005     13.4383
  2225.9000     33.6446      0.0000    598.6005     13.4383
  2226.0000     34.9355      0.0000    474.1290     10.7166
  2226.1000     34.9355      0.0000    474.1290     10.7166
  2226.2000     34.9355      0.0000    474.1290     10.7166
  2226.3000     37.1915      0.0000    345.9470      7.3289
  2226.4000     37.1915      0.0000    345.9470      7.3289
  2226.5000     40.0331      0.0000    225.1994      3.8038
  2226.6000     40.0331      0.0000    225.1994      3.8038
  2226.7000     40.0331      0.0000    225.1994      3.8038
  2226.8000     42.6501      0.0000    126.0996      0.8176
  2226.9000     42.6501      0.0000    126.0996      0.8176
