~Version Information
VERS.                      2.0: CWLS Log ASCII Standard - VERSION 2.0
WRAP.                       NO: One line per depth step
~Well Information Block
STRT.FT               819.0000: 
STOP.FT              2497.0000: 
STEP.FT                 0.2500: 
NULL.                -999.2500: 
COMP.          Petrogulf Corporation: COMPANY
WELL.             State 16-21V: WELL
FLD.           Purgatorie River: FIELD
LOC.           1738' FWL & 332' FNL: LOCATION
PROV.                 Colorado: PROVINCE
CNTY.               Las Animas: COUNTRY
SRVC.          Patterson Wireline: SERVICE COMPANY
DATE.          Sun Jul 13 13:45:48 2003: LOG DATE
UWI.              05-071-07884: UNIQUE WELL ID 05 071 08829 00
~Curve Information Block
DEPT.FT            0 000 00 00: Depth
DCAL.in                       : CDL Caliper
RHOB.g/cc                     : CDL Bulk Density
RHOC.g/cc                     : CDL Density Correction
DPOR.pu                       : CDL Density Porosity
GR.GAPI                       : Gamma Ray
NPOR.pu                       : Neutron Porosity
~Parameter Information Block
~A  Depth       DCAL        RHOB        RHOC        DPOR         GR         NPOR    
# ...
  2163.0000      7.8893      2.5710      0.0733      4.7906     61.6397     22.1611
  2163.2500      7.8889      2.5549      0.0724      5.7642     66.7857     22.8806
  2163.5000      7.8911      2.5144      0.0669      8.2193     73.2203     24.1208
  2163.7500      7.8915      2.4736      0.0630     10.6908     76.4810     24.9638
  2164.0000      7.8931      2.3878      0.0591     15.8923     80.2910     26.2245
  2164.2500      7.8967      2.3131      0.0557     20.4199     82.1820     27.1227
  2164.5000      7.8968      2.1775      0.0429     28.6335     83.2544     28.6510
  2164.7500      7.8932      2.0770      0.0287     34.7277     82.1426     29.7445
  2165.0000      7.8937      1.9266      0.0091     43.8397     77.4481     31.2513
  2165.2500      7.9092      1.8380      0.0052     49.2095     72.9526     32.0368
  2165.5000      7.9394      1.7407      0.0181     55.1109     66.3944     32.8237
  2165.7500      7.9707      1.7069      0.0353     57.1577     63.6501     33.1237
  2166.0000      7.9937      1.7082      0.0635     57.0807     63.9731     33.3503
  2166.2500      8.0057      1.7422      0.0802     55.0199     67.5822     33.4246
  2166.5000      8.0174      1.8337      0.1000     49.4746     77.2050     33.4863
  2166.7500      8.0327      1.9133      0.1094     44.6504     85.0863     33.4789
  2167.0000      8.0451      2.0436      0.1177     36.7486     96.3622     33.3648
  2167.2500      8.0740      2.1284      0.1191     31.6119    102.3922     33.2464
  2167.5000      8.1427      2.2401      0.1160     24.8405    108.9949     33.0643
  2167.7500      8.2128      2.3007      0.1121     21.1693    112.4547     32.9285
  2168.0000      8.2097      2.3700      0.1065     16.9711    117.4514     32.6319
  2168.2500      8.1378      2.4034      0.1034     14.9451    120.7960     32.3523
  2168.5000      8.0916      2.4384      0.0979     12.8247    124.9904     31.8348
  2168.7500      8.0896      2.4539      0.0926     11.8877    126.4909     31.4600
  2169.0000      8.0733      2.4687      0.0833     10.9907    125.9103     30.9394
  2169.2500      8.0308      2.4748      0.0781     10.6210    123.6602     30.6618
  2169.5000      8.0027      2.4812      0.0735     10.2324    118.6956     30.3343
  2169.7500      7.9906      2.4851      0.0728      9.9950    115.5386     30.1197
  2170.0000      7.9849      2.4923      0.0752      9.5554    112.9785     29.7513
  2170.2500      7.9774      2.4988      0.0790      9.1648    113.0536     29.5252
  2170.5000      7.9534      2.5113      0.0880      8.4048    114.3615     29.3657
  2170.7500      7.9293      2.5214      0.0953      7.7928    114.3376     29.3910
  2171.0000      7.9292      2.5381      0.1057      6.7848    110.3477     29.4197
  2171.2500      7.9419      2.5490      0.1108      6.1213    104.6427     29.2792
  2171.5000      7.9358      2.5627      0.1138      5.2919     93.3488     28.7779
  2171.7500      7.9132      2.5685      0.1123      4.9401     86.0584     28.3558
  2172.0000      7.8922      2.5704      0.1039      4.8217     78.9875     27.7857
  2172.2500      7.8743      2.5670      0.0948      5.0279     77.9794     27.4915
  2172.5000      7.8686      2.5561      0.0801      5.6926     81.5780     27.2097
  2172.7500      7.8822      2.5461      0.0725      6.2942     85.9729     27.1666
  2173.0000      7.9003      2.5298      0.0665      7.2860     92.6828     27.3659
  2173.2500      7.8949      2.5192      0.0649      7.9269     96.1356     27.6506
  2173.5000      7.8761      2.5060      0.0637      8.7286     99.4337     28.1976
  2173.7500      7.8731      2.5002      0.0642      9.0802    100.7486     28.5575
  2174.0000      7.9043      2.4979      0.0695      9.2176    101.9953     28.8941
  2174.2500      7.9528      2.5012      0.0771      9.0165    102.3395     28.8620
  2174.5000      7.9609      2.5127      0.0926      8.3229    101.7735     28.3633
  2174.7500      7.9252      2.5231      0.1023      7.6884    100.6937     27.8352
  2175.0000      7.8880      2.5396      0.1104      6.6906     98.8042     27.0788
  2175.2500      7.8634      2.5491      0.1104      6.1168     97.9962     26.7494
  2175.5000      7.8536      2.5584      0.1050      5.5512     97.9917     26.5612
  2175.7500      7.8562      2.5604      0.1006      5.4298     98.5576     26.5691
  2176.0000      7.8669      2.5559      0.0957      5.7048     99.2773     26.6567
  2176.2500      7.8786      2.5469      0.0936      6.2502     99.1567     26.7454
  2176.5000      7.8831      2.5214      0.0903      7.7940     97.8705     26.9503
  2176.7500      7.8837      2.4935      0.0865      9.4835     96.6444     27.1452
  2177.0000      7.8866      2.4289      0.0758     13.3988     95.3939     27.5272
  2177.2500      7.8995      2.3673      0.0636     17.1339     95.4083     27.8510
  2177.5000      7.9105      2.2457      0.0370     24.5036     96.2610     28.4587
  2177.7500      7.9033      2.1489      0.0173     30.3678     96.4740     28.9439
  2178.0000      7.8961      1.9953     -0.0013     39.6777     94.6716     29.7863
  2178.2500      7.8951      1.8996      0.0004     45.4818     91.6969     30.4281
  2178.5000      7.8861      1.7875      0.0228     52.2709     85.3677     31.4687
  2178.7500      7.8701      1.7440      0.0440     54.9070     81.0235     32.1173
  2179.0000      7.8803      1.7353      0.0730     55.4391     76.5452     32.7591
  2179.2500      7.9574      1.7677      0.0864     53.4715     75.9035     32.8468
  2179.5000      8.0683      1.8669      0.0965     47.4627     78.9444     32.4602
  2179.7500      8.1122      1.9583      0.0979     41.9231     83.0938     31.9530
  2180.0000      8.0600      2.1138      0.0973     32.4954     90.5556     31.0454
  2180.2500      7.9858      2.2173      0.0984     26.2240     95.1925     30.4754
  2180.5000      7.9476      2.3534      0.1041     17.9748    100.5683     29.8579
  2180.7500      7.9398      2.4243      0.1084     13.6799    103.0637     29.6510
  2181.0000      7.9420      2.4967      0.1095      9.2894    105.4238     29.5896
  2181.2500      7.9444      2.5241      0.1037      7.6302    106.1743     29.6269
  2181.5000      7.9497      2.5402      0.0858      6.6540    106.5024     29.6475
  2181.7500      7.9595      2.5383      0.0713      6.7667    106.7305     29.5884
  2182.0000      7.9607      2.5219      0.0538      7.7622    107.8781     29.4127
  2182.2500      7.9511      2.5036      0.0476      8.8700    109.2752     29.3110
  2182.5000      7.9417      2.4668      0.0450     11.1037    112.1142     29.3427
  2182.7500      7.9390      2.4370      0.0457     12.9110    114.2635     29.5313
  2183.0000      7.9418      2.3883      0.0504     15.8604    116.8674     29.9623
  2183.2500      7.9437      2.3572      0.0587     17.7435    117.2803     30.2096
  2183.5000      7.9410      2.3214      0.0824     19.9180    114.8769     30.3212
  2183.7500      7.9392      2.3092      0.1031     20.6522    111.4679     30.2089
  2184.0000      7.9422      2.3131      0.1302     20.4165    105.2362     29.8959
  2184.2500      7.9482      2.3299      0.1396     19.3995    101.5746     29.6831
  2184.5000      7.9567      2.3705      0.1368     16.9400     98.6369     29.4256
  2184.7500      7.9677      2.4026      0.1257     14.9960     98.7473     29.2910
  2185.0000      7.9692      2.4490      0.1031     12.1834    101.0365     29.1448
  2185.2500      7.9599      2.4747      0.0890     10.6254    103.0102     29.0993
  2185.5000      7.9541      2.5021      0.0740      8.9666    105.7624     29.0882
  2185.7500      7.9529      2.5130      0.0681      8.3044    107.4469     29.0622
  2186.0000      7.9520      2.5207      0.0637      7.8388    109.4750     28.9138
  2186.2500      7.9522      2.5211      0.0633      7.8110    109.9250     28.7644
  2186.5000      7.9545      2.5137      0.0666      8.2630    108.4108     28.6024
  2186.7500      7.9584      2.4998      0.0700      9.1043    106.0341     28.6115
