~Version Information
VERS.                      2.0: CWLS Log ASCII Standard - VERSION 2.0
WRAP.                       NO: One line per depth step
~Well Information Block
STRT.FT               260.0000: 
STOP.FT              2610.0000: 
STEP.FT                 0.1000: 
NULL.                -999.2500: 
COMP.          Pioneer Natural Resources: COMPANY
WELL.           Costello 44-24: WELL
FLD.           Purgatoire River: FIELD
LOC.           327' FSL & 378' FEL: LOCATION
PROV.                 Colorado: PROVINCE
CNTY.               Las Animas: COUNTRY
SRVC.                Patterson: SERVICE COMPANY
DATE.          Mon Jul 11 10:42:19 2005: LOG DATE
UWI.           05 071 08413 00: UNIQUE WELL ID
~Curve Information Block
DEPT.FT            0 000 00 00: Depth
DCAL.in                       : CDL Caliper
RHOB.g/cc                     : CDL Bulk Density
RHOC.g/cc                     : CDL Density Correction
DPOR.pu                       : CDL Density Porosity
GR.GAPI                       : Gamma Ray
NPOR.pu                       : Neutron Porosity
~Parameter Information Block
~A  Depth       DCAL        RHOB        RHOC        DPOR         GR         NPOR    
   260.0000      5.0777      2.2419      0.2247     -0.0082    114.1932     19.8353
   260.1000      5.0777      2.2821      0.3045     -0.0074    112.8624     21.0887
   260.2000      5.0777      2.3188      0.3024     -0.0066    112.5348     21.6943
   260.3000      5.0808      2.3346      0.3123     -0.0063    117.8059     21.3393
   260.4000      5.0808      2.3265      0.2841     19.6062    131.6791     21.3627
   260.5000      5.0814      2.3020      0.2548     21.0922    145.4522     22.2397
   260.6000      5.0814      2.2712      0.2678     22.9593    147.5271     23.5677
   260.7000      5.0814      2.2454      0.2313     24.5218    139.9157     24.6131
   260.8000      5.0740      2.2412      0.1791     24.7730    131.8477     24.9133
   260.9000      5.0740      2.2632      0.2741     23.4450    126.5624     24.7680
   261.0000      5.0865      2.2895      0.2534     21.8501    124.0652     24.6114
   261.1000      5.0865      2.3050      0.2459     20.9087    123.3331     24.7379
   261.2000      5.0865      2.3125      0.2712     20.4544    122.0201     25.0371
   261.3000      5.0892      2.3101      0.2760     20.6016    124.4523     24.9035
   261.4000      5.0892      2.2939      0.2463     21.5839    132.3762     24.2586
   261.5000      5.0854      2.2658      0.2703     23.2853    139.3641     23.5565
   261.6000      5.0854      2.2333      0.1637     25.2545    140.1855     22.4817
   261.7000      5.0854      2.2102      0.2081     26.6548    134.1758     20.8965
   261.8000      5.0867      2.2036      0.1793     27.0569    125.3647     19.9933
   261.9000      5.0867      2.2189      0.1870     26.1292    119.6330     20.6351
   262.0000      5.0900      2.2595      0.2262     23.6673    117.8382     21.9967
   262.1000      5.0900      2.3027      0.2768     21.0513    116.1809     22.8012
   262.2000      5.0900      2.3144      0.2718     20.3421    113.5506     22.9639
   262.3000      5.0852      2.2883      0.2096     21.9215    113.8172     22.6488
   262.4000      5.0852      2.2457      0.2040     24.5024    119.0172     21.9264
   262.5000      5.0801      2.2148      0.1240     26.3737    127.2678     21.1144
   262.6000      5.0801      2.2080      0.1667     26.7892    135.0281     20.3317
   262.7000      5.0801      2.2031      0.2031     27.0849    136.9170     19.9877
   262.8000      5.0850      2.1797      0.1808     28.5018    134.2924     20.9954
   262.9000      5.0850      2.1490      0.1703     30.3648    133.2486     22.5754
   263.0000      5.0862      2.1321      0.1615     31.3902    134.6477     23.4070
   263.1000      5.0862      2.1402      0.1675     30.8986    135.9622     23.9120
   263.2000      5.0862      2.1717      0.1474     28.9865    137.9040     24.3849
   263.3000      5.0925      2.2156      0.1805     26.3291    144.3451     23.9947
   263.4000      5.0925      2.2578      0.2098     23.7710    156.2545     23.0939
   263.5000      5.0882      2.2892      0.2543     21.8659    167.4789     23.2203
   263.6000      5.0882      2.3029      0.2563     21.0393    169.7814     24.3210
   263.7000      5.0882      2.2975      0.2762     21.3651    161.9884     25.1629
   263.8000      5.0870      2.2831      0.2197     22.2394    151.5994     25.2716
   263.9000      5.0870      2.2657      0.2303     23.2900    148.3106     25.2995
   264.0000      5.0872      2.2373      0.2207     25.0101    152.8484     25.8173
   264.1000      5.0872      2.1961      0.1617     27.5076    156.6944     25.6448
   264.2000      5.0872      2.1550      0.1624     29.9971    154.1206     23.8173
   264.3000      5.0918      2.1281      0.1264     31.6329    150.7175     22.0315
   264.4000      5.0918      2.1298      0.1264     31.5261    153.5739     22.0009
   264.5000      5.0863      2.1645      0.1466     29.4256    159.1677     23.3727
   264.6000      5.0863      2.2159      0.1621     26.3090    163.1251     24.7094
   264.7000      5.0863      2.2672      0.2048     23.1979    164.2457     24.9103
   264.8000      5.0900      2.3063      0.2416     20.8304    161.5585     24.4691
   264.9000      5.0900      2.3199      0.2735     20.0033    158.3024     24.3732
   265.0000      5.0881      2.3100      0.2198     20.6061    158.4721     24.3562
   265.1000      5.0881      2.2936      0.2330     21.5984    161.5385     24.1667
   265.2000      5.0881      2.2749      0.2039     22.7341    163.3434     24.2235
   265.3000      5.0915      2.2513      0.1675     24.1656    161.7008     24.4419
   265.4000      5.0915      2.2336      0.1427     25.2368    158.4861     24.6212
   265.5000      5.0817      2.2303      0.1650     25.4384    155.4439     25.0933
   265.6000      5.0817      2.2338      0.1677     25.2253    154.1348     25.5094
   265.7000      5.0817      2.2415      0.1294     24.7554    155.9908     24.8417
   265.8000      5.0787      2.2544      0.1545     23.9788    159.0456     23.5358
   265.9000      5.0787      2.2589      0.1985     23.7045    160.9806     22.8408
   266.0000      5.0773      2.2532      0.1468     24.0512    158.8296     22.8819
   266.1000      5.0773      2.2536      0.2127     24.0271    148.9401     23.3509
   266.2000      5.0773      2.2624      0.2201     23.4934    138.8994     24.0007
   266.3000      5.0794      2.2696      0.2036     23.0548    136.7323     24.3876
   266.4000      5.0794      2.2675      0.1712     23.1831    139.6703     24.3459
   266.5000      5.0827      2.2535      0.1806     24.0302    144.4586     24.0991
   266.6000      5.0827      2.2339      0.1970     25.2189    151.6275     23.7472
   266.7000      5.0827      2.2243      0.1610     25.7987    157.5352     23.8799
   266.8000      5.0802      2.2280      0.2036     25.5786    155.2866     24.6379
   266.9000      5.0802      2.2219      0.2053     25.9469    145.8233     25.0277
   267.0000      5.0758      2.2054      0.1254     26.9461    138.4556     24.7327
   267.1000      5.0758      2.2056      0.1669     26.9351    139.3700     24.5117
   267.2000      5.0758      2.2235      0.1990     25.8509    143.3882     24.4301
   267.3000      5.0755      2.2396      0.1865     24.8700    140.2239     23.8556
   267.4000      5.0755      2.2496      0.1808     24.2641    131.5016     23.3536
   267.5000      5.0727      2.2590      0.2235     23.6941    127.7170     23.4255
   267.6000      5.0727      2.2689      0.2025     23.0944    129.8471     23.5904
   267.7000      5.0727      2.2817      0.2128     22.3192    131.7001     23.8142
   267.8000      5.0846      2.2978      0.2382     21.3455    134.7289     23.9502
   267.9000      5.0846      2.3108      0.2448     20.5566    141.0114     23.7755
   268.0000      5.0829      2.3155      0.2178     20.2709    144.1156     23.6869
   268.1000      5.0829      2.3066      0.2161     20.8139    139.3420     23.8988
   268.2000      5.0829      2.2839      0.1779     22.1864    132.7705     24.3563
   268.3000      5.0662      2.2620      0.1430     23.5139    132.3407     25.3070
   268.4000      5.0662      2.2483      0.2170     24.3471    135.7381     26.8468
   268.5000      5.0766      2.2405      0.1424     24.8192    136.6173     28.0593
   268.6000      5.0766      2.2476      0.1630     24.3854    132.0976     27.6165
   268.7000      5.0766      2.2696      0.1944     23.0570    122.0431     25.9039
   268.8000      5.0766      2.2870      0.2306     22.0003    115.4022     24.6610
   268.9000      5.0766      2.2897      0.2314     21.8373    124.9492     24.1239
   269.0000      5.0771      2.2877      0.1928     21.9565    144.3856     23.5790
   269.1000      5.0771      2.2932      0.2011     21.6214    153.2758     23.2466
   269.2000      5.0771      2.2991      0.2348     21.2643    148.2346     23.3688
   269.3000      5.0760      2.2928      0.1925     21.6485    141.9733     23.4128
   269.4000      5.0760      2.2789      0.1880     22.4929    141.4563     23.2862
   269.5000      5.0805      2.2646      0.1972     23.3598    145.6213     23.5852
