~Version Information
VERS.                      2.0: CWLS Log ASCII Standard - VERSION 2.0
WRAP.                       NO: One line per depth step
~Well Information Block
STRT.FT               483.0000: 
STOP.FT              1701.5000: 
STEP.FT                 0.1000: 
NULL.                -999.2500: 
COMP.          Pioneer Natural Resources: COMPANY
WELL.            Mad Dog 42-31: WELL
FLD.           Purgatorie River: FIELD
LOC.           2064' FNL & 479' FEL: LOCATION
PROV.                 Colorado: PROVINCE
CNTY.               Las Animas: COUNTRY
SRVC.                         : SERVICE COMPANY
DATE.          Sun Oct 10 04:38:02 2004: LOG DATE
UWI.           05 071 08195 00: UNIQUE WELL ID
~Curve Information Block
DEPT.FT            0 000 00 00: Depth
LTEN.lb                       : Surface Line Tension
DCAL.in                       : CDL Caliper
RHOB.g/cc                     : CDL Bulk Density
RHOC.g/cc                     : CDL Density Correction
DPOR.pu                       : CDL Density Porosity
GR.GAPI                       : Gamma Ray
NPOR.pu                       : Neutron Porosity
~Parameter Information Block
~A  Depth       LTEN        DCAL        RHOB        RHOC        DPOR         GR         NPOR    
# ...
  1449.0000   1097.5734      7.8479      2.6413      0.0585      0.5261     53.8899     22.2483
  1449.1000   1097.5734      7.8479      2.6644      0.0676     -0.8734     47.0038     21.6931
  1449.2000   1097.5734      7.8479      2.6929      0.0980     -2.5983     40.6277     21.6120
  1449.3000   1055.9406      7.8804      2.7114      0.1066     -3.7221     41.3853     22.0071
  1449.4000   1055.9406      7.8804      2.7063      0.0919     -3.4129     47.3295     22.2220
  1449.5000   1100.0671      7.8374      2.6879      0.0701     -2.2942     50.6742     21.7825
  1449.6000   1100.0671      7.8374      2.6606      0.0629     -0.6399     49.0745     21.1791
  1449.7000   1100.0671      7.8374      2.6194      0.0152      1.8523     45.9984     20.7264
  1449.8000   1067.3896      7.8358      2.5799     -0.0237      4.2498     45.5731     20.6063
  1449.9000   1067.3896      7.8358      2.5570      0.0022      5.6393     50.7254     21.0830
  1450.0000   1083.6816      7.8520      2.5408     -0.0031      6.6167     59.1819     22.1006
  1450.1000   1083.6816      7.8520      2.5205     -0.0142      7.8502     64.0492     23.2720
  1450.2000   1083.6816      7.8520      2.5002      0.0024      9.0807     65.9548     23.9944
  1450.3000   1080.5842      7.8571      2.4937     -0.0310      9.4752     70.0769     24.0637
  1450.4000   1080.5842      7.8571      2.5036      0.0375      8.8711     74.2892     23.8291
  1450.5000   1099.3887      7.8553      2.5172      0.0546      8.0513     76.6940     23.3111
  1450.6000   1099.3887      7.8553      2.5354      0.0386      6.9438     78.9308     22.2790
  1450.7000   1099.3887      7.8553      2.5670      0.0971      5.0286     78.2065     21.3254
  1450.8000   1065.1812      7.8584      2.6009      0.1123      2.9735     76.6177     21.4508
  1450.9000   1065.1812      7.8584      2.6179      0.1519      1.9427     75.5404     22.5483
  1451.0000   1085.7833      7.8779      2.6164      0.1085      2.0359     67.6616     23.4778
  1451.1000   1085.7833      7.8779      2.6152      0.0882      2.1084     55.5090     23.6352
  1451.2000   1085.7833      7.8779      2.6256      0.0889      1.4793     50.1422     23.1374
  1451.3000   1066.2662      7.8614      2.6329      0.0994      1.0349     52.7297     22.3707
  1451.4000   1066.2662      7.8614      2.6185      0.0644      1.9090     56.2068     21.7555
  1451.5000   1107.6195      7.8606      2.5901      0.0361      3.6325     56.4551     21.4909
  1451.6000   1107.6195      7.8606      2.5743     -0.0203      4.5898     55.7186     21.5911
  1451.7000   1107.6195      7.8606      2.5877      0.0255      3.7779     55.6152     21.8459
  1451.8000   1077.2089      7.8642      2.6275      0.0388      1.3629     53.9316     21.6755
  1451.9000   1077.2089      7.8642      2.6720      0.0906     -1.3313     49.7326     21.0175
  1452.0000   1046.2441      7.8650      2.6826      0.1347     -1.9741     44.5971     20.4846
  1452.1000   1046.2441      7.8650      2.6483      0.0469      0.1043     40.8318     20.1876
  1452.2000   1046.2441      7.8650      2.6037      0.0023      2.8054     40.8601     20.3461
  1452.3000   1115.7288      7.8687      2.5811      0.0178      4.1755     44.9363     21.1482
  1452.4000   1115.7288      7.8687      2.5789      0.0934      4.3062     50.2103     21.7491
  1452.5000   1071.2247      7.8706      2.5770      0.0609      4.4265     53.9160     21.4646
  1452.6000   1071.2247      7.8706      2.5665      0.0482      5.0610     53.4780     20.9835
  1452.7000   1071.2247      7.8706      2.5570      0.0551      5.6370     49.3060     21.1802
  1452.8000   1078.5234      7.8388      2.5547      0.0390      5.7743     45.7576     22.0954
  1452.9000   1078.5234      7.8388      2.5561      0.0365      5.6896     44.2711     23.0631
  1453.0000   1072.7269      7.8560      2.5648      0.0409      5.1661     45.3718     23.5114
  1453.1000   1072.7269      7.8560      2.5885      0.0786      3.7254     52.3039     23.6817
  1453.2000   1072.7269      7.8560      2.6184      0.1023      1.9156     62.6429     23.7491
  1453.3000   1066.7264      7.8591      2.6329      0.1611      1.0391     69.2223     23.6282
  1453.4000   1066.7264      7.8591      2.6249      0.1161      1.5208     70.5360     23.5865
  1453.5000   1084.8368      7.8396      2.6116      0.1062      2.3278     68.0339     23.8462
  1453.6000   1084.8368      7.8396      2.6136      0.0940      2.2069     60.2095     23.8825
  1453.7000   1084.8368      7.8396      2.6308      0.1383      1.1623     48.7892     23.3810
  1453.8000   1069.7445      7.8353      2.6418      0.1674      0.4984     42.4926     22.8520
  1453.9000   1069.7445      7.8353      2.6351      0.1025      0.9012     44.2198     22.6463
  1454.0000   1075.1022      7.8393      2.6207      0.1214      1.7756     48.1898     22.3485
  1454.1000   1075.1022      7.8393      2.6058      0.0861      2.6785     51.3850     21.5830
  1454.2000   1075.1022      7.8393      2.5879      0.0900      3.7607     50.7722     20.8123
  1454.3000   1081.3284      7.8573      2.5730      0.0019      4.6684     43.6817     20.5242
  1454.4000   1081.3284      7.8573      2.5730      0.0890      4.6643     37.6346     20.7848
  1454.5000   1042.5430      7.8597      2.5827      0.0807      4.0786     38.1154     21.4477
  1454.6000   1042.5430      7.8597      2.5943      0.0829      3.3755     40.3689     21.9198
  1454.7000   1042.5430      7.8597      2.6044      0.0931      2.7646     40.2967     21.9196
  1454.8000   1093.7887      7.8592      2.6093      0.0925      2.4648     38.5466     21.8678
  1454.9000   1093.7887      7.8592      2.6169      0.0798      2.0060     36.4705     21.9736
  1455.0000   1051.6421      7.8557      2.6283      0.1169      1.3167     35.2404     22.3532
  1455.1000   1051.6421      7.8557      2.6262      0.1167      1.4432     37.5137     23.1348
  1455.2000   1051.6421      7.8557      2.6074      0.0454      2.5794     42.8189     23.5573
  1455.3000   1073.1143      7.8628      2.5887      0.0436      3.7171     46.9997     23.0699
  1455.4000   1073.1143      7.8628      2.5818      0.0116      4.1345     49.5071     22.4223
  1455.5000   1096.4602      7.8744      2.5813      0.0573      4.1610     52.5520     22.2847
  1455.6000   1096.4602      7.8744      2.5755      0.0175      4.5174     55.5595     22.4690
  1455.7000   1096.4602      7.8744      2.5707      0.0276      4.8057     55.7615     22.2673
  1455.8000   1058.4128      7.8743      2.5826      0.0621      4.0822     52.4910     21.4518
  1455.9000   1058.4128      7.8743      2.6054      0.1340      2.7044     47.1593     20.5644
  1456.0000   1116.7930      7.8776      2.6215      0.1148      1.7299     42.8880     19.8715
  1456.1000   1116.7930      7.8776      2.6268      0.0952      1.4033     42.0510     19.0555
  1456.2000   1116.7930      7.8776      2.6190      0.1050      1.8765     42.9285     18.4365
  1456.3000   1074.8721      7.8592      2.5896      0.0376      3.6598     43.4192     18.6461
  1456.4000   1074.8721      7.8592      2.5448     -0.0085      6.3742     44.4464     19.4036
  1456.5000   1088.2281      7.8569      2.5088     -0.0185      8.5556     44.3837     20.1069
  1456.6000   1088.2281      7.8569      2.5039      0.0114      8.8517     42.2818     20.7562
  1456.7000   1088.2281      7.8569      2.5274      0.0646      7.4319     42.5281     21.6791
  1456.8000   1095.8270      7.8624      2.5552      0.0644      5.7467     45.2313     22.5799
  1456.9000   1095.8270      7.8624      2.5759      0.0632      4.4888     46.5365     22.6462
  1457.0000   1069.3290      7.8654      2.5952      0.0362      3.3214     44.2049     21.6776
  1457.1000   1069.3290      7.8654      2.6032      0.0890      2.8375     39.1234     20.3309
  1457.2000   1069.3290      7.8654      2.5899      0.0528      3.6395     35.0010     19.6500
  1457.3000   1084.6075      7.8659      2.5777      0.0598      4.3837     33.6533     19.8310
