~Version Information
VERS.                      2.0: CWLS Log ASCII Standard - VERSION 2.0
WRAP.                       NO: One line per depth step
~Well Information Block
STRT.FT               510.5000: 
STOP.FT              2075.5000: 
STEP.FT                 0.1000: 
NULL.                -999.2500: 
COMP.          Petrogulf Corporation: COMPANY
WELL.          Robinson 15-11V: WELL
FLD.           Purgatorie River: FIELD
LOC.           226' FNL & 592' FWL: LOCATION
CNTY.               Las Animas: COUNTY
SRVC.                         : SERVICE COMPANY
DATE.          Wed Aug 04 06:17:53 2004: LOG DATE
UWI.           05 071 08027 00: UNIQUE WELL ID
STAT.                 Colorado: STATE
~Curve Information Block
DEPT.FT            0 000 00 00: Depth
DCAL.in                       : CDL Caliper
RHOB.g/cc                     : CDL Bulk Density
RHOC.g/cc                     : CDL Density Correction
DPOR.pu                       : CDL Density Porosity
GR.GAPI                       : Gamma Ray
NPOR.pu                       : Neutron Porosity
~Parameter Information Block
~A  Depth       DCAL        RHOB        RHOC        DPOR         GR         NPOR    
# ...
   721.7000      8.0541      2.4613      0.0792     11.4390     34.6168     15.7391
   721.8000      8.0464      2.4664      0.0662     11.1291     32.3381     15.9605
   721.9000      8.0464      2.4557      0.1011     11.7750     29.5967     16.0789
   722.0000      8.0024      2.4389      0.0461     12.7937     28.7580     16.0102
   722.1000      8.0024      2.4329      0.0421     13.1556     29.0809     15.9088
   722.2000      8.0024      2.4384      0.0607     12.8257     28.7411     15.9272
   722.3000      8.0055      2.4419      0.0792     12.6099     27.1140     16.0568
   722.4000      8.0055      2.4404      0.0541     12.7018     26.0087     16.2983
   722.5000      8.0072      2.4459      0.0608     12.3671     26.2707     16.5954
   722.6000      8.0072      2.4640      0.0635     11.2724     28.9479     16.8718
   722.7000      8.0072      2.4833      0.0830     10.1047     34.6292     17.1075
   722.8000      8.0078      2.4945      0.0455      9.4242     39.3661     17.4536
   722.9000      8.0078      2.5012      0.0769      9.0207     39.9105     17.8724
   723.0000      8.0065      2.5026      0.1094      8.9334     37.8733     17.8305
   723.1000      8.0065      2.4998      0.0614      9.1031     36.6498     17.4950
   723.2000      8.0065      2.5025      0.0519      8.9407     37.3698     17.5649
   723.3000      8.0067      2.5100      0.0863      8.4835     37.9239     18.0394
   723.4000      8.0067      2.5082      0.0757      8.5915     38.1307     18.5981
   723.5000      8.0070      2.4882      0.0488      9.8062     40.9715     18.8115
   723.6000      8.0070      2.4599      0.0197     11.5191     45.8103     18.3506
   723.7000      8.0070      2.4422      0.0083     12.5934     47.6167     17.6614
   723.8000      8.0059      2.4396      0.0221     12.7542     44.5385     17.3453
   723.9000      8.0059      2.4371      0.0440     12.9052     39.9171     17.4148
   724.0000      8.0061      2.4275     -0.0011     13.4868     38.3326     17.6392
   724.1000      8.0061      2.4245     -0.0076     13.6694     42.0071     17.8945
   724.2000      8.0061      2.4299      0.0412     13.3369     51.4392     18.2417
   724.3000      8.0059      2.4307      0.0479     13.2899     64.0476     18.8400
   724.4000      8.0059      2.4293      0.0111     13.3765     72.9721     19.5261
   724.5000      8.0065      2.4347      0.0447     13.0470     72.5057     20.0592
   724.6000      8.0065      2.4435      0.0746     12.5123     65.1362     20.4610
   724.7000      8.0065      2.4545      0.0396     11.8463     59.3579     20.8988
   724.8000      8.0049      2.4764      0.0574     10.5193     59.7781     21.5262
   724.9000      8.0049      2.5131      0.1060      8.2940     66.5246     22.3613
   725.0000      7.9941      2.5579      0.1284      5.5802     75.5802     23.1933
   725.1000      7.9941      2.5981      0.1702      3.1434     79.6577     23.7604
   725.2000      7.9941      2.6219      0.1700      1.7020     77.3344     24.0934
   725.3000      7.9894      2.6241      0.1630      1.5684     71.3401     24.4680
   725.4000      7.9894      2.6064      0.1365      2.6445     64.3657     24.9441
   725.5000      7.9865      2.5779      0.1100      4.3722     62.4727     25.2798
   725.6000      7.9865      2.5501      0.0955      6.0573     67.1375     25.4138
   725.7000      7.9865      2.5368      0.0879      6.8590     71.4799     25.6614
   725.8000      7.9827      2.5557      0.0967      5.7125     72.0452     26.1423
   725.9000      7.9827      2.6040      0.1492      2.7906     71.4699     26.5562
   726.0000      7.9853      2.6540      0.1938     -0.2446     73.1198     26.7396
   726.1000      7.9853      2.6917      0.1958     -2.5278     77.8642     26.8308
   726.2000      7.9853      2.7214      0.2226     -4.3262     86.2116     27.0950
   726.3000      7.9981      2.7375      0.2130     -5.3051     97.8660     27.5607
   726.4000      7.9981      2.7345      0.1527     -5.1201    107.8818     27.9756
   726.5000      8.0020      2.7189      0.1738     -4.1785    113.7021     28.1741
   726.6000      8.0020      2.6955      0.1377     -2.7556    120.3541     28.1603
   726.7000      8.0020      2.6696      0.1051     -1.1896    126.6505     27.9978
   726.8000      8.0020      2.6472      0.0877      0.1706    124.4784     27.9677
   726.9000      8.0020      2.6312      0.0444      1.1422    116.2696     28.2613
   727.0000      8.0024      2.6246      0.0387      1.5373    111.8241     28.6759
   727.1000      8.0024      2.6244      0.0210      1.5499    112.1804     28.9593
   727.2000      8.0024      2.6321      0.0319      1.0825    112.3694     28.7530
   727.3000      8.0033      2.6533      0.0370     -0.1978    112.8085     28.0483
   727.4000      8.0033      2.6799      0.0403     -1.8121    113.0812     27.6021
   727.5000      8.0039      2.6921      0.0636     -2.5495    107.4753     27.8102
   727.6000      8.0039      2.6860      0.0309     -2.1807     98.2414     28.1868
   727.7000      8.0039      2.6777      0.0465     -1.6782     94.9063     28.3579
   727.8000      8.0021      2.6684      0.0968     -1.1130     99.2997     28.3722
   727.9000      8.0021      2.6488      0.0246      0.0712    106.3291     28.1844
   728.0000      8.0019      2.6225      0.0279      1.6678    110.8181     27.9708
   728.1000      8.0019      2.5994     -0.0292      3.0684    109.8769     28.1137
   728.2000      8.0019      2.5948     -0.0159      3.3481    106.0809     28.4860
   728.3000      8.0023      2.6103      0.0296      2.4069    103.2980     28.8306
   728.4000      8.0023      2.6223      0.0963      1.6785    103.1135     28.9532
   728.5000      8.0027      2.6190      0.0437      1.8809    107.1559     28.7294
   728.6000      8.0027      2.6138      0.0688      2.1912    114.8320     28.3412
   728.7000      8.0027      2.6150      0.0474      2.1210    120.7732     28.0197
   728.8000      8.0021      2.6185      0.0519      1.9113    119.2339     27.8410
   728.9000      8.0021      2.6187      0.0467      1.8944    113.9224     27.8444
   729.0000      8.0031      2.6137      0.0556      2.1999    114.1723     28.0989
   729.1000      8.0031      2.6081      0.0468      2.5398    121.8685     28.5671
   729.2000      8.0031      2.6127      0.0398      2.2631    130.4824     28.9496
   729.3000      8.0033      2.6291      0.0744      1.2672    132.3655     28.9393
   729.4000      8.0033      2.6431      0.1252      0.4195    126.5884     28.5457
   729.5000      8.0030      2.6450      0.0860      0.3044    117.7883     27.9752
   729.6000      8.0030      2.6351      0.0697      0.9016    112.5296     27.4059
   729.7000      8.0030      2.6182      0.0588      1.9269    116.9635     26.9550
   729.8000      8.0038      2.6065      0.0997      2.6393    128.0905     26.7645
   729.9000      8.0038      2.6025      0.0715      2.8802    137.4307     26.8431
   730.0000      8.0004      2.5950      0.0796      3.3321    140.4787     26.9284
   730.1000      8.0004      2.5794      0.0040      4.2774    136.0074     26.9420
   730.2000      8.0004      2.5638      0.0700      5.2253    128.3372     27.1630
   730.3000      7.9937      2.5573      0.0416      5.6209    124.0210     27.4393
   730.4000      7.9937      2.5617      0.0588      5.3513    125.0733     27.2948
   730.5000      7.9939      2.5660      0.0625      5.0883    128.9028     26.8557
   730.6000      7.9939      2.5595      0.0267      5.4833    131.1964     26.5871
   730.7000      7.9939      2.5457      0.0533      6.3214    130.9166     26.6792
   730.8000      7.9921      2.5365      0.0340      6.8776    130.2977     26.9657
   730.9000      7.9921      2.5465      0.0486      6.2740    127.9823     27.2514
   731.0000      7.9811      2.5773      0.0863      4.4031    122.7056     27.6247
   731.1000      7.9811      2.6135      0.0979      2.2121    120.8530     28.1394
   731.2000      7.9811      2.6395      0.1088      0.6341    124.9356     28.5197
