~Version Information
VERS.                      2.0: CWLS Log ASCII Standard - VERSION 2.0
WRAP.                       NO: One line per depth step
~Well Information Block
STRT.FT               430.0000: 
STOP.FT              2417.0000: 
STEP.FT                 0.1000: 
NULL.                -999.2500: 
COMP.          Evergreen Operating Corporation: COMPANY
WELL.          McCullough 34-32: WELL
FLD.           Purgatorie River: FIELD
LOC.           261' FSL & 2098' FEL: LOCATION
PROV.                 Colorado: PROVINCE
CNTY.               Las Animas: COUNTRY
SRVC.                Patterson: SERVICE COMPANY
DATE.          Mon May 17 11:25:23 2004: LOG DATE
UWI.           05 071 07953 00: UNIQUE WELL ID
~Curve Information Block
DEPT.FT            0 000 00 00: Depth
DCAL.in                       : CDL Caliper
RHOB.g/cc                     : CDL Bulk Density
RHOC.g/cc                     : CDL Density Correction
DPOR.pu                       : CDL Density Porosity
NPOR.pu                       : Neutron Porosity
GR.GAPI                       : Gamma Ray
~Parameter Information Block
~A  Depth       DCAL        RHOB        RHOC        DPOR        NPOR         GR     
# ...
   564.4000      8.3814      2.5621      0.0645      5.3268     23.6502    112.1932
   564.5000      8.3879      2.5831      0.0483      4.0536     23.8416    109.2503
   564.6000      8.3879      2.6043      0.0502      2.7671     24.4145    108.6939
   564.7000      8.3879      2.6344      0.1101      0.9452     25.2362    109.0384
   564.8000      8.3990      2.6555      0.1475     -0.3336     26.2594    105.6810
   564.9000      8.3990      2.6539      0.0545     -0.2384     27.4662    100.7430
   565.0000      8.4061      2.6510      0.0705     -0.0631     28.6829    101.0445
   565.1000      8.4061      2.6627      0.0631     -0.7677     29.8055    105.3063
   565.2000      8.4061      2.6804      0.0321     -1.8398     30.8741    105.9201
   565.3000      8.4069      2.6952      0.0244     -2.7403     31.7571    103.1104
   565.4000      8.4069      2.7049      0.0568     -3.3251     31.9087    103.8697
   565.5000      8.4120      2.7015      0.0748     -3.1185     31.2735    107.4757
   565.6000      8.4120      2.6742      0.0523     -1.4640     30.3916    109.8181
   565.7000      8.4120      2.6178      0.0305      1.9541     29.4828    112.3437
   565.8000      8.4075      2.5309      0.0044      7.2168     28.4264    115.6098
   565.9000      8.4075      2.4189      0.0101     14.0074     27.1326    117.3821
   566.0000      8.4192      2.3030     -0.0461     21.0328     25.6910    121.6568
   566.1000      8.4192      2.2055     -0.0331     26.9417     24.4419    132.8159
   566.2000      8.4192      2.1276     -0.0351     31.6625     23.8461    144.4499
   566.3000      8.4837      2.0704     -0.0945     35.1276     23.6897    148.1066
   566.4000      8.4837      2.0446     -0.0569     36.6936     23.4479    144.1049
   566.5000      8.6308      2.0544     -0.0313     36.0967     23.1371    140.6519
   566.6000      8.6308      2.1072      0.0727     32.8962     22.8644    143.6096
   566.7000      8.6308      2.2010      0.2962     27.2116     22.8214    148.7568
   566.8000      9.0923      2.3020      0.4707     21.0895     23.2861    150.0190
   566.9000      9.0923      2.3681      0.5178     17.0826     23.8647    149.7275
   567.0000      8.7729      2.3833      0.4646     16.1610     24.0202    152.3423
   567.1000      8.7729      2.3579      0.3935     17.7019     23.9757    154.8501
   567.2000      8.7729      2.3150      0.2535     20.3010     23.9016    151.4102
   567.3000      8.5964      2.2828      0.1534     22.2527     23.5456    142.2378
   567.4000      8.5964      2.2795      0.0977     22.4535     23.3061    133.7426
   567.5000      8.5951      2.2989      0.1647     21.2802     23.6119    132.2789
   567.6000      8.5951      2.3168      0.1653     20.1928     23.9850    137.9879
   567.7000      8.5951      2.3261      0.1078     19.6284     23.9325    143.8674
   567.8000      8.6158      2.3371      0.1363     18.9647     23.6522    145.5702
   567.9000      8.6158      2.3493      0.1194     18.2239     23.6860    144.3249
   568.0000      8.6185      2.3570      0.1663     17.7551     24.3063    140.4271
   568.1000      8.6185      2.3603      0.1378     17.5554     25.3310    137.2105
   568.2000      8.6185      2.3632      0.1963     17.3821     26.3709    139.8838
   568.3000      8.6195      2.3677      0.1765     17.1116     27.0536    149.2613
   568.4000      8.6195      2.3723      0.2107     16.8306     27.3973    161.3994
   568.5000      8.6138      2.3727      0.1346     16.8063     27.8137    167.4315
   568.6000      8.6138      2.3663      0.0942     17.1958     28.7523    163.7828
   568.7000      8.6138      2.3533      0.0911     17.9796     30.2338    158.5688
   568.8000      8.6139      2.3450      0.0312     18.4835     31.8613    159.1119
   568.9000      8.6139      2.3461      0.1212     18.4152     33.4108    166.7446
   569.0000      8.6139      2.3393      0.0674     18.8305     34.7536    176.2602
   569.1000      8.6139      2.3117      0.0546     20.5058     35.6151    179.1526
   569.2000      8.6139      2.2566      0.0098     23.8447     35.6886    178.8694
   569.3000      8.6160      2.1694     -0.0232     29.1297     34.8129    182.8537
   569.4000      8.6160      2.0554     -0.0472     36.0357     33.0143    186.3997
   569.5000      8.6403      1.9266     -0.0993     43.8434     30.2826    184.1953
   569.6000      8.6403      1.7967     -0.1390     51.7181     26.6036    178.0110
   569.7000      8.6403      1.6700     -0.1641     59.3966     22.4262    170.3568
   569.8000      8.6615      1.5247     -0.1332     68.2016     18.6046    162.9411
   569.9000      8.6615      1.3257     -0.1755     80.2617     15.4395    157.7459
   570.0000      8.7518      1.0728     -0.2589     95.5895     12.7794    153.0759
   570.1000      8.7518      0.8379     -0.4185    109.8240     10.8416    145.8877
   570.2000      8.7518      0.7240     -0.2019    116.7287     10.0405    136.5206
   570.3000      9.3811      0.7721      0.1006    113.8131     10.5558    128.3485
   570.4000      9.3811      0.9577      0.2737    102.5611     12.3285    125.4436
   570.5000     10.4598      1.2442      0.4259     85.2004     14.9476    128.1385
   570.6000     10.4598      1.5753      0.5888     65.1341     17.6508    131.5909
   570.7000     10.4598      1.8617      0.7229     47.7739     20.0770    132.2859
   570.8000     11.4171      2.0303      0.7705     37.5572     22.4447    130.4065
   570.9000     11.4171      2.0745      0.7293     34.8809     24.9308    127.2098
   571.0000     12.0481      2.0467      0.5945     36.5632     27.2861    125.4501
   571.1000     12.0481      2.0108      0.4636     38.7381     28.9631    126.3835
   571.2000     12.0481      1.9916      0.3941     39.9013     29.5229    128.1902
   571.3000     12.0467      1.9645      0.3322     41.5435     29.2058    131.1616
   571.4000     12.0467      1.9004      0.2624     45.4333     28.7499    133.4377
   571.5000     11.4056      1.8147      0.2158     50.6227     28.6416    130.6235
   571.6000     11.4056      1.7584      0.2879     54.0341     29.0594    126.5784
   571.7000     11.4056      1.7679      0.4138     53.4608     29.8663    126.6625
   571.8000     10.9262      1.8504      0.4563     48.4583     30.4777    128.5468
   571.9000     10.9262      1.9900      0.5749     39.9986     30.5690    129.3966
   572.0000     11.1540      2.1432      0.6775     30.7163     30.4879    128.8939
   572.1000     11.1540      2.2594      0.7405     23.6751     30.5044    127.1384
   572.2000     11.1540      2.3089      0.7533     20.6752     30.2083    123.4979
   572.3000     11.0605      2.2939      0.7030     21.5805     29.3504    120.3146
   572.4000     11.0605      2.2455      0.6182     24.5127     28.0892    122.3871
   572.5000     10.6112      2.1975      0.5512     27.4267     26.4459    129.9231
   572.6000     10.6112      2.1615      0.4993     29.6062     24.6746    138.0240
   572.7000     10.6112      2.1325      0.4667     31.3657     23.3102    140.8679
   572.8000      9.7360      2.1018      0.5240     33.2229     22.2602    136.6942
   572.9000      9.7360      2.0647      0.5738     35.4734     21.1920    131.8457
   573.0000      9.3836      2.0338      0.5654     37.3448     20.3108    133.0483
   573.1000      9.3836      2.0370      0.5112     37.1502     19.6835    136.4117
   573.2000      9.3836      2.0769      0.5167     34.7321     19.4199    137.5536
   573.3000      9.2925      2.1125      0.5513     32.5755     19.9296    139.4384
   573.4000      9.2925      2.1019      0.5384     33.2193     20.8394    141.5090
   573.5000     10.2248      2.0324      0.5347     37.4284     21.2930    141.5401
   573.6000     10.2248      1.9136      0.4378     44.6314     21.4413    142.2712
   573.7000     10.2248      1.7829      0.3320     52.5496     22.2139    146.2837
   573.8000     11.0388      1.7094      0.2677     57.0033     23.6616    153.6908
   573.9000     11.0388      1.7609      0.2745     53.8828     25.0531    159.0087
