~Version Information
VERS.                      2.0: CWLS Log ASCII Standard - VERSION 2.0
WRAP.                       NO: One line per depth step
~Well Information Block
STRT.FT               830.0000: 
STOP.FT              3122.7500: 
STEP.FT                 0.2500: 
NULL.                -999.2500: 
COMP.          Pioneer Natural Resources: COMPANY
WELL.              Stones 24-8: WELL
FLD.           Purgatoire River: FIELD
LOC.           648' FSL & 2264' FWL: LOCATION
PROV.                 Colorado: PROVINCE
CNTY.               Las Animas: COUNTRY
SRVC.                Patterson: SERVICE COMPANY
DATE.          Wed Jan 19 12:44:32 2005: LOG DATE
UWI.           05 071 07945 00: UNIQUE WELL ID
~Curve Information Block
DEPT.FT            0 000 00 00: Depth
SN.Ohm-m                      : IEL Short Normal
SP.mV                         : IEL Spontaneous Potential
DIR.Ohm-m                     : IEL Induction Resistivity
GR.GAPI                       : Gamma Ray
~Parameter Information Block
~A  Depth        SN          SP         DIR          GR     
# ...
  2773.0000      9.0122   -129.8582      9.2192    109.2909
  2773.2500      8.9647   -129.8771      9.2346    108.9384
  2773.5000      8.9427   -129.8289      9.2598    108.6872
  2773.7500      8.9510   -129.7500      9.2993    108.7992
  2774.0000      8.9800   -129.6773      9.3574    109.6842
  2774.2500      9.0206   -129.6411      9.4355    110.8228
  2774.5000      9.0696   -129.6612      9.5301    112.8946
  2774.7500      9.1244   -129.7456      9.6336    113.9637
  2775.0000      9.1787   -129.8945      9.7355    114.3428
  2775.2500      9.2239   -130.1040      9.8245    113.7560
  2775.5000      9.2543   -130.3677      9.8902    112.1505
  2775.7500      9.2711   -130.6766      9.9264    110.9519
  2776.0000      9.2836   -131.0191      9.9336    109.2441
  2776.2500      9.3027   -131.3823      9.9189    108.1588
  2776.5000      9.3314   -131.7558      9.8923    106.7016
  2776.7500      9.3603   -132.1341      9.8622    106.1609
  2777.0000      9.3744   -132.5163      9.8324    106.7984
  2777.2500      9.3648   -132.9022      9.8040    108.3976
  2777.5000      9.3335   -133.2887      9.7771    111.9696
  2777.7500      9.2899   -133.6685      9.7533    114.4459
  2778.0000      9.2431   -134.0329      9.7335    117.2480
  2778.2500      9.1967   -134.3758      9.7168    118.1761
  2778.5000      9.1492   -134.6973      9.7003    118.2138
  2778.7500      9.0994   -135.0049      9.6832    117.7298
  2779.0000      9.0521   -135.3125      9.6708    117.0623
  2779.2500      9.0214   -135.6393      9.6753    116.8280
  2779.5000      9.0257   -136.0085      9.7123    116.5329
  2779.7500      9.0812   -136.4472      9.7945    116.3593
  2780.0000      9.1974   -136.9829      9.9279    116.7665
  2780.2500      9.3743   -137.6397     10.1115    117.7509
  2780.5000      9.5995   -138.4330     10.3399    119.5360
  2780.7500      9.8533   -139.3651     10.6053    119.9769
  2781.0000     10.1206   -140.4234     10.8988    118.4026
  2781.2500     10.4014   -141.5799     11.2125    116.0173
  2781.5000     10.7101   -142.7932     11.5423    111.8063
  2781.7500     11.0666   -144.0117     11.8906    109.4468
  2782.0000     11.4856   -145.1806     12.2659    107.0878
  2782.2500     11.9685   -146.2514     12.6769    105.8535
  2782.5000     12.4996   -147.1931     13.1252    103.4892
  2782.7500     13.0467   -147.9987     13.6012    101.5320
  2783.0000     13.5684   -148.6857     14.0869     98.8843
  2783.2500     14.0298   -149.2874     14.5630     97.7676
  2783.5000     14.4163   -149.8410     15.0134     97.2766
  2783.7500     14.7348   -150.3764     15.4243     97.6492
  2784.0000     15.0023   -150.9114     15.7822     98.7541
  2784.2500     15.2337   -151.4522     16.0780     99.2967
  2784.5000     15.4364   -151.9967     16.3160     98.9464
  2784.7500     15.6102   -152.5358     16.5153     97.8904
  2785.0000     15.7501   -153.0513     16.6988     95.9247
  2785.2500     15.8506   -153.5119     16.8773     95.0804
  2785.5000     15.9076   -153.8736     17.0412     95.3306
  2785.7500     15.9171   -154.0839     17.1621     96.4204
  2786.0000     15.8744   -154.0921     17.1977     98.3842
  2786.2500     15.7775   -153.8594     17.0996     99.1940
  2786.5000     15.6326   -153.3679     16.8312     99.1925
  2786.7500     15.4541   -152.6255     16.3956     98.7356
  2787.0000     15.2570   -151.6698     15.8524     98.4955
  2787.2500     15.0477   -150.5692     15.2983     99.0747
  2787.5000     14.8235   -149.4209     14.8197    101.0789
  2787.7500     14.5838   -148.3409     14.4577    103.0380
  2788.0000     14.3396   -147.4452     14.2053    106.8433
  2788.2500     14.1141   -146.8233     14.0314    109.8193
  2788.5000     13.9299   -146.5145     13.9078    114.0025
  2788.7500     13.7943   -146.4937     13.8200    115.7868
  2789.0000     13.6919   -146.6763     13.7615    115.9744
  2789.2500     13.5895   -146.9379     13.7203    114.4096
  2789.5000     13.4530   -147.1441     13.6735    110.2906
  2789.7500     13.2650   -147.1778     13.5925    107.1540
  2790.0000     13.0354   -146.9561     13.4551    103.5238
  2790.2500     12.8007   -146.4351     13.2565    102.5918
  2790.5000     12.6112   -145.6073     13.0102    103.6606
  2790.7500     12.5076   -144.4955     12.7398    105.5276
  2791.0000     12.4934   -143.1498     12.4678    108.8196
  2791.2500     12.5259   -141.6471     12.2083    110.7559
  2791.5000     12.5359   -140.0897     11.9674    112.7478
  2791.7500     12.4656   -138.5971     11.7468    113.4080
  2792.0000     12.2973   -137.2887     11.5489    113.4610
  2792.2500     12.0554   -136.2581     11.3805    112.8327
  2792.5000     11.7893   -135.5483     11.2533    110.6824
  2792.7500     11.5518   -135.1395     11.1818    108.4502
  2793.0000     11.3851   -134.9574     11.1787    104.4396
  2793.2500     11.3174   -134.8990     11.2501    101.7388
  2793.5000     11.3623   -134.8642     11.3922     97.8443
  2793.7500     11.5191   -134.7794     11.5921     95.2219
  2794.0000     11.7729   -134.6068     11.8334     91.5784
  2794.2500     12.1015   -134.3416     12.1027     90.1262
  2794.5000     12.4871   -134.0077     12.3940     90.8446
  2794.7500     12.9205   -133.6545     12.7057     93.3531
  2795.0000     13.3923   -133.3545     13.0364     98.5767
  2795.2500     13.8802   -133.1952     13.3825    101.5850
  2795.5000     14.3565   -133.2612     13.7406    103.6060
  2795.7500     14.8116   -133.6127     14.1103    103.1830
  2796.0000     15.2697   -134.2677     14.4943    100.8250
  2796.2500     15.7695   -135.1964     14.8959     98.5904
  2796.5000     16.3286   -136.3287     15.3142     94.2578
  2796.7500     16.9305   -137.5725     15.7421     90.5485
  2797.0000     17.5489   -138.8335     16.1690     84.1531
  2797.2500     18.1733   -140.0337     16.5908     80.0677
  2797.5000     18.8037   -141.1217     17.0209     75.4382
  2797.7500     19.4278   -142.0747     17.4902     73.5186
  2798.0000     20.0159   -142.8936     18.0290     71.7858
  2798.2500     20.5385   -143.5931     18.6402     71.0589
  2798.5000     20.9837   -144.1939     19.2853     70.5321
  2798.7500     21.3586   -144.7174     19.8967     70.4381
  2799.0000     21.6758   -145.1849     20.4116     69.9142
  2799.2500     21.9428   -145.6182     20.8018     68.9230
  2799.5000     22.1627   -146.0404     21.0769     66.7598
  2799.7500     22.3416   -146.4773     21.2680     65.4608
  2800.0000     22.4937   -146.9579     21.4097     64.5449
  2800.2500     22.6378   -147.5157     21.5335     64.6452
  2800.5000     22.7898   -148.1861     21.6674     65.2536
  2800.7500     22.9563   -149.0015     21.8308     65.6131
  2801.0000     23.1337   -149.9822     22.0260     66.0903
  2801.2500     23.3153   -151.1257     22.2327     66.6612
  2801.5000     23.4961   -152.4008     22.4209     68.0983
  2801.7500     23.6702   -153.7491     22.5764     69.1010
  2802.0000     23.8293   -155.0965     22.7161     69.6907
  2802.2500     23.9679   -156.3730     22.8749     69.1214
  2802.5000     24.0902   -157.5325     23.0733     66.9507
  2802.7500     24.2075   -158.5651     23.2949     65.0811
  2803.0000     24.3332   -159.4967     23.4947     62.8356
  2803.2500     24.4804   -160.3774     23.6280     62.3263
  2803.5000     24.6569   -161.2632     23.6769     63.1853
  2803.7500     24.8566   -162.1989     23.6534     64.2917
  2804.0000     25.0588   -163.2066     23.5870     65.4167
  2804.2500     25.2382   -164.2818     23.5089     65.2714
  2804.5000     25.3749   -165.3961     23.4435     63.6160
  2804.7500     25.4623   -166.5050     23.4048     61.9360
  2805.0000     25.5121   -167.5600     23.4002     59.4723
  2805.2500     25.5530   -168.5212     23.4368     58.2659
  2805.5000     25.6209   -169.3674     23.5218     57.4478
  2805.7500     25.7436   -170.0995     23.6575     57.6755
  2806.0000     25.9291   -170.7364     23.8393     59.2171
  2806.2500     26.1644   -171.3046     24.0592     60.8028
