~Version Information
VERS.                      2.0: CWLS Log ASCII Standard - VERSION 2.0
WRAP.                       NO: One line per depth step
~Well Information Block
STRT.FT               -11.0000: 
STOP.FT              2634.5000: 
STEP.FT                 0.2500: 
NULL.                -999.2500: 
COMP.          Evergreen Operating Corporation: COMPANY
WELL.          Sand PebbleS 13-33: WELL
FLD.           Purgatorie River: FIELD
LOC.           1883' FSL & 63' FWL--: LOCATION
PROV.                 Colorado: PROVINCE
CNTY.               Las Animas: COUNTRY
SRVC.          Patterson Wireline: SERVICE COMPANY
DATE.          Fri Mar 18 09:37:20 2005: LOG DATE
UWI.          005 071 08224 : UNIQUE WELL ID
~Curve Information Block
DEPT.FT            0 000 00 00: Depth
CCL.                          : Casing Collar Locator
TT3.usec                      : CBL 3' Travel Time
AMP3.mV                       : CBL 3' Amplitude
GR.GAPI                       : Gamma Ray
~Parameter Information Block
~A  Depth       CCL         TT3         AMP3         GR     
# ...
  2066.0000      0.0000    618.5422      4.8346     61.0818
  2066.2500      0.0000    609.6619      4.8521     67.3235
  2066.5000      0.0000    614.8206      4.9090     75.7349
  2066.7500      0.0000    627.3510      4.9680     87.5395
  2067.0000      0.0000    635.2648      5.0022    102.5458
  2067.2500      0.0000    631.9640      5.0092    118.7336
  2067.5000      0.0000    620.6116      5.0092    133.3063
  2067.7500      0.0000    608.0073      5.0315    144.3425
  2068.0000      0.0000    596.7758      5.1047    151.3645
  2068.2500      0.0000    585.3287      5.2415    154.7075
  2068.5000      0.0000    573.1119      5.4098    155.2952
  2068.7500      0.0000    562.6049      5.5314    155.0754
  2069.0000      0.0000    556.4943      5.5384    156.5870
  2069.2500      0.0000    555.0983      5.4352    161.4597
  2069.5000      0.0000    556.7355      5.2931    169.4720
  2069.7500      0.0000    559.3848      5.1820    178.9211
  2070.0000      0.0000    561.8295      5.1180    187.3579
  2070.2500      0.0000    564.2001      5.0796    192.2276
  2070.5000      0.0000    568.1872      5.0622    191.9949
  2070.7500      0.0000    576.4766      5.0969    187.3365
  2071.0000      0.0000    591.3124      5.2110    181.0253
  2071.2500      0.0000    613.0981      5.3892    176.3510
  2071.5000      0.0000    639.8754      5.5852    175.3643
  2071.7500      0.0000    667.7155      5.7609    177.9754
  2072.0000      0.0000    691.8578      5.9001    182.2148
  2072.2500      0.0000    708.3416      6.0010    185.3787
  2072.5000      0.0000    714.9572      6.0703    185.4067
  2072.7500      0.0000    710.9265      6.1183    181.8007
  2073.0000      0.0000    696.4158      6.1528    175.6814
  2073.2500      0.0000    672.8972      6.1750    169.1379
  2073.5000      0.0000    643.7557      6.1810    164.2846
  2073.7500      0.0000    613.7215      6.1573    162.3096
  2074.0000      0.0000    587.0012      6.0864    162.8845
  2074.2500      0.0000    565.8055      5.9718    164.6355
  2074.5000      0.0000    550.3870      5.8539    166.4696
  2074.7500      0.0000    539.7757      5.7833    168.1135
  2075.0000      0.0000    532.4318      5.7757    169.1490
  2075.2500      0.0000    526.8041      5.7932    168.3349
  2075.5000      0.0000    521.7817      5.7667    164.5727
  2075.7500      0.0000    516.9121      5.6498    158.2249
  2076.0000      0.0000    512.3940      5.4702    151.1567
  2076.2500      0.0000    509.0188      5.3241    145.7047
  2076.5000      0.0000    508.0286      5.3019    143.4748
  2076.7500      0.0000    510.8086      5.4194    144.2638
  2077.0000      0.0000    518.4219      5.6287    145.6942
  2077.2500      0.0000    531.2329      5.8771    144.5336
  2077.5000      0.0000    548.5503      6.1461    139.2732
  2077.7500      0.0000    568.0713      6.4414    131.5119
  2078.0000      0.0000    586.0002      6.7532    124.4357
  2078.2500      0.0000    599.1079      7.0335    119.8510
  2078.5000      0.0000    607.4323      7.2264    116.9812
  2078.7500      0.0000    614.3006      7.3281    114.0134
  2079.0000      0.0000    623.1193      7.4062    110.0200
  2079.2500      0.0000    633.9916      7.5367    105.1341
  2079.5000      0.0000    643.2476      7.7169     99.7012
  2079.7500      0.0000    646.4099      7.8542     94.0244
  2080.0000      0.0000    642.3918      7.8582     88.7150
  2080.2500      0.0000    635.1402      7.7328     84.7524
  2080.5000      0.0000    630.3632      7.5680     83.1592
  2080.7500      0.0000    630.2905      7.4462     84.7677
  2081.0000      0.0000    632.6816      7.3709     90.1840
  2081.2500      0.0000    635.2837      7.2740     99.6272
  2081.5000      0.0000    639.3961      7.0649    112.6214
  2081.7500      0.0000    647.9341      6.6761    127.8839
  2082.0000      0.0000    660.8613      6.1108    143.5521
  2082.2500      0.0000    673.5684      5.4875    157.1828
  2082.5000      0.0000    679.8811      5.0116    165.7342
  2082.7500      0.0000    676.8237      4.8496    166.8582
  2083.0000      0.0000    666.2040      5.0085    160.9850
  2083.2500      0.0000    651.0698      5.3450    151.3970
  2083.5000      0.0000    631.6921      5.6817    141.5969
  2083.7500      0.0000    606.4174      5.9133    133.4007
  2084.0000     -2.0000    575.9846      6.0352    128.1713
  2084.2500      0.0000    546.8019      6.1041    128.3128
  2084.5000      0.0000    530.4214      6.1936    135.6449
  2084.7500      0.0000    537.3469      6.3892    148.6409
  2085.0000      0.0000    567.8549      6.7796    162.6905
  2085.2500      0.0000    608.8271      7.3757    173.2311
  2085.5000      0.0000    641.0612      8.0333    178.1691
  2085.7500      0.0000    650.6144      8.5271    177.7599
  2086.0000      0.0000    635.5573      8.7252    173.3107
  2086.2500      0.0000    605.2947      8.6629    166.4634
  2086.5000      0.0000    573.8610      8.4590    159.0217
  2086.7500      0.0000    551.7172      8.2044    152.3519
  2087.0000      0.0000    541.6222      7.9246    146.6242
  2087.2500      0.0000    540.0931      7.6133    141.2542
  2087.5000      0.0000    541.3554      7.2892    136.3371
  2087.7500      0.0000    540.9156      7.0130    133.1409
  2088.0000      0.0000    537.4862      6.8407    132.9691
  2088.2500      0.0000    532.5719      6.7695    136.0002
  2088.5000      0.0000    528.3869      6.7481    141.2508
  2088.7500      0.0000    526.2390      6.7320    146.9756
  2089.0000      0.0000    526.4656      6.6975    151.2312
  2089.2500      0.0000    528.9717      6.6089    152.9816
  2089.5000      0.0000    533.3527      6.4230    152.8879
  2089.7500      0.0000    538.7389      6.1449    152.4751
  2090.0000      0.0000    543.7727      5.8427    152.5584
  2090.2500      0.0000    546.7072      5.5889    152.9613
  2090.5000      0.0000    545.8905      5.4004    153.4242
  2090.7500      0.0000    540.8894      5.2427    153.9826
  2091.0000      0.0000    533.2681      5.0803    154.4774
  2091.2500      0.0000    525.7687      4.9262    154.3973
  2091.5000      0.0000    520.5037      4.8411    153.5542
  2091.7500      0.0000    517.9954      4.8712    152.7718
  2092.0000      0.0000    517.6409      4.9949    153.6246
  2092.2500      0.0000    518.6118      5.1488    157.1751
  2092.5000      0.0000    520.2778      5.2896    162.5544
  2092.7500      0.0000    522.1822      5.3994    166.9257
  2093.0000      0.0000    523.9438      5.4466    167.6005
  2093.2500      0.0000    525.2781      5.3875    164.5924
  2093.5000      0.0000    526.0568      5.2216    160.5478
  2093.7500      0.0000    526.3416      5.0218    157.6577
  2094.0000      0.0000    526.3789      4.8945    155.2044
  2094.2500      0.0000    526.5659      4.9026    150.9854
  2094.5000      0.0000    527.2730      5.0209    144.8009
  2094.7500      0.0000    528.4356      5.1530    139.3935
  2095.0000      0.0000    529.2185      5.1944    137.7282
  2095.2500      0.0000    528.3865      5.0965    140.0962
  2095.5000      0.0000    525.3829      4.8954    144.1318
  2095.7500      0.0000    521.0280      4.6950    146.9893
  2096.0000      0.0000    517.1727      4.6099    147.1608
  2096.2500      0.0000    515.9408      4.6919    144.8474
  2096.5000      0.0000    519.2568      4.8926    141.0590
  2096.7500      0.0000    528.2854      5.1013    135.9395
  2097.0000      0.0000    542.6204      5.2290    127.8898
  2097.2500      0.0000    560.1561      5.2555    115.1388
  2097.5000      0.0000    578.2772      5.2043     98.2530
  2097.7500      0.0000    595.2332      5.0956     80.5504
  2098.0000      0.0000    610.0819      4.9327     66.2013
  2098.2500      0.0000    621.7171      4.7221     58.0951
  2098.5000      0.0000    628.5168      4.4982     56.6763
  2098.7500      0.0000    628.6566      4.3286     59.8282
  2099.0000      0.0000    620.6457      4.2797     63.9316
  2099.2500      0.0000    604.6942      4.3662     65.8631
