~Version Information
VERS.                      2.0: CWLS Log ASCII Standard - VERSION 2.0
WRAP.                       NO: One line per depth step
~Well Information Block
STRT.FT               240.0000: 
STOP.FT              1453.0000: 
STEP.FT                 0.2500: 
NULL.                -999.2500: 
COMP.          Petrogulf Corporation: COMPANY
WELL.          Robinson 15-12R: WELL
FLD.           Purgatorie River: FIELD
LOC.           1752' FNL & 561' FWL: LOCATION
PROV.                 Colorado: PROVINCE
CNTY.               Las Animas: COUNTRY
SRVC.                Patterson: SERVICE COMPANY
DATE.          Tue Sep 13 15:11:42 2005: LOG DATE
UWI.                          : UNIQUE WELL ID
~Curve Information Block
DEPT.FT            0 000 00 00: Depth
SP.mV                         : DIL Spontaneous Potential
RILD.Ohm-m                    : DIL Deep Resistivity
RILM.Ohm-m                    : DIL Medium Resistivity
RLL3.Ohm-m                    : DIL Shallow Resistivity
GR.GAPI                       : Gamma Ray
~Parameter Information Block
~A  Depth        SP         RILD        RILM        RLL3         GR     
# ...
   856.0000    174.3224     11.5081     12.2521     14.1846    126.3802
   856.2500    174.3045     11.0648     12.1543     13.4915    136.4939
   856.5000    174.3050     11.1977     11.6982     12.6495    131.7316
   856.7500    174.5301     11.0076     11.5627     12.2034    154.6803
   857.0000    174.5928     10.9902     11.3567     11.9988    143.6549
   857.2500    174.5264     10.9248     11.1605     12.1330    144.0426
   857.5000    174.5660     10.8001     11.1171     12.2702    151.8441
   857.7500    174.5630     10.7505     11.0577     12.3520    147.2338
   858.0000    174.4647     10.7664     10.8178     12.3305    148.4443
   858.2500    174.2704     10.7600     10.6917     12.2982    131.2141
   858.5000    174.3689     10.5305     10.7260     11.7864    111.0014
   858.7500    174.8299     10.3436     10.6501     11.4267    136.4479
   859.0000    175.3844     10.5480     10.7741     11.9973    156.0727
   859.2500    175.7759     10.7177     10.8589     13.2886    153.2263
   859.5000    176.0867     10.7804     10.8927     14.1799    129.0139
   859.7500    176.7397     10.5980     11.0222     13.5324    151.0677
   860.0000    177.3496     10.6829     11.4765     12.7053    149.5009
   860.2500    177.4070     10.7012     11.3742     13.5537    127.2199
   860.5000    177.1855     10.8604     11.5255     16.2426    146.1568
   860.7500    177.1552     10.8334     11.3548     18.6575    136.6630
   861.0000    177.6097     10.9297     11.1373     17.8857    136.6933
   861.2500    177.9380     11.0261     11.0879     14.6519    134.2053
   861.5000    177.5165     11.2804     11.0470     11.9924    171.4819
   861.7500    177.2996     11.4356     10.8509     11.1232    151.2624
   862.0000    177.7017     11.6233     10.9763     11.1684    153.8107
   862.2500    178.6033     11.4920     11.5947     11.9003    156.0806
   862.5000    179.3658     11.3379     12.0732     13.0208    123.6388
   862.7500    180.0628     10.9348     12.6005     17.8794    122.8226
   863.0000    181.2658     10.4652     12.8341     30.4878    116.5814
   863.2500    183.0935     10.4164     12.5558     42.6399    110.6984
   863.5000    185.1140     10.2916     11.9639     34.0791    114.2359
   863.7500    186.7047     10.1406     11.0689     20.2156    121.3032
   864.0000    188.1452     10.3367     10.2786     13.8144    167.6150
   864.2500    189.3108     10.6288      9.7413     11.5107    163.5129
   864.5000    190.1841     11.0394      9.5913     11.0447    177.1005
   864.7500    190.6535     11.3111      9.8305     10.8549    157.0395
   865.0000    190.7142     11.9185     10.2652     11.1796    169.2769
   865.2500    190.8284     12.2732     10.7901     12.9114    161.7026
   865.5000    191.2172     12.7457     11.4954     14.7360    151.2191
   865.7500    191.8310     12.5455     12.5767     16.9025    131.1950
   866.0000    192.4034     12.7710     13.6565     26.2047    106.2449
   866.2500    192.9315     12.8686     15.0798     50.0463     89.9994
   866.5000    193.3867     13.3948     16.5065     95.2954     88.1595
   866.7500    193.7022     13.7048     18.1963    120.8089     83.3644
   867.0000    194.0416     13.6158     18.7301     85.7018     82.8470
   867.2500    194.4966     14.3245     19.2640     60.6063     95.9123
   867.5000    195.0981     14.9571     20.1548     66.5874    114.3406
   867.7500    196.1747     15.5490     18.8696     69.2791    107.7131
   868.0000    197.7717     17.3724     18.3351     38.6858    115.4413
   868.2500    199.0669     18.9617     17.6386     21.8589    114.8026
   868.5000    199.6280     19.8330     18.2713     17.6908    117.8084
   868.7500    200.2234     20.4411     17.9153     18.6788    124.6672
   869.0000    200.9502     22.0172     19.2843     20.5841    106.8674
   869.2500    201.6626     22.9964     20.4266     24.2837     84.8446
   869.5000    202.0352     21.8567     22.9926     36.8436     74.0013
   869.7500    201.8815     23.0893     26.4487     68.0467     57.7305
   870.0000    201.7017     23.2706     30.8774    129.1036     30.3586
   870.2500    201.4393     22.8454     35.7542    214.8212     31.7018
   870.5000    201.4146     22.5063     42.2630    318.5576     29.7826
   870.7500    201.5630     22.7885     54.4888    435.0647     26.9916
   871.0000    201.8785     23.1758     58.4539    492.1600     22.7430
   871.2500    202.3203     23.1643     54.8248    470.0125     21.1109
   871.5000    202.8495     21.9669     51.6270    386.0792     24.4684
   871.7500    203.5244     20.3808     43.2197    295.3972     12.4938
   872.0000    204.0028     19.1688     39.6811    233.2090     22.8100
   872.2500    204.7288     18.3268     34.0419    183.9643     41.1631
   872.5000    205.8148     16.9226     29.7476    126.2822     51.9735
   872.7500    207.0027     16.2920     23.4200     67.2437     65.6167
   873.0000    208.3737     15.2014     19.0839     26.9191     95.4467
   873.2500    209.5060     13.8774     16.2383     13.9587    117.3603
   873.5000    210.6230     13.3660     13.3709     10.2053    144.9288
   873.7500    211.5179     12.3366     12.2404      9.5524    136.0184
   874.0000    211.8158     11.4104     11.4695      9.8195    139.8823
   874.2500    211.5448     10.6410     11.0631     10.9233    151.0980
   874.5000    211.0438     10.0437     10.5027     11.9056    126.9222
   874.7500    210.6293      9.6775      9.9393     12.4496    110.7105
   875.0000    210.2266      9.3114      9.3941     12.3588    140.1822
   875.2500    209.6781      8.8179      8.8933     10.8541    139.7507
   875.5000    209.3562      8.6612      8.5979      9.5714    132.2666
   875.7500    209.2545      8.7222      8.3014      9.1166    124.5331
   876.0000    209.3899      8.6793      8.1251      9.7480    139.9216
   876.2500    209.0529      8.8694      8.1688     10.4293    152.0395
   876.5000    208.3926      8.8524      8.3167     10.9543    137.8414
   876.7500    207.7917      8.9892      8.4788     11.1961    125.1570
   877.0000    207.9086      9.0954      8.8300     11.5869    136.8911
   877.2500    208.2165      9.0615      8.9374     12.3258    143.2250
   877.5000    208.2339      9.0049      9.2457     13.0861    135.3947
   877.7500    208.4844      9.3322      9.5930     13.4049    153.1451
   878.0000    208.4575      9.5714     10.0618     13.6106    152.7480
   878.2500    207.9937      9.7282     10.2547     14.1390    139.7884
   878.5000    207.4168      9.7026     10.5421     14.2403    141.5930
   878.7500    206.6640     10.0819     10.9111     13.9720    156.5946
   879.0000    205.8787     10.3921     11.4894     14.0344    147.9965
   879.2500    204.9040     10.4265     11.8717     14.3186    153.2051
   879.5000    203.7769     10.6811     12.0397     14.7850    148.3759
   879.7500    202.6897     10.9670     12.5496     14.9529    135.9865
   880.0000    201.6127     11.0289     12.9868     15.5859    123.4445
   880.2500    200.5006     10.9146     13.6540     16.3760    137.7606
   880.5000    199.3689     11.0396     13.6080     17.2319    145.7455
   880.7500    198.0922     10.8093     13.3978     19.5808    142.7094
   881.0000    196.5614     10.3853     13.2172     22.2540    124.5179
   881.2500    195.2406     10.4170     12.7657     21.4747    130.6409
   881.5000    193.8730     10.2228     11.8355     16.7294    140.1373
   881.7500    192.2103     10.1072     11.1452     12.8607    143.0502
   882.0000    190.7954      9.8172     10.5410     11.1836    144.7699
   882.2500    189.3280      9.5575     10.1581     10.5101    137.9045
   882.5000    187.7119      9.4495      9.8941     10.2497    147.6682
   882.7500    186.2234      9.1402      9.5612     11.4293    156.4080
   883.0000    184.8265      9.1528      9.3474     13.6551    128.8607
   883.2500    183.7449      9.1246      9.0309     13.4263    125.6208
   883.5000    183.0263      9.1332      8.6382     10.7915    145.1642
   883.7500    182.3811      9.1336      8.4746      9.5141    158.4508
