~Version Information
VERS.                      2.0: CWLS Log ASCII Standard - VERSION 2.0
WRAP.                       NO: One line per depth step
~Well Information Block
STRT.FT               440.0000: 
STOP.FT              2735.2000: 
STEP.FT                 0.1000: 
NULL.                -999.2500: 
COMP.          Pioneer Natural Resources: COMPANY
WELL.              Cluck 21-25: WELL
FLD.           Purgatoire River: FIELD
LOC.           91' FNL & 1834' FWL--: LOCATION
PROV.                 Colorado: PROVINCE
CNTY.               Las Animas: COUNTRY
SRVC.                Patterson: SERVICE COMPANY
DATE.          Tue Jun 07 07:26:19 2005: LOG DATE
UWI.           05 071 08397 00: UNIQUE WELL ID
~Curve Information Block
DEPT.FT            0 000 00 00: Depth
DCAL.in                       : CDL Caliper
RHOB.g/cc                     : CDL Bulk Density
RHOC.g/cc                     : CDL Density Correction
DPOR.pu                       : CDL Density Porosity
NPOR.pu                       : Neutron Porosity
GR.GAPI                       : Gamma Ray
~Parameter Information Block
SNDERRM.mmho-m          0.0000: Medium Sonde Error Correction
~A  Depth       DCAL        RHOB        RHOC        DPOR        NPOR         GR     
# ...
  1342.4000      8.1458      2.5574      0.0922      5.6092     28.0576    112.4642
  1342.5000      8.1451      2.5346      0.0808      6.9952     27.4893    114.9591
  1342.6000      8.1451      2.4932      0.0257      9.5056     27.5831    119.9893
  1342.7000      8.1451      2.4485      0.0000     12.2147     28.0496    124.6618
  1342.8000      8.1437      2.4147     -0.0063     14.2634     28.1978    127.4372
  1342.9000      8.1437      2.4055     -0.0039     14.8203     27.8050    129.7265
  1343.0000      8.1423      2.4251     -0.0120     13.6306     27.2772    131.7025
  1343.1000      8.1423      2.4540      0.0738     11.8783     27.1650    131.6044
  1343.2000      8.1423      2.4668      0.0432     11.1036     27.5381    130.2677
  1343.3000      8.1368      2.4631      0.0617     11.3283     28.0182    130.6114
  1343.4000      8.1368      2.4583      0.0194     11.6158     28.0392    133.3799
  1343.5000      8.1219      2.4665      0.0556     11.1196     27.8000    137.7029
  1343.6000      8.1219      2.4894      0.0318      9.7339     27.9632    142.3719
  1343.7000      8.1219      2.5127      0.0561      8.3216     28.3708    142.8786
  1343.8000      8.1020      2.5185      0.0397      7.9711     28.5183    138.1410
  1343.9000      8.1020      2.5010      0.0419      9.0332     28.2826    134.5161
  1344.0000      8.0915      2.4703      0.0030     10.8910     27.8425    134.7240
  1344.1000      8.0915      2.4443      0.0090     12.4639     27.1714    134.6423
  1344.2000      8.0915      2.4300      0.0582     13.3363     26.3890    133.9277
  1344.3000      8.0891      2.4222     -0.0023     13.8089     26.0113    134.7178
  1344.4000      8.0891      2.4266     -0.0060     13.5420     25.9467    133.2359
  1344.5000      8.0815      2.4507      0.0265     12.0793     25.9776    128.7915
  1344.6000      8.0815      2.4822      0.0579     10.1723     26.4730    127.0860
  1344.7000      8.0815      2.5045      0.0690      8.8163     27.0329    127.9813
  1344.8000      8.0613      2.5204      0.0453      7.8520     26.7215    126.4969
  1344.9000      8.0613      2.5495      0.0572      6.0917     25.8968    121.6161
  1345.0000      8.0352      2.6052      0.0781      2.7179     25.7385    115.6822
  1345.1000      8.0352      2.6616      0.1914     -0.7033     26.2654    113.2703
  1345.2000      8.0352      2.6787      0.1160     -1.7395     26.3412    114.3858
  1345.3000      8.0162      2.6670      0.0365     -1.0324     25.9295    113.9590
  1345.4000      8.0162      2.6648      0.0725     -0.8956     25.8544    108.7015
  1345.5000      8.0083      2.6756      0.0841     -1.5505     26.1208    101.3379
  1345.6000      8.0083      2.6826      0.0462     -1.9733     26.3923     97.4699
  1345.7000      8.0083      2.6840      0.0399     -2.0614     26.6750     96.7720
  1345.8000      8.0116      2.6878      0.0469     -2.2884     26.9862     96.3717
  1345.9000      8.0116      2.6953      0.0322     -2.7456     26.7277     97.3599
  1346.0000      8.0306      2.6971      0.0544     -2.8545     25.7122    101.5245
  1346.1000      8.0306      2.6891      0.0090     -2.3668     25.1825    104.7019
  1346.2000      8.0306      2.6853      0.0289     -2.1390     25.9489    105.4173
  1346.3000      8.0614      2.6891      0.0476     -2.3715     26.8741    107.7329
  1346.4000      8.0614      2.6823      0.0680     -1.9568     26.8452    108.4001
  1346.5000      8.0916      2.6554      0.0661     -0.3272     26.3449    106.0695
  1346.6000      8.0916      2.6274      0.0174      1.3669     26.0336    108.1455
  1346.7000      8.0916      2.6220      0.0276      1.6978     25.8636    115.2935
  1346.8000      8.1161      2.6327      0.0555      1.0508     25.7920    118.7572
  1346.9000      8.1161      2.6301      0.1104      1.2088     26.0663    114.5664
  1347.0000      8.1334      2.6007      0.0565      2.9876     26.6908    109.1817
  1347.1000      8.1334      2.5619      0.0394      5.3367     27.2507    108.2076
  1347.2000      8.1334      2.5314      0.0211      7.1867     27.5488    110.6452
  1347.3000      8.1431      2.5153      0.0026      8.1621     27.9299    113.9064
  1347.4000      8.1431      2.5139      0.0191      8.2511     28.2332    114.0614
  1347.5000      8.1513      2.5176      0.0503      8.0232     28.4244    108.3269
  1347.6000      8.1513      2.5183      0.0386      7.9792     28.9765    102.6943
  1347.7000      8.1513      2.5149      0.0628      8.1861     29.7346    104.8915
  1347.8000      8.1624      2.5051      0.0507      8.7799     30.4692    111.5069
  1347.9000      8.1624      2.4851      0.0321      9.9955     31.0972    116.1247
  1348.0000      8.1718      2.4511      0.0443     12.0525     31.3199    118.0158
  1348.1000      8.1718      2.4062      0.0254     14.7749     31.2476    116.0910
  1348.2000      8.1718      2.3641     -0.0298     17.3289     31.1006    111.2519
  1348.3000      8.1798      2.3301     -0.0018     19.3873     30.9837    108.8421
  1348.4000      8.1798      2.2964     -0.0182     21.4330     31.1057    109.3314
  1348.5000      8.1850      2.2635     -0.0114     23.4231     31.4756    108.7410
  1348.6000      8.1850      2.2345     -0.0246     25.1808     31.9910    107.0516
  1348.7000      8.1850      2.1914      0.0267     27.7965     32.5215    107.4520
  1348.8000      8.1868      2.1123      0.0235     32.5880     32.8112    111.4332
  1348.9000      8.1868      2.0090     -0.0204     38.8483     32.8759    113.3972
  1349.0000      8.1866      1.9096     -0.0349     44.8716     32.7727    105.9211
  1349.1000      8.1866      1.8268     -0.0464     49.8902     32.6459     94.4159
  1349.2000      8.1866      1.7638     -0.0560     53.7101     32.7348     89.6149
  1349.3000      8.1821      1.7166     -0.0436     56.5683     32.9251     90.4954
  1349.4000      8.1821      1.6677     -0.0088     59.5332     33.2518     89.9681
  1349.5000      8.1760      1.6093     -0.0479     63.0698     33.7016     86.6096
  1349.6000      8.1760      1.5672     -0.0545     65.6215     33.7953     83.2607
  1349.7000      8.1760      1.5722      0.0053     65.3210     33.3370     79.6201
  1349.8000      8.1765      1.6297      0.0831     61.8338     32.8491     75.7654
  1349.9000      8.1765      1.7223      0.1329     56.2244     32.7923     75.3631
  1350.0000      8.1878      1.8214      0.1687     50.2196     32.9310     80.8133
  1350.1000      8.1878      1.9134      0.1539     44.6399     32.9533     89.9257
  1350.2000      8.1878      2.0080      0.2039     38.9089     32.8368     97.1381
  1350.3000      8.2069      2.1074      0.2282     32.8844     32.3777     99.9466
  1350.4000      8.2069      2.1989      0.2588     27.3400     31.8380     97.7473
  1350.5000      8.2234      2.2819      0.2554     22.3082     31.9127     93.9420
  1350.6000      8.2234      2.3703      0.2271     16.9523     32.3718     95.5285
  1350.7000      8.2234      2.4542      0.2621     11.8639     32.5432    103.2510
  1350.8000      8.2305      2.5011      0.2252      9.0228     32.3284    111.8831
  1350.9000      8.2305      2.5044      0.0875      8.8254     32.0788    116.8497
  1351.0000      8.2286      2.4782      0.0839     10.4132     32.1916    115.8925
  1351.1000      8.2286      2.4227      0.0593     13.7771     32.6997    110.7635
  1351.2000      8.2286      2.3346      0.0340     19.1175     33.1836    106.5151
  1351.3000      8.2232      2.2239     -0.0226     25.8231     33.2280    105.4956
  1351.4000      8.2232      2.1143     -0.0763     32.4654     32.9422    105.0918
  1351.5000      8.2195      2.0209     -0.0691     38.1268     32.9819    103.1192
  1351.6000      8.2195      1.9314     -0.0855     43.5486     33.4608     99.8169
  1351.7000      8.2195      1.8307     -0.1050     49.6544     34.0352     94.0901
  1351.8000      8.2168      1.7289     -0.1233     55.8227     34.5354     86.0390
  1351.9000      8.2168      1.6435     -0.1208     60.9987     34.7389     79.6857
