~Version Information
VERS.                      2.0: CWLS Log ASCII Standard - VERSION 2.0
WRAP.                       NO: One line per depth step
~Well Information Block
STRT.FT               360.0000: 
STOP.FT              2515.2000: 
STEP.FT                 0.1000: 
NULL.                -999.2500: 
COMP.          Pioneer Natural Resources: COMPANY
WELL.            Rancher 12-35: WELL
FLD.           Purgatoire River: FIELD
LOC.           2131' FNL & 297' FWL: LOCATION
PROV.                 Colorado: PROVINCE
CNTY.               Las Animas: COUNTRY
SRVC.                Patterson: SERVICE COMPANY
DATE.          Tue Oct 12 09:11:02 2004: LOG DATE
UWI.           05 071 08179 00: UNIQUE WELL ID
~Curve Information Block
DEPT.FT            0 000 00 00: Depth
DCAL.in                       : CDL Caliper
RHOB.g/cc                     : CDL Bulk Density
RHOC.g/cc                     : CDL Density Correction
DPOR.pu                       : CDL Density Porosity
NPOR.pu                       : Neutron Porosity
GR.GAPI                       : Gamma Ray
~Parameter Information Block
~A  Depth       DCAL        RHOB        RHOC        DPOR        NPOR         GR     
# ...
  2059.2000      8.1118      2.5622      0.0329      5.3209     14.9639     62.1890
  2059.3000      8.1085      2.5462      0.0318      6.2924     16.0578     64.9674
  2059.4000      8.1085      2.5366      0.0481      6.8698     17.3502     65.1401
  2059.5000      8.1052      2.5319      0.0052      7.1553     18.2611     61.5603
  2059.6000      8.1052      2.5313      0.0510      7.1951     17.8838     54.3121
  2059.7000      8.1052      2.5328      0.0269      7.1041     16.1977     48.1792
  2059.8000      8.1091      2.5377      0.0089      6.8039     14.7541     47.8101
  2059.9000      8.1091      2.5387      0.0631      6.7478     14.6343     50.7475
  2060.0000      8.1142      2.5335     -0.0134      7.0625     15.2433     50.9630
  2060.1000      8.1142      2.5360      0.0041      6.9110     16.0116     48.5474
  2060.2000      8.1142      2.5455      0.0537      6.3359     16.5329     49.0936
  2060.3000      8.1166      2.5531      0.0291      5.8757     16.2947     54.4707
  2060.4000      8.1166      2.5569      0.0426      5.6397     15.6137     59.6099
  2060.5000      8.1175      2.5547      0.0271      5.7769     15.4867     59.9136
  2060.6000      8.1175      2.5570      0.0303      5.6356     16.4638     56.4473
  2060.7000      8.1175      2.5796      0.0205      4.2652     17.9920     52.0785
  2060.8000      8.1173      2.6063      0.0814      2.6509     18.9516     48.5388
  2060.9000      8.1173      2.6117      0.0526      2.3200     19.0767     48.8836
  2061.0000      8.1152      2.6069      0.0260      2.6131     18.7590     54.6841
  2061.1000      8.1152      2.6011      0.0639      2.9663     18.2063     61.7806
  2061.2000      8.1152      2.5825      0.0360      4.0916     17.5578     63.1153
  2061.3000      8.1122      2.5623      0.0277      5.3158     17.3817     56.4555
  2061.4000      8.1122      2.5644      0.0279      5.1872     18.0287     47.1525
  2061.5000      8.1137      2.5853      0.0360      3.9217     18.2890     42.9229
  2061.6000      8.1137      2.6026      0.0459      2.8753     17.2239     46.5083
  2061.7000      8.1137      2.6037      0.0680      2.8053     16.0485     54.4492
  2061.8000      8.1153      2.5925      0.0484      3.4860     16.2683     60.9520
  2061.9000      8.1153      2.5832      0.0138      4.0465     17.4609     60.1978
  2062.0000      8.1039      2.5810      0.0344      4.1826     18.2622     53.9085
  2062.1000      8.1039      2.5753      0.0582      4.5265     18.2580     51.5233
  2062.2000      8.1039      2.5632      0.0128      5.2621     17.6920     54.0192
  2062.3000      8.0912      2.5500      0.0496      6.0589     17.3058     56.5229
  2062.4000      8.0912      2.5412      0.0088      6.5934     17.5311     59.0959
  2062.5000      8.1010      2.5431      0.0079      6.4803     17.7089     61.6213
  2062.6000      8.1010      2.5561      0.0474      5.6929     17.3182     62.5983
  2062.7000      8.1010      2.5778      0.0242      4.3785     16.7626     62.7837
  2062.8000      8.1129      2.5993      0.0799      3.0723     16.5482     61.3825
  2062.9000      8.1129      2.6024      0.0896      2.8822     16.6066     57.2691
  2063.0000      8.1144      2.5856      0.0496      3.9025     17.1787     53.3895
  2063.1000      8.1144      2.5678     -0.0127      4.9794     18.3860     51.2636
  2063.2000      8.1144      2.5600      0.0360      5.4535     19.3262     50.1465
  2063.3000      8.1125      2.5562      0.0543      5.6825     19.4530     50.5363
  2063.4000      8.1125      2.5518      0.0344      5.9522     19.4610     50.7141
  2063.5000      8.1134      2.5480      0.0529      6.1809     19.7446     49.8852
  2063.6000      8.1134      2.5459      0.0176      6.3089     19.9968     49.6908
  2063.7000      8.1134      2.5485      0.0268      6.1493     20.0402     49.7452
  2063.8000      8.1172      2.5597      0.0004      5.4754     19.4052     49.2732
  2063.9000      8.1172      2.5788      0.0336      4.3141     17.9742     49.2636
  2064.0000      8.1204      2.5934      0.0804      3.4306     16.7308     50.5375
  2064.1000      8.1204      2.5901      0.0360      3.6276     16.3712     50.8830
  2064.2000      8.1204      2.5726      0.0550      4.6926     17.0262     48.8339
  2064.3000      8.1206      2.5520      0.0071      5.9369     18.3801     46.8047
  2064.4000      8.1206      2.5434      0.0499      6.4629     19.2896     46.6175
  2064.5000      8.1185      2.5532      0.0169      5.8648     19.2399     47.8634
  2064.6000      8.1185      2.5640      0.0766      5.2132     19.1660     48.4793
  2064.7000      8.1185      2.5598      0.0277      5.4694     19.7245     49.6851
  2064.8000      8.1174      2.5581      0.0266      5.5714     20.5659     54.7037
  2064.9000      8.1174      2.5688      0.0907      4.9234     20.9663     60.1530
  2065.0000      8.1169      2.5731      0.0513      4.6611     20.6225     60.3159
  2065.1000      8.1169      2.5639      0.0127      5.2196     20.3911     54.9370
  2065.2000      8.1169      2.5497      0.0591      6.0808     20.8385     50.7087
  2065.3000      8.1177      2.5370      0.0540      6.8501     21.0619     53.9896
  2065.4000      8.1177      2.5284      0.0456      7.3673     20.6400     61.4024
  2065.5000      8.1175      2.5224      0.0136      7.7335     20.3151     64.5709
  2065.6000      8.1175      2.5155      0.0280      8.1516     20.2771     61.7402
  2065.7000      8.1175      2.5091      0.0378      8.5416     19.7957     56.5431
  2065.8000      8.1163      2.5016      0.0455      8.9959     18.7085     52.6307
  2065.9000      8.1163      2.4890      0.0154      9.7595     17.6742     52.0562
  2066.0000      8.1168      2.4836     -0.0015     10.0837     17.1980     55.4574
  2066.1000      8.1168      2.4994      0.0126      9.1296     17.3101     61.1641
  2066.2000      8.1168      2.5246      0.0736      7.5992     18.0304     64.2621
  2066.3000      8.1198      2.5428      0.0616      6.4942     19.1700     61.7994
  2066.4000      8.1198      2.5531      0.0801      5.8739     19.8554     56.5745
  2066.5000      8.1292      2.5565      0.0366      5.6681     19.4275     53.0643
  2066.6000      8.1292      2.5485      0.0462      6.1532     18.3343     54.9470
  2066.7000      8.1292      2.5290      0.0330      7.3323     17.8837     60.1018
  2066.8000      8.1469      2.5138      0.0026      8.2545     18.5640     61.5053
  2066.9000      8.1469      2.5139      0.0127      8.2480     19.3062     58.5234
  2067.0000      8.1619      2.5227      0.0402      7.7135     19.5505     54.7964
  2067.1000      8.1619      2.5349     -0.0118      6.9777     19.6776     52.8649
  2067.2000      8.1619      2.5481      0.0434      6.1738     19.9264     54.8183
  2067.3000      8.1706      2.5513      0.0833      5.9828     20.4708     56.7552
  2067.4000      8.1706      2.5407      0.0176      6.6239     21.2353     54.9834
  2067.5000      8.1756      2.5287      0.0315      7.3501     21.6343     54.8319
  2067.6000      8.1756      2.5222      0.0156      7.7479     21.0643     58.8002
  2067.7000      8.1756      2.5209      0.0280      7.8247     19.7513     61.7107
  2067.8000      8.1769      2.5243      0.0086      7.6173     18.7093     62.8212
  2067.9000      8.1769      2.5329      0.0417      7.0941     18.2392     63.8596
  2068.0000      8.1768      2.5445      0.0649      6.3964     17.9349     62.7374
  2068.1000      8.1768      2.5502      0.0537      6.0478     17.8698     59.4065
  2068.2000      8.1768      2.5494      0.0349      6.0978     18.2424     57.5534
  2068.3000      8.1779      2.5523      0.0275      5.9231     18.5053     58.5090
  2068.4000      8.1779      2.5657      0.0613      5.1064     18.1701     59.8681
  2068.5000      8.1807      2.5828      0.0568      4.0732     17.5462     57.9008
  2068.6000      8.1807      2.5877      0.0584      3.7758     17.0026     52.5254
  2068.7000      8.1807      2.5762      0.0683      4.4724     16.7408     48.6532
