~Version Information
 VERS.                                  2.0 : CWLS LAS VERSION
 WRAP.                                   NO : WRAPING MODE
 SWARE .                 MController 2.5.0N : SOFTWARE VERSION
~Well Information
 WELL.                   Uintah 21-27 Tr CH : WELL
 COMP.    Pioneer Natural Resources USA Inc : COMPANY
 FLD.                      Purgatoire River : FIELD
 LOC.                NE/NW Sec 27 T33S R67W : LOCATION
 DATE.                         5/14-16/2005 : DATE(S) LOGGED
 SRVC.       Blanco Geological Services LLC : SERVICE COMPANY
 STAT.                                   CO : STATE
 CNTY.                           Las Animas : COUNTY
 CTRY.                                  USA : COUNTRY
 API.                       05-071-08311-00 : API NUMBER
 STRT.FT                             394.00 : START DEPTH
 STOP.FT                            1538.00 : STOP DEPTH
 STEP.FT                               1.00 : DEPTH INCREMENT
 NULL.                                -9999 : NULL VALUE
~Curve information
 DEPTH.FT                                   :
 ROP.MIN/FT                                 :
 GAS.UNITS                                  :
~ASCII Log data
       394.0     -9999.00          1.7 
       395.0         0.20          1.3 
       396.0         0.13          1.4 
       397.0         0.23          1.1 
       398.0         0.23          0.6 
       399.0         0.23          0.4 
       400.0         0.32          0.3 
       401.0         0.23          0.8 
       402.0         0.23          1.1 
       403.0         0.23          1.0 
       404.0         0.20          1.1 
       405.0         0.17          1.3 
       406.0         0.20          1.4 
       407.0         0.17          1.2 
       408.0         0.20          1.2 
       409.0         0.17          1.2 
       410.0         0.20          1.5 
       411.0         0.23          1.3 
       412.0         0.20          1.4 
       413.0         0.20          1.6 
       414.0         0.17          1.7 
       415.0         0.23          1.5 
       416.0         0.25          1.3 
       417.0         1.30          1.6 
       418.0         0.27          1.6 
       419.0         0.73          1.7 
       420.0         0.10          1.5 
       421.0         0.20          1.8 
       422.0         0.40          1.9 
       423.0         0.17          2.0 
       424.0         0.28          1.7 
       425.0         0.17          1.7 
       426.0         0.17          1.6 
       427.0         0.17          1.6 
       428.0         0.20          1.8 
       429.0         0.17          1.9 
       430.0         0.20          1.6 
       431.0         0.13          1.5 
       432.0         0.23          1.7 
       433.0         0.23          2.0 
       434.0         0.17          1.9 
       435.0         0.17          2.0 
       436.0         0.17          1.8 
       437.0         0.17          2.0 
       438.0         0.20          1.8 
       439.0         0.20          2.0 
       440.0         0.18          1.9 
       441.0         0.13          1.7 
       442.0         0.13          1.7 
       443.0         0.13          2.2 
       444.0         0.10          1.8 
       445.0         0.23          2.0 
       446.0         2.42          2.3 
       447.0         0.17          2.1 
       448.0         0.30          2.3 
       449.0         0.27          1.8 
       450.0         0.17          1.9 
       451.0         0.17          1.7 
       452.0         0.13          1.8 
       453.0         0.17          1.8 
       454.0         0.20          2.0 
       455.0         0.20          2.0 
       456.0         0.17          1.9 
       457.0         0.17          2.0 
       458.0         0.17          2.0 
       459.0         0.17          2.1 
       460.0         0.20          1.9 
       461.0         0.17          1.9 
       462.0         0.28          1.8 
       463.0         0.20          2.0 
       464.0         0.20          2.1 
       465.0         0.27          2.3 
       466.0         0.27          2.3 
       467.0         0.20          2.1 
       468.0         0.17          2.5 
       469.0         0.13          2.0 
       470.0         0.23          1.9 
       471.0         0.30          1.7 
       472.0         0.23          2.0 
       473.0         0.20          2.2 
       474.0         0.33          2.3 
       475.0         0.23          2.0 
       476.0         2.75          2.5 
       477.0         0.20          2.3 
       478.0         0.42          2.3 
       479.0         0.30          2.5 
       480.0         0.27          2.1 
       481.0         0.23          2.4 
       482.0         0.30          2.2 
       483.0         0.23          2.1 
       484.0         0.20          2.0 
       485.0         0.10          2.2 
       486.0         0.13          2.1 
       487.0         0.13          2.0 
       488.0         0.18          2.1 
       489.0         0.13          2.1 
       490.0         0.13          2.0 
       491.0         0.17          2.3 
       492.0         0.13          2.2 
       493.0         0.13          2.0 
       494.0         0.23          2.0 
       495.0         0.20          2.0 
       496.0         0.20          2.2 
       497.0         0.20          2.1 
       498.0         0.17          2.1 
       499.0         0.17          2.0 
       500.0         0.17          2.1 
       501.0         0.17          2.1 
       502.0         0.20          2.4 
       503.0         0.13          2.4 
       504.0         0.25          2.3 
       505.0         0.20          2.2 
       506.0         2.23          2.6 
       507.0         0.10          2.4 
       508.0         0.13          2.3 
       509.0         0.22          2.9 
       510.0         0.30          3.0 
       511.0         0.13          3.2 
       512.0         0.17          2.9 
       513.0         0.57          3.0 
       514.0         0.70          2.6 
       515.0         0.33          2.1 
       516.0         0.30          2.5 
       517.0         0.33          2.5 
       518.0         0.35          2.6 
       519.0         0.33          2.6 
       520.0         0.23          2.3 
       521.0         0.10          2.5 
       522.0         0.10          2.2 
       523.0         0.17          2.1 
       524.0         0.27          2.3 
       525.0         0.23          2.5 
       526.0         0.20          2.6 
       527.0         0.23          3.1 
       528.0         0.20          3.1 
       529.0         0.30          2.8 
       530.0         0.20          2.9 
       531.0         0.23          2.9 
       532.0         0.20          2.7 
       533.0         0.22          2.6 
       534.0         0.17          2.5 
       535.0         0.33          2.3 
       536.0         4.28          2.6 
       537.0         0.43          2.9 
       538.0         0.30          4.1 
       539.0         0.20          5.6 
       540.0         0.27          6.3 
       541.0         0.37          5.6 
       542.0         0.25          3.5 
       543.0         0.20          2.8 
       544.0         0.17          2.4 
       545.0         0.23          2.3 
       546.0         0.10          2.2 
       547.0         0.30          2.2 
       548.0         0.20          3.0 
       549.0         0.17          3.2 
       550.0         0.20          4.2 
       551.0       140.62       2654.7 
       552.0         0.88          6.0 
       553.0         0.73          5.9 
       554.0         0.87          6.3 
       555.0         1.03          5.6 
       556.0         1.08          5.8 
       557.0         1.07          5.8 
       558.0         1.00          6.1 
       559.0         0.85          5.8 
       560.0         0.40          5.5 
       561.0         0.47          6.5 
       562.0         0.37          6.8 
       563.0         0.33          6.6 
       564.0         0.53         10.1 
       565.0         0.42         13.5 
       566.0         0.80         18.7 
       567.0         0.83         17.6 
       568.0         0.90         17.2 
       569.0         0.92         17.6 
       570.0         0.90         17.3 
       571.0       118.72       6712.3 
       572.0         1.22         14.8 
       573.0         1.37         18.6 
       574.0         0.98         29.2 
       575.0         1.00         70.4 
       576.0         1.33         64.4 
       577.0         2.62         16.9 
       578.0         1.20         10.7 
       579.0         0.65          8.6 
       580.0         0.93          9.2 
       581.0         1.17          9.3 
       582.0         0.92         10.2 
       583.0         0.93         10.1 
       584.0         1.77         14.0 
       585.0         1.22         26.3 
       586.0         1.73         25.6 
       587.0         1.72         54.2 
       588.0       159.10       8852.0 
       589.0         0.83        606.6 
       590.0         0.93        610.8 
       591.0         0.90        613.0 
       592.0         0.78        614.4 
       593.0         0.53        614.2 
