~Version Information
VERS.                      2.0: CWLS Log ASCII Standard - VERSION 2.0
WRAP.                       NO: One line per depth step
~Well Information Block
STRT.FT               480.0000: 
STOP.FT              1625.5000: 
STEP.FT                 0.1000: 
NULL.                -999.2500: 
COMP.          Pioneer Natural Resources: COMPANY
WELL.          Dude Canyon 22-32 Tr: WELL
FLD.           Purgatoire River: FIELD
LOC.           1741' FNL & 2331' FWL: LOCATION
PROV.                 Colorado: PROVINCE
CNTY.               Las Animas: COUNTRY
SRVC.                Patterson: SERVICE COMPANY
DATE.          Mon Jul 11 10:33:06 2005: LOG DATE
UWI.           05 071 08421 00: UNIQUE WELL ID
~Curve Information Block
DEPT.FT            0 000 00 00: Depth
DCAL.in                       : CDL Caliper
RHOB.g/cc                     : CDL Bulk Density
RHOC.g/cc                     : CDL Density Correction
DPOR.pu                       : CDL Density Porosity
GR.GAPI                       : Gamma Ray
NPOR.pu                       : Neutron Porosity
~Parameter Information Block
~A  Depth       DCAL        RHOB        RHOC        DPOR         GR         NPOR    
# ...
  1459.2000     10.4596      1.7937      0.1373     51.8958     73.9021     33.8692
  1459.3000      8.8447      1.8265      0.0578     49.9079     84.3763     34.0425
  1459.4000      8.8447      1.8539      0.1011     48.2507     90.1871     34.5305
  1459.5000      8.2539      1.8892      0.0536     46.1068     90.4337     35.1581
  1459.6000      8.2539      1.9370      0.1296     43.2104     86.4305     35.2748
  1459.7000      8.2539      1.9794      0.1593     40.6428     81.1840     34.5516
  1459.8000      8.1679      1.9950      0.1070     39.6951     78.8794     33.5205
  1459.9000      8.1679      1.9860      0.0896     40.2421     81.5344     32.7260
  1460.0000      8.1548      1.9651      0.0829     41.5062     85.8017     32.3999
  1460.1000      8.1548      1.9439      0.0614     42.7910     86.1832     32.1832
  1460.2000      8.1548      1.9310      0.0165     43.5756     82.8261     32.1455
  1460.3000      8.1604      1.9239      0.0608     44.0083     81.6651     32.6373
  1460.4000      8.1604      1.9233      0.0375     44.0412     84.4925     32.9953
  1460.5000      8.2215      1.9506      0.0373     42.3881     86.0658     32.7541
  1460.6000      8.2215      2.0121      0.1871     38.6630     82.9250     32.7603
  1460.7000      8.2215      2.0832      0.2226     34.3530     79.3228     33.5519
  1460.8000      8.2646      2.1411      0.2201     30.8442     81.2556     34.4058
  1460.9000      8.2646      2.1751      0.1606     28.7788     86.1288     34.6147
  1461.0000      8.3026      2.1803      0.0955     28.4672     85.9619     34.7336
  1461.1000      8.3026      2.1389      0.1758     30.9735     79.6356     35.4192
  1461.2000      8.3026      2.0326      0.0886     37.4197     72.6256     35.8736
  1461.3000      8.2766      1.8889      0.0335     46.1288     70.2411     35.0822
  1461.4000      8.2766      1.7574      0.0119     54.0981     72.7757     34.1721
  1461.5000      8.3177      1.6533     -0.0307     60.4088     76.3088     34.5515
  1461.6000      8.3177      1.5624     -0.0762     65.9154     76.9664     35.4071
  1461.7000      8.3177      1.4789     -0.0639     70.9729     72.7912     35.5904
  1461.8000      8.3556      1.4148     -0.0104     74.8620     65.3066     35.2370
  1461.9000      8.3556      1.3780      0.0525     77.0885     57.6867     35.0018
  1462.0000      8.4301      1.3583      0.0914     78.2844     50.9868     35.2119
  1462.1000      8.4301      1.3437      0.0331     79.1707     43.5120     35.6690
  1462.2000      8.4301      1.3338      0.0537     79.7706     35.0627     35.6199
  1462.3000      8.5970      1.3257      0.0300     80.2619     29.8670     34.7844
  1462.4000      8.5970      1.3151      0.0244     80.9038     30.1747     34.1282
  1462.5000      8.6150      1.3048     -0.0048     81.5244     31.2410     34.3881
  1462.6000      8.6150      1.2965      0.0254     82.0291     28.9511     34.8769
  1462.7000      8.6150      1.2867      0.0401     82.6221     25.6572     34.6161
  1462.8000      8.4488      1.2740      0.0175     83.3936     23.1591     33.9991
  1462.9000      8.4488      1.2577      0.0235     84.3793     20.3103     33.9901
  1463.0000      8.3585      1.2340      0.0030     85.8183     17.8106     34.5296
  1463.1000      8.3585      1.2011      0.0054     87.8095     16.1913     35.3396
  1463.2000      8.3585      1.1658     -0.0480     89.9500     14.9944     36.1596
  1463.3000      8.3404      1.1375     -0.0184     91.6665     14.8181     36.6594
  1463.4000      8.3404      1.1190     -0.0277     92.7882     14.9404     37.1134
  1463.5000      8.3591      1.1093     -0.0246     93.3768     13.9394     37.5335
  1463.6000      8.3591      1.1084     -0.0441     93.4297     12.0668     37.4294
  1463.7000      8.3591      1.1195     -0.0294     92.7593     10.3029     36.7948
  1463.8000      8.8238      1.1425     -0.0021     91.3642      9.3756     36.1386
  1463.9000      8.8238      1.1686      0.0094     89.7824      9.2695     36.2953
  1464.0000      9.7099      1.1903      0.0109     88.4643     10.0485     37.5476
  1464.1000      9.7099      1.2082      0.0109     87.3846     11.7870     38.8447
  1464.2000      9.7099      1.2205      0.0346     86.6345     13.3526     38.8799
  1464.3000     11.2356      1.2230      0.0377     86.4844     13.9653     37.9318
  1464.4000     11.2356      1.2216      0.0072     86.5680     14.1255     37.3251
  1464.5000     13.4467      1.2299      0.0170     86.0695     13.8398     37.0656
  1464.6000     13.4467      1.2489      0.0455     84.9173     13.2164     36.6491
  1464.7000     13.4467      1.2686      0.0419     83.7237     13.1675     36.4056
  1464.8000     14.8401      1.2819      0.0405     82.9122     13.9495     36.3861
  1464.9000     14.8401      1.2874      0.0375     82.5848     15.2924     36.1027
  1465.0000     15.0300      1.2902      0.0069     82.4116     17.0139     35.4493
  1465.1000     15.0300      1.2974      0.0275     81.9736     18.4783     34.6022
  1465.2000     15.0300      1.3067      0.0458     81.4105     18.7642     34.0192
  1465.3000     14.3762      1.3131      0.0700     81.0223     19.2780     34.1936
  1465.4000     14.3762      1.3204      0.0386     80.5813     22.8610     34.8784
  1465.5000     12.8445      1.3334      0.0632     79.7916     29.3271     35.2781
  1465.6000     12.8445      1.3414      0.0766     79.3110     35.2346     34.8765
  1465.7000     12.8445      1.3319      0.0591     79.8851     38.2681     34.2145
  1465.8000     11.1473      1.3179      0.0018     80.7353     39.6006     33.9452
  1465.9000     11.1473      1.3256      0.0362     80.2696     41.5746     33.8458
  1466.0000     10.6033      1.3676      0.0178     77.7238     47.4373     33.4464
  1466.1000     10.6033      1.4401      0.0918     73.3256     58.4134     33.1086
  1466.2000     10.6033      1.5313      0.1194     67.7996     69.3388     33.0947
  1466.3000     10.5062      1.6282      0.1162     61.9255     75.6072     33.2828
  1466.4000     10.5062      1.7198      0.1617     56.3761     81.4390     33.5516
  1466.5000     10.3123      1.8061      0.1844     51.1453     91.0376     33.5093
  1466.6000     10.3123      1.9063      0.1882     45.0748    100.8297     33.2337
  1466.7000     10.3123      2.0244      0.2331     37.9141    106.9652     33.7907
  1466.8000      9.3035      2.1245      0.2315     31.8459    111.2785     35.1511
  1466.9000      9.3035      2.1763      0.1434     28.7071    118.1141     35.7088
  1467.0000      8.9351      2.1987      0.1173     27.3494    127.0077     35.0034
  1467.1000      8.9351      2.2276      0.1448     25.5995    132.8916     34.1716
  1467.2000      8.9351      2.2708      0.1479     22.9827    132.4465     33.5570
  1467.3000      8.3722      2.3209      0.1439     19.9452    129.7220     33.0376
  1467.4000      8.3722      2.3725      0.1939     16.8166    131.6567     32.8909
  1467.5000      8.3421      2.4074      0.2432     14.7018    135.7986     32.8976
  1467.6000      8.3421      2.3977      0.3101     15.2881    131.4299     32.5604
  1467.7000      8.3421      2.3367      0.2381     18.9867    118.7827     31.8273
  1467.8000      8.3515      2.2359      0.1803     25.0972    108.1028     31.4668
  1467.9000      8.3515      2.0978      0.1184     33.4646    101.7804     31.8736
  1468.0000      8.3492      1.9412      0.0170     42.9569     98.1531     32.1856
  1468.1000      8.3492      1.8114     -0.0692     50.8232     98.8816     31.9444
  1468.2000      8.3492      1.7136     -0.0218     56.7544    100.8154     31.6251
  1468.3000      8.2505      1.5993     -0.0260     63.6802     95.8813     31.6317
  1468.4000      8.2505      1.4569     -0.1206     72.3074     84.4859     31.9955
  1468.5000      8.1777      1.3405     -0.1268     79.3646     73.8849     32.4785
  1468.6000      8.1777      1.2952     -0.0138     82.1064     66.1996     32.7780
  1468.7000      8.1777      1.3192      0.0313     80.6545     61.2395     33.1260
