~Version Information
VERS.                      2.0: CWLS Log ASCII Standard - VERSION 2.0
WRAP.                       NO: One line per depth step
~Well Information Block
STRT.FT               234.0000: 
STOP.FT              1773.2000: 
STEP.FT                 0.1000: 
NULL.                -999.2500: 
COMP.          Pioneer Natural Resources: COMPANY
WELL.             Tami J 23-18: WELL
FLD.           Purgatorie River: FIELD
LOC.           2250' FSL & 2400' FWL: LOCATION
PROV.                 Colorado: PROVINCE
CNTY.               Las Animas: COUNTRY
SRVC.                         : SERVICE COMPANY
DATE.          Mon Dec 13 07:02:50 2004: LOG DATE
UWI.           05 071 08073 00: UNIQUE WELL ID
~Curve Information Block
DEPT.FT            0 000 00 00: Depth
LTEN.lb                       : Surface Line Tension
DCAL.in                       : CDL Caliper
RHOB.g/cc                     : CDL Bulk Density
RHOC.g/cc                     : CDL Density Correction
DPOR.pu                       : CDL Density Porosity
GR.GAPI                       : Gamma Ray
NPOR.pu                       : Neutron Porosity
~Parameter Information Block
~A  Depth       LTEN        DCAL        RHOB        RHOC        DPOR         GR         NPOR    
# ...
   435.6000    780.6404      7.9070      2.5709      0.1079      4.7968    114.6121     26.0356
   435.7000    780.6404      7.9070      2.5805      0.1402      4.2092    117.7950     25.5280
   435.8000    790.2766      7.9110      2.5760      0.0824      4.4819    117.5449     25.3146
   435.9000    790.2766      7.9110      2.5710      0.0744      4.7895    115.4549     25.2167
   436.0000    738.8087      7.9166      2.5768      0.0339      4.4366    115.5859     25.1411
   436.1000    738.8087      7.9166      2.5848      0.1068      3.9538    116.3282     24.9764
   436.2000    738.8087      7.9166      2.5829      0.0678      4.0675    113.9454     24.7588
   436.3000    739.0728      7.9216      2.5735      0.0871      4.6384    113.0227     24.6741
   436.4000    739.0728      7.9216      2.5571      0.0632      5.6308    117.4723     24.7159
   436.5000    732.8829      7.9211      2.5413      0.0199      6.5863    121.6794     24.8414
   436.6000    732.8829      7.9211      2.5436      0.0390      6.4505    122.4479     24.9795
   436.7000    732.8829      7.9211      2.5566      0.0612      5.6631    123.5023     25.0419
   436.8000    748.6727      7.9193      2.5562      0.0551      5.6833    125.8343     25.1595
   436.9000    748.6727      7.9193      2.5421      0.0423      6.5401    128.3497     25.4316
   437.0000    697.8741      7.9144      2.5283      0.0472      7.3763    130.2507     25.6433
   437.1000    697.8741      7.9144      2.5160      0.0351      8.1211    128.9738     25.5240
   437.2000    697.8741      7.9144      2.5044      0.0169      8.8234    124.7723     25.1943
   437.3000    756.6281      7.9101      2.4972      0.0571      9.2615    122.5530     24.9009
   437.4000    756.6281      7.9101      2.4954      0.0621      9.3726    121.8552     24.8491
   437.5000    780.9375      7.9083      2.4986      0.0774      9.1744    117.8577     25.3355
   437.6000    780.9375      7.9083      2.5027      0.0550      8.9288    113.6103     26.0534
   437.7000    780.9375      7.9083      2.5025      0.0645      8.9372    113.1079     26.4407
   437.8000    730.1909      7.9086      2.4938      0.0799      9.4666    112.7484     26.5352
   437.9000    730.1909      7.9086      2.4735      0.0655     10.6952    111.1579     26.5139
   438.0000    749.3115      7.9109      2.4526      0.0148     11.9612    109.6919     26.3779
   438.1000    749.3115      7.9109      2.4511      0.0213     12.0553    107.8910     26.1956
   438.2000    749.3115      7.9109      2.4744      0.0381     10.6448    108.4036     26.1161
   438.3000    748.9172      7.9106      2.5091      0.0837      8.5366    109.2604     26.0497
   438.4000    748.9172      7.9106      2.5470      0.0970      6.2448    105.1514     25.7133
   438.5000    800.3046      7.9063      2.5935      0.1689      3.4212    100.5019     25.3234
   438.6000    800.3046      7.9063      2.6469      0.2039      0.1864     99.4416     25.3285
   438.7000    800.3046      7.9063      2.6892      0.2200     -2.3776     99.2172     25.6195
   438.8000    750.2592      7.9084      2.7078      0.1973     -3.5035     97.6291     25.7814
   438.9000    750.2592      7.9084      2.7094      0.1455     -3.6012     94.2135     25.7032
   439.0000    787.7933      7.9144      2.7074      0.1359     -3.4811     91.3729     25.5168
   439.1000    787.7933      7.9144      2.7014      0.1331     -3.1147     91.2586     25.2702
   439.2000    787.7933      7.9144      2.6844      0.0904     -2.0830     90.7691     24.8973
   439.3000    785.1973      7.9122      2.6596      0.1175     -0.5791     88.5856     24.5877
   439.4000    785.1973      7.9122      2.6317      0.1569      1.1114     87.1349     24.5042
   439.5000    728.8311      7.9063      2.6040      0.1367      2.7892     87.2366     24.2425
   439.6000    728.8311      7.9063      2.5819      0.1232      4.1301     90.3543     23.6460
   439.7000    728.8311      7.9063      2.5680      0.0774      4.9702     97.8566     23.2590
   439.8000    751.3678      7.9088      2.5605      0.0581      5.4270    102.9438     23.2084
   439.9000    751.3678      7.9088      2.5526      0.0745      5.9034    101.2341     22.9320
   440.0000    714.0729      7.9132      2.5422      0.0768      6.5305    100.2624     22.5251
   440.1000    714.0729      7.9132      2.5332      0.0814      7.0802    102.6401     22.8162
   440.2000    714.0729      7.9132      2.5206      0.1079      7.8405    102.7467     23.9063
   440.3000    713.9822      7.9107      2.5014      0.0638      9.0076     99.5229     25.2301
   440.4000    713.9822      7.9107      2.4902      0.0552      9.6820     95.8283     26.3844
   440.5000    723.9562      7.9094      2.4985      0.0867      9.1808     94.2521     27.1033
   440.6000    723.9562      7.9094      2.5148      0.1144      8.1969     95.4893     27.4117
   440.7000    723.9562      7.9094      2.5221      0.1095      7.7491     97.6260     27.5487
   440.8000    770.0782      7.9091      2.5220      0.0839      7.7550     98.6050     27.4352
   440.9000    770.0782      7.9091      2.5288      0.0808      7.3461     98.7773     27.0673
   441.0000    821.3229      7.9070      2.5455      0.0844      6.3334    100.2709     26.7583
   441.1000    821.3229      7.9070      2.5650      0.0889      5.1500    102.8851     26.6141
   441.2000    821.3229      7.9070      2.5856      0.0856      3.9000    103.9110     26.4928
   441.3000    804.7348      7.9087      2.6022      0.0869      2.8962    101.6863     26.3456
   441.4000    804.7348      7.9087      2.6041      0.1137      2.7814     98.1121     26.2170
   441.5000    808.5203      7.9138      2.5990      0.0761      3.0891     96.3410     26.0959
   441.6000    808.5203      7.9138      2.6089      0.0789      2.4894     95.6469     25.8297
   441.7000    808.5203      7.9138      2.6329      0.1051      1.0362     93.8531     25.3083
   441.8000    811.5751      7.9191      2.6442      0.1440      0.3539     92.6597     24.6501
   441.9000    811.5751      7.9191      2.6279      0.1146      1.3397     93.5548     24.3925
   442.0000    755.5667      7.9174      2.5984      0.0520      3.1296     93.9142     24.6988
   442.1000    755.5667      7.9174      2.5707      0.0914      4.8052     92.4551     24.7589
   442.2000    755.5667      7.9174      2.5450      0.0885      6.3664     90.7174     24.2119
   442.3000    740.6846      7.9056      2.5262      0.0530      7.5043     90.1042     23.5433
   442.4000    740.6846      7.9056      2.5228      0.0817      7.7061     91.7588     23.2521
   442.5000    811.5981      7.8960      2.5281      0.0987      7.3864     94.7960     23.2853
   442.6000    811.5981      7.8960      2.5347      0.0250      6.9905     95.6420     23.1711
   442.7000    811.5981      7.8960      2.5437      0.0558      6.4398     91.3733     22.8483
   442.8000    797.9536      7.8996      2.5493      0.0665      6.1043     85.4703     22.6662
   442.9000    797.9536      7.8996      2.5528      0.0529      5.8915     82.7766     22.7101
   443.0000    769.0294      7.9118      2.5667      0.1048      5.0457     81.3690     22.8327
   443.1000    769.0294      7.9118      2.5885      0.1481      3.7256     79.2489     23.1096
   443.2000    769.0294      7.9118      2.6048      0.1611      2.7379     78.1699     23.7254
   443.3000    755.1127      7.9160      2.6053      0.1815      2.7112     77.0195     24.3807
   443.4000    755.1127      7.9160      2.5925      0.1294      3.4848     73.6665     24.5744
   443.5000    766.8192      7.9129      2.5861      0.0646      3.8707     70.1991     24.3449
   443.6000    766.8192      7.9129      2.5962      0.0876      3.2606     70.1907     24.3167
   443.7000    766.8192      7.9129      2.6149      0.0701      2.1285     74.2863     24.7215
   443.8000    817.3882      7.9037      2.6353      0.1078      0.8896     80.5324     24.9897
   443.9000    817.3882      7.9037      2.6498      0.1199      0.0130     86.8478     24.9985
