~Version Information
VERS.                      2.0: CWLS Log ASCII Standard - VERSION 2.0
WRAP.                       NO: One line per depth step
~Well Information Block
STRT.FT               472.0000: 
STOP.FT              2641.5000: 
STEP.FT                 0.1000: 
NULL.                -999.2500: 
COMP.          Pioneer Natural Resources: COMPANY
WELL.              Wagner 13-9: WELL
FLD.           Purgatoire River: FIELD
LOC.           1819' FSL & 1111' FWL: LOCATION
PROV.                 Colorado: PROVINCE
CNTY.               Las Animas: COUNTRY
SRVC.                Patterson: SERVICE COMPANY
DATE.          Tue Apr 19 08:56:38 2005: LOG DATE
UWI.           05 071 08302 00: UNIQUE WELL ID
~Curve Information Block
DEPT.FT            0 000 00 00: Depth
DCAL.in                       : CDL Caliper
RHOB.g/cc                     : CDL Bulk Density
RHOC.g/cc                     : CDL Density Correction
DPOR.pu                       : CDL Density Porosity
GR.GAPI                       : Gamma Ray
NPOR.pu                       : Neutron Porosity
~Parameter Information Block
~A  Depth       DCAL        RHOB        RHOC        DPOR         GR         NPOR    
# ...
  2488.0000      7.8349      2.5805      0.1150      4.2130     60.1538     17.7686
  2488.1000      7.8349      2.5580      0.1040      5.5773     60.9264     18.2178
  2488.2000      7.8349      2.5136      0.0656      8.2682     58.6039     18.4882
  2488.3000      7.8421      2.4545      0.0137     11.8455     57.0850     19.0357
  2488.4000      7.8421      2.3958      0.0011     15.4043     56.0666     20.0919
  2488.5000      7.8546      2.3465      0.0033     18.3967     55.8192     21.7445
  2488.6000      7.8546      2.3028      0.0178     21.0419     58.1147     23.0901
  2488.7000      7.8546      2.2706     -0.0612     22.9964     61.0465     23.2267
  2488.8000      7.8716      2.2665     -0.0094     23.2414     63.1148     22.6003
  2488.9000      7.8716      2.2926     -0.0079     21.6601     64.3473     21.8537
  2489.0000      7.8838      2.3377      0.1073     18.9280     63.9085     21.5125
  2489.1000      7.8838      2.3889      0.1109     15.8265     62.8744     21.8214
  2489.2000      7.8838      2.4347      0.1669     13.0461     62.7934     22.1477
  2489.3000      7.8859      2.4661      0.1698     11.1441     63.0517     22.4656
  2489.4000      7.8859      2.4894      0.1373      9.7319     62.9928     23.2694
  2489.5000      7.8811      2.5205      0.0869      7.8479     64.0250     24.2556
  2489.6000      7.8811      2.5526      0.1182      5.9020     67.9375     24.8236
  2489.7000      7.8811      2.5668      0.0775      5.0414     73.2387     24.8134
  2489.8000      7.8639      2.5621      0.0675      5.3276     76.1211     24.0358
  2489.9000      7.8639      2.5476      0.0799      6.2052     74.0188     22.2487
  2490.0000      7.8443      2.5396      0.0290      6.6927     68.7124     20.2945
  2490.1000      7.8443      2.5566      0.0154      5.6630     65.1962     19.5427
  2490.2000      7.8443      2.5971      0.0615      3.2049     66.2302     19.9198
  2490.3000      7.8319      2.6395      0.1215      0.6370     69.7485     20.0149
  2490.4000      7.8319      2.6619      0.1511     -0.7202     71.3366     19.1017
  2490.5000      7.8165      2.6678      0.0992     -1.0758     69.1168     17.7188
  2490.6000      7.8165      2.6768      0.1603     -1.6229     64.0047     17.1079
  2490.7000      7.8165      2.6843      0.1500     -2.0800     58.1268     17.5338
  2490.8000      7.8044      2.6692      0.1119     -1.1644     56.6892     17.8131
  2490.9000      7.8044      2.6268      0.0741      1.4065     62.7689     17.6742
  2491.0000      7.8136      2.5777     -0.0076      4.3799     70.7098     17.8797
  2491.1000      7.8136      2.5479      0.0169      6.1905     73.2616     18.2674
  2491.2000      7.8136      2.5418     -0.0050      6.5595     73.4501     18.1403
  2491.3000      7.8289      2.5463      0.0164      6.2865     77.0190     17.3403
  2491.4000      7.8289      2.5470     -0.0042      6.2431     82.0122     16.3271
  2491.5000      7.8316      2.5412      0.0838      6.5910     86.2986     16.0111
  2491.6000      7.8316      2.5343      0.0677      7.0145     91.1758     16.8055
  2491.7000      7.8316      2.5327      0.0666      7.1095     94.3847     18.4461
  2491.8000      7.8233      2.5350      0.1038      6.9698     93.8316     20.6312
  2491.9000      7.8233      2.5317      0.0911      7.1670     90.0003     22.9887
  2492.0000      7.8145      2.5265      0.0715      7.4863     82.4800     24.9547
  2492.1000      7.8145      2.5301      0.0913      7.2663     76.0568     26.0513
  2492.2000      7.8145      2.5401      0.1020      6.6633     77.0992     26.2736
  2492.3000      7.8154      2.5499      0.0973      6.0673     82.9411     26.3138
  2492.4000      7.8154      2.5562      0.1425      5.6820     87.6429     26.6873
  2492.5000      7.8276      2.5536      0.1269      5.8443     89.5867     27.0975
  2492.6000      7.8276      2.5409      0.1245      6.6137     91.0520     26.9706
  2492.7000      7.8276      2.5243      0.0685      7.6205     94.0201     26.3439
  2492.8000      7.8487      2.5109      0.0732      8.4323     97.7251     25.9135
  2492.9000      7.8487      2.5022      0.0388      8.9583    100.2842     26.1277
  2493.0000      7.8700      2.4966      0.0515      9.2978    100.3075     26.8341
  2493.1000      7.8700      2.4926      0.0598      9.5382     96.5162     27.2643
  2493.2000      7.8700      2.4914      0.0347      9.6138     91.3160     26.9012
  2493.3000      7.8894      2.4956      0.0256      9.3596     90.8111     26.5730
  2493.4000      7.8894      2.4980      0.0616      9.2145     93.5757     26.8231
  2493.5000      7.9002      2.4919      0.0588      9.5833     95.2488     27.1790
  2493.6000      7.9002      2.4866      0.0608      9.9041     96.2597     27.3430
  2493.7000      7.9002      2.4882      0.0859      9.8089     97.9407     27.4274
  2493.8000      7.9173      2.4908      0.0689      9.6489     99.8711     27.5632
  2493.9000      7.9173      2.4880      0.0764      9.8210    103.2803     27.8962
  2494.0000      7.9555      2.4723      0.1022     10.7674    107.1774     28.8445
  2494.1000      7.9555      2.4438      0.0637     12.4948    104.2362     30.4853
  2494.2000      7.9555      2.4166      0.0714     14.1429     94.6180     31.6393
  2494.3000      7.9782      2.3997      0.0722     15.1713     86.2797     31.2071
  2494.4000      7.9782      2.3759      0.0738     16.6120     82.3019     29.8712
  2494.5000      7.9623      2.3148      0.0678     20.3152     81.6480     29.0458
  2494.6000      7.9623      2.2127     -0.0130     26.5055     83.5666     29.1646
  2494.7000      7.9623      2.1104     -0.0683     32.7022     86.6219     29.8416
  2494.8000      7.9260      2.0491     -0.0524     36.4208     89.5061     30.5220
  2494.9000      7.9260      2.0281     -0.0532     37.6907     93.2755     30.9215
  2495.0000      7.8992      2.0280     -0.0657     37.6959     98.4689     31.1159
  2495.1000      7.8992      2.0415     -0.0475     36.8775     99.1083     31.1413
  2495.2000      7.8992      2.0861     -0.0439     34.1781     93.2972     30.9597
  2495.3000      7.8955      2.1863      0.1342     28.1049     90.3095     30.3941
  2495.4000      7.8955      2.3245      0.2788     19.7281     93.0675     29.3748
  2495.5000      7.9053      2.4443      0.2603     12.4658     96.1961     27.9467
  2495.6000      7.9053      2.5121      0.2271      8.3567     98.1567     26.4416
  2495.7000      7.9053      2.5345      0.2409      6.9996     97.9730     25.2489
  2495.8000      7.9076      2.5365      0.1816      6.8764     92.2231     24.2512
  2495.9000      7.9076      2.5423      0.1668      6.5284     82.8673     23.0747
  2496.0000      7.8830      2.5556      0.1812      5.7236     76.6202     21.7487
  2496.1000      7.8830      2.5712      0.1159      4.7765     75.9144     20.4342
  2496.2000      7.8830      2.5938      0.0774      3.4089     77.3745     18.9052
  2496.3000      7.8496      2.6209      0.1089      1.7656     77.2385     17.3221
  2496.4000      7.8496      2.6320      0.1157      1.0891     74.7068     16.3677
  2496.5000      7.8263      2.6128      0.0668      2.2525     71.1894     16.2045
  2496.6000      7.8263      2.5703      0.0671      4.8282     68.2648     16.7420
  2496.7000      7.8263      2.5273     -0.0472      7.4377     67.0796     17.3984
  2496.8000      7.8112      2.5061     -0.0185      8.7229     68.6283     17.7684
  2496.9000      7.8112      2.5051      0.0154      8.7820     72.7043     18.5082
  2497.0000      7.7962      2.5023      0.0152      8.9527     77.3984     20.1257
  2497.1000      7.7962      2.4758      0.0749     10.5572     79.5850     21.6668
  2497.2000      7.7962      2.4221      0.0273     13.8096     76.7030     22.0941
  2497.3000      7.7804      2.3664      0.0161     17.1868     71.3561     22.0916
  2497.4000      7.7804      2.3334      0.0027     19.1879     69.3511     22.6174
  2497.5000      7.7694      2.3228      0.0204     19.8301     70.4002     23.7036
