~Version Information
VERS.                      2.0: CWLS Log ASCII Standard - VERSION 2.0
WRAP.                       NO: One line per depth step
~Well Information Block
STRT.FT                -6.2500: 
STOP.FT              2316.0000: 
STEP.FT                 0.2500: 
NULL.                -999.2500: 
COMP.          Pioneer Natural Resources: COMPANY
WELL.             Trimax 44-23: WELL
FLD.           Purgatorie River: FIELD
LOC.           527' FSL & 1064' FEL------: LOCATION
PROV.                       CO: PROVINCE
CNTY.               Las Animas: COUNTRY
SRVC.          Patterson Wireline: SERVICE COMPANY
DATE.          Sat Mar 19 11:18:53 2005: LOG DATE
UWI.           05 071 08326 00: UNIQUE WELL ID
~Curve Information Block
DEPT.FT            0 000 00 00: Depth
CCL.                          : Casing Collar Locator
TT3.usec                      : CBL 3' Travel Time
AMP3.mV                       : CBL 3' Amplitude
GR.GAPI                       : Gamma Ray
~Parameter Information Block
~A  Depth       CCL         TT3         AMP3         GR     
# ...
  1199.7500      0.0000    719.3550      6.3395     95.1153
  1200.0000      0.0000    721.6514      6.3427     95.5472
  1200.2500      0.0000    727.4785      6.3737     95.8410
  1200.5000      0.0000    737.4587      6.4333     95.8018
  1200.7500      0.0000    748.1295      6.5260     95.2179
  1201.0000      0.0000    752.2141      6.6394     93.8776
  1201.2500      0.0000    745.9551      6.7542     91.6665
  1201.5000      0.0000    734.4213      6.8728     89.1331
  1201.7500      0.0000    726.1693      7.0254     87.4814
  1202.0000      0.0000    723.7578      7.2457     87.4204
  1202.2500      0.0000    722.1769      7.5379     88.2373
  1202.5000      0.0000    714.9359      7.8741     88.4693
  1202.7500      0.0000    699.6357      8.2198     87.5647
  1203.0000      0.0000    679.8596      8.5586     86.6141
  1203.2500      0.0000    664.1932      8.8813     87.1449
  1203.5000      0.0000    661.4097      9.1572     89.2917
  1203.7500      0.0000    673.3395      9.3273     91.5271
  1204.0000      0.0000    692.7564      9.3406     92.3263
  1204.2500      0.0000    709.9716      9.1979     91.8780
  1204.5000      0.0000    720.3170      8.9648     91.8906
  1204.7500      0.0000    724.5455      8.7417     93.6095
  1205.0000      0.0000    725.3442      8.6090     96.2502
  1205.2500      0.0000    726.0687      8.5831     97.8666
  1205.5000      0.0000    729.9887      8.6231     97.8459
  1205.7500      0.0000    737.1082      8.6703     98.0000
  1206.0000      0.0000    742.6940      8.6785    100.7455
  1206.2500      0.0000    741.9382      8.6202    106.3715
  1206.5000      0.0000    735.4800      8.4964    112.3543
  1206.7500      0.0000    728.4636      8.3422    115.4014
  1207.0000      0.0000    724.9695      8.2056    114.3751
  1207.2500      0.0000    725.0151      8.1105    111.3961
  1207.5000      0.0000    726.2526      8.0474    109.8499
  1207.7500      0.0000    726.9061      7.9927    111.1199
  1208.0000      0.0000    726.7875      7.9260    113.6477
  1208.2500      0.0000    726.4542      7.8389    115.2490
  1208.5000      0.0000    726.2643      7.7470    115.3399
  1208.7500      0.0000    726.2099      7.6890    114.2087
  1209.0000      0.0000    726.1794      7.6969    111.2073
  1209.2500      0.0000    726.1788      7.7729    105.0230
  1209.5000      0.0000    726.4125      7.9017     95.3629
  1209.7500      0.0000    727.2850      8.0699     83.5362
  1210.0000      0.0000    729.1687      8.2597     71.6656
  1210.2500      0.0000    731.9471      8.4333     61.7216
  1210.5000      0.0000    734.6806      8.5450     54.9153
  1210.7500      0.0000    736.0197      8.5747     51.4991
  1211.0000      0.0000    735.2747      8.5455     51.0682
  1211.2500      0.0000    733.0100      8.5064     53.0209
  1211.5000      0.0000    730.4545      8.4961     56.6808
  1211.7500      0.0000    728.5131      8.5153     61.1588
  1212.0000      0.0000    727.4182      8.5341     65.4550
  1212.2500      0.0000    726.9942      8.5313     68.8888
  1212.5000      0.0000    727.0274      8.5215     71.4432
  1212.7500      0.0000    727.5001      8.5274     73.7525
  1213.0000      0.0000    728.6488      8.5412     76.8260
  1213.2500      0.0000    730.7524      8.5321     81.7073
  1213.5000      0.0000    733.6565      8.4835     89.1154
  1213.7500      0.0000    736.4443      8.4042     99.0401
  1214.0000      0.0000    737.8504      8.3133    110.3227
  1214.2500      0.0000    737.2946      8.2289    120.6633
  1214.5000      0.0000    735.3778      8.1651    127.6301
  1214.7500      0.0000    733.1971      8.1305    130.1535
  1215.0000      0.0000    731.4019      8.1277    129.0474
  1215.2500      0.0000    730.0359      8.1544    126.0529
  1215.5000      0.0000    728.9389      8.1997    122.5437
  1215.7500      0.0000    728.0090      8.2427    119.1075
  1216.0000      0.0000    727.1642      8.2635    116.0004
  1216.2500      0.0000    726.2373      8.2641    113.5224
  1216.5000      0.0000    724.9001      8.2693    111.6857
  1216.7500      0.0000    722.7222      8.2965    109.7648
  1217.0000      0.0000    719.5613      8.3298    106.7063
  1217.2500      0.0000    716.1674      8.3362    102.4223
  1217.5000      0.0000    714.3816      8.3055     98.7286
  1217.7500      0.0000    716.3724      8.2634     98.5217
  1218.0000      0.0000    723.1622      8.2498    103.4671
  1218.2500      0.0000    733.3716      8.2906    112.5103
  1218.5000      0.0000    743.3504      8.3861    122.8620
  1218.7500      0.0000    749.3004      8.5102    132.2592
  1219.0000      0.0000    750.1927      8.6184    140.1198
  1219.2500      0.0000    749.0280      8.6649    147.0206
  1219.5000      0.0000    751.1592      8.6260    153.5119
  1219.7500      0.0000    760.6513      8.5125    159.2123
  1220.0000      0.0000    777.1772      8.3638    162.8435
  1220.2500      0.0000    796.0191      8.2316    163.2990
  1220.5000      0.0000    811.4346      8.1572    160.6516
  1220.7500      0.0000    819.8888      8.1538    156.0072
  1221.0000      0.0000    820.0540      8.1982    150.5449
  1221.2500      0.0000    811.8215      8.2291    144.9105
  1221.5000      0.0000    797.7249      8.1558    139.3935
  1221.7500      0.0000    784.4750      7.9052    134.2679
  1222.0000      0.0000    780.0969      7.4822    129.6779
  1222.2500      0.0000    787.9028      6.9813    125.3770
  1222.5000      0.0000    803.3852      6.5346    121.0896
  1222.7500      0.0000    817.4344      6.2391    117.2531
  1223.0000      0.0000    823.0320      6.1223    114.9638
  1223.2500      0.0000    819.6118      6.1560    114.9664
  1223.5000      0.0000    811.8444      6.2857    116.9278
  1223.7500      0.0000    804.4387      6.4511    119.8560
  1224.0000      0.0000    797.5089      6.6201    122.9347
  1224.2500      0.0000    786.3266      6.8239    125.6012
  1224.5000      0.0000    765.5920      7.1295    127.1455
  1224.7500      0.0000    734.0427      7.5570    127.1687
  1225.0000      0.0000    695.0307      8.0402    126.5842
  1225.2500      0.0000    653.9509      8.4854    127.3043
  1225.5000      0.0000    616.4018      8.8373    130.5005
  1225.7500      0.0000    587.3996      9.0793    135.5581
  1226.0000      0.0000    569.6912      9.2109    140.8540
  1226.2500      0.0000    562.2443      9.2521    144.9779
  1226.5000      0.0000    561.0762      9.2409    146.9586
  1226.7500      0.0000    561.5469      9.2017    146.0557
  1227.0000      0.0000    560.2947      9.1276    142.2618
  1227.2500      0.0000    556.5492      9.0043    136.9384
  1227.5000      0.0000    552.7411      8.8400    132.3928
  1227.7500      0.0000    553.2933      8.6653    130.6132
  1228.0000      0.0000    561.8162      8.5114    132.1292
  1228.2500      0.0000    578.9857      8.3914    135.5655
  1228.5000      0.0000    603.0665      8.2993    138.3498
  1228.7500      0.0000    631.6968      8.2201    138.4677
  1229.0000      0.0000    661.9127      8.1483    135.7304
  1229.2500      0.0000    689.1098      8.1002    131.4246
  1229.5000      0.0000    708.9597      8.1010    127.2469
  1229.7500      0.0000    721.7337      8.1496    124.6873
  1230.0000      0.0000    732.5632      8.2040    124.6198
  1230.2500      0.0000    745.1223      8.2139    126.9129
  1230.5000      0.0000    755.7467      8.1619    130.6262
  1230.7500      0.0000    755.8554      8.0700    134.6711
  1231.0000      0.0000    740.6298      7.9737    138.1847
  1231.2500      0.0000    714.2935      7.8977    140.5165
  1231.5000      0.0000    686.5793      7.8458    141.3759
  1231.7500      0.0000    665.2238      7.8051    141.1389
  1232.0000      0.0000    652.6828      7.7653    140.6218
  1232.2500      0.0000    648.6817      7.7348    140.1853
  1232.5000      0.0000    653.3168      7.7314    139.3011
  1232.7500      0.0000    666.6781      7.7597    137.2906
  1233.0000      0.0000    687.0156      7.8153    134.1383
