~Version Information
VERS.                      2.0: CWLS Log ASCII Standard - VERSION 2.0
WRAP.                       NO: One line per depth step
~Well Information Block
STRT.FT               420.0000: 
STOP.FT              1528.5000: 
STEP.FT                 0.2500: 
NULL.                -999.2500: 
COMP.          Evergreen Operating Corporation: COMPANY
WELL.              Chase 21-10: WELL
FLD.           Purgatoire River: FIELD
LOC.           1122' FNL & 1544' FWL: LOCATION
PROV.                       CO: PROVINCE
CNTY.               Las Animas: COUNTRY
SRVC.                         : SERVICE COMPANY
DATE.          Sun May 23 21:20:45 2004: LOG DATE
UWI.           05 071 08006 00: UNIQUE WELL ID
~Curve Information Block
DEPT.FT            0 000 00 00: Depth
SN.Ohm-m                      : IEL Short Normal
SP.mV                         : IEL Spontaneous Potential
DIR.Ohm-m                     : IEL Induction Resistivity
GR.GAPI                       : Gamma Ray
~Parameter Information Block
~A  Depth        SN          SP         DIR          GR     
# ...
   621.0000   2000.0000   2038.0000     42.4762     57.9292
   621.2500   2000.0000   2038.0000     42.8367     59.4759
   621.5000   2000.0000   2038.0000     43.1067     63.9795
   621.7500   2000.0000   2038.0000     43.2917     68.0708
   622.0000   2000.0000   2038.0000     43.4028     74.8873
   622.2500   2000.0000   2038.0000     43.4430     79.2412
   622.5000   2000.0000   2038.0000     43.3985     84.6937
   622.7500   2000.0000   2038.0000     43.2482     87.5341
   623.0000   2000.0000   2038.0000     42.9893     90.7290
   623.2500   2000.0000   2038.0000     42.6640     91.8601
   623.5000   2000.0000   2038.0000     42.3656     90.8921
   623.7500   2000.0000   2038.0000     42.2124     88.1239
   624.0000   2000.0000   2038.0000     42.3018     81.9677
   624.2500   2000.0000   2038.0000     42.6755     77.9855
   624.5000   2000.0000   2038.0000     43.3177     74.2454
   624.7500   2000.0000   2038.0000     44.1833     73.4853
   625.0000   2000.0000   2038.0000     45.2190     74.0199
   625.2500   2000.0000   2038.0000     46.3548     74.8627
   625.5000   2000.0000   2038.0000     47.4795     76.5155
   625.7500   2000.0000   2038.0000     48.4580     77.9821
   626.0000   2000.0000   2038.0000     49.2112     80.6310
   626.2500   2000.0000   2038.0000     49.7904     82.2196
   626.5000   2000.0000   2038.0000     50.3532     83.0794
   626.7500   2000.0000   2038.0000     51.0448     82.0358
   627.0000   2000.0000   2038.0000     51.8888     77.8615
   627.2500   2000.0000   2038.0000     52.7801     73.8139
   627.5000   2000.0000   2038.0000     53.5797     67.2481
   627.7500   2000.0000   2038.0000     54.2330     63.2999
   628.0000   2000.0000   2038.0000     54.8092     58.7604
   628.2500   2000.0000   2038.0000     55.4293     56.7967
   628.5000   2000.0000   2038.0000     56.1485     55.3561
   628.7500   2000.0000   2038.0000     56.8933     55.1308
   629.0000   2000.0000   2038.0000     57.5040     55.2415
   629.2500   2000.0000   2038.0000     57.8459     55.4228
   629.5000   2000.0000   2038.0000     57.8874     56.1115
   629.7500   2000.0000   2038.0000     57.6842     57.1576
   630.0000   2000.0000   2038.0000     57.3096     59.9376
   630.2500   2000.0000   2038.0000     56.8169     62.4776
   630.5000   2000.0000   2038.0000     56.2508     66.2923
   630.7500   2000.0000   2038.0000     55.6715     67.9613
   631.0000   2000.0000   2038.0000     55.1626     68.4006
   631.2500   2000.0000   2038.0000     54.8179     67.7916
   631.5000   2000.0000   2038.0000     54.7140     67.0933
   631.7500   2000.0000   2038.0000     54.8800     67.2114
   632.0000   2000.0000   2038.0000     55.2822     67.6130
   632.2500   2000.0000   2038.0000     55.8456     67.4032
   632.5000   2000.0000   2038.0000     56.5020     66.1070
   632.7500   2000.0000   2038.0000     57.2285     64.9406
   633.0000   2000.0000   2038.0000     58.0409     63.3667
   633.2500   2000.0000   2038.0000     58.9505     62.4545
   633.5000   2000.0000   2038.0000     59.9280     60.8330
   633.7500   2000.0000   2038.0000     60.9084     59.3795
   634.0000   2000.0000   2038.0000     61.8348     56.9042
   634.2500   2000.0000   2038.0000     62.6950     55.4423
   634.5000   2000.0000   2038.0000     63.5108     53.8466
   634.7500   2000.0000   2038.0000     64.2857     52.9788
   635.0000   2000.0000   2038.0000     64.9696     51.4414
   635.2500   2000.0000   2038.0000     65.4926     50.2187
   635.5000   2000.0000   2038.0000     65.8363     48.6667
   635.7500   2000.0000   2038.0000     66.0871     48.3187
   636.0000   2000.0000   2038.0000     66.4132     49.3319
   636.2500   2000.0000   2038.0000     67.0417     50.9495
   636.5000   2000.0000   2038.0000     68.2608     54.1826
   636.7500   2000.0000   2038.0000     70.4475     56.3856
   637.0000   2000.0000   2038.0000     74.0058     58.7817
   637.2500   2000.0000   2038.0000     79.0837     59.2982
   637.5000   2000.0000   2038.0000     84.9973     58.4876
   637.7500   2000.0000   2038.0000     89.7134     57.5624
   638.0000   2000.0000   2038.0000     90.6366     57.1376
   638.2500   2000.0000   2038.0000     87.0888     57.9753
   638.5000   2000.0000   2038.0000     81.2281     60.4651
   638.7500   2000.0000   2038.0000     75.7856     62.2220
   639.0000   2000.0000   2038.0000     72.1640     63.9356
   639.2500   2000.0000   2038.0000     70.4715     64.2527
   639.5000   2000.0000   2038.0000     70.2033     63.7852
   639.7500   2000.0000   2038.0000     70.7800     63.2254
   640.0000   2000.0000   2038.0000     71.8448     62.7274
   640.2500   2000.0000   2038.0000     73.3013     62.8994
   640.5000   2000.0000   2038.0000     75.1187     63.8149
   640.7500   2000.0000   2038.0000     77.0898     64.4465
   641.0000   2000.0000   2038.0000     78.7618     64.6118
   641.2500   2000.0000   2038.0000     79.6749     64.0905
   641.5000   2000.0000   2038.0000     79.6886     63.0214
   641.7500   2000.0000   2038.0000     79.0775     62.6409
   642.0000   2000.0000   2038.0000     78.2558     62.7684
   642.2500   2000.0000   2038.0000     77.4767     62.8466
   642.5000   2000.0000   2038.0000     76.7578     61.7040
   642.7500   2000.0000   2038.0000     76.0001     59.7092
   643.0000   2000.0000   2038.0000     75.1160     55.4616
   643.2500   2000.0000   2038.0000     74.0397     52.6390
   643.5000   2000.0000   2038.0000     72.6567     49.5307
   643.7500   2000.0000   2038.0000     70.7935     48.3441
   644.0000   2000.0000   2038.0000     68.3188     47.7175
   644.2500   2000.0000   2038.0000     65.2500     48.0123
   644.5000   2000.0000   2038.0000     61.7357     49.3068
   644.7500   2000.0000   2038.0000     57.9442     50.4107
   645.0000   2000.0000   2038.0000     53.9877     52.0463
   645.2500   2000.0000   2038.0000     49.9446     53.3053
   645.5000   2000.0000   2038.0000     45.9237     56.1009
   645.7500   2000.0000   2038.0000     42.0977     58.7738
   646.0000   2000.0000   2038.0000     38.6730     63.9997
   646.2500   2000.0000   2038.0000     35.8228     68.2559
   646.5000   2000.0000   2038.0000     33.6385     75.7028
   646.7500   2000.0000   2038.0000     32.1250     81.3241
   647.0000   2000.0000   2038.0000     31.2247     90.8898
   647.2500   2000.0000   2038.0000     30.8418     98.2295
   647.5000   2000.0000   2038.0000     30.8574    110.6799
   647.7500   2000.0000   2038.0000     31.1419    119.3809
   648.0000   2000.0000   2038.0000     31.5789    130.9165
   648.2500   2000.0000   2038.0000     32.1032    135.8677
   648.5000   2000.0000   2038.0000     32.7309    136.2134
   648.7500   2000.0000   2038.0000     33.5599    130.7646
   649.0000   2000.0000   2038.0000     34.7449    115.0410
   649.2500   2000.0000   2038.0000     36.4753    101.4489
   649.5000   2000.0000   2038.0000     38.9724     80.1589
   649.7500   2000.0000   2038.0000     42.4994     66.9839
   650.0000   2000.0000   2038.0000     47.3584     50.2720
   650.2500   2000.0000   2038.0000     53.8418     41.4753
   650.5000   2000.0000   2038.0000     62.0941     31.5638
   650.7500   2000.0000   2038.0000     71.8178     26.7592
   651.0000   2000.0000   2038.0000     81.8250     21.6429
   651.2500   2000.0000   2038.0000     89.7519     19.4217
   651.5000   2000.0000   2038.0000     92.7397     17.6795
   651.7500   2000.0000   2038.0000     89.3252     17.4202
   652.0000   2000.0000   2038.0000     80.7024     17.9131
   652.2500   2000.0000   2038.0000     69.6498     18.5129
   652.5000   2000.0000   2038.0000     58.6169     19.4469
   652.7500   2000.0000   2038.0000     48.9255     20.0288
   653.0000   2000.0000   2038.0000     40.9849     20.9545
   653.2500   2000.0000   2038.0000     34.7222     21.8094
   653.5000   2000.0000   2038.0000     29.8812     24.0967
   653.7500   2000.0000   2038.0000     26.1711     26.8388
   654.0000   2000.0000   2038.0000     23.3272     33.8959
   654.2500   2000.0000   2038.0000     21.1277     41.1134
