~Version Information
VERS.                      2.0: CWLS Log ASCII Standard - VERSION 2.0
WRAP.                       NO: One line per depth step
~Well Information Block
STRT.FT               -11.2500: 
STOP.FT              1597.0000: 
STEP.FT                 0.2500: 
NULL.                -999.2500: 
COMP.          Petrogulf Corporation: COMPANY
WELL.          Great Plains 22-21R: WELL
FLD.           Purgatorie River: FIELD
LOC.           73' FNL & 1992' FWL--: LOCATION
PROV.                       CO: PROVINCE
CNTY.               Las Animas: COUNTRY
SRVC.          Patterson Wireline: SERVICE COMPANY
DATE.          Fri Sep 09 09:02:35 2005: LOG DATE
UWI.           05 071 08343 00: UNIQUE WELL ID
~Curve Information Block
DEPT.FT            0 000 00 00: Depth
CCL.                          : Casing Collar Locator
TT3.usec                      : CBL 3' Travel Time
AMP3.mV                       : CBL 3' Amplitude
GR.GAPI                       : Gamma Ray
~Parameter Information Block
~A  Depth       CCL         TT3         AMP3         GR     
# ...
  1027.2500      0.0000    669.7177      7.6537    109.0512
  1027.5000      0.0000    667.4534      7.6340    101.8970
  1027.7500      0.0000    665.9945      7.6874     96.7206
  1028.0000      0.0000    665.3102      7.8062     94.8081
  1028.2500      0.0000    665.0654      7.9697     96.3715
  1028.5000      0.0000    665.0045      8.1526    100.4225
  1028.7500      0.0000    665.0191      8.3338    105.7774
  1029.0000      0.0000    665.1169      8.4996    111.6063
  1029.2500      0.0000    665.4476      8.6403    117.0093
  1029.5000      0.0000    666.4067      8.7444    121.0072
  1029.7500      0.0000    668.7965      8.7992    123.2835
  1030.0000      0.0000    673.8289      8.8009    124.2442
  1030.2500      0.0000    682.7181      8.7665    123.9865
  1030.5000      0.0000    695.8240      8.7343    121.6831
  1030.7500      0.0000    711.7295      8.7448    116.3793
  1031.0000      0.0000    727.1108      8.8177    108.3996
  1031.2500      0.0000    738.2238      8.9480     99.8688
  1031.5000      0.0000    743.3218      9.1233     93.7001
  1031.7500      0.0000    743.6526      9.3356     91.9602
  1032.0000      0.0000    741.9136      9.5798     95.0308
  1032.2500      0.0000    740.0072      9.8515    101.7828
  1032.5000      0.0000    738.2701     10.1499    110.2062
  1032.7500      0.0000    736.1974     10.4719    118.3881
  1033.0000      0.0000    733.5510     10.8015    125.4724
  1033.2500      0.0000    731.2361     11.1121    131.6755
  1033.5000      0.0000    731.4337     11.3849    137.5019
  1033.7500      0.0000    736.2576     11.6167    143.1489
  1034.0000      0.0000    745.3231     11.8120    148.3028
  1034.2500      0.0000    754.5965     11.9781    152.1809
  1034.5000      0.0000    758.6632     12.1230    154.1873
  1034.7500      0.0000    755.0921     12.2463    154.5273
  1035.0000      0.0000    746.6978     12.3347    153.7485
  1035.2500      0.0000    739.2650     12.3755    152.0748
  1035.5000      0.0000    736.5983     12.3655    149.8010
  1035.7500      0.0000    737.2108     12.2940    147.8319
  1036.0000      0.0000    735.5948     12.1197    147.2695
  1036.2500      0.0000    727.6526     11.7942    148.6732
  1036.5000      0.0000    715.5507     11.3375    151.9695
  1036.7500      0.0000    706.6635     10.8718    156.7241
  1037.0000      0.0000    707.1826     10.5328    161.9782
  1037.2500      0.0000    717.2552     10.3449    165.7735
  1037.5000      0.0000    731.9099     10.2280    165.3480
  1037.7500      0.0000    744.9904     10.1092    158.6141
  1038.0000      0.0000    752.2578      9.9734    146.1005
  1038.2500     -2.0000    753.0585      9.8302    131.3019
  1038.5000      2.0000    749.7183      9.6898    118.5423
  1038.7500      0.0000    744.1976      9.5686    110.1662
  1039.0000      0.0000    735.7239      9.5006    105.7389
  1039.2500      0.0000    723.1318      9.5363    103.7054
  1039.5000      0.0000    709.2319      9.7036    103.3836
  1039.7500      0.0000    701.2951      9.9382    105.2246
  1040.0000      0.0000    705.7896     10.0830    109.5457
  1040.2500      0.0000    722.2510     10.0197    115.3074
  1040.5000      0.0000    742.9366      9.7855    120.0899
  1040.7500      0.0000    759.1254      9.5189    121.2159
  1041.0000      0.0000    767.4275      9.3172    117.2470
  1041.2500      0.0000    770.4149      9.1876    109.0015
  1041.5000      0.0000    772.7990      9.0988     99.3800
  1041.7500      0.0000    777.6476      9.0307     91.7673
  1042.0000      0.0000    784.8579      8.9774     88.1814
  1042.2500      0.0000    791.9480      8.9367     88.7976
  1042.5000      0.0000    796.3417      8.9129     92.7510
  1042.7500      0.0000    797.2543      8.9235     98.8680
  1043.0000      0.0000    795.5743      8.9901    105.9982
  1043.2500      0.0000    792.5095      9.1146    113.4180
  1043.5000      0.0000    788.6453      9.2677    120.7147
  1043.7500      0.0000    783.6596      9.4091    126.8167
  1044.0000      0.0000    776.3886      9.5199    130.0115
  1044.2500      0.0000    765.7296      9.6137    130.0416
  1044.5000      0.0000    752.1704      9.7148    129.4793
  1044.7500      0.0000    738.1125      9.8291    131.4474
  1045.0000      0.0000    726.1442      9.9359    136.1850
  1045.2500      0.0000    717.3051     10.0035    141.1925
  1045.5000      0.0000    711.6471     10.0064    144.5648
  1045.7500      0.0000    710.3033      9.9285    146.8094
  1046.0000      0.0000    715.8611      9.7549    149.4280
  1046.2500      0.0000    729.6224      9.4666    152.9551
  1046.5000      0.0000    748.7525      9.0546    156.6960
  1046.7500      0.0000    767.3229      8.5461    159.5901
  1047.0000      0.0000    780.5146      8.0169    161.0754
  1047.2500      0.0000    787.3417      7.5627    161.3908
  1047.5000      0.0000    789.7348      7.2487    160.6963
  1047.7500      0.0000    790.1213      7.0877    157.7066
  1048.0000      0.0000    789.9920      7.0616    150.2089
  1048.2500      0.0000    789.7740      7.1506    137.6635
  1048.5000      0.0000    789.2012      7.3373    122.5762
  1048.7500      0.0000    787.5732      7.5971    108.6626
  1049.0000      0.0000    783.8957      7.9006     98.3406
  1049.2500      0.0000    777.3843      8.2338     92.3196
  1049.5000      0.0000    768.5977      8.6127     90.2804
  1049.7500      0.0000    760.3016      9.0751     90.7468
  1050.0000      0.0000    756.4881      9.6498     91.2123
  1050.2500      0.0000    759.4178     10.3202     89.8962
  1050.5000      0.0000    767.1531     11.0051     87.3396
  1050.7500      0.0000    774.4439     11.5770     85.4809
  1051.0000      0.0000    776.7302     11.9137     85.3903
  1051.2500      0.0000    773.3284     11.9417     86.4996
  1051.5000      0.0000    766.4562     11.6514     87.5434
  1051.7500      0.0000    757.5886     11.0958     87.4619
  1052.0000      0.0000    745.9291     10.3823     85.7956
  1052.2500      0.0000    730.9639      9.6385     83.0793
  1052.5000      0.0000    715.3880      8.9598     80.7837
  1052.7500      0.0000    704.1495      8.3796     80.1478
  1053.0000      0.0000    700.6248      7.8855     80.9271
  1053.2500      0.0000    704.3036      7.4594     81.6736
  1053.5000      0.0000    711.6418      7.0974     81.2328
  1053.7500      0.0000    717.9673      6.8016     79.5483
  1054.0000      0.0000    718.8295      6.5677     77.1356
  1054.2500      0.0000    711.6705      6.3877     74.5065
  1054.5000      0.0000    697.6298      6.2586     72.3207
  1054.7500      0.0000    681.0278      6.1812     71.3504
  1055.0000      0.0000    666.3650      6.1481     71.7158
  1055.2500      0.0000    656.0639      6.1379     72.5649
  1055.5000      0.0000    650.8636      6.1260     73.0375
  1055.7500      0.0000    651.3087      6.1012     73.3384
  1056.0000      0.0000    658.3074      6.0718     74.3706
  1056.2500      0.0000    672.0536      6.0592     76.5257
  1056.5000      0.0000    690.2577      6.0896     79.2909
  1056.7500      0.0000    708.2779      6.1850     81.6415
  1057.0000      0.0000    721.9429      6.3560     82.3478
  1057.2500      0.0000    730.0725      6.5969     80.4880
  1057.5000      0.0000    734.1032      6.8905     76.3354
  1057.7500      0.0000    736.1382      7.2183     71.5263
  1058.0000      0.0000    737.8005      7.5670     67.9927
  1058.2500      0.0000    740.2853      7.9279     66.5833
  1058.5000      0.0000    744.5779      8.2946     66.5752
  1058.7500      0.0000    751.0024      8.6563     66.7222
  1059.0000      0.0000    758.3084      8.9921     67.2380
  1059.2500      0.0000    763.5923      9.2719     70.5859
  1059.5000      0.0000    763.9570      9.4674     79.4821
  1059.7500      0.0000    758.5240      9.5624     93.7412
  1060.0000      0.0000    748.6280      9.5543    109.3393
  1060.2500      0.0000    736.4708      9.4502    120.7926
  1060.5000      0.0000    724.4885      9.2719    124.5658
