~Version Information
VERS.                      2.0: CWLS Log ASCII Standard - VERSION 2.0
WRAP.                       NO: One line per depth step
~Well Information Block
STRT.FT                -9.2500: 
STOP.FT              1945.2500: 
STEP.FT                 0.2500: 
NULL.                -999.2500: 
COMP.          Pioneer Natural Resources: COMPANY
WELL.          Titan Federal 34-17: WELL
FLD.           Purgatorie River: FIELD
LOC.           321' FSL & 1911' FEL: LOCATION
STAT.                       CO: State
CNTY.               Las Animas: COUNTY
CTRY. USA : Country
SECT. 17 : Section
TOWN. 32S : Township
RANG. 65W : Range
SRVC.          Patterson Wireline: SERVICE COMPANY
DATE.          Tue Oct 11 10:22:27 2005: LOG DATE
API.           05 071 08272 00: UNIQUE WELL ID
~Curve Information Block
DEPT.FT            0 000 00 00: Depth
CCL.                          : Casing Collar Locator
TT3.usec                      : CBL 3' Travel Time
AMP3.mV                       : CBL 3' Amplitude
GR.GAPI                       : Gamma Ray
~Parameter Information Block
~A  Depth       CCL         TT3         AMP3         GR     
# ...
   895.2500      0.0000    839.5551     11.2309    104.5164
   895.5000      0.0000    837.4058     11.1013    102.5363
   895.7500      0.0000    829.6982     11.0092    104.1240
   896.0000      0.0000    817.1276     10.9626    109.1717
   896.2500      0.0000    802.5400     10.9601    115.5830
   896.5000      0.0000    789.5961     10.9924    119.9158
   896.7500      0.0000    780.7088     11.0488    119.4679
   897.0000      0.0000    776.2085     11.1184    114.2168
   897.2500      0.0000    775.3255     11.1884    106.7259
   897.5000      0.0000    777.3914     11.2464    100.4049
   897.7500      0.0000    781.8082     11.2900     97.9333
   898.0000      0.0000    787.3203     11.3287    100.6430
   898.2500      0.0000    792.1956     11.3735    108.1630
   898.5000      0.0000    795.4553     11.4274    118.0845
   898.7500      0.0000    797.5486     11.4868    126.7460
   899.0000      0.0000    799.8808     11.5488    131.4162
   899.2500      0.0000    804.1334     11.6163    131.9972
   899.5000      0.0000    811.3888     11.6951    130.4313
   899.7500      0.0000    820.8080     11.7869    128.5578
   900.0000      0.0000    829.4050     11.8863    126.7168
   900.2500      0.0000    833.8571     11.9873    124.3035
   900.5000      0.0000    832.6127     12.0857    121.4593
   900.7500      0.0000    826.5477     12.1690    119.9154
   901.0000      0.0000    818.2306     12.2059    121.8300
   901.2500      0.0000    810.5054     12.1499    127.7857
   901.5000      0.0000    805.1143     11.9584    136.2612
   901.7500      0.0000    802.2751     11.6148    144.8222
   902.0000      0.0000    801.4122     11.1387    151.1534
   902.2500      0.0000    802.2045     10.5830    153.3522
   902.5000      0.0000    805.0566     10.0246    150.7374
   902.7500      0.0000    810.6570      9.5494    144.9408
   903.0000      0.0000    818.9313      9.2235    139.2486
   903.2500      0.0000    828.3324      9.0614    136.0578
   903.5000      0.0000    836.3586      9.0191    135.0687
   903.7500      0.0000    840.8870      9.0254    134.1342
   904.0000      0.0000    841.1168      9.0253    131.6924
   904.2500      0.0000    837.7352      9.0041    128.3009
   904.5000      0.0000    832.5446      8.9834    125.9840
   904.7500      0.0000    827.3020      9.0047    126.2285
   905.0000      0.0000    822.2066      9.1107    128.6555
   905.2500      0.0000    815.9379      9.3281    131.6060
   905.5000      0.0000    807.6732      9.6557    133.6888
   905.7500      0.0000    798.4725     10.0609    134.5189
   906.0000      0.0000    790.3788     10.4852    134.5178
   906.2500      0.0000    784.9073     10.8601    134.5845
   906.5000      0.0000    782.5709     11.1307    135.6774
   906.7500      0.0000    783.0001     11.2815    138.2200
   907.0000      0.0000    785.0587     11.3428    141.9492
   907.2500      0.0000    787.1620     11.3666    146.5710
   907.5000      0.0000    787.5988     11.3929    152.1778
   907.7500      0.0000    784.2335     11.4356    158.3827
   908.0000      0.0000    773.1885     11.4932    163.3993
   908.2500      0.0000    747.6852     11.5610    164.8337
   908.5000      0.0000    700.8610     11.6306    161.3166
   908.7500      0.0000    634.2079     11.6874    153.1019
   909.0000      0.0000    564.6051     11.7151    141.4626
   909.2500      0.0000    519.3555     11.7058    127.8757
   909.5000      0.0000    519.6576     11.6649    113.6636
   909.7500      0.0000    565.8705     11.6047    100.1559
   910.0000      0.0000    637.0517     11.5321     88.7910
   910.2500      0.0000    705.0087     11.4391     80.7339
   910.5000      0.0000    751.1470     11.3050     76.4753
   910.7500      0.0000    773.0657     11.1070     75.7429
   911.0000      0.0000    779.0538     10.8310     77.5780
   911.2500      0.0000    779.0926     10.4739     80.8362
   911.5000      0.0000    779.6627     10.0438     84.8409
   911.7500      0.0000    782.9500      9.5640     89.0362
   912.0000      0.0000    788.1044      9.0729     91.9070
   912.2500      0.0000    793.1145      8.6140     91.2709
   912.5000      0.0000    796.4441      8.2193     86.2521
   912.7500      0.0000    797.6072      7.9002     78.4369
   913.0000      0.0000    796.6539      7.6517     70.6157
   913.2500      0.0000    793.4329      7.4631     64.7246
   913.5000      0.0000    787.7003      7.3268     61.2824
   913.7500      0.0000    780.1942      7.2451     60.2903
   914.0000      0.0000    773.4026      7.2323     61.6975
   914.2500      0.0000    770.5292      7.3069     64.7719
   914.5000      0.0000    773.0749      7.4745     67.8622
   914.7500      0.0000    779.4682      7.7180     69.4332
   915.0000      0.0000    786.2820      8.0069     69.1332
   915.2500      0.0000    790.7543      8.3173     67.6011
   915.5000      0.0000    792.3538      8.6438     65.5009
   915.7500      0.0000    792.6262      8.9902     62.9713
   916.0000      0.0000    793.9826      9.3509     59.9272
   916.2500      0.0000    798.2367      9.7042     56.7417
   916.5000      0.0000    805.5128     10.0229     54.5110
   916.7500      0.0000    813.8308     10.2889     54.7007
   917.0000      0.0000    819.5214     10.4983     58.5566
   917.2500      0.0000    818.8788     10.6533     66.3314
   917.5000      0.0000    810.6732     10.7489     76.4639
   917.7500      0.0000    797.4632     10.7666     85.7948
   918.0000      0.0000    784.0566     10.6824     91.4106
   918.2500      0.0000    774.5333     10.4866     92.7395
   918.5000      0.0000    770.6520     10.1971     91.9120
   918.7500      0.0000    772.2078      9.8558     91.9748
   919.0000      0.0000    777.7592      9.5120     94.4527
   919.2500      0.0000    784.9575      9.2055     98.2631
   919.5000      0.0000    791.0683      8.9582    100.8041
   919.7500      0.0000    793.7282      8.7750     99.9694
   920.0000      0.0000    791.2849      8.6490     95.3372
   920.2500      0.0000    782.9533      8.5692     88.0926
   920.5000      0.0000    769.5725      8.5247     80.4192
   920.7500      0.0000    754.3725      8.5052     74.7680
   921.0000      0.0000    742.1981      8.4981     72.7324
   921.2500      0.0000    737.4771      8.4806     74.0245
   921.5000      0.0000    742.5744      8.4152     77.0009
   921.7500      0.0000    756.7073      8.2617     80.7343
   922.0000      0.0000    775.1430      8.0096     86.1987
   922.2500      0.0000    790.7466      7.7047     94.8892
   922.5000      0.0000    799.1829      7.4341    106.3348
   922.7500      0.0000    802.9824      7.2730    117.2602
   923.0000      0.0000    808.4496      7.2434    123.4099
   923.2500      0.0000    817.7714      7.3239    122.5928
   923.5000      0.0000    825.7558      7.4882    116.4704
   923.7500      0.0000    825.5390      7.7268    109.5819
   924.0000      0.0000    816.3575      8.0374    106.4377
   924.2500      0.0000    804.0279      8.4109    108.9088
   924.5000      0.0000    794.2721      8.8373    115.5866
   924.7500      0.0000    787.3210      9.3250    123.1978
   925.0000      0.0000    779.1671      9.9028    128.8793
   925.2500      0.0000    766.3888     10.5840    131.6129
   925.5000      0.0000    748.4727     11.3092    131.9474
   925.7500      0.0000    725.7870     11.9261    130.6232
   926.0000      0.0000    697.3956     12.2439    127.4572
   926.2500      0.0000    663.7950     12.1512    121.6147
   926.5000      0.0000    632.6207     11.7162    113.1164
   926.7500      0.0000    618.2573     11.1538    103.7750
   927.0000      0.0000    631.7960     10.6524     96.0577
   927.2500      0.0000    671.2839     10.2478     91.0019
   927.5000      0.0000    723.2845      9.9011     87.5605
   927.7500      0.0000    773.3953      9.6318     83.8965
   928.0000      0.0000    815.1277      9.4987     79.0723
   928.2500      0.0000    850.7961      9.4981     73.8222
   928.5000      0.0000    884.8376      9.5651     70.4096
