~Version Information
VERS.                      2.0: CWLS Log ASCII Standard - VERSION 2.0
WRAP.                       NO: One line per depth step
~Well Information Block
STRT.FT               450.0000: 
STOP.FT              1739.2000: 
STEP.FT                 0.1000: 
NULL.                -999.2500: 
COMP.          Pioneer Natural Resources: COMPANY
WELL.            Harlee L 34-9: WELL
FLD.           Purgatoire River: FIELD
LOC.           600' FSL & 2125' FEL: LOCATION
PROV.                 Colorado: PROVINCE
CNTY.               Las Animas: COUNTRY
SRVC.                Patterson: SERVICE COMPANY
DATE.          Wed Jan 26 13:57:24 2005: LOG DATE
UWI.           05 071 08009 00: UNIQUE WELL ID
~Curve Information Block
DEPT.FT            0 000 00 00: Depth
DCAL.in                       : CDL Caliper
RHOB.g/cc                     : CDL Bulk Density
RHOC.g/cc                     : CDL Density Correction
DPOR.pu                       : CDL Density Porosity
NPOR.pu                       : Neutron Porosity
GR.GAPI                       : Gamma Ray
~Parameter Information Block
~A  Depth       DCAL        RHOB        RHOC        DPOR        NPOR         GR     
# ...
   699.6000      8.9949      2.4691      0.0866     10.9659     18.4769     82.3148
   699.7000      8.9949      2.4581      0.0826     11.6289     19.1880     86.3764
   699.8000      8.9957      2.4360      0.0547     12.9720     20.0629     88.6978
   699.9000      8.9957      2.4186      0.0132     14.0217     20.7085     89.8479
   700.0000      9.0039      2.4300     -0.0005     13.3349     20.9471     92.0889
   700.1000      9.0039      2.4647      0.0777     11.2284     21.1409     95.6348
   700.2000      9.0039      2.4930      0.0700      9.5154     21.8172     99.4601
   700.3000      9.0141      2.4971      0.0385      9.2646     22.6952    106.9631
   700.4000      9.0141      2.4854      0.0502      9.9744     23.1846    116.4292
   700.5000      9.0140      2.4814      0.0297     10.2184     23.4543    120.2099
   700.6000      9.0140      2.5052      0.0707      8.7738     23.8199    117.7538
   700.7000      9.0140      2.5535      0.0509      5.8486     24.0137    114.8465
   700.8000      9.0116      2.6065      0.0906      2.6378     23.7538    115.3127
   700.9000      9.0116      2.6459      0.0767      0.2493     23.3908    118.6413
   701.0000      9.0127      2.6656      0.0908     -0.9438     23.4066    120.0186
   701.1000      9.0127      2.6783      0.0478     -1.7171     23.7329    116.0808
   701.2000      9.0127      2.6957      0.0854     -2.7688     24.2568    108.7644
   701.3000      9.0121      2.7020      0.1286     -3.1491     25.2259    102.0541
   701.4000      9.0121      2.6839      0.0678     -2.0535     26.3644     99.8541
   701.5000      9.0097      2.6527      0.0375     -0.1648     26.9346    103.3059
   701.6000      9.0097      2.6139      0.0035      2.1881     26.8965    108.8758
   701.7000      9.0097      2.5600      0.0122      5.4558     26.9014    113.6153
   701.8000      9.0135      2.4989     -0.0425      9.1569     27.2019    117.4705
   701.9000      9.0135      2.4615     -0.0162     11.4255     27.2168    120.4486
   702.0000      9.0208      2.4588      0.0757     11.5876     26.5376    121.9533
   702.1000      9.0208      2.4592      0.1387     11.5662     25.4874    121.0076
   702.2000      9.0208      2.4179      0.2004     14.0681     24.6516    117.0755
   702.3000      9.0252      2.3105      0.1314     20.5758     24.0488    112.9813
   702.4000      9.0252      2.1503      0.0103     30.2869     23.1032    112.4511
   702.5000      9.0375      1.9781     -0.0757     40.7205     21.5046    113.7840
   702.6000      9.0375      1.8269     -0.0770     49.8869     19.4029    111.0901
   702.7000      9.0375      1.6991     -0.0722     57.6280     17.1970    103.3795
   702.8000      9.0804      1.5746     -0.0909     65.1776     15.0925     96.7328
   702.9000      9.0804      1.4374     -0.1287     73.4899     12.9490     94.3306
   703.0000      9.1691      1.3069     -0.1722     81.4007     10.7323     93.0886
   703.1000      9.1691      1.2232     -0.1452     86.4702      8.7269     90.0610
   703.2000      9.1691      1.2013     -0.0452     87.8001      7.2931     85.4402
   703.3000      9.2988      1.2187      0.0881     86.7473      6.4780     80.3739
   703.4000      9.2988      1.2455      0.1347     85.1219      5.9706     75.4893
   703.5000      9.4410      1.2727      0.1589     83.4699      5.5051     72.6428
   703.6000      9.4410      1.3082      0.1815     81.3242      5.1815     72.9428
   703.7000      9.4410      1.3604      0.1857     78.1584      5.1051     75.8834
   703.8000      9.5445      1.4382      0.1753     73.4435      5.2270     78.6955
   703.9000      9.5445      1.5470      0.2121     66.8487      5.5979     78.6519
   704.0000      9.5706      1.6797      0.2386     58.8068      6.2231     77.9223
   704.1000      9.5706      1.8219      0.2906     50.1905      7.0597     81.1228
   704.2000      9.5706      1.9650      0.3353     41.5134      8.2849     87.8125
   704.3000      9.4940      2.1099      0.3700     32.7353      9.9518     93.9171
   704.4000      9.4940      2.2495      0.4423     24.2740     11.5998     98.3350
   704.5000      9.3028      2.3619      0.4412     17.4609     13.0420    103.1241
   704.6000      9.3028      2.4390      0.3666     12.7883     14.7454    111.4783
   704.7000      9.3028      2.5008      0.2755      9.0422     16.8734    123.3012
   704.8000      9.0952      2.5565      0.3161      5.6680     18.9457    132.3754
   704.9000      9.0952      2.5827      0.2831      4.0788     20.6228    136.4863
   705.0000      8.9924      2.5743      0.1280      4.5875     21.9931    138.9947
   705.1000      8.9924      2.5620      0.0703      5.3358     23.0790    141.6437
   705.2000      8.9924      2.5593      0.0787      5.4941     23.8911    144.5861
   705.3000      8.9712      2.5498      0.0755      6.0738     24.7594    142.6979
   705.4000      8.9712      2.5228      0.0551      7.7068     25.8094    133.6049
   705.5000      8.9694      2.4849      0.0845     10.0038     26.5576    125.0532
   705.6000      8.9694      2.4454      0.0077     12.3997     26.5311    123.3726
   705.7000      8.9694      2.4100      0.0027     14.5434     26.0538    128.2091
   705.8000      8.9695      2.3732      0.0377     16.7782     26.0364    136.0970
   705.9000      8.9695      2.3265      0.0214     19.6074     26.6264    141.4151
   706.0000      8.9725      2.2680      0.0058     23.1528     26.7365    143.2701
   706.1000      8.9725      2.1961     -0.0243     27.5069     25.7622    143.8324
   706.2000      8.9725      2.1062     -0.0136     32.9579     24.1943    142.2737
   706.3000      8.9843      1.9949     -0.0610     39.7007     22.4240    141.7709
   706.4000      8.9843      1.8658     -0.0529     47.5283     20.1917    145.1151
   706.5000      9.0056      1.7293     -0.1047     55.8028     17.4027    146.8546
   706.6000      9.0056      1.6023     -0.1071     63.4978     14.6362    140.5350
   706.7000      9.0056      1.4926     -0.0763     70.1443     12.3572    126.7694
   706.8000      9.0224      1.4055     -0.1423     75.4258     10.4421    112.6337
   706.9000      9.0224      1.3529     -0.0629     78.6104      8.7858    106.0175
   707.0000      9.0290      1.3259     -0.0053     80.2486      7.5514    104.4435
   707.1000      9.0290      1.3010      0.0129     81.7592      6.6437     98.5690
   707.2000      9.0290      1.2777      0.0037     83.1692      5.9053     89.2811
   707.3000      9.0299      1.2771      0.0512     83.2061      5.4777     82.2921
   707.4000      9.0299      1.3036      0.2292     81.6026      5.3229     76.7765
   707.5000      9.0194      1.3314      0.2876     79.9126      5.1122     69.7490
   707.6000      9.0194      1.3353      0.3023     79.6771      4.8539     62.6378
   707.7000      9.0194      1.3093      0.3063     81.2548      4.7556     59.0488
   707.8000      8.9763      1.2792      0.2040     83.0785      4.7978     58.5308
   707.9000      8.9763      1.3052      0.1512     81.5036      4.8998     58.5879
   708.0000      8.9103      1.4306      0.2419     73.9052      5.0536     58.7822
   708.1000      8.9103      1.6373      0.3779     61.3768      5.3049     60.6876
   708.2000      8.9103      1.8705      0.5127     47.2423      5.7668     65.4247
   708.3000      8.8770      2.0821      0.6077     34.4175      6.6133     69.5022
   708.4000      8.8770      2.2497      0.6411     24.2610      7.9403     73.1927
   708.5000      8.8776      2.3767      0.6100     16.5654      9.5955     81.7206
   708.6000      8.8776      2.4749      0.5822     10.6146     11.3173     91.1147
   708.7000      8.8776      2.5463      0.5284      6.2860     13.0595     95.3206
   708.8000      8.8779      2.5831      0.3928      4.0529     14.9726     97.4859
   708.9000      8.8779      2.5795      0.2450      4.2723     17.0397     99.6353
   709.0000      8.8698      2.5551      0.0880      5.7539     18.8405    100.4160
   709.1000      8.8698      2.5477      0.0673      6.2021     20.0692    100.6532
