~Version Information
VERS.                      2.0: CWLS Log ASCII Standard - VERSION 2.0
WRAP.                       NO: One line per depth step
~Well Information Block
STRT.FT               528.0000: 
STOP.FT              2250.0000: 
STEP.FT                 0.1000: 
NULL.                -999.2500: 
COMP.          Pioneer Natural Resources: COMPANY
WELL.           Parklane 43-34: WELL
FLD.           Purgatorie River: FIELD
LOC.           1704' FSL & 1119' FEL: LOCATION
PROV.                 Colorado: PROVINCE
CNTY.               Las Animas: COUNTRY
SRVC.                         : SERVICE COMPANY
DATE.          Thu Oct 07 08:21:17 2004: LOG DATE
UWI.           05 071 08162 00: UNIQUE WELL ID
~Curve Information Block
DEPT.FT            0 000 00 00: Depth
LTEN.lb                       : Surface Line Tension
DCAL.in                       : CDL Caliper
RHOB.g/cc                     : CDL Bulk Density
RHOC.g/cc                     : CDL Density Correction
DPOR.pu                       : CDL Density Porosity
GR.GAPI                       : Gamma Ray
NPOR.pu                       : Neutron Porosity
~Parameter Information Block
~A  Depth       LTEN        DCAL        RHOB        RHOC        DPOR         GR         NPOR    
# ...
  1552.8000   1075.9672      8.1946      2.5698      0.0617      4.8631    149.4200     23.7393
  1552.9000   1075.9672      8.1946      2.5694     -0.0138      4.8852    146.9757     22.8475
  1553.0000   1003.7008      8.0845      2.5930      0.0451      3.4533    137.4892     21.7148
  1553.1000   1003.7008      8.0845      2.6270      0.0671      1.3953    123.6808     20.2334
  1553.2000   1003.7008      8.0845      2.6456      0.0953      0.2664    111.6484     18.1556
  1553.3000   1056.1711      8.0382      2.6344      0.0673      0.9457    103.9846     15.6086
  1553.4000   1056.1711      8.0382      2.6098      0.0151      2.4363    100.6553     13.6444
  1553.5000   1029.2446      7.9951      2.6015     -0.0018      2.9422     96.0781     12.4471
  1553.6000   1029.2446      7.9951      2.6096      0.0099      2.4473     83.6377     11.4291
  1553.7000   1029.2446      7.9951      2.6166      0.0461      2.0265     67.8585     10.8774
  1553.8000   1055.0140      7.9692      2.6251      0.0115      1.5077     57.4675     11.2689
  1553.9000   1055.0140      7.9692      2.6485      0.0394      0.0888     53.3083     12.0930
  1554.0000    979.7211      7.9634      2.6779      0.0670     -1.6938     51.4432     12.6912
  1554.1000    979.7211      7.9634      2.6886      0.1059     -2.3398     53.2059     12.9025
  1554.2000    979.7211      7.9634      2.6727      0.0830     -1.3751     59.2013     12.7560
  1554.3000   1046.0410      7.9655      2.6531      0.0439     -0.1873     63.0143     12.5869
  1554.4000   1046.0410      7.9655      2.6485      0.0646      0.0888     61.1096     12.3420
  1554.5000    988.2099      7.9703      2.6434      0.0980      0.4022     56.8142     11.5254
  1554.6000    988.2099      7.9703      2.6270      0.0191      1.3946     56.6949     10.9726
  1554.7000    988.2099      7.9703      2.6075      0.0494      2.5776     63.0666     11.8463
  1554.8000   1028.6896      7.9776      2.5790      0.0489      4.3020     70.6564     14.2438
  1554.9000   1028.6896      7.9776      2.5447      0.0227      6.3839     74.6975     17.1375
  1555.0000   1036.3004      7.9855      2.5219      0.0291      7.7643     75.5441     19.0097
  1555.1000   1036.3004      7.9855      2.5112     -0.0142      8.4123     74.6196     19.2864
  1555.2000   1036.3004      7.9855      2.5008      0.0127      9.0397     74.8956     18.8927
  1555.3000   1024.9135      7.9958      2.4867      0.0169      9.8963     81.3250     19.1478
  1555.4000   1024.9135      7.9958      2.4767      0.0317     10.5039     96.2817     20.4746
  1555.5000   1078.9988      8.0178      2.4790      0.0675     10.3637    113.7645     22.0305
  1555.6000   1078.9988      8.0178      2.4895      0.1087      9.7263    127.4220     23.5082
  1555.7000   1078.9988      8.0178      2.4987      0.1219      9.1717    137.5920     25.5637
  1555.8000   1092.0200      8.0654      2.5012      0.1940      9.0200    145.5957     27.4834
  1555.9000   1092.0200      8.0654      2.4990      0.1731      9.1531    151.6724     27.8190
  1556.0000   1100.8093      8.1298      2.4988      0.1868      9.1614    155.8609     27.0327
  1556.1000   1100.8093      8.1298      2.5031      0.1795      8.9023    158.0475     26.5101
  1556.2000   1100.8093      8.1298      2.5106      0.1905      8.4484    160.4824     26.5003
  1556.3000   1113.3867      8.1670      2.5191      0.2018      7.9327    165.2521     26.8686
  1556.4000   1113.3867      8.1670      2.5324      0.1490      7.1247    170.7492     27.6159
  1556.5000   1100.3666      8.1673      2.5554      0.1867      5.7335    174.9159     28.3139
  1556.6000   1100.3666      8.1673      2.5812      0.1756      4.1672    177.4188     28.3241
  1556.7000   1100.3666      8.1673      2.5997      0.2067      3.0509    181.3776     27.8060
  1556.8000   1098.8181      8.1820      2.6039      0.2219      2.7967    188.8505     27.4732
  1556.9000   1098.8181      8.1820      2.5941      0.2173      3.3856    194.5452     27.3112
  1557.0000   1100.7784      8.2221      2.5776      0.1870      4.3861    190.8931     26.9849
  1557.1000   1100.7784      8.2221      2.5599      0.1443      5.4629    180.8257     27.0565
  1557.2000   1100.7784      8.2221      2.5385      0.1458      6.7569    173.8058     27.7548
  1557.3000   1091.4535      8.2581      2.5111      0.1022      8.4157    172.7551     28.3808
  1557.4000   1091.4535      8.2581      2.4740      0.1089     10.6681    176.4691     28.4653
  1557.5000   1098.6232      8.2821      2.4141      0.1249     14.2960    179.6008     27.9603
  1557.6000   1098.6232      8.2821      2.3355      0.0393     19.0622    177.5744     27.1171
  1557.7000   1098.6232      8.2821      2.2681      0.0452     23.1446    174.0679     26.6188
  1557.8000   1107.0453      8.3032      2.2284      0.0610     25.5503    171.1677     27.2027
  1557.9000   1107.0453      8.3032      2.2084      0.0311     26.7611    167.8865     28.2231
  1558.0000   1117.4392      8.3517      2.2038     -0.0091     27.0394    164.4541     28.3467
  1558.1000   1117.4392      8.3517      2.2287     -0.0109     25.5328    161.4810     28.2973
  1558.2000   1117.4392      8.3517      2.3066      0.0853     20.8109    160.1620     29.2198
  1558.3000   1044.2043      8.4419      2.4326      0.3704     13.1777    160.8670     30.4361
  1558.4000   1044.2043      8.4419      2.5572      0.4739      5.6215    161.8509     31.1058
  1558.5000   1066.2388      8.5765      2.6399      0.4845      0.6123    160.6030     30.7021
  1558.6000   1066.2388      8.5765      2.6763      0.4501     -1.5937    160.6728     29.1988
  1558.7000   1066.2388      8.5765      2.6799      0.3446     -1.8145    165.8397     27.7841
  1558.8000   1080.7064      8.7237      2.6707      0.2605     -1.2564    171.3242     27.0606
  1558.9000   1080.7064      8.7237      2.6622      0.2320     -0.7395    171.7303     26.7164
  1559.0000   1028.5859      8.7541      2.6541      0.2075     -0.2461    168.3386     26.5418
  1559.1000   1028.5859      8.7541      2.6437      0.2016      0.3815    161.5257     26.6407
  1559.2000   1028.5859      8.7541      2.6321      0.1537      1.0839    152.6024     26.8174
  1559.3000   1076.8889      8.5491      2.6186      0.0944      1.9051    146.7033     26.5651
  1559.4000   1076.8889      8.5491      2.6006      0.0990      2.9934    145.7220     25.8956
  1559.5000   1046.8235      8.2778      2.5859      0.0421      3.8819    146.8712     24.9918
  1559.6000   1046.8235      8.2778      2.5823      0.0562      4.1042    144.2244     24.0808
  1559.7000   1046.8235      8.2778      2.5812      0.0467      4.1676    138.2053     23.5511
  1559.8000   1010.8253      8.1418      2.5756      0.0190      4.5062    134.6505     23.2217
  1559.9000   1010.8253      8.1418      2.5634      0.0607      5.2501    133.8184     22.9830
  1560.0000   1079.5439      8.1016      2.5496     -0.0105      6.0839    135.2711     22.9632
  1560.1000   1079.5439      8.1016      2.5544     -0.0520      5.7913    137.6404     22.6256
  1560.2000   1079.5439      8.1016      2.5770      0.0504      4.4246    134.0156     21.6726
  1560.3000   1056.5370      8.0808      2.5891      0.0403      3.6898    123.5285     20.9409
  1560.4000   1056.5370      8.0808      2.5805      0.0144      4.2097    116.7880     21.1679
  1560.5000   1077.1825      8.0629      2.5576      0.0400      5.6016    119.7851     21.2478
  1560.6000   1077.1825      8.0629      2.5289      0.0176      7.3406    127.3915     20.4290
  1560.7000   1077.1825      8.0629      2.5153     -0.0330      8.1642    132.3091     19.9591
  1560.8000   1049.2506      8.0381      2.5223      0.0291      7.7373    130.5715     20.4897
  1560.9000   1049.2506      8.0381      2.5309      0.0155      7.2153    123.9522     20.8904
  1561.0000   1023.9553      8.0093      2.5374     -0.0068      6.8261    117.5763     20.8113
  1561.1000   1023.9553      8.0093      2.5526     -0.0079      5.9015    115.4440     21.0545
