~Version Information
VERS.                      2.0: CWLS Log ASCII Standard - VERSION 2.0
WRAP.                       NO: One line per depth step
~Well Information Block
STRT.FT               679.2000: 
STOP.FT              2289.5000: 
STEP.FT                 0.1000: 
NULL.                -999.2500: 
COMP.          Petrogulf Corporation: COMPANY
WELL.          Anderson 18-43V: WELL
FLD.           Purgatorie River: FIELD
LOC.           1782' FSL & 887' FEL: LOCATION
CNTY.               Las Animas: COUNTY
SRVC.                         : SERVICE COMPANY
DATE.          Thu Sep 02 08:33:50 2004: LOG DATE
UWI.           05 071 08156 00: UNIQUE WELL ID
STAT.                 Colorado: STATE
~Curve Information Block
DEPT.FT            0 000 00 00: Depth
GR.GAPI                       : Gamma Ray
DCAL.in                       : CDL Caliper
DPOR.pu                       : CDL Density Porosity
NPOR.pu                       : Neutron Porosity
RHOB.g/cc                     : CDL Bulk Density
RHOC.g/cc                     : CDL Density Correction
~Parameter Information Block
~A  Depth        GR         DCAL        DPOR        NPOR        RHOB        RHOC    
# ...
  1639.2000    108.0583      8.0347      4.1147     21.3472      2.5821      0.1244
  1639.3000    106.4813      8.0237      5.4622     20.8788      2.5599      0.0676
  1639.4000    105.0331      8.0237      6.2237     20.7276      2.5473      0.0394
  1639.5000    103.6032      8.0374      6.2649     20.3376      2.5466      0.0290
  1639.6000    102.1107      8.0374      6.3411     19.8198      2.5454      0.0380
  1639.7000    100.5116      8.0374      6.5804     19.6241      2.5414      0.0400
  1639.8000     98.8010      8.0392      6.6606     19.4596      2.5401      0.0537
  1639.9000     97.0115      8.0392      6.6575     18.7919      2.5402      0.0599
  1640.0000     95.2029      8.0317      6.9403     17.8867      2.5355      0.0877
  1640.1000     93.4561      8.0317      7.5912     17.5879      2.5247      0.0607
  1640.2000     91.8575      8.0317      8.2348     18.0061      2.5141      0.0390
  1640.3000     90.4957      8.0331      8.7432     18.1923      2.5057      0.0480
  1640.4000     89.4511      8.0331      9.6542     17.6075      2.4907      0.0668
  1640.5000     88.7914      8.0436     11.0693     16.7361      2.4674      0.0273
  1640.6000     88.5717      8.0436     11.9009     16.2648      2.4536      0.0187
  1640.7000     88.8347      8.0436     11.1773     16.5667      2.4656      0.0432
  1640.8000     89.6095      8.0455      9.1541     17.3029      2.4990      0.0816
  1640.9000     90.9135      8.0455      6.9184     17.8152      2.5358      0.1084
  1641.0000     92.7495      8.0514      5.3633     18.0964      2.5615      0.1055
  1641.1000     95.1064      8.0514      4.4782     18.5125      2.5761      0.1218
  1641.2000     97.9479      8.0514      3.8172     19.1694      2.5870      0.1055
  1641.3000    101.2097      8.0504      3.2458     19.6689      2.5964      0.1255
  1641.4000    104.7927      8.0504      2.9257     19.5824      2.6017      0.1130
  1641.5000    108.5609      8.0513      2.7617     19.4555      2.6044      0.0805
  1641.6000    112.3424      8.0513      2.8530     19.9521      2.6029      0.1200
  1641.7000    115.9378      8.0513      3.8955     20.8787      2.5857      0.1216
  1641.8000    119.1345      8.0599      5.5791     21.8216      2.5579      0.0323
  1641.9000    121.7215      8.0599      6.3358     22.4892      2.5455     -0.0303
  1642.0000    123.5079      8.0635      5.9389     22.6302      2.5520      0.0347
  1642.1000    124.3371      8.0635      5.6227     22.4217      2.5572      0.0143
  1642.2000    124.1024      8.0635      5.7044     22.3211      2.5559     -0.0104
  1642.3000    122.7525      8.0761      5.9433     22.3734      2.5519      0.0264
  1642.4000    120.2961      8.0761      6.7757     22.0954      2.5382      0.0301
  1642.5000    116.8002      8.0760      8.2111     21.4004      2.5145     -0.0034
  1642.6000    112.3859      8.0760      9.4444     20.7733      2.4942      0.0191
  1642.7000    107.2163      8.0760     10.2251     20.3613      2.4813      0.0044
  1642.8000    101.4888      8.0677     10.9541     19.8895      2.4693      0.0006
  1642.9000     95.4197      8.0677     11.5876     19.1881      2.4588     -0.0259
  1643.0000     89.2317      8.0636     11.7228     18.3334      2.4566     -0.0051
  1643.1000     83.1416      8.0636     11.5959     17.3817      2.4587      0.0233
  1643.2000     77.3460      8.0636     11.4585     16.3845      2.4609      0.0179
  1643.3000     72.0136      8.0650     11.1245     15.4219      2.4664      0.0169
  1643.4000     67.2772      8.0650     10.7743     14.5749      2.4722      0.0688
  1643.5000     63.2246      8.0651     10.5233     13.8450      2.4764      0.0309
  1643.6000     59.9000      8.0651      9.9637     13.2411      2.4856      0.0396
  1643.7000     57.3003      8.0651      9.1989     12.7703      2.4982      0.0730
  1643.8000     55.3830      8.0686      8.6271     12.5239      2.5077      0.0488
  1643.9000     54.0702      8.0686      8.0385     12.8131      2.5174      0.0645
  1644.0000     53.2628      8.1000      7.8539     13.2468      2.5204      0.0920
  1644.1000     52.8516      8.1000      9.0714     13.1872      2.5003      0.0876
  1644.2000     52.7329      8.1000     11.1215     12.8869      2.4665      0.0265
  1644.3000     52.8208      8.1048     12.3512     12.5799      2.4462      0.0735
  1644.4000     53.0539      8.1048     12.2594     12.0954      2.4477      0.0461
  1644.5000     53.4002      8.1040     11.3705     11.4629      2.4624      0.0775
  1644.6000     53.8568      8.1040     10.3893     10.9977      2.4786      0.1144
  1644.7000     54.4454      8.1040      9.9122     10.9878      2.4864      0.0953
  1644.8000     55.2044      8.1075      9.6516     11.3374      2.4907      0.0716
  1644.9000     56.1837      8.1075      9.1523     11.6692      2.4990      0.1380
  1645.0000     57.4325      8.1055      9.1122     11.7046      2.4996      0.1084
  1645.1000     58.9940      8.1055     10.3774     11.5283      2.4788      0.1512
  1645.2000     60.9000      8.1055     12.5799     11.5658      2.4424      0.0846
  1645.3000     63.1655      8.1058     14.6755     12.0493      2.4079      0.0800
  1645.4000     65.7882      8.1058     16.5533     12.8419      2.3769      0.0952
  1645.5000     68.7464      8.1081     18.5856     13.9859      2.3433      0.0489
  1645.6000     72.0026      8.1081     20.1593     15.6248      2.3174      0.0217
  1645.7000     75.5084      8.1081     20.1680     17.4426      2.3172      0.0390
  1645.8000     79.2081      8.1085     18.4908     18.8688      2.3449      0.1120
  1645.9000     83.0433      8.1085     16.0823     19.7148      2.3846      0.1592
  1646.0000     86.9586      8.1067     13.8461     20.3265      2.4215      0.1899
  1646.1000     90.9063      8.1067     11.9531     20.9005      2.4528      0.1881
  1646.2000     94.8482      8.1067      9.5714     21.2333      2.4921      0.1364
  1646.3000     98.7562      8.1059      6.3060     21.3607      2.5460      0.1732
  1646.4000    102.6132      8.1059      3.7085     21.5525      2.5888      0.1545
  1646.5000    106.4125      8.1047      3.0468     21.7739      2.5997      0.1072
  1646.6000    110.1515      8.1047      3.5857     21.8677      2.5908      0.0879
  1646.7000    113.8284      8.1047      4.1425     22.0069      2.5816      0.0481
  1646.8000    117.4356      8.1041      4.2466     22.2239      2.5799      0.0302
  1646.9000    120.9575      8.1041      4.3360     22.3076      2.5785      0.0571
  1647.0000    124.3643      8.1034      5.1796     22.3969      2.5645      0.0529
  1647.1000    127.6163      8.1034      6.3240     22.6535      2.5457      0.0193
  1647.2000    130.6626      8.1034      6.8373     22.8622      2.5372      0.0458
  1647.3000    133.4509      8.1063      6.7090     22.9821      2.5393      0.0484
  1647.4000    135.9330      8.1063      6.1264     23.1815      2.5489      0.0493
  1647.5000    138.0732      8.1258      5.4181     23.5784      2.5606      0.1022
  1647.6000    139.8554      8.1258      5.1298     24.0902      2.5654      0.0748
  1647.7000    141.2834      8.1258      5.1224     24.4620      2.5655      0.0383
  1647.8000    142.3852      8.1282      4.9520     24.7286      2.5683      0.0539
  1647.9000    143.2105      8.1282      4.9592     25.1320      2.5682      0.0451
  1648.0000    143.8289      8.1292      5.6835     25.6949      2.5562      0.0118
  1648.1000    144.3219      8.1292      6.6687     26.1803      2.5400      0.0147
  1648.2000    144.7816      8.1292      6.9640     26.0883      2.5351      0.0196
  1648.3000    145.3019      8.1334      6.4597     25.4008      2.5434      0.0437
  1648.4000    145.9711      8.1334      5.6404     24.8717      2.5569      0.0321
  1648.5000    146.8618      8.1295      5.0368     24.7954      2.5669      0.0259
  1648.6000    148.0234      8.1295      5.2821     24.7218      2.5628      0.0422
  1648.7000    149.4760      8.1295      6.5878     24.4939      2.5413      0.0468
