~Version Information
 VERS.                                  2.0 : CWLS LAS VERSION
 WRAP.                                   NO : WRAPING MODE
 SWARE .                 MController 2.5.0J : SOFTWARE VERSION
~Well Information
 WELL.                       Ei-Ei-Oh 31-24 : WELL
 COMP.    Pioneer Natural Resources USA Inc : COMPANY
 FLD.                      Purgatoire River : FIELD
 LOC.                NW/NE Sec 24 T32S R67W : LOCATION
 DATE.                         6/12-13/2005 : DATE(S) LOGGED
 SRVC.       Blanco Geological Services LLC : SERVICE COMPANY
 STAT.                                   CO : STATE
 CNTY.                           Las Animas : COUNTY
 CTRY.                                  USA : COUNTRY
 API.                       05-071-08403-00 : API NUMBER
 STRT.FT                             436.00 : START DEPTH
 STOP.FT                            2853.00 : STOP DEPTH
 STEP.FT                               1.00 : DEPTH INCREMENT
 NULL.                                -9999 : NULL VALUE
~Curve information
 DEPTH.FT                                   :
 ROP.MIN/FT                                 :
 GAS.UNITS                                  :
~ASCII Log data
# ...
      1436.0         2.25        121.8 
      1437.0         0.43        190.6 
      1438.0         0.37        245.3 
      1439.0         0.33        260.8 
      1440.0         0.33        255.5 
      1441.0         0.33        215.5 
      1442.0         0.32        173.8 
      1443.0         0.30        146.3 
      1444.0         0.23        126.6 
      1445.0         0.27        115.2 
      1446.0         0.37        106.2 
      1447.0         0.20         98.0 
      1448.0         0.30         94.6 
      1449.0         0.23         91.3 
      1450.0         0.13         92.0 
      1451.0         0.20         93.3 
      1452.0         0.20         93.4 
      1453.0         0.23        117.6 
      1454.0         0.20        182.4 
      1455.0         0.27        278.8 
      1456.0         0.28        343.5 
      1457.0         0.23        366.9 
      1458.0         0.27        372.0 
      1459.0         0.23        371.8 
      1460.0         0.20        367.5 
      1461.0         0.30        358.2 
      1462.0         0.17        353.2 
      1463.0         0.30        346.0 
      1464.0         0.30        319.7 
      1465.0         0.27        319.6 
      1466.0         0.98        338.6 
      1467.0         0.50       1220.4 
      1468.0         0.43       1493.3 
      1469.0         0.27       1498.8 
      1470.0         0.13       1399.7 
      1471.0         0.17       1309.1 
      1472.0         0.23       1210.3 
      1473.0         0.20       1047.0 
      1474.0         0.27        938.7 
      1475.0         0.30        841.3 
      1476.0         0.20        780.1 
      1477.0         0.23        747.0 
      1478.0         0.17        707.1 
      1479.0         0.28        687.5 
      1480.0         0.17        657.1 
      1481.0         0.23        640.1 
      1482.0         0.20        631.6 
      1483.0         0.20        634.2 
      1484.0         0.20        639.1 
      1485.0         0.17        638.8 
      1486.0         0.17        629.3 
      1487.0         0.13        620.1 
      1488.0         0.13        605.1 
      1489.0         0.10        596.9 
      1490.0         0.13        582.5 
      1491.0         0.17        576.6 
      1492.0         0.13        570.7 
      1493.0         0.17        556.0 
      1494.0         0.27        555.0 
      1495.0         0.20        553.0 
      1496.0         1.12        536.7 
      1497.0         0.37        296.0 
      1498.0         0.53       1147.5 
      1499.0         0.47       1306.1 
      1500.0         0.30       1282.6 
      1501.0         0.30       1121.3 
      1502.0         0.27        929.9 
      1503.0         0.28        804.6 
      1504.0         0.30        723.8 
      1505.0         0.27        655.4 
      1506.0         0.23        616.2 
      1507.0         0.20        586.4 
      1508.0         0.23        570.0 
      1509.0         0.20        561.2 
      1510.0         0.20        541.9 
      1511.0         0.17        518.4 
      1512.0         0.17        515.7 
      1513.0         0.37        533.7 
      1514.0         0.27        597.9 
      1515.0         0.23        678.0 
      1516.0         0.17        718.6 
      1517.0         0.23        713.7 
      1518.0         0.22        627.0 
      1519.0         0.23        502.0 
      1520.0         0.23        440.0 
      1521.0         0.20        135.0 
      1522.0         0.20        139.8 
      1523.0         0.17        154.0 
      1524.0         0.20        167.7 
      1525.0         0.20        177.6 
      1526.0         1.43        179.0 
      1527.0         0.28         89.5 
      1528.0         0.37        218.0 
      1529.0         0.47        440.3 
      1530.0         0.40       1161.5 
      1531.0         0.30       1161.5 
      1532.0         0.33       1082.7 
      1533.0         0.27        882.8 
      1534.0         0.27        751.9 
      1535.0         0.23        664.3 
      1536.0         0.27        607.3 
      1537.0         0.27        593.9 
      1538.0         0.22        581.8 
      1539.0         0.13        568.1 
      1540.0         0.13        552.1 
      1541.0         0.20        533.4 
      1542.0         0.17        513.8 
      1543.0         0.47        497.1 
      1544.0         0.23        488.9 
      1545.0         0.23        540.3 
      1546.0         0.13        562.5 
      1547.0         0.17        650.2 
      1548.0         0.20        726.4 
      1549.0         0.23        737.5 
      1550.0         0.23        745.4 
      1551.0         0.27        713.7 
      1552.0         0.25        668.5 
      1553.0         0.27        638.4 
      1554.0         0.37        610.9 
      1555.0         0.30        556.0 
      1556.0         1.20        505.9 
      1557.0         0.40        249.6 
      1558.0         0.43        439.2 
      1559.0         0.42       1177.6 
      1560.0         0.33       1200.8 
      1561.0         0.27       1142.9 
      1562.0         0.27       1000.2 
      1563.0         0.20        856.6 
      1564.0         0.23        768.6 
      1565.0         0.23        694.4 
      1566.0         0.20        631.9 
      1567.0         0.23        590.7 
      1568.0         0.23        565.8 
      1569.0         0.23        577.6 
      1570.0         0.23        587.1 
      1571.0         0.27        577.9 
      1572.0         0.32        551.7 
      1573.0         0.20        518.7 
      1574.0         0.20        547.1 
      1575.0         0.20        485.6 
      1576.0         0.23        474.5 
      1577.0         0.23        475.8 
      1578.0         0.20        475.2 
      1579.0         0.17        480.4 
      1580.0         0.23        521.3 
      1581.0         0.27        524.6 
      1582.0         0.23        512.1 
      1583.0         0.20        512.1 
      1584.0         0.20        458.2 
      1585.0         0.23        461.4 
      1586.0         2.38        497.7 
      1587.0         0.43       1044.4 
      1588.0         0.40       1220.4 
      1589.0         0.35       1225.7 
      1590.0         0.23       1115.4 
      1591.0         0.27        971.1 
      1592.0         0.17        826.5 
      1593.0         0.27        754.6 
      1594.0         0.23        656.1 
      1595.0         0.33        587.7 
      1596.0         0.23        517.7 
      1597.0         0.23        511.5 
      1598.0         0.20        511.5 
      1599.0         0.23        507.6 
      1600.0         0.23        517.7 
      1601.0         0.17        522.0 
      1602.0         0.23        528.8 
      1603.0         0.18        523.9 
      1604.0         0.23        513.1 
      1605.0         0.20        487.9 
      1606.0         0.23        473.9 
      1607.0         0.17        467.7 
      1608.0         0.20        520.0 
      1609.0         0.20        461.8 
      1610.0         0.23        494.5 
      1611.0         0.20        488.6 
      1612.0         0.23        488.6 
      1613.0         0.17        501.3 
      1614.0         0.13        496.8 
      1615.0         0.27        508.5 
      1616.0         2.25        486.6 
      1617.0         0.37        418.5 
      1618.0         0.40       1094.8 
      1619.0         0.40       1202.8 
      1620.0         0.37       1187.7 
      1621.0         0.35       1035.6 
      1622.0         0.30        839.0 
      1623.0         0.27        709.4 
      1624.0         0.30        631.6 
      1625.0         0.27        565.5 
      1626.0         0.23        532.8 
      1627.0         0.27        513.1 
      1628.0         0.20        495.8 
      1629.0         0.27        491.9 
      1630.0         0.20        484.7 
      1631.0         0.23        495.5 
      1632.0         0.23        501.3 
      1633.0         0.23        510.8 
      1634.0         0.28        509.5 
      1635.0         0.20        499.4 
