~Version Information
VERS.                      2.0: CWLS Log ASCII Standard - VERSION 2.0
WRAP.                       NO: One line per depth step
~Well Information Block
STRT.FT               -13.5000: 
STOP.FT              2092.5000: 
STEP.FT                 0.2500: 
NULL.                -999.2500: 
COMP.          Petrogulf Corporation: COMPANY
WELL.          Robinson 15-11V: WELL
FLD.           Purgatorie River: FIELD
LOC.           226' FNL & 592' FWL--: LOCATION
CNTY.               Las Animas: COUNTY
SRVC.                         : SERVICE COMPANY
DATE.          Tue Aug 17 13:05:46 2004: LOG DATE
UWI.                          : UNIQUE WELL ID
STAT.                       CO: STATE
~Curve Information Block
DEPT.FT            0 000 00 00: Depth
CCL.                          : Casing Collar Locator
TT3.usec                      : CBL 3' Travel Time
AMP3.mV                       : CBL 3' Amplitude
GR.GAPI                       : Gamma Ray
~Parameter Information Block
~A  Depth       CCL         TT3         AMP3         GR     
# ...
   556.0000      0.0000    471.6610     11.3851     72.6555
   556.2500      0.0000    424.5539     11.4295     78.7080
   556.5000      0.0000    379.8617     11.4788     81.3341
   556.7500      0.0000    346.3870     11.5570     82.2930
   557.0000      0.0000    326.9399     11.7101     84.1080
   557.2500      0.0000    318.2142     11.9520     88.0802
   557.5000      0.0000    315.1783     12.2356     93.5733
   557.7500      0.0000    314.4109     12.4857     98.5630
   558.0000      0.0000    314.6357     12.6421    100.7717
   558.2500      0.0000    315.9549     12.6661     98.8756
   558.5000      0.0000    319.1913     12.5177     93.3003
   558.7500      0.0000    325.0944     12.1498     86.1451
   559.0000      0.0000    333.4471     11.5520     80.2583
   559.2500      0.0000    342.6550     10.8021     77.9772
   559.5000      0.0000    350.6315     10.0604     80.1675
   559.7500      0.0000    356.5794      9.5004     85.7961
   560.0000      0.0000    362.4584      9.2222     92.1023
   560.2500      0.0000    373.7270      9.2047     95.7195
   560.5000      0.0000    398.8166      9.3270     94.7412
   560.7500      0.0000    445.3607      9.4453     90.1777
   561.0000      0.0000    513.1544      9.4607     85.0917
   561.2500      0.0000    590.1420      9.3386     82.1343
   561.5000      0.0000    658.2712      9.1025     81.9733
   561.7500      0.0000    705.1901      8.8274     83.6672
   562.0000      0.0000    729.9914      8.6167     85.8249
   562.2500      0.0000    738.7118      8.5511     87.2711
   562.5000      0.0000    736.4316      8.6534     87.2791
   562.7500      0.0000    722.9284      8.9022     85.8576
   563.0000      0.0000    693.2965      9.2606     83.9075
   563.2500      0.0000    642.6461      9.6780     82.5875
   563.5000      0.0000    572.8391     10.0796     82.1375
   563.7500      0.0000    495.7775     10.3841     81.5295
   564.0000      0.0000    428.1982     10.5484     79.6115
   564.2500      0.0000    381.6449     10.6003     76.4234
   564.5000      0.0000    357.2273     10.6159     73.0771
   564.7500      0.0000    348.6711     10.6561     70.6521
   565.0000      0.0000    348.1941     10.7360     69.6160
   565.2500      0.0000    349.7765     10.8625     70.0808
   565.5000      0.0000    349.6563     11.0725     71.9902
   565.7500      0.0000    346.0748     11.4022     74.8271
   566.0000      0.0000    339.1953     11.8307     77.5136
   566.2500      0.0000    330.7849     12.2769     79.0420
   566.5000      0.0000    323.1681     12.6481     79.3346
   566.7500      0.0000    317.8424     12.8783     79.4759
   567.0000      0.0000    314.9146     12.9361     81.1148
   567.2500      0.0000    313.6274     12.8286     85.2299
   567.5000      0.0000    313.1745     12.6137     91.1768
   567.7500      0.0000    313.0928     12.3918     97.2680
   568.0000      0.0000    313.3202     12.2514    102.4611
   568.2500      0.0000    314.4175     12.2037    107.0218
   568.5000      0.0000    318.3530     12.1622    111.4241
   568.7500      0.0000    329.7818     11.9830    115.1685
   569.0000      0.0000    356.4351     11.5433    117.1264
   569.2500      0.0000    406.0860     10.8137    116.9078
   569.5000      0.0000    479.8000      9.8723    115.4972
   569.7500      0.0000    566.7803      8.8433    114.5342
   570.0000      0.0000    647.6641      7.8155    115.0806
   570.2500      0.0000    705.5034      6.8121    116.7295
   570.5000      0.0000    735.2875      5.8219    117.5315
   570.7500      0.0000    744.3820      4.8495    115.0482
   571.0000      0.0000    744.8861      3.9442    108.0955
   571.2500      0.0000    745.0090      3.1816     97.8506
   571.5000      0.0000    746.0152      2.6139     87.2258
   571.7500      0.0000    745.6520      2.2462     78.7616
   572.0000      0.0000    743.3539      2.0609     72.8888
   572.2500      0.0000    741.9208      2.0475     68.2739
   572.5000      0.0000    744.7873      2.2013     63.7457
   572.7500      0.0000    752.6437      2.5100     59.7023
   573.0000      0.0000    763.1915      2.9446     57.8556
   573.2500      0.0000    773.5432      3.4618     60.0200
   573.5000      0.0000    781.8651      4.0267     67.2113
   573.7500      0.0000    787.0854      4.6443     79.3383
   574.0000      0.0000    788.1199      5.3571     95.0486
   574.2500      0.0000    783.4615      6.2038    111.7234
   574.5000      0.0000    770.5880      7.1797    126.3569
   574.7500      0.0000    746.5392      8.2261    137.2753
   575.0000      0.0000    712.0417      9.2371    144.9311
   575.2500      0.0000    676.4379     10.0782    150.5985
   575.5000      0.0000    655.0072     10.6286    154.5629
   575.7500      0.0000    657.1489     10.8368    155.9343
   576.0000      0.0000    677.9965     10.7398    154.0722
   576.2500      0.0000    703.7898     10.4315    150.0752
   576.5000      0.0000    723.6930     10.0134    146.8665
   576.7500      0.0000    734.9937      9.5664    147.2407
   577.0000      0.0000    740.0869      9.1434    151.3155
   577.2500      0.0000    741.9885      8.7731    156.1464
   577.5000      0.0000    742.4977      8.4657    158.3068
   577.7500      0.0000    742.4130      8.2167    156.7880
   578.0000      0.0000    742.0915      8.0138    153.2326
   578.2500      0.0000    741.7400      7.8554    149.7712
   578.5000      0.0000    741.4447      7.7598    147.3727
   578.7500      0.0000    741.2004      7.7459    146.0588
   579.0000      0.0000    740.8819      7.8060    145.6257
   579.2500      0.0000    740.1876      7.9082    145.6605
   579.5000      0.0000    738.7503      8.0241    145.3956
   579.7500      0.0000    736.5542      8.1328    144.0437
   580.0000      0.0000    734.3143      8.1977    141.4307
   580.2500      0.0000    733.1604      8.1775    138.3784
   580.5000      0.0000    733.6699      8.0901    136.3217
   580.7500      0.0000    735.3268      8.0422    136.1367
   581.0000      0.0000    737.0833      8.1538    137.1790
   581.2500      0.0000    738.2645      8.4416    137.5584
   581.5000      0.0000    738.8225      8.7905    135.5479
   581.7500      0.0000    739.0043      9.0536    130.9182
   582.0000      0.0000    739.0314      9.1776    124.9841
   582.2500      0.0000    739.0129      9.2207    119.4665
   582.5000      0.0000    738.9805      9.2574    115.5256
   582.7500      0.0000    738.9389      9.2999    113.6319
   583.0000      0.0000    738.8955      9.3153    113.8756
   583.2500      0.0000    738.8524      9.2743    116.2394
   583.5000      0.0000    738.8066      9.1555    120.6067
   583.7500      0.0000    738.7717      8.9364    126.3313
   584.0000      0.0000    738.7803      8.6227    131.9839
   584.2500      0.0000    738.8488      8.2796    136.1561
   584.5000      0.0000    738.9554      8.0044    138.5409
   584.7500      0.0000    739.0311      7.8571    139.5346
   585.0000      0.0000    738.8942      7.8230    138.7525
   585.2500      0.0000    738.1210      7.8377    134.9366
   585.5000      0.0000    735.8578      7.8395    127.6979
   585.7500      0.0000    730.6016      7.7964    118.6053
   586.0000      0.0000    719.8468      7.6935    110.1023
   586.2500      0.0000    700.3790      7.5136    103.8352
   586.5000      0.0000    670.8533      7.2548    100.1274
   586.7500      0.0000    636.4081      6.9662     98.1927
   587.0000      0.0000    609.9725      6.7410     96.4328
   587.2500      0.0000    605.1104      6.6507     93.2561
   587.5000      0.0000    625.0566      6.6931     88.2486
   587.7500      0.0000    659.6676      6.8154     82.3656
   588.0000      2.0000    693.7356      6.9730     76.9977
   588.2500      2.0000    717.0071      7.1541     73.1753
   588.5000      0.0000    725.7051      7.3653     71.3269
   588.7500      0.0000    717.8817      7.6080     71.1697
   589.0000      0.0000    692.0548      7.8656     71.9183
   589.2500      0.0000    651.4120      8.0972     72.9711
