~Version Information
VERS.                      2.0: CWLS Log ASCII Standard - VERSION 2.0
WRAP.                       NO: One line per depth step
~Well Information Block
STRT.FT               -11.0000: 
STOP.FT              2634.5000: 
STEP.FT                 0.2500: 
NULL.                -999.2500: 
COMP.          Evergreen Operating Corporation: COMPANY
WELL.          Sand PebbleS 13-33: WELL
FLD.           Purgatorie River: FIELD
LOC.           1883' FSL & 63' FWL--: LOCATION
PROV.                 Colorado: PROVINCE
CNTY.               Las Animas: COUNTRY
SRVC.          Patterson Wireline: SERVICE COMPANY
DATE.          Fri Mar 18 09:37:20 2005: LOG DATE
UWI.          005 071 08224 : UNIQUE WELL ID
~Curve Information Block
DEPT.FT            0 000 00 00: Depth
CCL.                          : Casing Collar Locator
TT3.usec                      : CBL 3' Travel Time
AMP3.mV                       : CBL 3' Amplitude
GR.GAPI                       : Gamma Ray
~Parameter Information Block
~A  Depth       CCL         TT3         AMP3         GR     
# ...
  2267.0000      0.0000    307.9577     12.3018    118.9250
  2267.2500      0.0000    307.9305     12.5551    115.4233
  2267.5000      0.0000    307.9246     12.6698    112.3284
  2267.7500      0.0000    307.9077     12.7291    109.9263
  2268.0000      0.0000    307.8329     12.8059    108.9121
  2268.2500      0.0000    307.6823     12.9163    109.6961
  2268.5000      0.0000    307.5006     13.0109    111.3875
  2268.7500      0.0000    307.3861     12.9972    112.2079
  2269.0000      0.0000    307.4347     12.7934    110.9833
  2269.2500      0.0000    307.6757     12.3940    108.1140
  2269.5000      0.0000    308.0702     11.8820    105.1639
  2269.7500      0.0000    308.5817     11.3627    103.4398
  2270.0000      0.0000    309.3081     10.8923    102.8093
  2270.2500      0.0000    310.6067     10.4743    102.0938
  2270.5000      0.0000    313.1773     10.1026    100.7029
  2270.7500      0.0000    317.8064      9.7915     99.4202
  2271.0000      0.0000    324.4413      9.5741     99.3053
  2271.2500      0.0000    331.2979      9.4782    100.4205
  2271.5000      0.0000    335.6805      9.4938    102.0046
  2271.7500      0.0000    336.3643      9.5686    103.3534
  2272.0000      0.0000    334.5551      9.6468    104.0225
  2272.2500      0.0000    332.1412      9.7031    103.7485
  2272.5000      0.0000    330.0541      9.7319    102.8946
  2272.7500      0.0000    328.6247      9.7249    102.7192
  2273.0000      0.0000    328.0359      9.6838    104.4425
  2273.2500      0.0000    327.8054      9.6426    107.7590
  2273.5000      0.0000    326.9398      9.6457    110.5999
  2273.7500      0.0000    325.0937      9.7027    110.7723
  2274.0000      0.0000    322.8494      9.7898    107.9597
  2274.2500      0.0000    320.8852      9.8825    103.9590
  2274.5000      0.0000    319.6880      9.9599    100.8743
  2274.7500      0.0000    319.8585      9.9842     99.3623
  2275.0000      0.0000    321.7877      9.9086     98.6475
  2275.2500      0.0000    324.9178      9.7217     97.6672
  2275.5000      0.0000    327.7122      9.4830     95.7881
  2275.7500      0.0000    328.4207      9.2979     93.0236
  2276.0000      0.0000    326.0959      9.2423     90.3478
  2276.2500      0.0000    321.3197      9.3117     89.6301
  2276.5000      0.0000    315.9073      9.4489     92.3465
  2276.7500      0.0000    311.6083      9.6034     97.8515
  2277.0000      0.0000    309.0736      9.7461    103.3886
  2277.2500      0.0000    307.9555      9.8497    106.5003
  2277.5000      0.0000    307.6040      9.8955    107.3933
  2277.7500      0.0000    307.5453      9.8973    108.3440
  2278.0000      0.0000    307.5607      9.8864    110.7504
  2278.2500      0.0000    307.5865      9.8706    113.4006
  2278.5000      0.0000    307.5929      9.8402    113.8799
  2278.7500      0.0000    307.5219      9.8244    111.2956
  2279.0000      0.0000    307.3138      9.9000    107.2616
  2279.2500      0.0000    306.9718     10.1099    104.3283
  2279.5000      0.0000    306.6212     10.3872    103.6553
  2279.7500      0.0000    306.5271     10.5959    104.4411
  2280.0000      0.0000    307.0578     10.6559    105.5280
  2280.2500      0.0000    308.5041     10.6054    106.8352
  2280.5000      0.0000    310.7175     10.5416    108.6856
  2280.7500      0.0000    312.8692     10.5261    110.4459
  2281.0000      0.0000    314.0071     10.5579    110.8006
  2281.2500      0.0000    314.3581     10.6082    109.0808
  2281.5000      0.0000    316.1647     10.6544    105.7337
  2281.7500      0.0000    322.7661     10.6759    101.6706
  2282.0000      0.0000    336.1981     10.6371     97.6220
  2282.2500      0.0000    355.6975     10.4910     94.0854
  2282.5000      0.0000    379.3068     10.2010     91.5209
  2282.7500      0.0000    405.9333      9.7535     90.1141
  2283.0000      0.0000    432.7094      9.1759     89.1151
  2283.2500      0.0000    450.8376      8.5608     86.9144
  2283.5000      0.0000    449.9082      8.0359     82.5633
  2283.7500      0.0000    429.1795      7.6747     77.3570
  2284.0000      0.0000    401.3865      7.4471     74.2971
  2284.2500     -2.0000    384.2837      7.2643     75.4292
  2284.5000     -2.0000    390.6783      7.0538     79.6945
  2284.7500      0.0000    424.3235      6.8046     83.5494
  2285.0000      0.0000    478.4711      6.5793     83.6871
  2285.2500      0.0000    535.4456      6.4800     79.2577
  2285.5000      0.0000    572.0335      6.5619     71.8931
  2285.7500      0.0000    571.2830      6.7736     64.0555
  2286.0000      0.0000    532.5787      7.0165     57.5897
  2286.2500      0.0000    471.6207      7.2536     53.5382
  2286.5000      0.0000    410.1040      7.5264     52.5468
  2286.7500      0.0000    363.3406      7.8802     54.7086
  2287.0000      0.0000    335.1129      8.3179     58.9931
  2287.2500      0.0000    321.1614      8.8153     63.5408
  2287.5000      0.0000    315.3263      9.3443     67.0229
  2287.7500      0.0000    313.1099      9.8791     69.4233
  2288.0000      0.0000    312.1568     10.3920     71.2318
  2288.2500      0.0000    311.5238     10.8509     72.3181
  2288.5000      0.0000    310.9613     11.2252     71.8536
  2288.7500      0.0000    310.4777     11.5012     68.9484
  2289.0000      0.0000    310.1331     11.6897     63.3228
  2289.2500      0.0000    309.9355     11.8117     55.8524
  2289.5000      0.0000    309.8441     11.8756     48.6126
  2289.7500      0.0000    309.8113     11.8709     44.0561
  2290.0000      0.0000    309.8172     11.7899     43.7271
  2290.2500      0.0000    309.8660     11.6514     47.2792
  2290.5000      0.0000    310.0028     11.4912     52.4145
  2290.7500      0.0000    310.4374     11.3231     56.1272
  2291.0000      0.0000    311.7805     11.1100     56.6360
  2291.2500      0.0000    315.3970     10.7865     54.3867
  2291.5000      0.0000    323.5943     10.3260     51.2300
  2291.7500      0.0000    339.4927      9.7867     48.7535
  2292.0000      0.0000    366.1221      9.2772     47.3482
  2292.2500      0.0000    404.5205      8.8776     46.6536
  2292.5000      0.0000    452.0093      8.6013     46.6117
  2292.7500      0.0000    502.7625      8.4136     47.7290
  2293.0000      0.0000    549.8183      8.2668     50.2148
  2293.2500      0.0000    585.1039      8.1239     53.2835
  2293.5000      0.0000    599.1741      7.9735     55.6458
  2293.7500      0.0000    586.3888      7.8303     56.6751
  2294.0000      0.0000    553.3870      7.7127     57.1009
  2294.2500      0.0000    520.0102      7.6216     58.6318
  2294.5000      0.0000    507.5280      7.5445     62.7991
  2294.7500      0.0000    523.3965      7.4766     69.8635
  2295.0000      0.0000    556.8395      7.4279     78.5343
  2295.2500      0.0000    588.9764      7.4059     86.6622
  2295.5000      0.0000    606.1376      7.4031     92.4793
  2295.7500      0.0000    604.0377      7.4101     95.5111
  2296.0000      0.0000    583.8175      7.4313     96.4650
  2296.2500      0.0000    549.4089      7.4731     96.3275
  2296.5000      0.0000    508.4295      7.5230     95.6918
  2296.7500      0.0000    470.9238      7.5660     94.8997
  2297.0000      0.0000    444.2236      7.6218     94.5382
  2297.2500      0.0000    429.3761      7.7271     95.3400
  2297.5000      0.0000    422.7121      7.8688     97.2071
  2297.7500      0.0000    419.5621      7.9642     98.6964
  2298.0000      0.0000    416.3045      7.9340     98.4764
  2298.2500      0.0000    410.6490      7.7853     97.5161
  2298.5000      0.0000    401.7768      7.6164     98.5364
  2298.7500      0.0000    390.5970      7.5432    102.6391
  2299.0000      0.0000    379.1096      7.6158    107.6108
  2299.2500      0.0000    369.0585      7.7913    110.2734
  2299.5000      0.0000    361.1946      7.9769    109.6211
  2299.7500      0.0000    355.6090      8.1037    106.9399
  2300.0000      0.0000    352.1715      8.1668    103.7094
  2300.2500      0.0000    350.5844      8.2024    100.4709
