~Version Information
 VERS.                                  2.0 : CWLS LAS VERSION
 WRAP.                                   NO : WRAPING MODE
 SWARE .                 MController 2.5.0N : SOFTWARE VERSION
~Well Information
 WELL.                         State 16-41V : WELL
 COMP.                Petrogulf Corporation : COMPANY
 FLD.                      Purgatoire River : FIELD
 LOC.                NE/NE Sec 16 T33S R67W : LOCATION
 DATE.                             08/01/05 : DATE(S) LOGGED
 SRVC.       BLANCO Geological Services LLC : SERVICE COMPANY
 STAT.                                   CO : STATE
 CNTY.                           Las Animas : COUNTY
 CTRY.                                  USA : COUNTRY
 API.                       05-071-08344-00 : API NUMBER
 STRT.FT                             582.00 : START DEPTH
 STOP.FT                            2275.00 : STOP DEPTH
 STEP.FT                               1.00 : DEPTH INCREMENT
 NULL.                                -9999 : NULL VALUE
~Curve information
 DEPTH.FT                                   :
 ROP.MIN/FT                                 :
 GAS.UNITS                                  :
~ASCII Log data
       582.0     -9999.00         12.3 
       583.0         2.75         12.6 
       584.0         0.42         12.0 
       585.0         0.67         12.1 
       586.0         0.07         11.8 
       587.0         1.23         11.8 
       588.0         0.33         11.5 
       589.0         0.30         11.6 
       590.0         0.38         11.6 
       591.0         0.10         11.5 
       592.0         0.60         11.5 
       593.0         0.20         11.5 
       594.0         0.43         11.3 
       595.0         0.27         11.3 
       596.0         0.47         11.2 
       597.0         0.20         11.2 
       598.0         0.10         11.1 
       599.0         0.75         11.2 
       600.0         0.07         11.1 
       601.0         0.20         10.9 
       602.0         0.80         10.9 
       603.0         0.17         11.2 
       604.0         0.10         10.8 
       605.0         1.25         10.9 
       606.0         0.57         10.9 
       607.0         0.20         10.8 
       608.0         0.23         10.9 
       609.0         0.67         11.8 
       610.0         0.13         11.5 
       611.0         0.53         11.9 
       612.0         1.72         12.0 
       613.0         5.33         11.9 
       614.0         0.67         11.3 
       615.0         0.33         11.3 
       616.0         0.20         11.3 
       617.0         0.13         11.2 
       618.0         0.85         11.3 
       619.0         0.17         11.2 
       620.0         2.52         15.4 
       621.0         0.77         14.6 
       622.0         0.17         12.4 
       623.0         0.30         12.0 
       624.0         1.27         11.6 
       625.0         0.88         11.2 
       626.0         1.10         11.0 
       627.0         0.33         11.0 
       628.0         2.18         10.9 
       629.0         0.10         10.6 
       630.0         0.33         10.6 
       631.0         0.27         10.8 
       632.0         0.10         10.5 
       633.0         0.07         10.4 
       634.0         0.50         10.7 
       635.0         0.95         10.7 
       636.0         0.20         10.4 
       637.0         0.43         10.6 
       638.0         0.17         10.4 
       639.0         0.37         10.6 
       640.0         0.23         10.4 
       641.0         0.30         10.4 
       642.0         0.20         10.3 
       643.0         0.10         10.2 
       644.0         0.20         10.5 
       645.0         0.10         10.1 
       646.0         0.27         10.5 
       647.0         0.07         10.0 
       648.0         0.10          9.9 
       649.0         0.38          6.9 
       650.0         0.20          8.6 
       651.0         0.27          2.2 
       652.0         0.27          4.0 
       653.0         0.20          5.0 
       654.0         0.20          5.1 
       655.0         0.30          5.3 
       656.0         1.27          6.7 
       657.0         0.27          4.6 
       658.0         0.28          4.1 
       659.0         0.20          3.7 
       660.0         0.20          3.1 
       661.0         0.20          7.7 
       662.0         0.20         78.7 
       663.0         0.20        156.8 
       664.0         0.20        158.4 
       665.0         0.13        120.9 
       666.0         0.13         85.7 
       667.0         0.13         58.4 
       668.0         0.13         40.3 
       669.0         0.13         28.6 
       670.0         0.27         22.3 
       671.0         0.20         14.7 
       672.0         0.17         13.7 
       673.0         0.13         12.9 
       674.0         0.13         11.3 
       675.0         0.17         10.7 
       676.0         0.22          9.3 
       677.0         0.20          7.1 
       678.0         0.27          6.5 
       679.0         0.23         11.1 
       680.0         0.20         16.9 
       681.0         0.37         33.6 
       682.0         0.20         34.5 
       683.0         0.30         31.1 
       684.0         0.27         20.2 
       685.0         0.27         12.0 
       686.0         1.55          9.5 
       687.0         0.40          6.0 
       688.0         0.33          5.0 
       689.0         0.17          4.7 
       690.0         0.17          4.5 
       691.0         0.10          4.7 
       692.0         0.17          6.2 
       693.0         0.17          6.4 
       694.0         0.23          6.0 
       695.0         0.20          5.2 
       696.0         0.20          5.0 
       697.0         0.18          5.7 
       698.0         0.20          5.7 
       699.0         0.20          5.8 
       700.0         0.20          5.5 
       701.0         0.17          4.8 
       702.0         0.20          4.3 
       703.0         0.23          3.4 
       704.0         0.23          1.5 
       705.0         0.20          2.6 
       706.0         0.20          5.7 
       707.0         0.17          9.2 
       708.0         0.17         12.0 
       709.0         0.17         16.6 
       710.0         0.17         21.5 
       711.0         0.13         24.9 
       712.0         0.17         34.2 
       713.0         0.17         46.2 
       714.0         0.22         48.8 
       715.0         0.27         43.0 
       716.0         1.27         29.4 
       717.0         0.67          3.2 
       718.0         0.40          3.2 
       719.0         0.20          3.3 
       720.0         0.20          3.0 
       721.0         0.32          2.6 
       722.0         0.23          2.7 
       723.0         0.20          2.2 
       724.0         0.20          2.7 
       725.0         0.20          3.6 
       726.0         0.20          3.8 
       727.0         0.20          3.1 
       728.0         0.17          2.8 
       729.0         0.13          3.1 
       730.0         0.17          4.7 
       731.0         0.17          6.6 
       732.0         0.23          6.6 
       733.0         0.27          4.7 
       734.0         0.13          2.0 
       735.0         0.20          2.5 
       736.0         0.17          3.7 
       737.0         0.13          5.9 
       738.0         0.15          8.5 
       739.0         0.20         17.8 
       740.0         0.20         20.4 
       741.0         0.17         19.0 
       742.0         0.17         14.8 
       743.0         0.23         10.1 
       744.0         0.13          8.0 
       745.0         0.23          7.5 
       746.0         1.75          5.9 
       747.0         0.30          2.3 
       748.0         0.27          2.1 
       749.0         0.17          2.2 
       750.0         0.20          1.9 
       751.0         0.20          1.5 
       752.0         0.23          1.5 
       753.0         0.20          1.6 
       754.0         0.20          1.4 
       755.0         0.17          1.4 
       756.0         0.20          1.7 
       757.0         0.17          1.1 
       758.0         0.13          0.5 
       759.0         0.20          0.2 
       760.0         0.17         -0.3 
       761.0         0.20          0.1 
       762.0         0.17          0.2 
       763.0         0.22          0.1 
       764.0         0.20          0.2 
       765.0         0.17          0.0 
       766.0         0.17         -0.3 
       767.0         0.20         -0.2 
       768.0         0.17         -0.3 
       769.0         0.17          0.4 
       770.0         0.17          1.1 
       771.0         0.17          2.8 
       772.0         0.17          4.5 
       773.0         0.20          7.0 
       774.0         0.13          9.8 
       775.0         0.23         14.5 
       776.0         1.38         18.9 
       777.0         0.37         12.1 
       778.0         0.20         10.1 
       779.0         0.20          9.1 
       780.0         0.17          8.2 
       781.0         0.17          8.0 
