~Version Information
VERS.                      2.0: CWLS Log ASCII Standard - VERSION 2.0
WRAP.                       NO: One line per depth step
~Well Information Block
STRT.FT                -7.7500: 
STOP.FT               973.7500: 
STEP.FT                 0.2500: 
NULL.                -999.2500: 
COMP.          Pioneer Natural Resources: COMPANY
WELL.              Dylan 42-25: WELL
FLD.           Purgatorie River: FIELD
LOC.           2160' FNL & 855' FEL: LOCATION
PROV.                 Colorado: PROVINCE
CNTY.               Las Animas: COUNTRY
SRVC.          Patterson Wireline: SERVICE COMPANY
DATE.          Fri Apr 29 16:36:17 2005: LOG DATE
UWI.           05-071-08229-00: UNIQUE WELL ID
~Curve Information Block
DEPT.FT            0 000 00 00: Depth
CCL.                          : Casing Collar Locator
TT3.usec                      : CBL 3' Travel Time
AMP3.mV                       : CBL 3' Amplitude
GR.GAPI                       : Gamma Ray
~Parameter Information Block
~A  Depth       CCL         TT3         AMP3         GR     
# ...
   729.2500      0.0000    732.7723      8.7264     97.0170
   729.5000      0.0000    745.8778      8.6907     97.4721
   729.7500      0.0000    759.1903      8.6577     97.9312
   730.0000      0.0000    769.3265      8.6199     98.8897
   730.2500      0.0000    774.9217      8.5634     99.7149
   730.5000      0.0000    774.9363      8.4627     99.8216
   730.7500      0.0000    768.6733      8.2853     99.6063
   731.0000      0.0000    758.0445      8.0234     99.8216
   731.2500      0.0000    748.2072      7.7290    100.5542
   731.5000      0.0000    745.2306      7.4859    101.2317
   731.7500      0.0000    753.0807      7.3190    101.2969
   732.0000      0.0000    771.1268      7.1666    100.5358
   732.2500      0.0000    792.9586      6.9784     99.0329
   732.5000      0.0000    808.9974      6.7965     97.1490
   732.7500      0.0000    813.0117      6.6987     95.4141
   733.0000      0.0000    807.1749      6.7013     94.3104
   733.2500      5.0000    800.0381      6.7540     94.3309
   733.5000      5.0000    798.8033      6.7954     96.1505
   733.7500      0.0000    803.7253      6.7894    100.1497
   734.0000      0.0000    809.8306      6.7388    105.4289
   734.2500      0.0000    812.7457      6.6968    109.6951
   734.5000      0.0000    812.1827      6.7538    110.6740
   734.7500      0.0000    810.9213      6.9818    107.8187
   735.0000      0.0000    811.5806      7.3773    102.6850
   735.2500      0.0000    814.1842      7.8517     97.6899
   735.5000      0.0000    815.9769      8.2807     94.3547
   735.7500      0.0000    812.9733      8.5743     92.5424
   736.0000      0.0000    802.0035      8.7154     91.2089
   736.2500      0.0000    782.6351      8.7442     89.6265
   736.5000      0.0000    758.3397      8.7151     87.7742
   736.7500      0.0000    735.4562      8.6675     85.9490
   737.0000      0.0000    720.1041      8.6204     84.4233
   737.2500      0.0000    715.5016      8.5805     83.4133
   737.5000      0.0000    721.4499      8.5494     83.0748
   737.7500      0.0000    735.3475      8.5268     83.4928
   738.0000      0.0000    753.6838      8.5124     84.7265
   738.2500      0.0000    773.2496      8.5067     86.7685
   738.5000      0.0000    791.1710      8.5108     89.3944
   738.7500      0.0000    804.1904      8.5237     92.0839
   739.0000      0.0000    808.9984      8.5401     94.0077
   739.2500      0.0000    803.9587      8.5531     94.0006
   739.5000      0.0000    790.7892      8.5654     90.8869
   739.7500      0.0000    774.7912      8.5996     84.4332
   740.0000      0.0000    762.7312      8.6885     76.0707
   740.2500      0.0000    758.9495      8.8457     68.2113
   740.5000      0.0000    762.6370      9.0460     62.7354
   740.7500      0.0000    769.0544      9.2386     60.3770
   741.0000      0.0000    773.6791      9.3794     61.0929
   741.2500      0.0000    775.1405      9.4522     64.0831
   741.5000      0.0000    774.5376      9.4703     67.5207
   741.7500      0.0000    772.7829      9.4612     69.2989
   742.0000      0.0000    769.3334      9.4439     68.4898
   742.2500      0.0000    763.4103      9.4206     65.7917
   742.5000      0.0000    755.6675      9.3919     62.6071
   742.7500      0.0000    748.0382      9.3743     60.0141
   743.0000      0.0000    742.1337      9.3900     58.4773
   743.2500      0.0000    738.1438      9.4411     57.9717
   743.5000      0.0000    735.2075      9.5029     58.1627
   743.7500      0.0000    732.5767      9.5438     58.7215
   744.0000      0.0000    730.4401      9.5509     59.5924
   744.2500      0.0000    729.6693      9.5363     60.6855
   744.5000      0.0000    730.7278      9.5218     61.3278
   744.7500      0.0000    733.0319      9.5197     60.5675
   745.0000      0.0000    735.5768      9.5328     58.1979
   745.2500      0.0000    738.0316      9.5656     55.0824
   745.5000      0.0000    740.9917      9.6233     52.4280
   745.7500      0.0000    745.1095      9.6987     51.0556
   746.0000      0.0000    749.9112      9.7704     51.2134
   746.2500      0.0000    753.5727      9.8185     52.6615
   746.5000      0.0000    754.2672      9.8352     54.9535
   746.7500      0.0000    751.8613      9.8246     57.9299
   747.0000      0.0000    748.0052      9.7969     61.9406
   747.2500      0.0000    744.5851      9.7637     67.2563
   747.5000      0.0000    742.4346      9.7344     73.0972
   747.7500      0.0000    741.3835      9.7163     77.6092
   748.0000      0.0000    740.9658      9.7142     79.3711
   748.2500      0.0000    740.8644      9.7290     78.9559
   748.5000      0.0000    740.9551      9.7566     78.6323
   748.7500      0.0000    741.2065      9.7931     80.5338
   749.0000      0.0000    741.5812      9.8412     85.3589
   749.2500      0.0000    741.9481      9.9085     92.4244
   749.5000      0.0000    741.9995      9.9974    100.1958
   749.7500      0.0000    741.1655     10.0984    106.6387
   750.0000      0.0000    738.6254     10.1934    109.6987
   750.2500      0.0000    733.7057     10.2654    108.0530
   750.5000      0.0000    726.7436     10.3040    101.7741
   750.7500      0.0000    719.7640     10.3066     92.6148
   751.0000      0.0000    716.0512     10.2788     83.7264
   751.2500      0.0000    718.5336     10.2347     78.5517
   751.5000      0.0000    727.8976     10.1927     79.0946
   751.7500      0.0000    741.5835     10.1648     84.6479
   752.0000      0.0000    754.6147     10.1436     92.1370
   752.2500      0.0000    762.2959     10.1011     98.0863
   752.5000      0.0000    763.0601     10.0050    100.7911
   752.7500      0.0000    759.1444      9.8446    100.8818
   753.0000      0.0000    754.5253      9.6446     99.9701
   753.2500      0.0000    751.9272      9.4507     98.9938
   753.5000      0.0000    751.3311      9.2984     97.8577
   753.7500      0.0000    750.9130      9.1956     96.2296
   754.0000      0.0000    749.2106      9.1291     94.2064
   754.2500      0.0000    746.3521      9.0806     92.1072
   754.5000      0.0000    743.4565      9.0342     90.0764
   754.7500      0.0000    741.3792      8.9778     88.1851
   755.0000      0.0000    740.2337      8.9071     86.6397
   755.2500      0.0000    739.7276      8.8261     85.6749
   755.5000      0.0000    739.5672      8.7408     85.4884
   755.7500      0.0000    739.5710      8.6522     86.3254
   756.0000      0.0000    739.6271      8.5537     88.3165
   756.2500      0.0000    739.6626      8.4354     91.0886
   756.5000      0.0000    739.6394      8.2925     93.6262
   756.7500      0.0000    739.5493      8.1324     94.6516
   757.0000      0.0000    739.3672      7.9731     93.4335
   757.2500      0.0000    738.9793      7.8352     90.4901
   757.5000      0.0000    738.1248      7.7365     87.4218
   757.7500      0.0000    736.5014      7.6892     85.8104
   758.0000      0.0000    734.1572      7.6949     86.1410
   758.2500      0.0000    731.8717      7.7378     87.6521
   758.5000      0.0000    730.8452      7.7916     89.0568
   758.7500      0.0000    731.6281      7.8355     89.4015
   759.0000      0.0000    733.4052      7.8631     88.4379
   759.2500      0.0000    734.4540      7.8765     86.3036
   759.5000      0.0000    733.1791      7.8766     83.0565
   759.7500      0.0000    728.8914      7.8615     78.8568
   760.0000      0.0000    722.3182      7.8292     74.6191
   760.2500      0.0000    715.6379      7.7806     71.8703
   760.5000      0.0000    711.4684      7.7208     71.5399
   760.7500      0.0000    711.3351      7.6564     73.1684
   761.0000      0.0000    715.1331      7.5920     75.5696
   761.2500      0.0000    721.9550      7.5306     78.0770
   761.5000      0.0000    730.9550      7.4746     81.0312
   761.7500      0.0000    741.2767      7.4276     85.1711
   762.0000      0.0000    751.4554      7.3945     90.6377
   762.2500      0.0000    759.2797      7.3806     96.6136
   762.5000      0.0000    762.7415      7.3876    101.9112
