~Version Information
VERS.                      2.0: CWLS Log ASCII Standard - VERSION 2.0
WRAP.                       NO: One line per depth step
~Well Information Block
STRT.FT               275.0000: 
STOP.FT              1682.2500: 
STEP.FT                 0.2500: 
NULL.                -999.2500: 
COMP.          Pioneer Natural Resources: COMPANY
WELL.               Elmo 14-21: WELL
FLD.           Purgatoire River: FIELD
LOC.           623' FSL & 450' FWL----: LOCATION
PROV.                 Colorado: PROVINCE
CNTY.               Las Animas: COUNTRY
SRVC.                Patterson: SERVICE COMPANY
DATE.          Tue May 17 16:07:31 2005: LOG DATE
UWI.           05 071 08360 00: UNIQUE WELL ID
~Curve Information Block
DEPT.FT            0 000 00 00: Depth
SN.Ohm-m                      : IEL Short Normal
SP.mV                         : IEL Spontaneous Potential
DIR.Ohm-m                     : IEL Induction Resistivity
GR.GAPI                       : Gamma Ray
~Parameter Information Block
~A  Depth        SN          SP         DIR          GR     
# ...
   543.0000   2000.0000   2000.0000      7.5038    115.4780
   543.2500   2000.0000   2000.0000      7.5683    116.1302
   543.5000   2000.0000   2000.0000      7.6938    116.5034
   543.7500   2000.0000   2000.0000      7.8676    115.9389
   544.0000   2000.0000   2000.0000      8.0762    113.9736
   544.2500   2000.0000   2000.0000      8.3074    112.4342
   544.5000   2000.0000   2000.0000      8.5519    110.5997
   544.7500   2000.0000   2000.0000      8.8037    109.8057
   545.0000   2000.0000   2000.0000      9.0590    109.0555
   545.2500   2000.0000   2000.0000      9.3153    108.7530
   545.5000   2000.0000   2000.0000      9.5690    108.6379
   545.7500   2000.0000   2000.0000      9.8149    108.9221
   546.0000   2000.0000   2000.0000     10.0477    110.0759
   546.2500   2000.0000   2000.0000     10.2642    111.2027
   546.5000   2000.0000   2000.0000     10.4646    112.6583
   546.7500   2000.0000   2000.0000     10.6497    112.8666
   547.0000   2000.0000   2000.0000     10.8167    111.3918
   547.2500   2000.0000   2000.0000     10.9574    109.3752
   547.5000   2000.0000   2000.0000     11.0597    106.0232
   547.7500   2000.0000   2000.0000     11.1105    104.5097
   548.0000   2000.0000   2000.0000     11.0991    104.4122
   548.2500   2000.0000   2000.0000     11.0183    105.7326
   548.5000   2000.0000   2000.0000     10.8659    108.4878
   548.7500   2000.0000   2000.0000     10.6444    109.8712
   549.0000   2000.0000   2000.0000     10.3634    110.3818
   549.2500   2000.0000   2000.0000     10.0392    109.8396
   549.5000   2000.0000   2000.0000      9.6942    108.6070
   549.7500   2000.0000   2000.0000      9.3516    107.8920
   550.0000   2000.0000   2000.0000      9.0304    106.9696
   550.2500   2000.0000   2000.0000      8.7406    106.3270
   550.5000   2000.0000   2000.0000      8.4844    105.6313
   550.7500   2000.0000   2000.0000      8.2593    105.7571
   551.0000   2000.0000   2000.0000      8.0622    107.0222
   551.2500   2000.0000   2000.0000      7.8916    108.1894
   551.5000   2000.0000   2000.0000      7.7475    109.5726
   551.7500   2000.0000   2000.0000      7.6304    110.0869
   552.0000   2000.0000   2000.0000      7.5396    110.5572
   552.2500   2000.0000   2000.0000      7.4716    110.8860
   552.5000   2000.0000   2000.0000      7.4187    111.5310
   552.7500   2000.0000   2000.0000      7.3700    112.1215
   553.0000   2000.0000   2000.0000      7.3135    113.3884
   553.2500   2000.0000   2000.0000      7.2400    114.3832
   553.5000   2000.0000   2000.0000      7.1459    115.5330
   553.7500   2000.0000   2000.0000      7.0347    115.9585
   554.0000   2000.0000   2000.0000      6.9159    116.9435
   554.2500   2000.0000   2000.0000      6.8033    118.5802
   554.5000   2000.0000   2000.0000      6.7120    122.7328
   554.7500   2000.0000   2000.0000      6.6568    125.9222
   555.0000   2000.0000   2000.0000      6.6500    129.9075
   555.2500   2000.0000   2000.0000      6.7003    131.7463
   555.5000   2000.0000   2000.0000      6.8107    133.3449
   555.7500   2000.0000   2000.0000      6.9772    133.3377
   556.0000   2000.0000   2000.0000      7.1892    130.5895
   556.2500   2000.0000   2000.0000      7.4324    126.6811
   556.5000   2000.0000   2000.0000      7.6963    119.0897
   556.7500   2000.0000   2000.0000      7.9820    114.4622
   557.0000   2000.0000   2000.0000      8.3061    110.5990
   557.2500   2000.0000   2000.0000      8.6961    110.5802
   557.5000   2000.0000   2000.0000      9.1789    113.4932
   557.7500   2000.0000   2000.0000      9.7643    116.2632
   558.0000   2000.0000   2000.0000     10.4281    119.6354
   558.2500   2000.0000   2000.0000     11.0973    120.4154
   558.5000   2000.0000   2000.0000     11.6519    118.2071
   558.7500   2000.0000   2000.0000     11.9554    114.0886
   559.0000   2000.0000   2000.0000     11.9148    104.2448
   559.2500   2000.0000   2000.0000     11.5382     96.1511
   559.5000   2000.0000   2000.0000     10.9407     83.9495
   559.7500   2000.0000   2000.0000     10.2915     76.8713
   560.0000   2000.0000   2000.0000      9.7427     68.7076
   560.2500   2000.0000   2000.0000      9.3851     64.8405
   560.5000   2000.0000   2000.0000      9.2385     60.6843
   560.7500   2000.0000   2000.0000      9.2593     58.5076
   561.0000   2000.0000   2000.0000      9.3559     55.7253
   561.2500   2000.0000   2000.0000      9.4190     54.4295
   561.5000   2000.0000   2000.0000      9.3718     54.3704
   561.7500   2000.0000   2000.0000      9.2110     56.2341
   562.0000   2000.0000   2000.0000      9.0033     62.4999
   562.2500   2000.0000   2000.0000      8.8414     68.9676
   562.5000   2000.0000   2000.0000      8.7973     81.3635
   562.7500   2000.0000   2000.0000      8.8950     90.5256
   563.0000   2000.0000   2000.0000      9.1026    103.5243
   563.2500   2000.0000   2000.0000      9.3372    110.6808
   563.5000   2000.0000   2000.0000      9.4911    118.8617
   563.7500   2000.0000   2000.0000      9.4781    123.2353
   564.0000   2000.0000   2000.0000      9.2761    129.2039
   564.2500   2000.0000   2000.0000      8.9307    132.7516
   564.5000   2000.0000   2000.0000      8.5223    136.6505
   564.7500   2000.0000   2000.0000      8.1269    138.0623
   565.0000   2000.0000   2000.0000      7.7949    138.9547
   565.2500   2000.0000   2000.0000      7.5482    139.3805
   565.5000   2000.0000   2000.0000      7.3869    140.5167
   565.7500   2000.0000   2000.0000      7.2970    141.5613
   566.0000   2000.0000   2000.0000      7.2576    143.0795
   566.2500   2000.0000   2000.0000      7.2467    143.9124
   566.5000   2000.0000   2000.0000      7.2457    144.9730
   566.7500   2000.0000   2000.0000      7.2432    145.5819
   567.0000   2000.0000   2000.0000      7.2361    146.0947
   567.2500   2000.0000   2000.0000      7.2284    145.8613
   567.5000   2000.0000   2000.0000      7.2281    144.1154
   567.7500   2000.0000   2000.0000      7.2428    141.9678
   568.0000   2000.0000   2000.0000      7.2768    137.9813
   568.2500   2000.0000   2000.0000      7.3298    135.5564
   568.5000   2000.0000   2000.0000      7.3983    133.2035
   568.7500   2000.0000   2000.0000      7.4783    132.4408
   569.0000   2000.0000   2000.0000      7.5682    131.6272
   569.2500   2000.0000   2000.0000      7.6707    130.8496
   569.5000   2000.0000   2000.0000      7.7912    129.2693
   569.7500   2000.0000   2000.0000      7.9358    128.3002
   570.0000   2000.0000   2000.0000      8.1092    127.9481
   570.2500   2000.0000   2000.0000      8.3153    128.8940
   570.5000   2000.0000   2000.0000      8.5584    131.6460
   570.7500   2000.0000   2000.0000      8.8424    133.2989
   571.0000   2000.0000   2000.0000      9.1685    133.7647
   571.2500   2000.0000   2000.0000      9.5331    132.6826
   571.5000   2000.0000   2000.0000      9.9287    130.3468
   571.7500   2000.0000   2000.0000     10.3487    129.1019
   572.0000   2000.0000   2000.0000     10.7923    127.9735
   572.2500   2000.0000   2000.0000     11.2679    127.3533
   572.5000   2000.0000   2000.0000     11.7914    125.9163
   572.7500   2000.0000   2000.0000     12.3821    124.4667
   573.0000   2000.0000   2000.0000     13.0600    121.6736
   573.2500   2000.0000   2000.0000     13.8431    119.4368
   573.5000   2000.0000   2000.0000     14.7470    115.2620
   573.7500   2000.0000   2000.0000     15.7829    111.6866
   574.0000   2000.0000   2000.0000     16.9559    104.8905
   574.2500   2000.0000   2000.0000     18.2644     99.4715
   574.5000   2000.0000   2000.0000     19.6981     90.4373
   574.7500   2000.0000   2000.0000     21.2378     84.1426
   575.0000   2000.0000   2000.0000     22.8568     74.8985
   575.2500   2000.0000   2000.0000     24.5243     69.2764
   575.5000   2000.0000   2000.0000     26.2004     62.4219
   575.7500   2000.0000   2000.0000     27.8095     59.2886
   576.0000   2000.0000   2000.0000     29.1957     57.1448
   576.2500   2000.0000   2000.0000     30.0903     57.4038
