~Version Information
VERS.                      2.0: CWLS Log ASCII Standard - VERSION 2.0
WRAP.                       NO: One line per depth step
~Well Information Block
STRT.FT               -10.0000: 
STOP.FT              2297.5000: 
STEP.FT                 0.2500: 
NULL.                -999.2500: 
COMP.          Pioneer Natural Resources: COMPANY
WELL.              Bobsy 34-11: WELL
FLD.           Purgatorie River: FIELD
LOC.           1937' FEL & 451' FSL----------: LOCATION
PROV.                       CO: PROVINCE
CNTY.               Las Animas: COUNTRY
SRVC.          Patterson Wireline: SERVICE COMPANY
DATE.          Mon Apr 18 09:37:11 2005: LOG DATE
UWI.           05 071 08330 00: UNIQUE WELL ID
~Curve Information Block
DEPT.FT            0 000 00 00: Depth
CCL.                          : Casing Collar Locator
TT3.usec                      : CBL 3' Travel Time
AMP3.mV                       : CBL 3' Amplitude
GR.GAPI                       : Gamma Ray
~Parameter Information Block
~A  Depth       CCL         TT3         AMP3         GR     
# ...
  1196.0000      0.0000    701.6672      4.3562    113.2020
  1196.2500      0.0000    709.1380      4.3756    113.4949
  1196.5000      0.0000    712.8896      4.3955    116.1466
  1196.7500      0.0000    714.3583      4.4212    120.2234
  1197.0000      0.0000    715.1036      4.4504    123.9182
  1197.2500      0.0000    716.3824      4.4652    125.9011
  1197.5000      0.0000    719.7086      4.4419    126.2419
  1197.7500      0.0000    726.8109      4.3796    125.9214
  1198.0000      0.0000    737.6797      4.3106    125.4370
  1198.2500      0.0000    747.1848      4.2793    124.2841
  1198.5000      0.0000    744.7629      4.3152    121.8173
  1198.7500      0.0000    721.2940      4.4193    118.1494
  1199.0000      0.0000    679.2134      4.5577    114.1464
  1199.2500      0.0000    634.3000      4.6740    110.8377
  1199.5000      0.0000    603.8923      4.7269    108.6050
  1199.7500      0.0000    592.4189      4.7135    106.6981
  1200.0000      0.0000    590.3508      4.6555    103.9360
  1200.2500      0.0000    587.6545      4.5728    100.0530
  1200.5000      0.0000    585.4319      4.4756     95.9146
  1200.7500      0.0000    592.8671      4.3711     92.3667
  1201.0000      0.0000    615.2988      4.2739     89.4673
  1201.2500      0.0000    647.7971      4.2062     86.9753
  1201.5000      0.0000    679.5807      4.1855     85.0481
  1201.7500      0.0000    702.5292      4.2087     84.0903
  1202.0000      0.0000    715.0962      4.2465     84.0643
  1202.2500      0.0000    720.0340      4.2566     84.2845
  1202.5000      0.0000    720.6357      4.2167     84.0428
  1202.7500      0.0000    719.2894      4.1562     83.3502
  1203.0000      0.0000    718.0383      4.1435     82.8462
  1203.2500      0.0000    718.8240      4.2173     83.1037
  1203.5000      0.0000    722.5674      4.3438     84.3230
  1203.7500      0.0000    728.2640      4.4539     86.4815
  1204.0000      0.0000    733.4407      4.5054     89.1872
  1204.2500      0.0000    735.8323      4.4954     91.3703
  1204.5000      0.0000    734.8943      4.4356     91.7041
  1204.7500      0.0000    731.9552      4.3476     89.5584
  1205.0000      0.0000    729.0378      4.2717     85.3580
  1205.2500      0.0000    727.6028      4.2508     80.1481
  1205.5000      0.0000    728.2263      4.2849     75.1192
  1205.7500      0.0000    730.9564      4.3110     71.3581
  1206.0000      0.0000    735.4871      4.2599     69.5823
  1206.2500      0.0000    740.9267      4.1419     69.8695
  1206.5000      0.0000    745.9034      4.0489     71.6622
  1206.7500      0.0000    749.3910      4.0552     74.2163
  1207.0000      0.0000    751.2606      4.1407     77.1401
  1207.2500      0.0000    751.6337      4.2325     80.4240
  1207.5000      0.0000    749.9666      4.2906     83.9445
  1207.7500      0.0000    745.1611      4.3182     87.1569
  1208.0000      0.0000    736.2935      4.3122     89.3126
  1208.2500      0.0000    723.1706      4.2616     89.7993
  1208.5000      0.0000    706.5999      4.1985     88.4719
  1208.7500      0.0000    688.5677      4.1967     86.0704
  1209.0000      0.0000    672.5355      4.3018     84.2338
  1209.2500      0.0000    663.5400      4.4932     84.6518
  1209.5000      0.0000    666.7496      4.7169     88.0375
  1209.7500      0.0000    684.1833      4.9230     94.0478
  1210.0000      0.0000    712.1375      5.0678    102.0341
  1210.2500      0.0000    741.8813      5.1153    111.3735
  1210.5000      0.0000    763.6395      5.0545    120.8514
  1210.7500      0.0000    772.1824      4.9122    128.1077
  1211.0000      0.0000    770.7360      4.7465    130.3495
  1211.2500      0.0000    769.1531      4.6129    126.0790
  1211.5000      0.0000    776.5256      4.5316    116.2151
  1211.7500      0.0000    794.3265      4.4906    103.5262
  1212.0000      0.0000    816.2676      4.4766     91.1627
  1212.2500      0.0000    834.4452      4.4951     81.7334
  1212.5000      0.0000    845.1995      4.5648     77.0747
  1212.7500      0.0000    849.7265      4.6962     77.8139
  1213.0000      0.0000    851.1145      4.8816     82.8694
  1213.2500      0.0000    852.2000      5.1117     89.8825
  1213.5000      0.0000    855.2083      5.3927     96.4452
  1213.7500      0.0000    861.1505      5.7449    100.9440
  1214.0000      0.0000    868.6310      6.1927    102.6225
  1214.2500      0.0000    874.2362      6.7536    101.4342
  1214.5000      0.0000    875.2591      7.4120     98.0359
  1214.7500      0.0000    872.0596      8.0921     93.6946
  1215.0000      0.0000    867.5497      8.6693     89.8513
  1215.2500      0.0000    864.6507      9.0325     87.4606
  1215.5000      0.0000    864.3007      9.1473     86.6108
  1215.7500      0.0000    865.2957      9.0646     86.7817
  1216.0000      0.0000    865.6451      8.8763     87.4228
  1216.2500      0.0000    864.3358      8.6618     88.3689
  1216.5000      0.0000    862.0944      8.4596     89.8943
  1216.7500      0.0000    860.6760      8.2759     92.3112
  1217.0000      0.0000    861.7308      8.1090     95.4240
  1217.2500      0.0000    866.1110      7.9572     98.5422
  1217.5000      0.0000    873.4424      7.8170    101.1891
  1217.7500      0.0000    882.0310      7.6900    103.5885
  1218.0000      0.0000    889.6981      7.5795    106.2811
  1218.2500      0.0000    895.1076      7.4645    109.4389
  1218.5000      0.0000    898.2673      7.2890    112.7572
  1218.7500      0.0000    899.8977      7.0067    115.8650
  1219.0000      0.0000    900.6382      6.6344    118.5208
  1219.2500      0.0000    900.6362      6.2335    120.4353
  1219.5000      0.0000    899.1580      5.8448    121.4770
  1219.7500      0.0000    893.9108      5.4806    122.2516
  1220.0000      0.0000    880.7930      5.1714    123.7687
  1220.2500      0.0000    855.7438      4.9604    126.0530
  1220.5000      0.0000    819.0592      4.8371    127.6167
  1220.7500      0.0000    778.5527      4.7316    126.8554
  1221.0000      0.0000    746.7361      4.6007    123.7461
  1221.2500      0.0000    733.2355      4.4803    119.7384
  1221.5000      0.0000    739.5764      4.4204    116.1196
  1221.7500      0.0000    759.9043      4.4038    112.9964
  1222.0000      0.0000    784.5435      4.3784    109.9661
  1222.2500      0.0000    803.4581      4.3467    107.1461
  1222.5000      0.0000    809.7829      4.3574    105.1521
  1222.7500      0.0000    803.0793      4.4085    104.3790
  1223.0000      0.0000    790.0305      4.4248    104.4944
  1223.2500      0.0000    780.6196      4.3498    104.3659
  1223.5000      0.0000    781.1146      4.2168    102.6404
  1223.7500      0.0000    789.3169      4.1014     98.9518
  1224.0000      0.0000    797.0963      4.0332     94.7570
  1224.2500      0.0000    798.1464      3.9820     92.8308
  1224.5000      0.0000    793.2645      3.9166     95.6253
  1224.7500      0.0000    788.2187      3.8495    103.4291
  1225.0000     -2.0000    787.1008      3.8262    113.5775
  1225.2500      0.0000    788.9562      3.8944    121.8689
  1225.5000      0.0000    790.9064      4.0805    125.4624
  1225.7500      0.0000    792.1112      4.3548    124.5673
  1226.0000      0.0000    792.9033      4.6046    121.4827
  1226.2500      0.0000    791.9368      4.6884    118.4985
  1226.5000      0.0000    787.0754      4.5607    116.8354
  1226.7500      0.0000    778.8926      4.3318    116.7740
  1227.0000      0.0000    771.2050      4.1736    117.8183
  1227.2500      0.0000    767.3832      4.1692    118.7145
  1227.5000      0.0000    766.3784      4.2703    118.2834
  1227.7500      0.0000    762.1345      4.3814    116.7655
  1228.0000      0.0000    747.1028      4.4471    115.8249
  1228.2500      0.0000    717.9048      4.4576    116.6948
  1228.5000      0.0000    680.0785      4.4165    118.5389
  1228.7500      0.0000    648.0208      4.3319    119.0428
  1229.0000      0.0000    637.4790      4.2204    116.6191
  1229.2500      0.0000    654.3438      4.1047    111.9656
