~Version Information
VERS.                      2.0: CWLS Log ASCII Standard - VERSION 2.0
WRAP.                       NO: One line per depth step
~Well Information Block
STRT.FT               440.0000: 
STOP.FT              1003.5000: 
STEP.FT                 0.2500: 
NULL.                -999.2500: 
COMP.          Pioneer Natural Resources: COMPANY
WELL.              Dylan 42-25: WELL
FLD.           Purgatoire River: FIELD
LOC.           2160' FNL & 855' FEL: LOCATION
PROV.                 Colorado: PROVINCE
CNTY.               Las Animas: COUNTRY
SRVC.                Patterson: SERVICE COMPANY
DATE.          Sat Apr 23 11:21:51 2005: LOG DATE
UWI.           05 071 08229 00: UNIQUE WELL ID
~Curve Information Block
DEPT.FT            0 000 00 00: Depth
SN.Ohm-m                      : IEL Short Normal
SP.mV                         : IEL Spontaneous Potential
DIR.Ohm-m                     : IEL Induction Resistivity
GR.GAPI                       : Gamma Ray
~Parameter Information Block
~A  Depth        SN          SP         DIR          GR     
# ...
   808.5000     42.6197      5.1772     34.8468     44.8810
   808.7500     42.0227      5.5704     33.8511     47.3643
   809.0000     41.2745      6.0247     32.9792     50.1031
   809.2500     40.2895      6.5122     32.1255     51.0957
   809.5000     39.1105      7.0148     31.1883     51.9100
   809.7500     37.8335      7.5331     30.0951     52.5258
   810.0000     36.5182      8.0855     28.8034     53.8083
   810.2500     35.1707      8.6993     27.3068     54.4903
   810.5000     33.7440      9.4028     25.6546     54.2247
   810.7500     32.1581     10.2206     23.9563     52.9570
   811.0000     30.3368     11.1709     22.3503     50.2852
   811.2500     28.2454     12.2617     20.9556     49.1742
   811.5000     25.9528     13.4815     19.8375     50.8336
   811.7500     23.6873     14.7889     19.0011     54.9402
   812.0000     21.7885     16.1066     18.4058     64.9203
   812.2500     20.5327     17.3307     17.9902     72.6372
   812.5000     19.9554     18.3583     17.6952     82.7929
   812.7500     19.8481     19.1231     17.4759     87.4684
   813.0000     19.9265     19.6181     17.2994     91.2164
   813.2500     19.9883     19.8873     17.1391     92.3237
   813.5000     19.9640     19.9949     16.9760     93.5615
   813.7500     19.8974     19.9924     16.8097     94.6691
   814.0000     19.8921     19.9063     16.6675     96.6028
   814.2500     20.0362     19.7478     16.5981     97.5052
   814.5000     20.3495     19.5314     16.6515     97.2379
   814.7500     20.7864     19.2843     16.8591     95.7677
   815.0000     21.2797     19.0440     17.2260     92.4102
   815.2500     21.7701     18.8486     17.7384     90.4011
   815.5000     22.2289     18.7257     18.3774     89.3544
   815.7500     22.6894     18.6856     19.1313     90.2541
   816.0000     23.2209     18.7213     19.9952     93.0479
   816.2500     23.8521     18.8168     20.9621     94.8476
   816.5000     24.5534     18.9581     22.0112     95.8728
   816.7500     25.2770     19.1398     23.1081     94.9232
   817.0000     25.9929     19.3619     24.2137     90.8935
   817.2500     26.7178     19.6229     25.2974     86.6998
   817.5000     27.5333     19.9122     26.3454     78.9389
   817.7500     28.5406     20.2114     27.3609     73.4186
   818.0000     29.8025     20.5009     28.3604     65.8127
   818.2500     31.3649     20.7665     29.3696     61.7616
   818.5000     33.2672     21.0040     30.4214     57.5975
   818.7500     35.4510     21.2159     31.5547     55.8995
   819.0000     37.7073     21.4027     32.8080     54.2017
   819.2500     39.7927     21.5558     34.2081     53.2441
   819.5000     41.5863     21.6647     35.7598     51.8341
   819.7500     43.1032     21.7328     37.4433     50.9242
   820.0000     44.3994     21.7853     39.2158     49.5489
   820.2500     45.5158     21.8570     41.0055     48.5919
   820.5000     46.4807     21.9727     42.7063     47.3221
   820.7500     47.3207     22.1332     44.1909     46.8240
   821.0000     48.0729     22.3120     45.3504     46.7555
   821.2500     48.7879     22.4654     46.1358     46.9759
   821.5000     49.4888     22.5537     46.5568     47.0812
   821.7500     50.1284     22.5576     46.6425     46.7070
   822.0000     50.6211     22.4786     46.4129     45.5728
   822.2500     50.8935     22.3258     45.8991     44.8611
   822.5000     50.9159     22.1033     45.1841     44.6895
   822.7500     50.7369     21.8066     44.4022     45.3776
   823.0000     50.4384     21.4264     43.6860     47.2445
   823.2500     50.0350     20.9523     43.1125     48.5144
   823.5000     49.4655     20.3742     42.6985     49.6115
   823.7500     48.6779     19.6888     42.4381     49.7540
   824.0000     47.7167     18.9082     42.3364     49.8263
   824.2500     46.7452     18.0548     42.4087     50.2077
   824.5000     45.9587     17.1418     42.6539     51.1207
   824.7500     45.4452     16.1529     43.0406     51.4280
   825.0000     45.1469     15.0366     43.5224     50.7335
   825.2500     44.9702     13.7154     44.0621     49.6096
   825.5000     44.9242     12.1047     44.6377     47.8671
   825.7500     45.1225     10.1388     45.2286     47.1850
   826.0000     45.6299      7.8040     45.8007     46.9794
   826.2500     46.3500      5.1663     46.2955     47.0087
   826.5000     47.0955      2.3752     46.6125     46.5493
   826.7500     47.7194     -0.3682     46.6086     45.6730
   827.0000     48.1636     -2.8635     46.1514     43.4211
   827.2500     48.4316     -4.9559     45.2114     41.3541
   827.5000     48.5313     -6.5524     43.8985     37.8476
   827.7500     48.4299     -7.6132     42.3916     35.7909
   828.0000     48.0500     -8.1355     40.8351     34.2874
   828.2500     47.3079     -8.1420     39.2899     34.8915
   828.5000     46.1527     -7.6745     37.7515     38.8269
   828.7500     44.5700     -6.7864     36.1857     43.6709
   829.0000     42.5929     -5.5355     34.5577     54.1316
   829.2500     40.3555     -3.9822     32.8590     62.6766
   829.5000     38.0824     -2.2004     31.1300     76.0876
   829.7500     35.9533     -0.2900     29.4596     84.2678
   830.0000     33.9934      1.6314     27.9534     94.0273
   830.2500     32.1298      3.4596     26.6936     98.6484
   830.5000     30.3239      5.1367     25.7171    103.2766
   830.7500     28.6388      6.6604     25.0165    105.4392
   831.0000     27.2155      8.0663     24.5526    108.2417
   831.2500     26.1809      9.3999     24.2635    109.9020
   831.5000     25.5680     10.6918     24.0742    111.1712
   831.7500     25.3337     11.9443     23.9155    110.4118
   832.0000     25.4070     13.1338     23.7534    106.2138
   832.2500     25.7214     14.2327     23.6088    101.8261
   832.5000     26.2646     15.2392     23.5457     94.7840
   832.7500     27.1160     16.1895     23.6369     90.9173
   833.0000     28.4095     17.1432     23.9318     87.0628
   833.2500     30.1820     18.1650     24.4466     85.2925
   833.5000     32.2029     19.3248     25.1701     82.1221
   833.7500     34.0111     20.6992     26.0726     78.7941
   834.0000     35.2039     22.3265     27.1092     71.6946
   834.2500     35.7022     24.1319     28.2152     66.2494
   834.5000     35.7245     25.9167     29.3022     58.9964
   834.7500     35.5328     27.4655     30.2703     55.7144
   835.0000     35.2531     28.6775     31.0445     53.4747
   835.2500     34.9027     29.5893     31.6094     53.2750
   835.5000     34.4920     30.2959     32.0042     53.6554
   835.7500     34.0593     30.8749     32.2761     53.8092
   836.0000     33.6449     31.3673     32.4354     53.5625
   836.2500     33.2687     31.7922     32.4583     53.1795
   836.5000     32.9384     32.1591     32.3313     52.5597
   836.7500     32.6619     32.4729     32.0912     52.1457
   837.0000     32.4493     32.7394     31.8190     51.3579
   837.2500     32.3091     32.9660     31.5968     50.6640
   837.5000     32.2415     33.1576     31.4694     49.4350
   837.7500     32.2209     33.3102     31.4398     48.5485
   838.0000     32.1951     33.4115     31.4919     47.2936
   838.2500     32.1266     33.4513     31.6076     46.7438
   838.5000     32.0247     33.4337     31.7593     46.8592
   838.7500     31.9270     33.3770     31.8923     47.7098
   839.0000     31.8650     33.3033     31.9302     49.8517
   839.2500     31.8430     33.2248     31.8120     51.4032
   839.5000     31.8272     33.1396     31.5296     53.1332
   839.7500     31.7630     33.0353     31.1285     53.7302
   840.0000     31.6168     32.8971     30.6770     54.1253
   840.2500     31.3944     32.7121     30.2385     54.3649
   840.5000     31.1257     32.4726     29.8694     54.9253
   840.7500     30.8755     32.1764     29.6292     55.3109
   841.0000     30.7519     31.8277     29.5814     55.4025
   841.2500     30.8370     31.4352     29.7727     54.8533
   841.5000     31.1219     31.0080     30.2036     53.0147
   841.7500     31.5410     30.5491     30.8163     51.3846
