~Version Information
VERS.                      2.0: CWLS Log ASCII Standard - VERSION 2.0
WRAP.                       NO: One line per depth step
~Well Information Block
STRT.FT               550.0000: 
STOP.FT              2359.0000: 
STEP.FT                 0.1000: 
NULL.                -999.2500: 
COMP.          Pioneer Natural Resources: COMPANY
WELL.              Whinny 42-2: WELL
FLD.           Purgatoire River: FIELD
LOC.           1836' FNL & 466' FEL: LOCATION
PROV.                 Colorado: PROVINCE
CNTY.               Las Animas: COUNTRY
SRVC.                Patterson: SERVICE COMPANY
DATE.          Mon Aug 22 07:28:42 2005: LOG DATE
UWI.           05 071 08406 00: UNIQUE WELL ID
~Curve Information Block
DEPT.FT            0 000 00 00: Depth
DCAL.in                       : CDL Caliper
RHOB.g/cc                     : CDL Bulk Density
RHOC.g/cc                     : CDL Density Correction
DPOR.pu                       : CDL Density Porosity
GR.GAPI                       : Gamma Ray
NPOR.pu                       : Neutron Porosity
~Parameter Information Block
~A  Depth       DCAL        RHOB        RHOC        DPOR         GR         NPOR    
# ...
  2345.2000      7.8987      2.5173      0.0305      8.0423   -999.2500   -999.2500
  2345.3000      7.8995      2.5364      0.0505      6.8849   -999.2500   -999.2500
  2345.4000      7.8995      2.5575      0.0589      5.6082   -999.2500   -999.2500
  2345.5000      7.8958      2.5655      0.0960      5.1204   -999.2500   -999.2500
  2345.6000      7.8958      2.5561      0.0855      5.6881   -999.2500   -999.2500
  2345.7000      7.8958      2.5505      0.0016      6.0318   -999.2500   -999.2500
  2345.8000      7.8945      2.5735      0.0142      4.6364   -999.2500   -999.2500
  2345.9000      7.8945      2.6150      0.0905      2.1223   -999.2500   -999.2500
  2346.0000      7.8920      2.6447      0.0547      0.3223   -999.2500   -999.2500
  2346.1000      7.8920      2.6566      0.0611     -0.4014   -999.2500   -999.2500
  2346.2000      7.8920      2.6601      0.0656     -0.6146   -999.2500   -999.2500
  2346.3000      7.8917      2.6539      0.0946     -0.2356   -999.2500   -999.2500
  2346.4000      7.8917      2.6417      0.0581      0.5057   -999.2500   -999.2500
  2346.5000      7.8991      2.6320      0.0521      1.0898   -999.2500   -999.2500
  2346.6000      7.8991      2.6191      0.0996      1.8757   -999.2500   -999.2500
  2346.7000      7.8991      2.5971      0.0490      3.2055   -999.2500   -999.2500
  2346.8000      7.8991      2.5797      0.0136      4.2632   -999.2500   -999.2500
  2346.9000      7.8991      2.5827      0.0363      4.0778   -999.2500   -999.2500
  2347.0000      7.8924      2.5986      0.1024      3.1180   -999.2500   -999.2500
  2347.1000      7.8924      2.6094      0.0295      2.4599   -999.2500   -999.2500
  2347.2000      7.8924      2.6123      0.0303      2.2858   -999.2500   -999.2500
  2347.3000      7.8964      2.6104      0.0461      2.4002   -999.2500   -999.2500
  2347.4000      7.8964      2.6036      0.0920      2.8112   -999.2500   -999.2500
  2347.5000      7.8903      2.5892      0.0767      3.6857   -999.2500   -999.2500
  2347.6000      7.8903      2.5786     -0.0096      4.3249   -999.2500   -999.2500
  2347.7000      7.8903      2.5869      0.0243      3.8263   -999.2500   -999.2500
  2347.8000      7.9014      2.6003      0.0590      3.0132   -999.2500   -999.2500
  2347.9000      7.9014      2.5944      0.0373      3.3678   -999.2500   -999.2500
  2348.0000      7.9109      2.5722      0.0362      4.7173   -999.2500   -999.2500
  2348.1000      7.9109      2.5652     -0.0092      5.1382   -999.2500   -999.2500
  2348.2000      7.9109      2.5853      0.0840      3.9201   -999.2500   -999.2500
  2348.3000      7.9193      2.5970      0.1057      3.2119   -999.2500   -999.2500
  2348.4000      7.9193      2.5810      0.0642      4.1800   -999.2500   -999.2500
  2348.5000      7.9193      2.5522      0.0585      5.9264   -999.2500   -999.2500
  2348.6000      7.9193      2.5172      0.0316      8.0483   -999.2500   -999.2500
  2348.7000      7.9193      2.4908     -0.0460      9.6500   -999.2500   -999.2500
  2348.8000      7.9180      2.4946      0.0351      9.4178   -999.2500   -999.2500
  2348.9000      7.9180      2.5181      0.0702      7.9920   -999.2500   -999.2500
  2349.0000      7.9102      2.5360      0.0432      6.9091   -999.2500   -999.2500
  2349.1000      7.9102      2.5357      0.0922      6.9246   -999.2500   -999.2500
  2349.2000      7.9102      2.5205      0.0570      7.8461   -999.2500   -999.2500
  2349.3000      7.9169      2.5019      0.0974      8.9740   -999.2500   -999.2500
  2349.4000      7.9169      2.4812      0.0368     10.2325   -999.2500   -999.2500
  2349.5000      7.9184      2.4619      0.0401     11.3986   -999.2500   -999.2500
  2349.6000      7.9184      2.4570      0.0668     11.6955   -999.2500   -999.2500
  2349.7000      7.9184      2.4676      0.0698     11.0564   -999.2500   -999.2500
  2349.8000      7.9245      2.4784      0.1188     10.4014   -999.2500   -999.2500
  2349.9000      7.9245      2.4715      0.1445     10.8192   -999.2500   -999.2500
  2350.0000      7.9189      2.4519      0.0422     12.0086   -999.2500   -999.2500
  2350.1000      7.9189      2.4449      0.0352     12.4300   -999.2500   -999.2500
  2350.2000      7.9189      2.4481      0.1273     12.2388   -999.2500   -999.2500
  2350.3000      7.9190      2.4335      0.1215     13.1214   -999.2500   -999.2500
  2350.4000      7.9190      2.4026      0.0917     14.9943   -999.2500   -999.2500
  2350.5000      7.9252      2.3797      0.0839     16.3808   -999.2500   -999.2500
  2350.6000      7.9252      2.3753      0.0730     16.6465   -999.2500   -999.2500
  2350.7000      7.9252      2.3867      0.0707     15.9554   -999.2500   -999.2500
  2350.8000      7.9191      2.4080      0.1146     14.6680   -999.2500   -999.2500
  2350.9000      7.9191      2.4316      0.0735     13.2388   -999.2500   -999.2500
  2351.0000      7.9117      2.4557      0.0698     11.7749   -999.2500   -999.2500
  2351.1000      7.9117      2.4699      0.1665     10.9160   -999.2500   -999.2500
  2351.2000      7.9117      2.4591      0.0912     11.5681   -999.2500   -999.2500
  2351.3000      7.9077      2.4359      0.1169     12.9745   -999.2500   -999.2500
  2351.4000      7.9077      2.4155      0.1138     14.2118   -999.2500   -999.2500
  2351.5000      7.8887      2.3971      0.1054     15.3303   -999.2500   -999.2500
  2351.6000      7.8887      2.3846      0.0706     16.0821   -999.2500   -999.2500
  2351.7000      7.8887      2.3853      0.0770     16.0454   -999.2500   -999.2500
  2351.8000      7.8877      2.3982      0.0607     15.2589   -999.2500   -999.2500
  2351.9000      7.8877      2.4174      0.1085     14.0950   -999.2500   -999.2500
  2352.0000      7.8830      2.4320      0.1187     13.2104   -999.2500   -999.2500
  2352.1000      7.8830      2.4391      0.1025     12.7841   -999.2500   -999.2500
  2352.2000      7.8830      2.4454      0.1099     12.3987   -999.2500   -999.2500
  2352.3000      7.8912      2.4491      0.1284     12.1744   -999.2500   -999.2500
  2352.4000      7.8912      2.4497      0.1116     12.1421   -999.2500   -999.2500
  2352.5000      7.9016      2.4557      0.1391     11.7769   -999.2500   -999.2500
  2352.6000      7.9016      2.4659      0.1517     11.1587   -999.2500   -999.2500
  2352.7000      7.9016      2.4691      0.1450     10.9654   -999.2500   -999.2500
  2352.8000      7.9532      2.4604      0.1380     11.4916   -999.2500   -999.2500
  2352.9000      7.9532      2.4479      0.0725     12.2504   -999.2500   -999.2500
  2353.0000      8.2889      2.4399      0.0957     12.7346   -999.2500   -999.2500
  2353.1000      8.2889      2.4346      0.0794     13.0553   -999.2500   -999.2500
  2353.2000      8.2889      2.4271      0.1067     13.5067   -999.2500   -999.2500
  2353.3000      8.2838      2.4190      0.0278     13.9972   -999.2500   -999.2500
  2353.4000      8.2838      2.4189      0.0655     14.0063   -999.2500   -999.2500
  2353.5000      7.9053      2.4294      0.0528     13.3676   -999.2500   -999.2500
  2353.6000      7.9053      2.4465      0.0933     12.3331   -999.2500   -999.2500
  2353.7000      7.9053      2.4627      0.1148     11.3526   -999.2500   -999.2500
  2353.8000      7.8310      2.4702      0.1227     10.8988   -999.2500   -999.2500
  2353.9000      7.8310      2.4665      0.1272     11.1228   -999.2500   -999.2500
  2354.0000      7.8112      2.4583      0.1055     11.6211   -999.2500   -999.2500
  2354.1000      7.8112      2.4557      0.1183     11.7732   -999.2500   -999.2500
  2354.2000      7.8112      2.4600      0.0993     11.5171   -999.2500   -999.2500
  2354.3000      7.8127      2.4652      0.1118     11.1984   -999.2500   -999.2500
  2354.4000      7.8127      2.4641      0.1072     11.2684   -999.2500   -999.2500
  2354.5000      7.8107      2.4534      0.0487     11.9142   -999.2500   -999.2500
  2354.6000      7.8107      2.4372      0.0578     12.8971   -999.2500   -999.2500
  2354.7000      7.8107      2.4261      0.0456     13.5685   -999.2500   -999.2500
