~Version Information
VERS.                      2.0: CWLS Log ASCII Standard - VERSION 2.0
WRAP.                       NO: One line per depth step
~Well Information Block
STRT.FT                15.0000: 
STOP.FT              2620.5000: 
STEP.FT                 0.2500: 
NULL.                -999.2500: 
COMP.          Pioneer Natural Resources: COMPANY
WELL.               Zink 44-10: WELL
FLD.           Purgatoire River: FIELD
LOC.           548' FSL & 473' FEL: LOCATION
PROV.                 Colorado: PROVINCE
CNTY.               Las Animas: COUNTRY
SRVC.                Patterson: SERVICE COMPANY
DATE.          Tue Jun 21 13:36:23 2005: LOG DATE
UWI.           05 071 08380 00: UNIQUE WELL ID
~Curve Information Block
DEPT.FT            0 000 00 00: Depth
GR.GAPI                       : Gamma Ray
CCL.                          : Casing Collar Locator
TT3.usec                      : CBL 3' Travel Time
AMP3.mV                       : CBL 3' Amplitude
~Parameter Information Block
~A  Depth        GR         CCL         TT3         AMP3    
# ...
  2092.0000     56.4253      0.0000    619.3717      3.7612
  2092.2500     57.0400      0.0000    619.6128      3.7237
  2092.5000     56.9837      0.0000    619.7084      3.6543
  2092.7500     55.9260      0.0000    619.5856      3.5581
  2093.0000     54.3050      0.0000    619.2319      3.4299
  2093.2500     52.7839      0.0000    618.7766      3.2581
  2093.5000     51.5581      0.0000    618.6326      3.0391
  2093.7500     50.5053      0.0000    619.5621      2.7919
  2094.0000     49.8102      0.0000    622.3838      2.5541
  2094.2500     50.0018      0.0000    627.3411      2.3619
  2094.5000     51.4324      0.0000    633.7161      2.2312
  2094.7500     54.2196      0.0000    640.3044      2.1550
  2095.0000     58.7044      0.0000    646.3464      2.1173
  2095.2500     65.3115      0.0000    651.8375      2.1051
  2095.5000     73.7225      0.0000    656.9332      2.1107
  2095.7500     82.7304      0.0000    661.2449      2.1280
  2096.0000     91.1932      0.0000    663.6318      2.1546
  2096.2500     98.7682      0.0000    662.5074      2.1981
  2096.5000    105.5820      0.0000    656.7755      2.2765
  2096.7500    111.6107      0.0000    647.1181      2.4077
  2097.0000    116.7540      0.0000    636.2414      2.5922
  2097.2500    121.3787      0.0000    627.3185      2.8041
  2097.5000    126.3944      0.0000    622.1640      3.0011
  2097.7500    132.5058      0.0000    621.0280      3.1479
  2098.0000    139.4220      0.0000    623.7228      3.2326
  2098.2500    145.8311      0.0000    630.2396      3.2640
  2098.5000    150.0592      0.0000    640.0076      3.2579
  2098.7500    151.0834      0.0000    651.0864      3.2284
  2099.0000    149.3813      0.0000    660.9349      3.1848
  2099.2500    146.5668      0.0000    668.1091      3.1321
  2099.5000    143.7629      0.0000    672.5898      3.0746
  2099.7500    140.6534      0.0000    674.5352      3.0229
  2100.0000    136.4364      0.0000    673.7417      2.9967
  2100.2500    131.3023      0.0000    670.5886      3.0156
  2100.5000    126.6167      0.0000    666.5699      3.0856
  2100.7500    123.8921      0.0000    663.3739      3.1942
  2101.0000    123.8407      0.0000    661.8449      3.3152
  2101.2500    126.2497      0.0000    662.1010      3.4217
  2101.5000    130.3205      0.0000    664.3026      3.5003
  2101.7500    134.8547      0.0000    668.7950      3.5587
  2102.0000    138.4473      0.0000    675.2640      3.6158
  2102.2500    140.1423      0.0000    681.9485      3.6832
  2102.5000    140.3124      0.0000    686.1264      3.7557
  2102.7500    140.5995      0.0000    685.6605      3.8197
  2103.0000    142.2582      0.0000    680.1663      3.8642
  2103.2500    144.3050      0.0000    670.8542      3.8813
  2103.5000    143.9189      0.0000    659.5079      3.8646
  2103.7500    139.1788      0.0000    647.7520      3.8164
  2104.0000    131.1150      0.0000    637.0247      3.7523
  2104.2500    122.8914      0.0000    628.5555      3.6905
  2104.5000    117.5247      0.0000    622.9246      3.6361
  2104.7500    116.4822      0.0000    619.8710      3.5775
  2105.0000    119.5671      0.0000    618.8132      3.4979
  2105.2500    125.4170      0.0000    619.6149      3.3856
  2105.5000    132.1693      0.0000    622.8120      3.2349
  2105.7500    138.0776      0.0000    628.9835      3.0381
  2106.0000    142.0510      0.0000    637.7542      2.7854
  2106.2500    144.1597      0.0000    647.4114      2.4756
  2106.5000    145.5812      0.0000    655.6824      2.1335
  2106.7500    147.4218      0.0000    661.0446      1.8142
  2107.0000    149.3144      0.0000    663.7049      1.5858
  2107.2500    149.4861      0.0000    665.5428      1.4906
  2107.5000    146.3561      0.0000    668.6854      1.5148
  2107.7500    139.9556      0.0000    673.9063      1.6051
  2108.0000    131.9200      0.0000    680.5474      1.7135
  2108.2500    124.4717      0.0000    687.5233      1.8198
  2108.5000    119.5272      0.0000    693.6559      1.9179
  2108.7500    118.3028      0.0000    697.3890      2.0036
  2109.0000    120.9713     -2.5000    697.0240      2.0764
  2109.2500    126.1767     -2.5000    691.4333      2.1436
  2109.5000    131.3275      0.0000    680.7043      2.2167
  2109.7500    134.2020      0.0000    666.7580      2.3010
  2110.0000    134.3710      0.0000    653.0742      2.3834
  2110.2500    132.8615      0.0000    642.7267      2.4371
  2110.5000    130.7678      0.0000    636.6595      2.4498
  2110.7500    128.5770      0.0000    634.4776      2.4404
  2111.0000    126.4252      0.0000    636.0968      2.4346
  2111.2500    124.3677      0.0000    641.1652      2.4359
  2111.5000    122.3662      0.0000    647.4379      2.4305
  2111.7500    120.3880      0.0000    651.2863      2.4103
  2112.0000    118.5632      0.0000    649.8926      2.3807
  2112.2500    117.1376      0.0000    642.4301      2.3516
  2112.5000    116.3203      0.0000    629.4958      2.3284
  2112.7500    116.2918      0.0000    612.5210      2.3110
  2113.0000    117.2825      0.0000    594.5443      2.2964
  2113.2500    119.4846      0.0000    580.9783      2.2831
  2113.5000    122.6613      0.0000    577.3845      2.2724
  2113.7500    125.7917      0.0000    585.0410      2.2659
  2114.0000    127.5406      0.0000    599.5981      2.2625
  2114.2500    127.4834      0.0000    614.7914      2.2584
  2114.5000    126.6421      0.0000    626.4498      2.2495
  2114.7500    126.5286      0.0000    633.0552      2.2325
  2115.0000    127.9181      0.0000    634.7227      2.2062
  2115.2500    130.6898      0.0000    632.9197      2.1751
  2115.5000    134.3544      0.0000    630.1446      2.1505
  2115.7500    138.3162      0.0000    628.6473      2.1439
  2116.0000    141.9553      0.0000    629.1320      2.1582
  2116.2500    144.8465      0.0000    630.5719      2.1849
  2116.5000    146.7346      0.0000    631.2250      2.2114
  2116.7500    147.3805      0.0000    630.0246      2.2310
  2117.0000    146.9513      0.0000    626.9166      2.2441
  2117.2500    146.4794      0.0000    621.6276      2.2516
  2117.5000    147.0739      0.0000    612.5801      2.2530
  2117.7500    148.4521      0.0000    598.6183      2.2503
  2118.0000    148.7522      0.0000    583.0085      2.2520
  2118.2500    145.9641      0.0000    574.1825      2.2666
  2118.5000    139.3140      0.0000    578.9700      2.2950
  2118.7500    129.3354      0.0000    594.3371      2.3295
  2119.0000    117.1458      0.0000    608.3351      2.3622
  2119.2500    104.1642      0.0000    609.9686      2.3921
  2119.5000     92.4691      0.0000    597.0549      2.4229
  2119.7500     84.5754      0.0000    575.5020      2.4540
  2120.0000     82.0560      0.0000    552.7953      2.4763
  2120.2500     84.3466      0.0000    531.8619      2.4802
  2120.5000     89.2949      0.0000    510.7205      2.4647
  2120.7500     94.8696      0.0000    487.7460      2.4391
  2121.0000    100.1466      0.0000    465.4212      2.4171
  2121.2500    104.9651      0.0000    448.0719      2.4079
  2121.5000    109.2799      0.0000    437.7844      2.4099
  2121.7500    113.0661      0.0000    433.5566      2.4131
  2122.0000    116.3956      0.0000    433.0792      2.4089
  2122.2500    119.2383      0.0000    434.3997      2.3976
  2122.5000    121.4751      0.0000    436.6108      2.3860
  2122.7500    123.3789      0.0000    440.0939      2.3776
  2123.0000    125.7357      0.0000    446.6893      2.3693
  2123.2500    129.1026      0.0000    459.1794      2.3556
  2123.5000    132.9654      0.0000    479.1446      2.3330
  2123.7500    135.8206      0.0000    504.1063      2.3005
  2124.0000    136.3661      0.0000    527.9091      2.2607
  2124.2500    134.8384      0.0000    546.0992      2.2215
  2124.5000    133.1320      0.0000    560.6753      2.1935
  2124.7500    133.2463      0.0000    577.2107      2.1829
  2125.0000    135.4772      0.0000    597.2197      2.1869
  2125.2500    138.2171      0.0000    615.7348      2.2002
