~Version Information
VERS.                      2.0: CWLS Log ASCII Standard - VERSION 2.0
WRAP.                       NO: One line per depth step
~Well Information Block
STRT.FT               260.0000: 
STOP.FT              2611.5000: 
STEP.FT                 0.2500: 
NULL.                -999.2500: 
COMP.          Pioneer Natural Resources: COMPANY
WELL.           Costello 44-24: WELL
FLD.           Purgatoire River: FIELD
LOC.           327' FSL & 378' FEL: LOCATION
PROV.                 Colorado: PROVINCE
CNTY.               Las Animas: COUNTRY
SRVC.                Patterson: SERVICE COMPANY
DATE.          Mon Jul 11 00:49:32 2005: LOG DATE
UWI.           05 071 08413 00: UNIQUE WELL ID
~Curve Information Block
DEPT.FT            0 000 00 00: Depth
SN.Ohm-m                      : IEL Short Normal
SP.mV                         : IEL Spontaneous Potential
DIR.Ohm-m                     : IEL Induction Resistivity
GR.GAPI                       : Gamma Ray
~Parameter Information Block
~A  Depth        SN          SP         DIR          GR     
# ...
  2404.0000     40.5709    299.5994     19.5039    104.3560
  2404.2500     36.5447    299.7010     18.8816    107.5918
  2404.5000     32.7093    299.7628     18.2067    110.4395
  2404.7500     29.5205    299.7734     17.3723    110.0503
  2405.0000     27.0232    299.7557     16.3518    104.3748
  2405.2500     24.9334    299.7489     15.2042     97.2701
  2405.5000     22.9334    299.7789     14.0280     84.7328
  2405.7500     20.8303    299.8377     12.9141     77.9725
  2406.0000     18.5677    299.8861     11.9251     74.3018
  2406.2500     16.2905    299.8787     11.0930     77.0025
  2406.5000     14.3556    299.7918     10.4245     87.0578
  2406.7500     13.0725    299.6298      9.9069     95.4157
  2407.0000     12.4218    299.4096      9.5143    106.0135
  2407.2500     12.1205    299.1468      9.2140    110.0775
  2407.5000     11.9216    298.8560      8.9725    111.2536
  2407.7500     11.7478    298.5600      8.7615    109.6832
  2408.0000     11.5941    298.2876      8.5622    105.9592
  2408.2500     11.4332    298.0634      8.3666    103.6327
  2408.5000     11.2122    297.8979      8.1767    101.7552
  2408.7500     10.9051    297.7883      8.0002    101.9807
  2409.0000     10.5798    297.7247      7.8465    103.8738
  2409.2500     10.3834    297.6919      7.7218    105.0498
  2409.5000     10.3946    297.6654      7.6280    104.9460
  2409.7500     10.5273    297.6133      7.5631    103.5735
  2410.0000     10.6683    297.5131      7.5232    101.2036
  2410.2500     10.8086    297.3721      7.5040    100.5849
  2410.5000     10.9348    297.2249      7.5018    101.7032
  2410.7500     10.9608    297.1057      7.5127    103.1877
  2411.0000     10.8579    297.0295      7.5323    105.2504
  2411.2500     10.6982    296.9958      7.5561    106.3962
  2411.5000     10.5440    297.0000      7.5813    108.1688
  2411.7500     10.4111    297.0341      7.6075    109.2778
  2412.0000     10.3116    297.0858      7.6358    110.0817
  2412.2500     10.2601    297.1411      7.6676    109.8500
  2412.5000     10.2434    297.1870      7.7039    108.6266
  2412.7500     10.2294    297.2077      7.7467    107.2845
  2413.0000     10.2291    297.1841      7.7998    104.1562
  2413.2500     10.2995    297.1030      7.8668    101.3948
  2413.5000     10.4314    296.9683      7.9479     97.4397
  2413.7500     10.5442    296.8021      8.0393     95.7871
  2414.0000     10.6013    296.6319      8.1354     95.0477
  2414.2500     10.6249    296.4777      8.2324     95.0614
  2414.5000     10.6473    296.3525      8.3287     94.7369
  2414.7500     10.6864    296.2691      8.4226     94.2595
  2415.0000     10.7227    296.2337      8.5104     93.7326
  2415.2500     10.7052    296.2327      8.5872     93.6907
  2415.5000     10.6088    296.2343      8.6495     93.9815
  2415.7500     10.4968    296.2080      8.6970     94.3133
  2416.0000     10.4741    296.1433      8.7316     94.9561
  2416.2500     10.5458    296.0529      8.7541     95.4808
  2416.5000     10.6122    295.9571      8.7633     96.3664
  2416.7500     10.6343    295.8668      8.7568     96.8520
  2417.0000     10.6567    295.7742      8.7346     96.8877
  2417.2500     10.6634    295.6553      8.7016     96.2541
  2417.5000     10.5996    295.4766      8.6665     94.7444
  2417.7500     10.5087    295.2010      8.6363     94.0315
  2418.0000     10.4708    294.7964      8.6113     94.4427
  2418.2500     10.4890    294.2496      8.5838     95.7405
  2418.5000     10.5264    293.5810      8.5408     98.1021
  2418.7500     10.5268    292.8423      8.4705     99.0320
  2419.0000     10.4451    292.0979      8.3672     98.4891
  2419.2500     10.3523    291.3994      8.2352     96.8992
  2419.5000     10.3571    290.7608      8.0908     93.6153
  2419.7500     10.4423    290.1393      7.9610     91.5111
  2420.0000     10.5123    289.4361      7.8779     89.1986
  2420.2500     10.5578    288.5359      7.8696     88.1915
  2420.5000     10.7271    287.3680      7.9529     86.8583
  2420.7500     11.1912    285.9488      8.1312     85.6426
  2421.0000     11.9282    284.3739      8.4000     82.7069
  2421.2500     12.7535    282.7717      8.7620     79.8152
  2421.5000     13.5835    281.2522      9.2527     74.3351
  2421.7500     14.5015    279.8820      9.9777     70.4871
  2422.0000     15.5452    278.6852     11.1722     65.5443
  2422.2500     16.6500    277.6577     13.3356     63.1124
  2422.5000     17.7552    276.7896     17.6661     60.6952
  2422.7500     18.7925    276.0865     27.9935     59.8910
  2423.0000     19.6678    275.5795     67.1965     60.0316
  2423.2500     20.3128    275.3139 100000.0000     60.7856
  2423.5000     20.7211    275.3205 100000.0000     61.6268
  2423.7500     20.9428    275.5921 100000.0000     61.2621
  2424.0000     21.0259    276.0782 100000.0000     59.3116
  2424.2500     20.9426    276.6908 100000.0000     57.8261
  2424.5000     20.5675    277.3085 100000.0000     56.9639
  2424.7500     19.7756    277.7805 100000.0000     57.9882
  2425.0000     18.6161    277.9430 100000.0000     62.2688
  2425.2500     17.3784    277.6508 100000.0000     66.6888
  2425.5000     16.3777    276.8066 100000.0000     74.6883
  2425.7500     15.7148    275.3615 100000.0000     80.1659
  2426.0000     15.3616    273.2815 100000.0000     87.0869
  2426.2500     15.2929    270.5061 100000.0000     90.0589
  2426.5000     15.4166    266.9211 100000.0000     91.5010
  2426.7500     15.5364    262.3449 100000.0000     90.7018
  2427.0000     15.4556    256.5172 100000.0000     88.0469
  2427.2500     15.1005    249.0972 100000.0000     86.2379
  2427.5000     14.5582    239.6859 100000.0000     84.8291
  2427.7500     14.0108    227.8663 100000.0000     84.9895
  2428.0000     13.5975    213.2661 100000.0000     86.2735
  2428.2500     13.2787    195.6958 100000.0000     87.4823
  2428.5000     12.8686    175.4366 100000.0000     90.1891
  2428.7500     12.2498    153.6470 100000.0000     93.0586
  2429.0000     11.4784    132.6184      8.6262     98.7217
  2429.2500     10.6403    115.4715      2.3451    102.3831
  2429.5000      9.7202    105.1338      1.2763    105.6698
  2429.7500      8.6585    103.0382      0.8978    105.8030
  2430.0000      7.4325    108.4035      0.7395    102.8831
  2430.2500      6.1032    118.6668      0.6760     98.9243
  2430.5000      4.8586    130.7773      0.6543     90.0864
  2430.7500      3.9340    142.4399      0.6450     82.6565
  2431.0000      3.4474    152.6141      0.6345     70.6903
  2431.2500      3.3556    161.2911      0.6227     63.2408
  2431.5000      3.5470    169.0172      0.6147     54.3656
  2431.7500      3.9846    176.5317      0.6138     50.4447
  2432.0000      4.7966    184.5876      0.6176     47.6052
  2432.2500      6.1147    193.8409      0.6210     47.4436
  2432.5000      7.6636    204.6962      0.6230     49.1012
  2432.7500      8.6677    217.1009      0.6326     51.2346
  2433.0000      8.4752    230.4232      0.6690     56.1743
  2433.2500      7.2280    243.5818      0.7592     60.9335
  2433.5000      5.7213    255.4328      0.9383     70.3837
  2433.7500      4.6514    265.1943      1.2525     77.7897
  2434.0000      4.1533    272.6461      1.7386     89.2295
  2434.2500      4.0143    278.0358      2.3365     96.2792
  2434.5000      4.0961    281.8317      2.8152    104.9181
  2434.7500      4.4581    284.5000      2.9920    109.0323
  2435.0000      5.1884    286.3934      2.9629    112.7672
  2435.2500      6.2061    287.7429      2.9130    113.9799
  2435.5000      7.2399    288.7023      2.9683    114.7397
  2435.7500      8.0119    289.3926      3.2684    115.0801
  2436.0000      8.4398    289.9182      4.1851    116.2039
  2436.2500      8.6439    290.3550      7.5530    117.6564
  2436.5000      8.7975    290.7378    613.1891    120.5892
  2436.7500      8.9850    291.0638 100000.0000    122.3114
  2437.0000      9.1660    291.3173 100000.0000    122.9971
  2437.2500      9.2688    291.4923 100000.0000    121.8253
