~Version Information
VERS.                      2.0: CWLS Log ASCII Standard - VERSION 2.0
WRAP.                       NO: One line per depth step
~Well Information Block
STRT.FT               360.0000: 
STOP.FT              2515.2000: 
STEP.FT                 0.1000: 
NULL.                -999.2500: 
COMP.          Pioneer Natural Resources: COMPANY
WELL.            Rancher 12-35: WELL
FLD.           Purgatoire River: FIELD
LOC.           2131' FNL & 297' FWL: LOCATION
PROV.                 Colorado: PROVINCE
CNTY.               Las Animas: COUNTRY
SRVC.                Patterson: SERVICE COMPANY
DATE.          Tue Oct 12 09:11:02 2004: LOG DATE
UWI.           05 071 08179 00: UNIQUE WELL ID
~Curve Information Block
DEPT.FT            0 000 00 00: Depth
DCAL.in                       : CDL Caliper
RHOB.g/cc                     : CDL Bulk Density
RHOC.g/cc                     : CDL Density Correction
DPOR.pu                       : CDL Density Porosity
NPOR.pu                       : Neutron Porosity
GR.GAPI                       : Gamma Ray
~Parameter Information Block
~A  Depth       DCAL        RHOB        RHOC        DPOR        NPOR         GR     
# ...
  2481.6000      7.8524      2.5334      0.0397      7.0672     21.7893    131.8395
  2481.7000      7.8524      2.5394      0.0204      6.7014     21.8509    131.4978
  2481.8000      7.8525      2.5220      0.0374      7.7559     21.3549    126.9921
  2481.9000      7.8525      2.4906     -0.0255      9.6629     20.6630    127.0700
  2482.0000      7.8535      2.4708     -0.0195     10.8595     20.3658    130.1203
  2482.1000      7.8535      2.4769     -0.0029     10.4906     20.1219    130.0789
  2482.2000      7.8535      2.5044      0.0130      8.8263     19.4409    128.5551
  2482.3000      7.8537      2.5432      0.0215      6.4744     18.7570    126.2362
  2482.4000      7.8537      2.5729      0.0785      4.6734     18.5542    122.2587
  2482.5000      7.8527      2.5687      0.0989      4.9290     18.5994    119.9638
  2482.6000      7.8527      2.5351      0.0320      6.9631     18.6310    119.7966
  2482.7000      7.8527      2.4990      0.0158      9.1503     19.0873    116.8254
  2482.8000      7.8526      2.4812     -0.0240     10.2315     19.8543    106.5107
  2482.9000      7.8526      2.4910      0.0254      9.6336     20.0713     85.6838
  2483.0000      7.8523      2.5154      0.0611      8.1583     19.5584     56.0428
  2483.1000      7.8523      2.5306      0.0325      7.2360     18.9586     26.6286
  2483.2000      7.8523      2.5415     -0.0172      6.5750     19.1124      8.1403
  2483.3000      7.8519      2.5586      0.0584      5.5384     20.2195      1.4626
  2483.4000      7.8519      2.5642      0.0583      5.1997     21.2147      0.1462
  2483.5000      7.8515      2.5537     -0.0008      5.8336     21.1466      0.0077
  2483.6000      7.8515      2.5435      0.0636      6.4565     20.4015      0.0000
  2483.7000      7.8515      2.5332      0.0329      7.0778     19.5725   -999.2500
  2483.8000      7.8502      2.5214      0.0140      7.7966     18.7105   -999.2500
  2483.9000      7.8502      2.5132      0.0226      8.2884     18.2442   -999.2500
  2484.0000      7.8502      2.5119      0.0008      8.3681     18.3365   -999.2500
  2484.1000      7.8502      2.5234     -0.0114      7.6742     18.7150   -999.2500
  2484.2000      7.8502      2.5437      0.0526      6.4442     19.4352   -999.2500
  2484.3000      7.8514      2.5585      0.0185      5.5427     20.0911   -999.2500
  2484.4000      7.8514      2.5650      0.0567      5.1487     20.1758   -999.2500
  2484.5000      7.8525      2.5666     -0.0017      5.0566     20.2917   -999.2500
  2484.6000      7.8525      2.5668      0.0283      5.0433     20.7461   -999.2500
  2484.7000      7.8525      2.5687     -0.0036      4.9279     20.8323   -999.2500
  2484.8000      7.8537      2.5735      0.0331      4.6342     20.3195   -999.2500
  2484.9000      7.8537      2.5744      0.0150      4.5800     19.9536   -999.2500
  2485.0000      7.8558      2.5660      0.0180      5.0916     19.9868   -999.2500
  2485.1000      7.8558      2.5517      0.0299      5.9601     19.7600   -999.2500
  2485.2000      7.8558      2.5384     -0.0026      6.7632     19.2731   -999.2500
  2485.3000      7.8636      2.5396     -0.0141      6.6880     19.0300   -999.2500
  2485.4000      7.8636      2.5596      0.0319      5.4770     18.8878   -999.2500
  2485.5000      7.8716      2.5863      0.0199      3.8583     18.8565   -999.2500
  2485.6000      7.8716      2.6037      0.0755      2.8074     19.1618   -999.2500
  2485.7000      7.8716      2.6009      0.0591      2.9764     19.3391   -999.2500
  2485.8000      7.8653      2.5877     -0.0052      3.7737     18.8943   -999.2500
  2485.9000      7.8653      2.5806      0.0298      4.2073     18.2567   -999.2500
  2486.0000      7.8550      2.5786      0.0677      4.3273     17.9916   -999.2500
  2486.1000      7.8550      2.5795      0.0666      4.2754     17.8399   -999.2500
  2486.2000      7.8550      2.5868      0.0577      3.8310     17.3247   -999.2500
  2486.3000      7.8505      2.5983      0.0630      3.1315     16.2794   -999.2500
  2486.4000      7.8505      2.6075      0.0781      2.5736     15.0479   -999.2500
  2486.5000      7.8495      2.6088      0.0841      2.4951     14.2039   -999.2500
  2486.6000      7.8495      2.5981      0.0607      3.1464     13.8739   -999.2500
  2486.7000      7.8495      2.5816      0.0039      4.1481     13.9484   -999.2500
  2486.8000      7.8482      2.5699      0.0531      4.8566     14.4029   -999.2500
  2486.9000      7.8482      2.5573      0.0505      5.6165     15.2131   -999.2500
  2487.0000      7.8476      2.5395      0.0243      6.6973     16.3207   -999.2500
  2487.1000      7.8476      2.5288      0.0211      7.3431     17.3802   -999.2500
  2487.2000      7.8476      2.5359      0.0059      6.9176     17.8920   -999.2500
  2487.3000      7.8491      2.5515      0.0464      5.9714     17.7397   -999.2500
  2487.4000      7.8491      2.5568      0.0213      5.6456     17.4809   -999.2500
  2487.5000      7.8503      2.5512     -0.0240      5.9871     17.7830   -999.2500
  2487.6000      7.8503      2.5519      0.0084      5.9426     18.5156   -999.2500
  2487.7000      7.8503      2.5691      0.0015      4.9037     19.1099   -999.2500
  2487.8000      7.8506      2.5941      0.0548      3.3873     19.1786   -999.2500
  2487.9000      7.8506      2.6111      0.0542      2.3605     19.0029   -999.2500
  2488.0000      7.8473      2.6151      0.0438      2.1124     19.0686   -999.2500
  2488.1000      7.8473      2.6116      0.0301      2.3246     18.9883   -999.2500
  2488.2000      7.8473      2.6090      0.0320      2.4832     18.6040   -999.2500
  2488.3000      7.8429      2.6133      0.0613      2.2248     19.0700   -999.2500
  2488.4000      7.8429      2.6141      0.0768      2.1741     22.4582   -999.2500
  2488.5000      7.8450      2.6028      0.0281      2.8602     30.3420   -999.2500
  2488.6000      7.8450      2.5905      0.0530      3.6069     40.2998   -999.2500
  2488.7000      7.8450      2.5807      0.0596      4.2011     47.4564   -999.2500
  2488.8000      7.8491      2.5712      0.0050      4.7742     50.2437   -999.2500
  2488.9000      7.8491      2.5720     -0.0260      4.7258     50.8093   -999.2500
  2489.0000      7.8511      2.5827      0.0122      4.0770     50.8694   -999.2500
  2489.1000      7.8511      2.5961     -0.0281      3.2693     50.8727   -999.2500
  2489.2000      7.8511      2.6196      0.0136      1.8449   -999.2500   -999.2500
  2489.3000      7.8502      2.6520      0.0298     -0.1224   -999.2500   -999.2500
  2489.4000      7.8502      2.6704      0.1074     -1.2378   -999.2500   -999.2500
  2489.5000      7.8489      2.6560      0.1028     -0.3643   -999.2500   -999.2500
  2489.6000      7.8489      2.6217      0.0519      1.7131   -999.2500   -999.2500
  2489.7000      7.8489      2.5988      0.0161      3.1042   -999.2500   -999.2500
  2489.8000      7.8481      2.5994      0.0236      3.0697   -999.2500   -999.2500
  2489.9000      7.8481      2.6138      0.0357      2.1954   -999.2500   -999.2500
  2490.0000      7.8480      2.6321      0.0302      1.0864   -999.2500   -999.2500
  2490.1000      7.8480      2.6493      0.0331      0.0430   -999.2500   -999.2500
  2490.2000      7.8480      2.6590      0.0490     -0.5431   -999.2500   -999.2500
  2490.3000      7.8490      2.6489      0.1088      0.0640   -999.2500   -999.2500
  2490.4000      7.8490      2.6207      0.0437      1.7759   -999.2500   -999.2500
  2490.5000      7.8461      2.5975      0.0297      3.1812   -999.2500   -999.2500
  2490.6000      7.8461      2.5917      0.0050      3.5312   -999.2500   -999.2500
  2490.7000      7.8461      2.5893      0.0573      3.6802   -999.2500   -999.2500
  2490.8000      7.8372      2.5714      0.0074      4.7622   -999.2500   -999.2500
  2490.9000      7.8372      2.5427      0.0059      6.5004   -999.2500   -999.2500
  2491.0000      7.8301      2.5253     -0.0175      7.5573   -999.2500   -999.2500
  2491.1000      7.8301      2.5276      0.0292      7.4194   -999.2500   -999.2500
