~Version Information
VERS.                      2.0: CWLS Log ASCII Standard - VERSION 2.0
WRAP.                       NO: One line per depth step
~Well Information Block
STRT.FT                -2.7500: 
STOP.FT              2139.2500: 
STEP.FT                 0.2500: 
NULL.                -999.2500: 
COMP.          Petrogulf Corporation: COMPANY
WELL.             State 16-34V: WELL
FLD.           Purgatorie River: FIELD
LOC.           1146' FSL & 1393' FEL: LOCATION
PROV.                 Colorado: PROVINCE
CNTY.               Las Animas: COUNTRY
SRVC.          Patterson Wireline: SERVICE COMPANY
DATE.          Wed Jun 25 13:16:42 2003: LOG DATE
UWI.           05 071 07724 00: UNIQUE WELL ID
~Curve Information Block
DEPT.FT            0 000 00 00: Depth
CCL.                          : Casing Collar Locator
TT3.usec                      : CBL 3' Travel Time
AMP3.mV                       : CBL 3' Amplitude
GR.GAPI                       : Gamma Ray
~Parameter Information Block
~A  Depth       CCL         TT3         AMP3         GR     
# ...
  1404.2500      0.0000    781.7889      4.9641    104.8169
  1404.5000      0.0000    762.6146      4.8349     99.9924
  1404.7500      0.0000    737.8514      4.6835     97.7672
  1405.0000      0.0000    713.6189      4.4888     99.6445
  1405.2500      0.0000    695.6823      4.2540    105.0737
  1405.5000      0.0000    686.3122      3.9987    111.1980
  1405.7500      0.0000    684.2419      3.7225    114.5789
  1406.0000      0.0000    686.6640      3.4195    113.1856
  1406.2500      0.0000    690.9446      3.1149    107.1397
  1406.5000      0.0000    695.2117      2.8562     98.1233
  1406.7500      0.0000    698.4194      2.6747     88.3709
  1407.0000      0.0000    700.3224      2.5635     79.9229
  1407.2500      0.0000    701.2365      2.4876     74.2321
  1407.5000      0.0000    701.6785      2.4186     72.0422
  1407.7500      0.0000    702.1752      2.3616     73.4183
  1408.0000      0.0000    703.3445      2.3318     77.8530
  1408.2500      0.0000    705.9572      2.3133     84.6384
  1408.5000      0.0000    710.5599      2.2754     93.3068
  1408.7500      0.0000    716.6535      2.2236    103.4022
  1409.0000      0.0000    722.1550      2.1965    113.7223
  1409.2500      0.0000    724.0801      2.2218    122.4107
  1409.5000      0.0000    720.4155      2.3012    128.2824
  1409.7500      0.0000    711.8844      2.4238    131.6846
  1410.0000      0.0000    701.8381      2.5679    133.7212
  1410.2500      0.0000    693.8610      2.7023    134.8672
  1410.5000      0.0000    689.2519      2.7948    134.5253
  1410.7500      0.0000    687.0716      2.8183    131.7744
  1411.0000      0.0000    686.1043      2.7679    126.5405
  1411.2500      0.0000    685.7306      2.6818    120.2173
  1411.5000      0.0000    685.3307      2.6146    115.1560
  1411.7500      0.0000    684.7174      2.5835    113.3124
  1412.0000      0.0000    685.9320      2.5678    115.1893
  1412.2500      0.0000    693.0147      2.5620    120.0134
  1412.5000      0.0000    708.2858      2.6019    126.6881
  1412.7500      0.0000    728.9128      2.7351    134.3284
  1413.0000      0.0000    747.5161      2.9786    142.0426
  1413.2500      0.0000    755.3287      3.2922    148.7878
  1413.5000      0.0000    745.0583      3.5776    153.6052
  1413.7500      0.0000    714.5920      3.7341    155.6794
  1414.0000      0.0000    672.0847      3.7350    154.2744
  1414.2500      0.0000    635.7589      3.6322    149.2193
  1414.5000      0.0000    622.3963      3.4866    141.6444
  1414.7500      0.0000    633.5083      3.3247    133.7336
  1415.0000      0.0000    655.3289      3.1540    127.3633
  1415.2500      0.0000    672.5182      2.9741    123.0386
  1415.5000      0.0000    679.3393      2.7761    120.0861
  1415.7500      0.0000    679.0225      2.5646    117.5484
  1416.0000      0.0000    676.7177      2.3772    115.1049
  1416.2500      0.0000    674.3861      2.2558    113.7544
  1416.5000      0.0000    670.3763      2.2042    115.4041
  1416.7500      0.0000    662.4113      2.2031    120.8799
  1417.0000      0.0000    651.1932      2.2440    128.0723
  1417.2500      0.0000    641.6310      2.3135    132.5807
  1417.5000      0.0000    640.0221      2.3687    130.5574
  1417.7500      0.0000    648.8384      2.3670    121.1593
  1418.0000      2.0000    664.2070      2.2982    106.8967
  1418.2500      0.0000    679.0862      2.1650     92.2597
  1418.5000      0.0000    688.0912      1.9702     81.6230
  1418.7500      0.0000    688.5142      1.7487     77.2053
  1419.0000      0.0000    678.9761      1.5721     78.1315
  1419.2500      0.0000    660.4695      1.4854     81.4404
  1419.5000      0.0000    638.5125      1.4639     84.3380
  1419.7500      0.0000    621.1287      1.4576     85.8125
  1420.0000      0.0000    613.4519      1.4561     86.4493
  1420.2500      0.0000    615.9132      1.4777     87.1596
  1420.5000      0.0000    626.9414      1.5178     88.2798
  1420.7500      0.0000    644.1693      1.5522     89.6565
  1421.0000      0.0000    663.1846      1.5914     91.3162
  1421.2500      0.0000    678.7521      1.6796     93.7530
  1421.5000      0.0000    688.2271      1.8159     97.1624
  1421.7500      0.0000    692.5003      1.9219    100.4685
  1422.0000      0.0000    693.9419      1.9272    101.7958
  1422.2500      0.0000    694.4301      1.8546    100.2412
  1422.5000      0.0000    694.9951      1.7775     96.8629
  1422.7500      0.0000    696.3046      1.7231     93.6956
  1423.0000      0.0000    699.0034      1.6749     91.9980
  1423.2500      0.0000    703.3696      1.6466     91.5322
  1423.5000      0.0000    708.5110      1.6803     91.2100
  1423.7500      0.0000    712.3398      1.7654     90.1371
  1424.0000      0.0000    713.1024      1.8216     88.0741
  1424.2500      0.0000    711.0941      1.7873     85.2532
  1424.5000      0.0000    708.2714      1.6859     82.1265
  1424.7500      0.0000    706.0475      1.5811     79.2672
  1425.0000      0.0000    704.1297      1.5029     77.2242
  1425.2500      0.0000    701.6631      1.4502     76.2804
  1425.5000      0.0000    698.7101      1.4268     76.3165
  1425.7500      0.0000    696.1478      1.4316     76.9904
  1426.0000      0.0000    694.6805      1.4357     78.2049
  1426.2500      0.0000    694.4663      1.4193     80.2757
  1426.5000      0.0000    695.5030      1.4198     83.3010
  1426.7500      0.0000    697.9545      1.4987     86.4129
  1427.0000      0.0000    702.0084      1.6627     88.0578
  1427.2500      0.0000    707.6039      1.8521     87.1978
  1427.5000      0.0000    714.5687      2.0102     84.1868
  1427.7500      0.0000    723.0598      2.1272     80.6471
  1428.0000      0.0000    733.4879      2.2167     78.5588
  1428.2500      0.0000    745.4189      2.2905     78.9935
  1428.5000      0.0000    756.2151      2.3567     81.1698
  1428.7500      0.0000    761.2216      2.4040     82.7363
  1429.0000      0.0000    756.6152      2.3943     81.4939
  1429.2500      0.0000    742.9449      2.3119     77.2352
  1429.5000      0.0000    725.3961      2.2074     71.8664
  1429.7500      0.0000    710.0427      2.1504     67.6565
  1430.0000      0.0000    700.0148      2.1510     65.5225
  1430.2500      0.0000    694.9836      2.1673     64.9136
  1430.5000      0.0000    693.1328      2.1774     64.7191
  1430.7500      0.0000    692.9089      2.1956     63.9264
  1431.0000      0.0000    693.4417      2.2231     61.8697
  1431.2500      0.0000    694.2443      2.2356     58.4913
  1431.5000      0.0000    694.9814      2.2327     54.4805
  1431.7500      0.0000    695.4747      2.2468     51.0844
  1432.0000      0.0000    695.7278      2.2761     49.6940
  1432.2500      0.0000    695.8445      2.2574     51.2116
  1432.5000      0.0000    695.9268      2.1366     55.3398
  1432.7500      0.0000    696.0045      1.9353     60.5846
  1433.0000      0.0000    695.9512      1.7199     65.3481
  1433.2500      0.0000    695.3835      1.5377     69.0636
  1433.5000      0.0000    693.7206      1.4144     72.2865
  1433.7500      0.0000    690.6844      1.3805     75.9466
  1434.0000      0.0000    687.0794      1.4465     80.5130
  1434.2500      0.0000    684.8630      1.5596     85.4808
  1434.5000      0.0000    685.7581      1.6366     89.5928
  1434.7500      0.0000    689.4944      1.6555     91.8920
  1435.0000      0.0000    693.6868      1.6767     92.5697
  1435.2500      0.0000    695.5831      1.7511     92.5935
  1435.5000      0.0000    694.0270      1.8453     92.7119
  1435.7500      0.0000    690.2490      1.8955     93.0798
  1436.0000      0.0000    687.1088      1.9114     93.5003
  1436.2500      0.0000    687.0811      1.9748     93.6056
  1436.5000      0.0000    690.4287      2.1374     93.0276
  1436.7500      0.0000    695.3300      2.3645     91.8267
  1437.0000      0.0000    699.7015      2.5801     90.5962
  1437.2500      0.0000    702.6053      2.7274     89.5880
  1437.5000      0.0000    704.1290      2.7742     87.7926
