~Version Information
VERS.                      2.0: CWLS Log ASCII Standard - VERSION 2.0
WRAP.                       NO: One line per depth step
~Well Information Block
STRT.FT               700.0000: 
STOP.FT              1869.5000: 
STEP.FT                 0.1000: 
NULL.                -999.2500: 
COMP.          Petrogulf Corporation: COMPANY
WELL.             State 16-24R: WELL
FLD.           Purgatorie River: FIELD
LOC.           541' FSL & 2371' FWL: LOCATION
PROV.                 Colorado: PROVINCE
CNTY.               Las Animas: COUNTRY
SRVC.                Patterson: SERVICE COMPANY
DATE.          Fri Aug 12 09:07:22 2005: LOG DATE
UWI.                071-08312 : UNIQUE WELL ID
~Curve Information Block
DEPT.FT            0 000 00 00: Depth
DCAL.in                       : CDL Caliper
RHOB.g/cc                     : CDL Bulk Density
RHOC.g/cc                     : CDL Density Correction
DPOR.pu                       : CDL Density Porosity
GR.GAPI                       : Gamma Ray
NPOR.pu                       : Neutron Porosity
~Parameter Information Block
~A  Depth       DCAL        RHOB        RHOC        DPOR         GR         NPOR    
# ...
   853.6000     11.5166      2.5691      0.0156      4.9029     66.6583     16.7757
   853.7000     11.5166      2.5537      0.0353      5.8356     68.7981     16.2679
   853.8000     11.5164      2.5550      0.0248      5.7567     70.7998     16.7813
   853.9000     11.5164      2.5699      0.0401      4.8528     72.9207     17.8162
   854.0000     11.5092      2.5852      0.0441      3.9281     75.9483     18.5889
   854.1000     11.5092      2.5884      0.0570      3.7317     79.2965     18.7350
   854.2000     11.5092      2.5803      0.0316      4.2269     81.2484     18.4556
   854.3000     11.5338      2.5690      0.0407      4.9105     82.0803     17.9432
   854.4000     11.5338      2.5568      0.0494      5.6477     82.0852     17.5194
   854.5000     11.5480      2.5474     -0.0138      6.2193     81.5183     17.8221
   854.6000     11.5480      2.5526     -0.0094      5.9014     81.1965     19.0723
   854.7000     11.5480      2.5679      0.0887      4.9755     80.3100     20.8922
   854.8000     11.5775      2.5730      0.0340      4.6678     78.9744     23.0493
   854.9000     11.5775      2.5639      0.0357      5.2178     78.0463     24.7402
   855.0000     11.5615      2.5479      0.0233      6.1901     77.0013     24.8883
   855.1000     11.5615      2.5288     -0.0036      7.3470     76.0694     23.7405
   855.2000     11.5615      2.5127     -0.0004      8.3213     75.7859     22.2561
   855.3000     11.5650      2.5111      0.0207      8.4167     76.3219     21.1501
   855.4000     11.5650      2.5287      0.0363      7.3539     77.8044     20.9458
   855.5000     11.5737      2.5581      0.0463      5.5686     79.4680     21.6563
   855.6000     11.5737      2.5932      0.0648      3.4437     79.8288     22.2652
   855.7000     11.5737      2.6361      0.0899      0.8396     78.4093     22.1098
   855.8000     11.5549      2.6853      0.1676     -2.1385     76.2554     21.6895
   855.9000     11.5549      2.7247      0.1956     -4.5252     74.9357     21.4854
   856.0000     11.3957      2.7416      0.2110     -5.5502     75.3664     21.7521
   856.1000     11.3957      2.7394      0.1676     -5.4186     76.1719     22.1348
   856.2000     11.3957      2.7257      0.1922     -4.5864     76.1034     21.9788
   856.3000     11.3550      2.7016      0.1510     -3.1255     76.5089     21.5406
   856.4000     11.3550      2.6775      0.0496     -1.6675     76.5530     21.2167
   856.5000     11.4037      2.6725      0.0353     -1.3625     74.0670     20.6039
   856.6000     11.4037      2.6815      0.0717     -1.9082     70.7250     19.5443
   856.7000     11.4037      2.6808      0.0475     -1.8670     69.7696     19.0017
   856.8000     11.5052      2.6650      0.0714     -0.9064     71.9426     19.4029
   856.9000     11.5052      2.6491      0.0586      0.0560     73.9394     20.0559
   857.0000     11.5228      2.6485      0.1144      0.0916     74.0205     20.2378
   857.1000     11.5228      2.6589      0.1553     -0.5393     74.0702     19.6742
   857.2000     11.5228      2.6588      0.1643     -0.5318     75.7544     19.2052
   857.3000     11.4661      2.6403      0.1292      0.5906     80.0316     19.9206
   857.4000     11.4661      2.6227      0.0901      1.6557     85.6037     20.8711
   857.5000     11.4860      2.6242      0.1179      1.5628     87.8082     20.8729
   857.6000     11.4860      2.6403      0.1194      0.5859     84.2793     20.5269
   857.7000     11.4860      2.6564      0.1328     -0.3904     80.5521     20.9111
   857.8000     11.5242      2.6579      0.1467     -0.4765     81.8888     22.3470
   857.9000     11.5242      2.6370      0.1143      0.7899     83.1703     24.1083
   858.0000     11.5389      2.6019      0.0748      2.9173     80.0507     25.2756
   858.1000     11.5389      2.5704      0.0579      4.8244     77.1765     25.6198
   858.2000     11.5389      2.5592      0.0049      5.5039     77.9603     25.0109
   858.3000     11.5648      2.5721      0.0457      4.7239     79.7878     24.0528
   858.4000     11.5648      2.5878      0.1165      3.7691     80.0370     23.9270
   858.5000     11.5604      2.5830      0.0802      4.0580     80.0843     25.0423
   858.6000     11.5604      2.5592      0.0839      5.5034     81.5758     26.6075
   858.7000     11.5604      2.5357      0.0152      6.9300     83.1744     27.0328
   858.8000     11.5664      2.5331      0.0076      7.0849     84.0620     26.1972
   858.9000     11.5664      2.5488      0.0641      6.1310     86.1972     25.2247
   859.0000     11.5569      2.5546      0.1169      5.7807     90.4483     24.4356
   859.1000     11.5569      2.5396      0.0240      6.6913     93.1063     23.4553
   859.2000     11.5569      2.5254      0.0523      7.5485     91.1343     22.5838
   859.3000     11.5795      2.5263      0.0164      7.4978     88.4331     22.7924
   859.4000     11.5795      2.5364      0.0353      6.8835     90.0881     24.3347
   859.5000     11.5611      2.5435      0.1024      6.4570     94.4447     26.1871
   859.6000     11.5611      2.5396      0.0795      6.6931     96.7542     26.9503
   859.7000     11.5611      2.5332      0.0392      7.0807     95.9965     26.2596
   859.8000     11.5653      2.5323      0.0740      7.1363     94.2905     25.0754
   859.9000     11.5653      2.5312      0.0643      7.2013     92.1182     24.3536
   860.0000     11.6070      2.5288      0.0591      7.3457     88.2253     23.8204
   860.1000     11.6070      2.5294      0.0869      7.3085     84.4127     23.3586
   860.2000     11.6070      2.5284      0.0602      7.3698     83.5060     23.7213
   860.3000     11.5974      2.5163      0.0716      8.1059     85.0000     24.7605
   860.4000     11.5974      2.4957      0.0255      9.3500     87.6511     25.6271
   860.5000     11.5765      2.4835      0.0398     10.0884     89.5805     25.8260
   860.6000     11.5765      2.4884      0.0614      9.7910     88.8005     25.4797
   860.7000     11.5765      2.5074      0.0643      8.6403     87.3994     25.2535
   860.8000     11.5595      2.5350      0.1054      6.9696     87.1281     25.1389
   860.9000     11.5595      2.5603      0.1249      5.4377     85.9840     24.4801
   861.0000     11.5663      2.5747      0.1444      4.5614     84.8100     23.6547
   861.1000     11.5663      2.5811      0.1295      4.1776     86.1464     24.0613
   861.2000     11.5663      2.5836      0.1003      4.0225     87.8372     26.0031
   861.3000     11.5772      2.5787      0.1222      4.3210     87.2692     27.8040
   861.4000     11.5772      2.5659      0.0705      5.0993     85.8619     27.8999
   861.5000     11.5944      2.5596      0.0485      5.4762     85.6359     27.0321
   861.6000     11.5944      2.5634      0.0960      5.2504     85.8295     26.4302
   861.7000     11.5944      2.5514      0.1295      5.9752     85.6443     26.4083
   861.8000     11.6091      2.5108      0.0466      8.4362     87.4709     26.9608
   861.9000     11.6091      2.4592      0.0067     11.5611     91.0351     27.6216
   862.0000     11.6101      2.3922      0.0806     15.6214     92.6708     28.0920
   862.1000     11.6101      2.2914     -0.0465     21.7348     90.9509     28.9220
   862.2000     11.6101      2.1884     -0.0833     27.9747     87.0742     30.2840
   862.3000     11.6221      2.1289     -0.0382     31.5801     84.3483     31.0706
   862.4000     11.6221      2.1088      0.0395     32.7989     85.3610     30.9210
   862.5000     11.6260      2.1057     -0.0036     32.9861     88.5686     30.8734
   862.6000     11.6260      2.1201      0.0935     32.1173     92.6602     31.0572
   862.7000     11.6260      2.1565      0.1514     29.9073     96.1189     31.0715
   862.8000     11.6861      2.2118      0.2086     26.5592     96.5910     31.1637
   862.9000     11.6861      2.2716      0.2472     22.9335     96.5341     31.1853
   863.0000     11.7307      2.3072      0.2439     20.7752     99.4471     30.5302
   863.1000     11.7307      2.3026      0.1293     21.0576    102.5821     29.7370
