~Version Information
VERS.                      2.0: CWLS Log ASCII Standard - VERSION 2.0
WRAP.                       NO: One line per depth step
~Well Information Block
STRT.FT               362.0000: 
STOP.FT               983.0000: 
STEP.FT                 0.1000: 
NULL.                -999.2500: 
COMP.          Pioneer Natural Resources: COMPANY
WELL.             Tomcat 32-10: WELL
FLD.           Purgatoire River: FIELD
LOC.           2286' FNL & 2463' FEL: LOCATION
PROV.                 Colorado: PROVINCE
CNTY.               Las Animas: COUNTRY
SRVC.                Patterson: SERVICE COMPANY
DATE.          Tue Mar 22 11:24:45 2005: LOG DATE
UWI.           05 071 08301 00: UNIQUE WELL ID
~Curve Information Block
DEPT.FT            0 000 00 00: Depth
DCAL.in                       : CDL Caliper
RHOB.g/cc                     : CDL Bulk Density
RHOC.g/cc                     : CDL Density Correction
DPOR.pu                       : CDL Density Porosity
GR.GAPI                       : Gamma Ray
NPOR.pu                       : Neutron Porosity
~Parameter Information Block
~A  Depth       DCAL        RHOB        RHOC        DPOR         GR         NPOR    
# ...
   640.4000      8.0060      2.5565      0.1446      5.6658    104.5360     27.5125
   640.5000      8.0247      2.5740      0.1906      4.6080    109.6808     28.0828
   640.6000      8.0247      2.5857      0.1296      3.8980    115.6577     28.3405
   640.7000      8.0247      2.6052      0.1402      2.7122    114.9824     28.1913
   640.8000      7.9604      2.6337      0.1601      0.9905    106.7652     27.5253
   640.9000      7.9604      2.6615      0.1786     -0.6960     98.0805     26.7570
   641.0000      7.9350      2.6805      0.1804     -1.8512     93.0751     26.5177
   641.1000      7.9350      2.6883      0.1217     -2.3211     89.3755     26.6256
   641.2000      7.9350      2.6859      0.1182     -2.1757     84.3194     26.7473
   641.3000      7.9374      2.6710      0.0837     -1.2707     78.6757     26.9109
   641.4000      7.9374      2.6500      0.0283     -0.0018     72.6271     26.8809
   641.5000      7.9545      2.6350     -0.0067      0.9094     66.3704     26.3207
   641.6000      7.9545      2.6181      0.0216      1.9320     61.8448     25.4488
   641.7000      7.9545      2.5834      0.0090      4.0382     59.5191     24.7227
   641.8000      7.9509      2.5333     -0.0117      7.0707     57.0247     24.2306
   641.9000      7.9509      2.4852     -0.0600      9.9867     53.4638     23.8757
   642.0000      7.9356      2.4556     -0.0880     11.7811     52.3845     23.5691
   642.1000      7.9356      2.4519     -0.0651     12.0037     54.8719     23.0255
   642.2000      7.9356      2.4719     -0.0718     10.7933     55.1778     22.3351
   642.3000      7.9452      2.5033     -0.0178      8.8915     51.5433     22.0715
   642.4000      7.9452      2.5239      0.0359      7.6443     48.9926     22.2747
   642.5000      7.9420      2.5262      0.0422      7.5046     48.3238     22.2295
   642.6000      7.9420      2.5270      0.0222      7.4524     46.8163     21.7729
   642.7000      7.9420      2.5388      0.0964      6.7419     44.7214     21.4686
   642.8000      7.9307      2.5530      0.1405      5.8797     45.4361     21.5162
   642.9000      7.9307      2.5561      0.1061      5.6880     50.4667     21.6359
   643.0000      7.9350      2.5524      0.0277      5.9147     56.2393     21.6220
   643.1000      7.9350      2.5508      0.0895      6.0100     58.9817     21.5828
   643.2000      7.9350      2.5448      0.0492      6.3775     57.2056     21.7228
   643.3000      7.9570      2.5329      0.0249      7.0956     53.7436     21.8914
   643.4000      7.9570      2.5218      0.0997      7.7677     54.0466     21.7754
   643.5000      7.9501      2.5165      0.0793      8.0936     55.7861     21.5414
   643.6000      7.9501      2.5201      0.1434      7.8745     53.2279     21.6642
   643.7000      7.9501      2.5258      0.1216      7.5295     47.1644     22.2293
   643.8000      7.9312      2.5268      0.1258      7.4658     42.5149     22.6863
   643.9000      7.9312      2.5320      0.0740      7.1536     41.7693     22.4484
   644.0000      7.9483      2.5493      0.0996      6.1024     41.8948     21.8801
   644.1000      7.9483      2.5638      0.1085      5.2261     40.9995     21.8363
   644.2000      7.9483      2.5585      0.1108      5.5463     40.2093     22.2828
   644.3000      7.9314      2.5390      0.0691      6.7253     38.6923     22.4933
   644.4000      7.9314      2.5238      0.0563      7.6500     36.2372     22.2314
   644.5000      7.9443      2.5217      0.0862      7.7774     35.7645     22.0047
   644.6000      7.9443      2.5240      0.0738      7.6367     39.6027     22.0856
   644.7000      7.9443      2.5185      0.0569      7.9706     45.3948     21.9338
   644.8000      7.9507      2.5073      0.0083      8.6500     48.6135     21.2700
   644.9000      7.9507      2.5054      0.0286      8.7608     48.4810     20.7907
   645.0000      7.9334      2.5146      0.0465      8.2059     48.5180     20.9981
   645.1000      7.9334      2.5209     -0.0089      7.8272     49.8447     21.4465
   645.2000      7.9334      2.5206     -0.0130      7.8453     48.6850     21.4865
   645.3000      7.9180      2.5212      0.0010      7.8035     44.0881     21.1963
   645.4000      7.9180      2.5286      0.0108      7.3601     39.8873     21.0329
   645.5000      7.9165      2.5447      0.0382      6.3801     39.7045     21.1703
   645.6000      7.9165      2.5638      0.0832      5.2260     42.7526     21.5648
   645.7000      7.9165      2.5684      0.1198      4.9443     44.4308     22.1112
   645.8000      7.9190      2.5554      0.0746      5.7348     43.4509     22.4569
   645.9000      7.9190      2.5536      0.0287      5.8445     44.0124     22.3737
   646.0000      7.8947      2.5766      0.0728      4.4482     47.6819     22.0954
   646.1000      7.8947      2.5953      0.0842      3.3124     49.3503     21.9004
   646.2000      7.8947      2.5920      0.0767      3.5147     47.6933     21.9122
   646.3000      7.9008      2.5801      0.0380      4.2343     45.5094     21.9867
   646.4000      7.9008      2.5654      0.0967      5.1285     43.6314     21.9584
   646.5000      7.9135      2.5450      0.0479      6.3619     42.6756     21.8233
   646.6000      7.9135      2.5327      0.0160      7.1120     42.2586     21.6333
   646.7000      7.9135      2.5377      0.0401      6.8039     42.7818     21.4914
   646.8000      7.9353      2.5481      0.0586      6.1776     45.4955     21.5946
   646.9000      7.9353      2.5549      0.0513      5.7637     49.0471     22.1059
   647.0000      7.9437      2.5633      0.0689      5.2563     52.5276     22.8599
   647.1000      7.9437      2.5795      0.0557      4.2734     56.1392     23.4862
   647.2000      7.9437      2.6002      0.0850      3.0162     56.9909     23.7116
   647.3000      7.9124      2.6070      0.1175      2.6055     56.1112     23.4940
   647.4000      7.9124      2.5951      0.0431      3.3295     60.0172     22.9741
   647.5000      7.9179      2.5820      0.1021      4.1238     67.7196     22.3730
   647.6000      7.9179      2.5716      0.0580      4.7528     70.4023     22.0352
   647.7000      7.9179      2.5646      0.0068      5.1764     66.7135     22.1287
   647.8000      7.9416      2.5651      0.0152      5.1464     63.2759     22.5699
   647.9000      7.9416      2.5646     -0.0158      5.1739     61.5277     23.1945
   648.0000      7.9974      2.5522      0.0161      5.9258     60.9160     23.3724
   648.1000      7.9974      2.5273      0.0017      7.4348     63.5566     22.8488
   648.2000      7.9974      2.5041     -0.0497      8.8445     67.8543     22.4397
   648.3000      8.0480      2.4941     -0.0150      9.4484     70.1058     22.5589
   648.4000      8.0480      2.4887      0.0096      9.7734     70.0927     22.7773
   648.5000      8.1082      2.4761     -0.0319     10.5391     70.2505     22.8015
   648.6000      8.1082      2.4655     -0.0285     11.1803     72.0343     22.6822
   648.7000      8.1082      2.4756     -0.0333     10.5688     74.9371     22.5987
   648.8000      8.0906      2.5078      0.0205      8.6184     76.7301     22.8708
   648.9000      8.0906      2.5392      0.0896      6.7127     74.9714     23.4379
   649.0000      8.0292      2.5561      0.0599      5.6910     72.4240     23.7515
   649.1000      8.0292      2.5691      0.0877      4.9023     72.8347     23.7855
   649.2000      8.0292      2.5752      0.1953      4.5309     73.7852     24.0347
   649.3000      8.0200      2.5676      0.1225      4.9960     73.1332     24.4119
   649.4000      8.0200      2.5662      0.1408      5.0808     72.6636     24.5141
   649.5000      7.9555      2.5780      0.1423      4.3662     73.9828     24.4048
   649.6000      7.9555      2.5924      0.1128      3.4901     74.5174     24.3636
   649.7000      7.9555      2.6166      0.1080      2.0259     73.7102     24.5568
   649.8000      7.9326      2.6533      0.1607     -0.1993     76.2551     24.9216
   649.9000      7.9326      2.6840      0.1756     -2.0596     81.8519     25.0373
