~Version Information
VERS.                      2.0: CWLS Log ASCII Standard - VERSION 2.0
WRAP.                       NO: One line per depth step
~Well Information Block
STRT.FT               475.0000: 
STOP.FT              2336.7500: 
STEP.FT                 0.2500: 
NULL.                -999.2500: 
COMP.          Pioneer Natural Resources: COMPANY
WELL.              Bobsy 34-11: WELL
FLD.           Purgatoire River: FIELD
LOC.           1937' FEL & 451' FSL----: LOCATION
PROV.                 Colorado: PROVINCE
CNTY.               Las Animas: COUNTRY
SRVC.                Patterson: SERVICE COMPANY
DATE.          Fri Apr 08 05:21:25 2005: LOG DATE
UWI.           05 071 08330 00: UNIQUE WELL ID
~Curve Information Block
DEPT.FT            0 000 00 00: Depth
SN.Ohm-m                      : IEL Short Normal
SP.mV                         : IEL Spontaneous Potential
DIR.Ohm-m                     : IEL Induction Resistivity
GR.GAPI                       : Gamma Ray
~Parameter Information Block
~A  Depth        SN          SP         DIR          GR     
   475.0000   2000.0000   2000.0000 100000.0000     80.7769
   475.2500   2000.0000   2000.0000 100000.0000     80.7456
   475.5000   2000.0000   2000.0000 100000.0000     80.9054
   475.7500   2000.0000   2000.0000 100000.0000     81.8353
   476.0000   2000.0000   2000.0000 100000.0000     85.2020
   476.2500   2000.0000   2000.0000 100000.0000     88.6809
   476.5000   2000.0000   2000.0000 100000.0000     94.2623
   476.7500   2000.0000   2000.0000 100000.0000     96.9092
   477.0000   2000.0000   2000.0000 100000.0000     97.9977
   477.2500   2000.0000   2000.0000 100000.0000     97.1952
   477.5000   2000.0000   2000.0000 100000.0000     95.5090
   477.7500   2000.0000   2000.0000 100000.0000     94.9634
   478.0000   2000.0000   2000.0000 100000.0000     95.5886
   478.2500   2000.0000   2000.0000 100000.0000     96.8032
   478.5000   2000.0000   2000.0000 100000.0000     99.0587
   478.7500   2000.0000   2000.0000      9.4109    100.4125
   479.0000   2000.0000   2000.0000      4.6454    102.0478
   479.2500   2000.0000   2000.0000      3.5390    103.1330
   479.5000   2000.0000   2000.0000      3.5497    105.0238
   479.7500   2000.0000   2000.0000      4.5778    106.1545
   480.0000   2000.0000   2000.0000      8.0928    106.7605
   480.2500   2000.0000   2000.0000     31.2226    106.2799
   480.5000   2000.0000   2000.0000 100000.0000    104.9581
   480.7500   2000.0000   2000.0000 100000.0000    104.3086
   481.0000   2000.0000   2000.0000 100000.0000    104.3024
   481.2500   2000.0000   2000.0000 100000.0000    104.9256
   481.5000   2000.0000   2000.0000 100000.0000    106.4484
   481.7500   2000.0000   2000.0000     41.8140    107.6646
   482.0000   2000.0000   2000.0000     17.9853    109.6489
   482.2500   2000.0000   2000.0000     12.9941    111.0549
   482.5000   2000.0000   2000.0000     11.4137    113.2277
   482.7500   2000.0000   2000.0000     11.1210    114.7175
   483.0000   2000.0000   2000.0000     11.4993    117.1111
   483.2500   2000.0000   2000.0000     12.2766    118.8044
   483.5000   2000.0000   2000.0000     13.2487    121.2048
   483.7500   2000.0000   2000.0000     14.1881    122.4442
   484.0000   2000.0000   2000.0000     14.8824    123.2762
   484.2500   2000.0000   2000.0000     15.2870    122.9692
   484.5000   2000.0000   2000.0000     15.6040    121.5100
   484.7500   2000.0000   2000.0000     16.1724    120.4125
   485.0000   2000.0000   2000.0000     17.2919    119.4409
   485.2500   2000.0000   2000.0000     19.0695    119.3166
   485.5000   2000.0000   2000.0000     21.2165    119.2905
   485.7500   2000.0000   2000.0000     22.9041    118.9118
   486.0000   2000.0000   2000.0000     23.2226    117.4778
   486.2500   2000.0000   2000.0000     22.1201    116.2008
   486.5000   2000.0000   2000.0000     20.3922    114.7573
   486.7500   2000.0000   2000.0000     18.8128    114.5492
   487.0000   2000.0000   2000.0000     17.7429    115.2698
   487.2500   2000.0000   2000.0000     17.2518    115.9575
   487.5000   2000.0000   2000.0000     17.2707    116.5439
   487.7500   2000.0000   2000.0000     17.6531    116.5014
   488.0000   2000.0000   2000.0000     18.1963    115.7436
   488.2500   2000.0000   2000.0000     18.6919    114.6041
   488.5000   2000.0000   2000.0000     19.0048    111.8143
   488.7500   2000.0000   2000.0000     19.1197    109.7283
   489.0000   2000.0000   2000.0000     19.1110    107.9322
   489.2500   2000.0000   2000.0000     19.0759    108.2843
   489.5000   2000.0000   2000.0000     19.0885    110.6040
   489.7500   2000.0000   2000.0000     19.1909    112.3305
   490.0000   2000.0000   2000.0000     19.3985    113.6725
   490.2500   2000.0000   2000.0000     19.7068    113.4677
   490.5000   2000.0000   2000.0000     20.0944    111.9312
   490.7500   2000.0000   2000.0000     20.5278    110.5170
   491.0000   2000.0000   2000.0000     20.9699    108.4565
   491.2500   2000.0000   2000.0000     21.3886    107.3204
   491.5000   2000.0000   2000.0000     21.7592    105.8317
   491.7500   2000.0000   2000.0000     22.0579    104.7389
   492.0000   2000.0000   2000.0000     22.2563    102.8689
   492.2500   2000.0000   2000.0000     22.3274    101.8081
   492.5000   2000.0000   2000.0000     22.2628    101.3215
   492.7500   2000.0000   2000.0000     22.0826    101.9388
   493.0000   2000.0000   2000.0000     21.8287    103.7150
   493.2500   2000.0000   2000.0000     21.5445    104.7641
   493.5000   2000.0000   2000.0000     21.2591    105.0986
   493.7500   2000.0000   2000.0000     20.9835    104.3442
   494.0000   2000.0000   2000.0000     20.7161    102.2771
   494.2500   2000.0000   2000.0000     20.4516    100.7975
   494.5000   2000.0000   2000.0000     20.1877     99.2415
   494.7500   2000.0000   2000.0000     19.9279     98.9156
   495.0000   2000.0000   2000.0000     19.6801     99.5107
   495.2500   2000.0000   2000.0000     19.4546    100.4441
   495.5000   2000.0000   2000.0000     19.2635    102.2790
   495.7500   2000.0000   2000.0000     19.1186    103.7060
   496.0000   2000.0000   2000.0000     19.0268    106.3804
   496.2500   2000.0000   2000.0000     18.9822    108.7283
   496.5000   2000.0000   2000.0000     18.9621    113.0033
   496.7500   2000.0000   2000.0000     18.9328    115.8570
   497.0000   2000.0000   2000.0000     18.8651    118.8596
   497.2500   2000.0000   2000.0000     18.7479    119.4190
   497.5000   2000.0000   2000.0000     18.5900    118.0245
   497.7500   2000.0000   2000.0000     18.4088    116.2817
   498.0000   2000.0000   2000.0000     18.2189    114.3911
   498.2500   2000.0000   2000.0000     18.0313    114.5159
   498.5000   2000.0000   2000.0000     17.8568    116.7483
   498.7500   2000.0000   2000.0000     17.7073    118.7229
   499.0000   2000.0000   2000.0000     17.5897    120.7896
   499.2500   2000.0000   2000.0000     17.4984    121.2335
   499.5000   2000.0000   2000.0000     17.4162    121.0619
   499.7500   2000.0000   2000.0000     17.3239    120.9589
   500.0000   2000.0000   2000.0000     17.2129    121.4448
   500.2500   2000.0000   2000.0000     17.0867    122.2727
   500.5000   2000.0000   2000.0000     16.9529    124.1213
   500.7500   2000.0000   2000.0000     16.8132    125.5839
   501.0000   2000.0000   2000.0000     16.6618    127.6972
   501.2500   2000.0000   2000.0000     16.4921    128.8724
   501.5000   2000.0000   2000.0000     16.3025    130.3794
   501.7500   2000.0000   2000.0000     16.0964    131.4158
   502.0000   2000.0000   2000.0000     15.8790    133.0918
   502.2500   2000.0000   2000.0000     15.6551    134.0320
   502.5000   2000.0000   2000.0000     15.4300    134.6474
   502.7500   2000.0000   2000.0000     15.2138    134.5723
   503.0000   2000.0000   2000.0000     15.0238    134.4908
   503.2500   2000.0000   2000.0000     14.8837    134.8223
   503.5000   2000.0000   2000.0000     14.8187    135.5294
   503.7500   2000.0000   2000.0000     14.8494    135.4205
   504.0000   2000.0000   2000.0000     14.9890    133.2943
   504.2500   2000.0000   2000.0000     15.2431    130.5117
   504.5000   2000.0000   2000.0000     15.6108    125.2454
   504.7500   2000.0000   2000.0000     16.0868    121.6819
   505.0000   2000.0000   2000.0000     16.6653    116.6108
   505.2500   2000.0000   2000.0000     17.3432    113.1197
   505.5000   2000.0000   2000.0000     18.1213    107.2539
   505.7500   2000.0000   2000.0000     19.0015    103.0282
   506.0000   2000.0000   2000.0000     19.9835     96.7239
   506.2500   2000.0000   2000.0000     21.0608     92.6672
   506.5000   2000.0000   2000.0000     22.2179     86.5830
   506.7500   2000.0000   2000.0000     23.4254     82.4215
   507.0000   2000.0000   2000.0000     24.6353     76.4227
   507.2500   2000.0000   2000.0000     25.7845     73.1139
   507.5000   2000.0000   2000.0000     26.8116     69.8438
   507.7500   2000.0000   2000.0000     27.6816     68.6934
   508.0000   2000.0000   2000.0000     28.4010     67.7698
   508.2500   2000.0000   2000.0000     29.0122     67.3664
