~Version Information
VERS.                      2.0: CWLS Log ASCII Standard - VERSION 2.0
WRAP.                       NO: One line per depth step
~Well Information Block
STRT.FT                10.0000: 
STOP.FT               859.0000: 
STEP.FT                 0.2500: 
NULL.                -999.2500: 
COMP.          Pioneer Natural Resources: COMPANY
WELL.          Prospector 12-19: WELL
FLD.           Purgatoire River: FIELD
LOC.           2262' FNL & 634' FWL: LOCATION
PROV.                 Colorado: PROVINCE
CNTY.               Las Animas: COUNTRY
SRVC.                Patterson: SERVICE COMPANY
DATE.          Tue May 10 11:52:48 2005: LOG DATE
UWI.           05 071 08191 00: UNIQUE WELL ID
~Curve Information Block
DEPT.FT            0 000 00 00: Depth
CCL.                          : Casing Collar Locator
TT3.usec                      : CBL 3' Travel Time
AMP3.mV                       : CBL 3' Amplitude
GR.GAPI                       : Gamma Ray
~Parameter Information Block
~A  Depth       CCL         TT3         AMP3         GR     
# ...
   177.5000      0.0000    887.0807      7.3023     73.9201
   177.7500      0.0000    894.0104      7.3319     72.7212
   178.0000      0.0000    902.1202      7.3435     72.1317
   178.2500      0.0000    912.1072      7.3235     71.3934
   178.5000      0.0000    925.6062      7.2772     71.0590
   178.7500      0.0000    943.8534      7.2208     72.8698
   179.0000      0.0000    964.9430      7.1649     78.0352
   179.2500      0.0000    982.1804      7.1117     85.7571
   179.5000      0.0000    987.1796      7.0688     93.4857
   179.7500      0.0000    976.4937      7.0512     98.7574
   180.0000      0.0000    954.8698      7.0642    101.0455
   180.2500      0.0000    931.2784      7.0961    101.8322
   180.5000      0.0000    912.4297      7.1250    102.7698
   180.7500      0.0000    900.3237      7.1280    103.9409
   181.0000      0.0000    894.1219      7.0927    104.1200
   181.2500      0.0000    892.9408      7.0273    102.5628
   181.5000      0.0000    897.5327      6.9531    100.0028
   181.7500      0.0000    909.7014      6.8929     97.5457
   182.0000      0.0000    929.1359      6.8677     95.0275
   182.2500      0.0000    950.5963      6.8843     91.3493
   182.5000      0.0000    965.4756      6.9207     86.4582
   182.7500      0.0000    967.2985      6.9419     82.1028
   183.0000      0.0000    956.1786      6.9326     80.1565
   183.2500      0.0000    938.3717      6.8989     80.7784
   183.5000      0.0000    921.5826      6.8489     82.7570
   183.7500      0.0000    910.1259      6.7891     85.2025
   184.0000      0.0000    903.8216      6.7288     88.1811
   184.2500      0.0000    900.7505      6.6817     91.8467
   184.5000      0.0000    900.6613      6.6672     95.7858
   184.7500      0.0000    905.8946      6.7003     99.4090
   185.0000      0.0000    920.1526      6.7724    102.1901
   185.2500      0.0000    946.2380      6.8515    103.1915
   185.5000      0.0000    982.3630      6.9042    101.2347
   185.7500      0.0000   1019.5407      6.9130     96.3064
   186.0000      0.0000   1047.8763      6.8802     90.4749
   186.2500      0.0000   1070.4281      6.8260     86.7112
   186.5000      0.0000   1106.0374      6.7781     86.6111
   186.7500      0.0000   1170.2053      6.7576     89.3831
   187.0000      0.0000   1253.9664      6.7717     92.9184
   187.2500      0.0000   1326.5038      6.8149     95.6165
   187.5000      0.0000   1357.4248      6.8782     97.2214
   187.7500      0.0000   1335.9968      6.9559     98.2358
   188.0000      0.0000   1275.3383      7.0366     99.0155
   188.2500      0.0000   1202.0194      7.0905     99.7224
   188.5000      0.0000   1136.8634      7.0818    100.8223
   188.7500      0.0000   1082.5763      6.9925    102.8273
   189.0000      0.0000   1031.4552      6.8311    105.2047
   189.2500      0.0000    981.1667      6.6288    106.0477
   189.5000      0.0000    937.7682      6.4299    103.4223
   189.7500      0.0000    907.0585      6.2698     97.1671
   190.0000      0.0000    889.2569      6.1596     89.4295
   190.2500      0.0000    881.0333      6.0920     83.6224
   190.5000      0.0000    878.9836      6.0575     82.6053
   190.7500      0.0000    880.8650      6.0523     87.0480
   191.0000      0.0000    885.5858      6.0797     94.9196
   191.2500      0.0000    893.8889      6.1451    102.6898
   191.5000      0.0000    910.2025      6.2476    107.6111
   191.7500      0.0000    942.7799      6.3763    109.4409
   192.0000      0.0000    997.2432      6.5124    110.2334
   192.2500      0.0000   1065.4884      6.6366    112.2753
   192.5000      0.0000   1123.9946      6.7372    115.9873
   192.7500      0.0000   1150.7190      6.8125    119.7539
   193.0000      0.0000   1143.3542      6.8644    121.5690
   193.2500      0.0000   1114.7102      6.8965    120.5059
   193.5000      0.0000   1074.2734      6.9175    116.7090
   193.7500      0.0000   1024.4094      6.9390    110.6751
   194.0000      0.0000    970.9861      6.9593    103.1464
   194.2500      0.0000    925.7158      6.9561     95.4525
   194.5000      0.0000    897.0057      6.9081     89.2406
   194.7500      0.0000    885.0063      6.8289     85.5400
   195.0000      0.0000    886.0143      6.7632     84.3277
   195.2500      0.0000    898.4932      6.7472     85.0901
   195.5000      0.0000    924.0724      6.7801     87.4710
   195.7500      0.0000    962.3321      6.8375     91.1529
   196.0000      0.0000   1003.9989      6.8974     95.2562
   196.2500      0.0000   1032.4340      6.9497     98.3312
   196.5000      0.0000   1036.2194      6.9880     99.3572
   196.7500      0.0000   1018.9590      7.0043     98.6961
   197.0000      0.0000    994.3986      6.9920     97.7504
   197.2500      0.0000    975.2158      6.9511     97.6595
   197.5000      0.0000    968.7465      6.8888     98.4786
   197.7500      0.0000    978.9941      6.8181     99.3225
   198.0000      0.0000   1007.3735      6.7526     98.9539
   198.2500      0.0000   1050.4021      6.7015     96.5754
   198.5000      0.0000   1099.2017      6.6649     92.5845
   198.7500      0.0000   1145.8805      6.6352     88.5249
   199.0000      0.0000   1191.5092      6.6034     86.1176
   199.2500      0.0000   1242.5032      6.5656     86.3016
   199.5000      0.0000   1295.9844      6.5248     89.0914
   199.7500      0.0000   1335.1250      6.4902     93.8998
   200.0000      0.0000   1344.7489      6.4725     99.6921
   200.2500      0.0000   1328.0808      6.4734    105.0499
   200.5000      0.0000   1303.5526      6.4715    108.3807
   200.7500      0.0000   1288.0928      6.4070    108.3061
   201.0000      0.0000   1289.0784      6.2001    104.3873
   201.2500      0.0000   1308.5669      5.8219     97.9380
   201.5000      0.0000   1344.5951      5.3513     91.6225
   201.7500      0.0000   1387.6644      4.9286     87.3775
   202.0000      0.0000   1424.3965      4.6510     84.8612
   202.2500      0.0000   1446.6995      4.5220     82.5700
   202.5000      0.0000   1453.8544      4.4853     80.1413
   202.7500      0.0000   1446.0214      4.4867     78.7483
   203.0000      2.0000   1418.7380      4.5118     79.3301
   203.2500      0.0000   1365.5349      4.5939     81.1700
   203.5000      0.0000   1286.9409      4.7989     82.4511
   203.7500      0.0000   1196.5258      5.1834     81.8065
   204.0000      0.0000   1115.4934      5.7264     79.1752
   204.2500      0.0000   1059.9725      6.2996     75.5714
   204.5000      0.0000   1034.5647      6.7429     72.2790
   204.7500      0.0000   1035.5540      6.9771     69.8874
   205.0000      0.0000   1054.1588      7.0331     67.8480
   205.2500      0.0000   1075.2563      6.9896     65.1634
   205.5000      0.0000   1080.8617      6.9122     61.4422
   205.7500      0.0000   1063.0344      6.8384     57.1249
   206.0000      0.0000   1032.9369      6.7847     53.0692
   206.2500      0.0000   1012.0765      6.7540     50.2757
   206.5000      0.0000   1012.5781      6.7430     49.6476
   206.7500      0.0000   1025.9390      6.7462     51.4735
   207.0000      0.0000   1031.4089      6.7580     55.1072
   207.2500      0.0000   1015.9729      6.7788     59.3054
   207.5000      0.0000    985.1442      6.8176     62.9667
   207.7500      0.0000    954.3381      6.8783     65.8053
   208.0000      0.0000    933.9786      6.9492     68.5567
   208.2500      0.0000    925.2167      7.0090     72.1918
   208.5000      0.0000    926.3257      7.0412     76.6736
   208.7500      0.0000    939.9564      7.0420     80.8683
   209.0000      0.0000    974.9722      7.0194     83.7385
   209.2500      0.0000   1040.7534      6.9858     84.9715
   209.5000      0.0000   1135.9500      6.9490     84.5619
   209.7500      0.0000   1241.5830      6.9095     82.8012
   210.0000      0.0000   1328.3251      6.8644     80.8872
   210.2500      0.0000   1373.5775      6.8143     80.6814
   210.5000      0.0000   1373.1993      6.7676     83.4246
   210.7500      0.0000   1340.6195      6.7397     88.8582
