~Version Information
VERS.                      2.0: CWLS Log ASCII Standard - VERSION 2.0
WRAP.                       NO: One line per depth step
~Well Information Block
STRT.FT               259.0000: 
STOP.FT              2382.0000: 
STEP.FT                 0.2500: 
NULL.                -999.2500: 
COMP.          Pioneer Natural Resources: COMPANY
WELL.          Foothills 12-36: WELL
FLD.           Purgatoire River: FIELD
LOC.           2450' FNL & 201' FWL: LOCATION
PROV.                 Colorado: PROVINCE
CNTY.               Las Animas: COUNTRY
SRVC.                Patterson: SERVICE COMPANY
DATE.          Thu Apr 21 03:00:58 2005: LOG DATE
UWI.           05 071 08339 00: UNIQUE WELL ID
~Curve Information Block
DEPT.FT            0 000 00 00: Depth
SN.Ohm-m                      : IEL Short Normal
SP.mV                         : IEL Spontaneous Potential
DIR.Ohm-m                     : IEL Induction Resistivity
GR.GAPI                       : Gamma Ray
~Parameter Information Block
~A  Depth        SN          SP         DIR          GR     
# ...
  1632.5000     11.5089    -79.9245      9.5945    127.4360
  1632.7500     11.9593    -80.2154      9.7296    126.0917
  1633.0000     12.5339    -80.5153      9.8508    123.5641
  1633.2500     13.0558    -80.7855      9.9584    122.3820
  1633.5000     13.4154    -80.9836     10.0568    122.5095
  1633.7500     13.6888    -81.0884     10.1515    123.9882
  1634.0000     13.9195    -81.1119     10.2430    127.5102
  1634.2500     13.9474    -81.0876     10.3259    129.8886
  1634.5000     13.6193    -81.0389     10.3924    131.7712
  1634.7500     12.9804    -80.9502     10.4397    130.9048
  1635.0000     12.1367    -80.7635     10.4728    125.4579
  1635.2500     11.1217    -80.4073     10.5026    119.4253
  1635.5000     10.0240    -79.8351     10.5411    109.1817
  1635.7500      9.1215    -79.0495     10.5969    103.3818
  1636.0000      8.7831    -78.1050     10.6744     98.1969
  1636.2500      9.2581    -77.1016     10.7723     96.9885
  1636.5000     10.5094    -76.1661     10.8853     96.9869
  1636.7500     12.1765    -75.4110     11.0057     97.2920
  1637.0000     13.7622    -74.8870     11.1248     97.3364
  1637.2500     14.8981    -74.5660     11.2342     96.8261
  1637.5000     15.4395    -74.3705     11.3240     95.1734
  1637.7500     15.4642    -74.2227     11.3838     93.8660
  1638.0000     15.2539    -74.0756     11.4047     92.8641
  1638.2500     15.0788    -73.9144     11.3834     93.4171
  1638.5000     14.9319    -73.7413     11.3236     96.0688
  1638.7500     14.6587    -73.5627     11.2333     98.5908
  1639.0000     14.2706    -73.3872     11.1219    102.6691
  1639.2500     13.9262    -73.2272     10.9985    105.2567
  1639.5000     13.7017    -73.0968     10.8714    108.6020
  1639.7500     13.4996    -73.0055     10.7476    110.4582
  1640.0000     13.2016    -72.9585     10.6332    113.2268
  1640.2500     12.8500    -72.9585     10.5365    115.5639
  1640.5000     12.5538    -73.0067     10.4672    120.0548
  1640.7500     12.3448    -73.0969     10.4309    123.2100
  1641.0000     12.2255    -73.2108     10.4237    126.8391
  1641.2500     12.1699    -73.3216     10.4309    127.9407
  1641.5000     12.1159    -73.4047     10.4336    127.1883
  1641.7500     12.0381    -73.4530     10.4164    125.0382
  1642.0000     11.9798    -73.4824     10.3723    119.6351
  1642.2500     12.0158    -73.5206     10.3003    115.1346
  1642.5000     12.1345    -73.5860     10.2034    108.6221
  1642.7500     12.2479    -73.6709     10.0866    105.4433
  1643.0000     12.3252    -73.7406      9.9563    103.5037
  1643.2500     12.3297    -73.7492      9.8196    104.0498
  1643.5000     12.1801    -73.6625      9.6828    106.2993
  1643.7500     11.9503    -73.4740      9.5523    107.6672
  1644.0000     11.8728    -73.2064      9.4353    108.4656
  1644.2500     12.0326    -72.8990      9.3375    108.4406
  1644.5000     12.2108    -72.5925      9.2599    109.0739
  1644.7500     12.1194    -72.3181      9.1981    110.7699
  1645.0000     11.7650    -72.0924      9.1439    115.6224
  1645.2500     11.4102    -71.9153      9.0888    119.9182
  1645.5000     11.2059    -71.7714      9.0262    126.3769
  1645.7500     11.1115    -71.6407      8.9513    129.8077
  1646.0000     11.0241    -71.5128      8.8607    132.9034
  1646.2500     10.8418    -71.3940      8.7514    133.6570
  1646.5000     10.6078    -71.2979      8.6224    133.2265
  1646.7500     10.5228    -71.2329      8.4762    132.0446
  1647.0000     10.6970    -71.1993      8.3216    129.0712
  1647.2500     11.0102    -71.1962      8.1727    126.4917
  1647.5000     11.2094    -71.2240      8.0452    122.4528
  1647.7500     11.1617    -71.2803      7.9519    120.2086
  1648.0000     11.0154    -71.3621      7.8999    118.2215
  1648.2500     10.9776    -71.4737      7.8912    117.8624
  1648.5000     11.0502    -71.6261      7.9240    118.5781
  1648.7500     11.0953    -71.8217      7.9963    119.9668
  1649.0000     11.0093    -72.0427      8.1070    123.4915
  1649.2500     10.7891    -72.2608      8.2558    126.2199
  1649.5000     10.5138    -72.4623      8.4424    128.9080
  1649.7500     10.2994    -72.6657      8.6643    128.8651
  1650.0000     10.2210    -72.9178      8.9156    125.9274
  1650.2500     10.3062    -73.2711      9.1886    122.5197
  1650.5000     10.6476    -73.7578      9.4776    116.0169
  1650.7500     11.3040    -74.3697      9.7865    111.0909
  1651.0000     12.1262    -75.0546     10.1323    103.3896
  1651.2500     12.9474    -75.7310     10.5417     98.3623
  1651.5000     13.7612    -76.3146     11.0404     91.3641
  1651.7500     14.5690    -76.7489     11.6419     87.2453
  1652.0000     15.3214    -77.0232     12.3436     82.2288
  1652.2500     16.0505    -77.1707     13.1299     79.7894
  1652.5000     16.8376    -77.2469     13.9806     77.3986
  1652.7500     17.6429    -77.3033     14.8750     76.4675
  1653.0000     18.3128    -77.3656     15.7876     75.7823
  1653.2500     18.7754    -77.4263     16.6764     75.7004
  1653.5000     19.1057    -77.4551     17.4762     75.9248
  1653.7500     19.3726    -77.4203     18.1042     76.1082
  1654.0000     19.5865    -77.3067     18.4791     76.1510
  1654.2500     19.6913    -77.1210     18.5459     76.0569
  1654.5000     19.5281    -76.8854     18.2976     76.3297
  1654.7500     19.0393    -76.6291     17.7812     77.3708
  1655.0000     18.4057    -76.3825     17.0826     80.8901
  1655.2500     17.8107    -76.1725     16.2942     84.2683
  1655.5000     17.2769    -76.0183     15.4862     89.3452
  1655.7500     16.7297    -75.9305     14.6989     91.9308
  1656.0000     16.0589    -75.9120     13.9529     94.8104
  1656.2500     15.2285    -75.9574     13.2616     97.0688
  1656.5000     14.3519    -76.0473     12.6345    102.5469
  1656.7500     13.5821    -76.1440     12.0744    107.5221
  1657.0000     13.0434    -76.2047     11.5766    115.1654
  1657.2500     12.7882    -76.2082     11.1344    119.1891
  1657.5000     12.6678    -76.1709     10.7465    122.7097
  1657.7500     12.4476    -76.1351     10.4182    123.5274
  1658.0000     12.1088    -76.1386     10.1579    123.1281
  1658.2500     11.7929    -76.1924      9.9711    122.1974
  1658.5000     11.5582    -76.2784      9.8579    120.5521
  1658.7500     11.4184    -76.3631      9.8132    119.5863
  1659.0000     11.4260    -76.4134      9.8275    118.1887
  1659.2500     11.5831    -76.4097      9.8891    116.8623
  1659.5000     11.8339    -76.3549      9.9861    113.5140
  1659.7500     12.1704    -76.2738     10.1080    110.2231
  1660.0000     12.6000    -76.1990     10.2470    104.1564
  1660.2500     13.0405    -76.1507     10.3963     99.9124
  1660.5000     13.4050    -76.1305     10.5499     94.1140
  1660.7500     13.7354    -76.1324     10.7034     90.8958
  1661.0000     14.0991    -76.1535     10.8574     87.3420
  1661.2500     14.4309    -76.1874     11.0192     86.1887
  1661.5000     14.5970    -76.2147     11.2030     87.2605
  1661.7500     14.5675    -76.2075     11.4272     90.2573
  1662.0000     14.4489    -76.1469     11.7086     97.8052
  1662.2500     14.3570    -76.0386     12.0553    103.9119
  1662.5000     14.3215    -75.9131     12.4608    112.4360
  1662.7500     14.3369    -75.8113     12.9037    116.6003
  1663.0000     14.4552    -75.7639     13.3545    119.5598
  1663.2500     14.7330    -75.7800     13.7871    119.1009
  1663.5000     15.1607    -75.8483     14.1891    114.5996
  1663.7500     15.7053    -75.9485     14.5661    109.2042
  1664.0000     16.3174    -76.0576     14.9404     98.5928
  1664.2500     16.9829    -76.1493     15.3500     90.9087
  1664.5000     17.8512    -76.1925     15.8477     80.4147
  1664.7500     19.1641    -76.1573     16.4954     74.9067
  1665.0000     20.9944    -76.0251     17.3503     69.2211
  1665.2500     23.1568    -75.7917     18.4439     66.7607
  1665.5000     25.4162    -75.4639     19.7629     64.0114
  1665.7500     27.6859    -75.0595     21.2382     62.4672
