~Version Information
VERS.                      2.0: CWLS Log ASCII Standard - VERSION 2.0
WRAP.                       NO: One line per depth step
~Well Information Block
STRT.FT                 0.0000: 
STOP.FT              2025.0000: 
STEP.FT                 0.2500: 
NULL.                -999.2500: 
COMP.          Petrogulf Corporation: COMPANY
WELL.          Robinson 15-12V: WELL
FLD.           Purgatorie River: FIELD
LOC.           1788' FNL & 466' FWL: LOCATION
PROV.                 Colorado: PROVINCE
CNTY.               Las Animas: COUNTRY
SRVC.                Patterson: SERVICE COMPANY
DATE.          Tue Oct 04 11:57:31 2005: LOG DATE
UWI.                          : UNIQUE WELL ID
~Curve Information Block
DEPT.FT            0 000 00 00: Depth
GR.GAPI                       : Gamma Ray
CCL.                          : Casing Collar Locator
TT3.usec                      : CBL 3' Travel Time
AMP3.mV                       : CBL 3' Amplitude
~Parameter Information Block
~A  Depth        GR         CCL         TT3         AMP3    
# ...
  1172.5000    137.1145      0.0000    796.8602      8.2998
  1172.7500    145.6479      0.0000    794.9089      8.4838
  1173.0000    148.7096      0.0000    785.3463      8.6745
  1173.2500    146.5371      0.0000    756.7521      8.8309
  1173.5000    141.6115      0.0000    704.1271      8.9384
  1173.7500    136.3855      0.0000    648.0341      8.9616
  1174.0000    131.9668      0.0000    621.8850      8.8566
  1174.2500    128.9625      0.0000    633.0500      8.6366
  1174.5000    128.4243      0.0000    662.6585      8.3916
  1174.7500    131.0986      0.0000    696.6763      8.2331
  1175.0000    136.3853      0.0000    727.8199      8.2216
  1175.2500    142.8412      0.0000    747.4574      8.3385
  1175.5000    149.1437      0.0000    757.4490      8.5174
  1175.7500    153.9518      0.0000    765.5282      8.6894
  1176.0000    155.7538      0.0000    766.3462      8.8145
  1176.2500    153.9618      0.0000    750.5545      8.8843
  1176.5000    149.7157      0.0000    726.0470      8.9013
  1176.7500    144.8187      0.0000    713.9812      8.8690
  1177.0000    140.1436      0.0000    725.4929      8.8090
  1177.2500    135.2894      0.0000    748.6912      8.7723
  1177.5000    129.2622      0.0000    759.8936      8.7924
  1177.7500    121.4293      0.0000    746.6351      8.8335
  1178.0000    112.4346      0.0000    718.0388      8.8326
  1178.2500    104.2621      0.0000    692.5067      8.7711
  1178.5000     99.0265      0.0000    679.5638      8.6727
  1178.7500     97.8004      0.0000    678.3286      8.5638
  1179.0000    100.7353      0.0000    687.5591      8.4597
  1179.2500    107.6171      0.0000    707.8556      8.3807
  1179.5000    117.7181      0.0000    735.4993      8.3625
  1179.7500    129.5085      0.0000    761.9494      8.4386
  1180.0000    141.1804      0.0000    780.3276      8.6084
  1180.2500    151.2998      0.0000    788.6479      8.8153
  1180.5000    158.4800      0.0000    789.6286      8.9619
  1180.7500    161.0755      0.0000    789.2058      8.9653
  1181.0000    158.3456      0.0000    791.4150      8.8184
  1181.2500    151.9035      0.0000    795.0964      8.6184
  1181.5000    145.1000      0.0000    797.6245      8.4973
  1181.7500    140.6003      0.0000    798.4182      8.4906
  1182.0000    138.8160      0.0000    797.1143      8.5325
  1182.2500    138.5032      0.0000    790.7079      8.5733
  1182.5000    138.1673      0.0000    774.2858      8.6311
  1182.7500    136.6642      0.0000    746.8406      8.7462
  1183.0000    133.1176      0.0000    716.2296      8.9187
  1183.2500    127.0709      0.0000    693.8842      9.0827
  1183.5000    118.8836      0.0000    686.0287      9.1468
  1183.7500    109.6011      0.0000    694.5178      9.0780
  1184.0000    100.3132      0.0000    718.8967      8.9470
  1184.2500     91.7293      0.0000    751.0917      8.8704
  1184.5000     84.2943      0.0000    777.4827      8.8943
  1184.7500     78.4484      0.0000    791.4008      8.9728
  1185.0000     74.4874      0.0000    796.1807      9.0610
  1185.2500     72.3098      0.0000    797.1879      9.1565
  1185.5000     71.6258      0.0000    796.7139      9.2572
  1185.7500     72.2979      0.0000    793.5756      9.3355
  1186.0000     74.1601      0.0000    783.9507      9.3517
  1186.2500     76.7929      0.0000    766.1583      9.2901
  1186.5000     80.0720      0.0000    748.6730      9.1893
  1186.7500     84.7663      0.0000    746.1918      9.1219
  1187.0000     91.8395      0.0000    761.1815      9.1371
  1187.2500    100.9141      0.0000    780.0489      9.2284
  1187.5000    109.9570      0.0000    790.7904      9.3508
  1187.7500    116.9135      0.0000    791.5601      9.4565
  1188.0000    121.3961      0.0000    784.0385      9.5241
  1188.2500    124.3366      0.0000    769.1099      9.5642
  1188.5000    126.1890      0.0000    747.7189      9.5853
  1188.7500    126.0146      0.0000    722.8026      9.5763
  1189.0000    122.4059      0.0000    700.2119      9.5355
  1189.2500    114.9874      0.0000    685.6785      9.4761
  1189.5000    104.8692      0.0000    682.2567      9.4039
  1189.7500     93.9222      0.0000    692.6836      9.3377
  1190.0000     83.8936      0.0000    718.1841      9.3293
  1190.2500     76.0110      0.0000    751.1462      9.4014
  1190.5000     70.9403      0.0000    777.7249      9.4985
  1190.7500     68.7627      0.0000    791.3339      9.5416
  1191.0000     68.9184      0.0000    795.7536      9.5010
  1191.2500     70.2308      0.0000    796.7199      9.4004
  1191.5000     71.2629      0.0000    797.0238      9.2799
  1191.7500     71.1028      0.0000    797.2583      9.1750
  1192.0000     69.9437      0.0000    797.2239      9.1036
  1192.2500     68.6478      0.0000    796.3361      9.0528
  1192.5000     67.7853      0.0000    793.8105      8.9977
  1192.7500     67.3917      0.0000    790.0192      8.9363
  1193.0000     67.4085      0.0000    787.1561      8.8917
  1193.2500     67.8218      0.0000    785.8090      8.8763
  1193.5000     68.4249      0.0000    783.3773      8.8872
  1193.7500     69.0094      0.0000    779.3642      8.9289
  1194.0000     70.0292      0.0000    776.4661      8.9957
  1194.2500     72.7339      0.0000    774.5582      9.0477
  1194.5000     78.1828      0.0000    770.7349      9.0502
  1194.7500     85.9979      0.0000    763.5356      9.0173
  1195.0000     94.2405      0.0000    751.1078      8.9906
  1195.2500    100.5726      0.0000    731.1799      8.9909
  1195.5000    103.5086      0.0000    708.2162      9.0013
  1195.7500    102.7767      0.0000    694.1569      8.9778
  1196.0000     99.0367      0.0000    698.1320      8.8642
  1196.2500     93.5941      0.0000    715.9546      8.6276
  1196.5000     88.1482      0.0000    729.6464      8.3660
  1196.7500     84.3259      0.0000    726.9500      8.2759
  1197.0000     82.9620      0.0000    720.6196      8.3172
  1197.2500     83.4624      0.0000    731.5538      8.2419
  1197.5000     83.9656      0.0000    757.3511      8.0567
  1197.7500     82.7214      0.0000    774.2250      7.9424
  1198.0000     79.6167      0.0000    769.2252      7.9188
  1198.2500     76.0554      0.0000    754.6949      7.9043
  1198.5000     73.1408      0.0000    745.9710      7.8465
  1198.7500     70.3611      0.0000    743.8003      7.7309
  1199.0000     66.4006      0.0000    744.0397      7.6199
  1199.2500     60.9852      0.0000    746.9944      7.6852
  1199.5000     55.5377      0.0000    755.2282      8.0155
  1199.7500     52.0570      0.0000    767.1075      8.4075
  1200.0000     51.5413      0.0000    775.7201      8.6240
  1200.2500     53.3869      0.0000    778.8371      8.6984
  1200.5000     56.0575      0.0000    781.9410      8.7526
  1200.7500     58.2804      0.0000    788.0977      8.8062
  1201.0000     59.7831      0.0000    794.2793      8.8438
  1201.2500     61.1659      0.0000    797.5703      8.8559
  1201.5000     63.3077      0.0000    797.6611      8.8236
  1201.7500     66.8930      0.0000    793.2254      8.7430
  1202.0000     72.1605      0.0000    779.5735      8.6429
  1202.2500     78.6908      0.0000    753.8193      8.5550
  1202.5000     85.3212      0.0000    724.3052      8.4887
  1202.7500     90.5383      0.0000    707.5340      8.4486
  1203.0000     93.3900      0.0000    710.0853      8.4456
  1203.2500     94.2399      0.0000    721.2597      8.4835
  1203.5000     94.5673      0.0000    726.9858      8.5435
  1203.7500     95.9251      0.0000    722.1130      8.5933
  1204.0000     98.9856      0.0000    711.6115      8.6071
  1204.2500    103.3568      0.0000    709.0117      8.5830
  1204.5000    108.0095      0.0000    724.8516      8.5535
  1204.7500    111.5966      0.0000    753.1423      8.5551
  1205.0000    112.4823      0.0000    777.9496      8.5859
  1205.2500    109.1846      0.0000    790.3964      8.6203
  1205.5000    101.4613      0.0000    790.4968      8.6429
  1205.7500     90.9028      0.0000    777.2886      8.6534
