~Version Information
VERS.                      2.0: CWLS Log ASCII Standard - VERSION 2.0
WRAP.                       NO: One line per depth step
~Well Information Block
STRT.FT               630.0000: 
STOP.FT              1155.5000: 
STEP.FT                 0.1000: 
NULL.                -999.2500: 
COMP.          Pioneer Natural Resources: COMPANY
WELL.          Drewmeister 34-34: WELL
FLD.           Purgatoire River: FIELD
LOC.           958' FSL & 1857' FEL: LOCATION
STAT.                 Colorado: State
CNTY.               Las Animas: COUNTY
CTRY. USA : Country
SECT. 34 : Section
TOWN. 32S : Township
RANG. 65W : Range
SRVC.                Patterson: SERVICE COMPANY
DATE.          Tue Oct 04 08:23:16 2005: LOG DATE
API.           05 071 08131 00: UNIQUE WELL ID
~Curve Information Block
DEPT.FT            0 000 00 00: Depth
DCAL.in                       : CDL Caliper
RHOB.g/cc                     : CDL Bulk Density
RHOC.g/cc                     : CDL Density Correction
DPOR.pu                       : CDL Density Porosity
GR.GAPI                       : Gamma Ray
NPOR.pu                       : Neutron Porosity
~Parameter Information Block
~A  Depth       DCAL        RHOB        RHOC        DPOR         GR         NPOR    
# ...
   898.8000      8.3067      1.5294      0.1533     67.9158     77.8850      9.5254
   898.9000      8.3067      1.5354      0.1487     67.5494     82.7398      9.8550
   899.0000      8.3145      1.5463      0.1434     66.8880     89.7784     10.3425
   899.1000      8.3145      1.5605      0.0878     66.0285     93.8683     11.1999
   899.2000      8.3145      1.5858      0.0557     64.4948     92.7243     12.1503
   899.3000      8.3170      1.6218      0.1069     62.3154     89.7182     12.8683
   899.4000      8.3170      1.6573      0.1279     60.1652     88.9019     13.3100
   899.5000      8.3153      1.6859      0.1315     58.4310     90.8409     13.3291
   899.6000      8.3153      1.7070      0.1723     57.1522     94.5561     13.2306
   899.7000      8.3153      1.7198      0.1747     56.3771    100.7052     13.5199
   899.8000      8.3088      1.7265      0.1589     55.9718    109.1772     14.0154
   899.9000      8.3088      1.7345      0.1567     55.4838    114.3168     14.5890
   900.0000      8.3008      1.7539      0.1320     54.3091    113.5335     15.5455
   900.1000      8.3008      1.7886      0.1129     52.2045    112.3960     16.8591
   900.2000      8.3008      1.8355      0.1036     49.3640    113.2547     18.1194
   900.3000      8.2974      1.8994      0.1355     45.4924    112.0771     19.0359
   900.4000      8.2974      1.9826      0.2154     40.4493    107.4604     19.5888
   900.5000      8.3002      2.0620      0.2773     35.6356    101.5744     19.6396
   900.6000      8.3002      2.1131      0.2729     32.5393     97.1148     18.8822
   900.7000      8.3002      2.1342      0.2047     31.2630     95.8981     17.4380
   900.8000      8.2990      2.1181      0.2536     32.2354     97.4091     16.0050
   900.9000      8.2990      2.0424      0.2362     36.8256     98.5648     15.0534
   901.0000      8.2933      1.9168      0.0240     44.4391     94.5032     14.3532
   901.1000      8.2933      1.7854     -0.0307     52.4001     84.9204     13.4371
   901.2000      8.2933      1.6648     -0.0598     59.7093     75.5346     12.5389
   901.3000      8.2899      1.5470     -0.1460     66.8458     71.5178     12.0924
   901.4000      8.2899      1.4486     -0.1605     72.8103     71.7484     11.7219
   901.5000      8.2968      1.3905     -0.1184     76.3356     69.2906     11.1540
   901.6000      8.2968      1.3633     -0.0766     77.9811     61.9588     10.7659
   901.7000      8.2968      1.3500     -0.0000     78.7878     53.2115     10.7339
   901.8000      8.3268      1.3503     -0.0015     78.7723     46.7325     10.7547
   901.9000      8.3268      1.3684      0.0943     77.6748     42.9663     10.4681
   902.0000      8.3815      1.3913      0.1526     76.2876     38.6435      9.8295
   902.1000      8.3815      1.3982      0.1553     75.8660     33.5004      9.1441
   902.2000      8.3815      1.3816      0.1631     76.8739     30.3522      8.6368
   902.3000      8.4380      1.3530      0.0917     78.6088     29.2285      8.3178
   902.4000      8.4380      1.3302      0.0906     79.9864     28.2543      8.1910
   902.5000      8.4681      1.3199      0.0788     80.6106     27.7563      8.2450
   902.6000      8.4681      1.3254      0.0446     80.2759     29.1748      8.5034
   902.7000      8.4681      1.3544      0.0711     78.5223     32.7619      8.9463
   902.8000      8.4721      1.4071      0.0964     75.3283     37.0594      9.6065
   902.9000      8.4721      1.4721      0.1653     71.3880     40.4685     10.7238
   903.0000      8.4505      1.5386      0.1884     67.3590     42.5055     12.1555
   903.1000      8.4505      1.6120      0.2002     62.9104     44.2551     13.5423
   903.2000      8.4505      1.7009      0.2434     57.5213     47.8978     15.0034
   903.3000      8.3941      1.7986      0.2701     51.5990     53.5834     16.5401
   903.4000      8.3941      1.8965      0.2818     45.6676     59.4584     17.6628
   903.5000      8.3198      1.9879      0.2804     40.1291     64.8991     18.5679
   903.6000      8.3198      2.0594      0.2680     35.7967     70.9772     20.0036
   903.7000      8.3198      2.1102      0.2326     32.7152     78.4113     21.7725
   903.8000      8.2628      2.1599      0.1716     29.7055     84.8002     23.3068
   903.9000      8.2628      2.2189      0.1463     26.1257     88.3803     24.3265
   904.0000      8.2380      2.2760      0.1643     22.6678     90.7474     24.9139
   904.1000      8.2380      2.3180      0.0908     20.1207     92.5584     25.7426
   904.2000      8.2380      2.3466      0.0309     18.3905     93.6391     26.8893
   904.3000      8.2316      2.3700      0.0601     16.9706     93.7326     27.5284
   904.4000      8.2316      2.3887      0.0854     15.8387     96.0277     27.3356
   904.5000      8.2300      2.3978      0.0601     15.2844    103.1401     26.7700
   904.6000      8.2300      2.4026      0.0350     14.9946    110.4022     26.2617
   904.7000      8.2300      2.4108      0.0218     14.4972    114.2594     26.0565
   904.8000      8.2287      2.4132      0.0658     14.3488    116.3570     25.9620
   904.9000      8.2287      2.4020      0.0350     15.0301    118.1470     25.6653
   905.0000      8.2267      2.3930      0.0132     15.5747    119.0341     25.3664
   905.1000      8.2267      2.4004      0.0247     15.1295    119.1532     24.9920
   905.2000      8.2267      2.4155     -0.0080     14.2124    117.4724     24.3248
   905.3000      8.2235      2.4255      0.0151     13.6061    113.4661     23.7390
   905.4000      8.2235      2.4228      0.0397     13.7720    109.7798     23.5216
   905.5000      8.2185      2.4070      0.0186     14.7272    108.3075     23.6962
   905.6000      8.2185      2.3935      0.0259     15.5424    108.9333     24.0480
   905.7000      8.2185      2.3989      0.0324     15.2190    110.8831     23.7968
   905.8000      8.2152      2.4131      0.0888     14.3570    111.9174     22.9236
   905.9000      8.2152      2.4087      0.0647     14.6219    108.4521     22.4426
   906.0000      8.2169      2.3771      0.0379     16.5421    102.5541     22.5323
   906.1000      8.2169      2.3299      0.0353     19.4016    101.7208     22.3443
   906.2000      8.2169      2.2826      0.0159     22.2647    108.5707     21.7847
   906.3000      8.2193      2.2467      0.0212     24.4402    116.6597     21.6965
   906.4000      8.2193      2.2252      0.0158     25.7427    117.6432     22.3537
   906.5000      8.2228      2.2158      0.0059     26.3145    110.1533     23.3116
   906.6000      8.2228      2.2197      0.0233     26.0776     99.5347     24.4558
   906.7000      8.2228      2.2404      0.0263     24.8271     92.1506     25.7422
   906.8000      8.2292      2.2729      0.0729     22.8531     91.3493     26.6526
   906.9000      8.2292      2.3086      0.1223     20.6900     93.0271     27.1495
   907.0000      8.2349      2.3485      0.1206     18.2709     93.0806     27.5219
   907.1000      8.2349      2.3960      0.1933     15.3957     96.6425     27.5923
   907.2000      8.2349      2.4446      0.1096     12.4466    105.0910     27.3200
   907.3000      8.2322      2.4875      0.1293      9.8489    109.7224     27.0257
   907.4000      8.2322      2.5179      0.1137      8.0073    108.4419     26.8845
   907.5000      8.2225      2.5298      0.0879      7.2868    108.0364     26.5348
   907.6000      8.2225      2.5238      0.1223      7.6512    109.3931     25.4959
   907.7000      8.2225      2.5072      0.1149      8.6528    106.6352     24.5029
   907.8000      8.2164      2.4929      0.0903      9.5187     98.3052     24.6724
   907.9000      8.2164      2.4879      0.0734      9.8220     88.8016     25.3339
   908.0000      8.2188      2.4822      0.0875     10.1699     82.3762     25.1144
   908.1000      8.2188      2.4636      0.0708     11.2997     80.9650     24.2402
   908.2000      8.2188      2.4372      0.0082     12.8969     82.7182     23.9793
   908.3000      8.2272      2.4178     -0.0002     14.0710     85.9530     24.2712
