~Version Information
 VERS.                                  2.0 : CWLS LAS VERSION
 WRAP.                                   NO : WRAPING MODE
 SWARE .                 MController 2.5.0N : SOFTWARE VERSION
~Well Information
 WELL.                      EASTON 12-30 TR : WELL
 COMP.    PIONEER NATURAL RESOURCES USA INC : COMPANY
 FLD.                      PURGATOIRE RIVER : FIELD
 LOC.                SW/NW SEC 30 T32S R66W : LOCATION
 DATE.                             06/01/05 : DATE(S) LOGGED
 SRVC.       BLANCO GEOLOGICAL SERVICES LLC : SERVICE COMPANY
 STAT.                             COLORADO : STATE
 CNTY.                           LAS ANIMAS : COUNTY
 CTRY.                                  USA : COUNTRY
 API.                       05-071-08379-00 : API NUMBER
 STRT.FT                             307.00 : START DEPTH
 STOP.FT                            2000.00 : STOP DEPTH
 STEP.FT                               1.00 : DEPTH INCREMENT
 NULL.                                -9999 : NULL VALUE
~Curve information
 DEPTH.FT                                   :
 ROP.MIN/FT                                 :
 GAS.UNITS                                  :
~ASCII Log data
# ...
       707.0         0.23          5.7 
       708.0         0.23          5.4 
       709.0         0.20          5.7 
       710.0         0.27          5.4 
       711.0         0.23          5.7 
       712.0         0.20          6.2 
       713.0         0.17          5.9 
       714.0         0.23          6.1 
       715.0         0.17          6.3 
       716.0         3.32          6.7 
       717.0         0.10          5.9 
       718.0         0.13          5.8 
       719.0         0.20          6.2 
       720.0         0.17          5.8 
       721.0         0.28          5.5 
       722.0         0.17          5.6 
       723.0         0.17          5.8 
       724.0         0.17          6.0 
       725.0         0.30          6.3 
       726.0         0.30          6.8 
       727.0         0.23          5.8 
       728.0         0.17          6.1 
       729.0         0.17          6.1 
       730.0         0.23          6.2 
       731.0         0.23          6.2 
       732.0         0.27          5.3 
       733.0         0.20          5.5 
       734.0         0.13          5.5 
       735.0         0.23          5.7 
       736.0         0.23          6.4 
       737.0         0.18          5.7 
       738.0         0.13          5.7 
       739.0         0.13          6.0 
       740.0         0.17          6.1 
       741.0         0.13          5.9 
       742.0         0.17          5.7 
       743.0         0.17          6.0 
       744.0         0.20          6.3 
       745.0         0.23          5.9 
       746.0         4.45          7.3 
       747.0         0.17          4.5 
       748.0         0.27          4.3 
       749.0         0.23          4.3 
       750.0         0.25          4.7 
       751.0         0.20          4.5 
       752.0         0.20          4.3 
       753.0         0.17          4.3 
       754.0         0.17          4.5 
       755.0         0.13          4.7 
       756.0         0.27          4.4 
       757.0         0.27          4.0 
       758.0         0.17          4.0 
       759.0         0.13          4.4 
       760.0         0.13          3.6 
       761.0         0.10          4.5 
       762.0         0.13          4.3 
       763.0         0.17          4.8 
       764.0         0.20          5.2 
       765.0         0.20          4.7 
       766.0         0.20          4.8 
       767.0         0.20          4.5 
       768.0         0.17          4.2 
       769.0         0.18          4.2 
       770.0         0.20          4.4 
       771.0         0.23          4.8 
       772.0         0.27          4.5 
       773.0         0.27          4.7 
       774.0         0.20          4.7 
       775.0         0.20          4.7 
       776.0         4.98         10.7 
       777.0         0.25         14.8 
       778.0         0.20         16.3 
       779.0         0.17         17.9 
       780.0         0.17         18.6 
       781.0         0.13         18.3 
       782.0         0.17         17.9 
       783.0         0.13         16.7 
       784.0         0.10         15.8 
       785.0         0.10         16.4 
       786.0         0.10         17.1 
       787.0         0.10         18.8 
       788.0         0.10         18.0 
       789.0         0.10         16.8 
       790.0         0.10         15.0 
       791.0         0.07         12.3 
       792.0         0.10         10.5 
       793.0         0.10          9.9 
       794.0         0.10          8.3 
       795.0         0.23          7.3 
       796.0         0.20          5.0 
       797.0         0.23          4.4 
       798.0         0.27          4.5 
       799.0         0.23          4.8 
       800.0         0.22          5.3 
       801.0         0.20          5.7 
       802.0         0.20          6.5 
       803.0         0.23          8.3 
       804.0         0.20         11.0 
       805.0         0.27         13.5 
       806.0         4.52         14.8 
       807.0         0.23          3.4 
       808.0         0.23          4.0 
       809.0         0.17          5.8 
       810.0         0.17         10.0 
       811.0         0.10         13.9 
       812.0         0.25         16.1 
       813.0         0.23         14.2 
       814.0         0.20          7.9 
       815.0         0.23          6.2 
       816.0         0.17          5.0 
       817.0         0.17          5.0 
       818.0         0.17          5.2 
       819.0         0.13          5.5 
       820.0         0.17          6.1 
       821.0         0.13          5.9 
       822.0         0.10          6.9 
       823.0         0.10          6.2 
       824.0         0.07          7.1 
       825.0         0.13          7.3 
       826.0         0.17          7.3 
       827.0         0.17          6.8 
       828.0         0.17          7.6 
       829.0         0.30          8.4 
       830.0         0.23         10.1 
       831.0         0.22         10.0 
       832.0         0.17         10.6 
       833.0         0.20         10.8 
       834.0         0.17         12.1 
       835.0         0.23         10.8 
       836.0         3.78          8.9 
       837.0         0.27          7.4 
       838.0         0.20          7.5 
       839.0         0.10          7.5 
       840.0         0.20          7.4 
       841.0         0.23          7.5 
       842.0         0.20          7.5 
       843.0         0.23          8.1 
       844.0         0.17          7.3 
       845.0         0.20          7.7 
       846.0         0.15          6.6 
       847.0         0.17          6.3 
       848.0         0.13          6.7 
       849.0         0.17          6.6 
       850.0         0.13          6.1 
       851.0         0.13          6.3 
       852.0         0.13          6.4 
       853.0         0.13          6.5 
       854.0         0.13          6.4 
       855.0         0.13          5.4 
       856.0         0.17          6.5 
       857.0         0.17          6.0 
       858.0         0.20          5.5 
       859.0         0.20          5.6 
       860.0         0.17          5.5 
       861.0         0.17          5.2 
       862.0         0.23          5.5 
       863.0         0.30          6.9 
       864.0         0.27         18.4 
       865.0         0.18         18.3 
       866.0         6.02         26.2 
       867.0         0.27          1.3 
       868.0         0.20          1.2 
       869.0         0.25          1.1 
       870.0         0.20          0.9 
       871.0         0.20          0.6 
       872.0         0.17          0.6 
       873.0         0.17          4.2 
       874.0         0.17          4.7 
       875.0         0.23          5.0 
       876.0         0.27          5.6 
       877.0         0.33          5.3 
       878.0         0.33          6.0 
       879.0         0.20          6.2 
       880.0         0.23          6.6 
       881.0         0.17          7.2 
       882.0         0.13          8.3 
       883.0         0.20          8.3 
       884.0         0.22          9.0 
       885.0         0.17          9.4 
       886.0         0.10          8.7 
       887.0         0.20          9.0 
       888.0         0.10          8.4 
       889.0         0.13          9.0 
       890.0         0.17          8.6 
       891.0         0.17          8.5 
       892.0         0.20          8.1 
       893.0         0.17          7.6 
       894.0         0.13          7.5 
       895.0         0.23          6.0 
       896.0         4.15         10.9 
       897.0         0.20          9.4 
       898.0         0.23          7.5 
       899.0         0.20          6.8 
       900.0         0.18          6.3 
       901.0         0.13          6.0 
       902.0         0.13          5.8 
       903.0         0.13          5.6 
       904.0         0.13          5.3 
       905.0         0.13          4.7 
       906.0         0.13          4.4 
