~Version Information
VERS.                      2.0: CWLS Log ASCII Standard - VERSION 2.0
WRAP.                       NO: One line per depth step
~Well Information Block
STRT.FT                -4.2500: 
STOP.FT              2500.7500: 
STEP.FT                 0.2500: 
NULL.                -999.2500: 
COMP.          Pioneer Natural Resources: COMPANY
WELL.          Cock-a-doodle-doo 44-27: WELL
FLD.           Purgatoire River: FIELD
LOC.           163' FSL & 54' FEL--: LOCATION
PROV.                 Colorado: PROVINCE
CNTY.               Las Animas: COUNTRY
SRVC.                Patterson: SERVICE COMPANY
DATE.          Wed Jul 06 10:56:34 2005: LOG DATE
UWI.                071 08429 : UNIQUE WELL ID
~Curve Information Block
DEPT.FT            0 000 00 00: Depth
CCL.                          : Casing Collar Locator
TT3.usec                      : CBL 3' Travel Time
AMP3.mV                       : CBL 3' Amplitude
GR.GAPI                       : Gamma Ray
~Parameter Information Block
~A  Depth       CCL         TT3         AMP3         GR     
# ...
  1804.7500      0.0000    709.1046      7.6732    152.8308
  1805.0000      0.0000    703.1512      7.6930    150.5679
  1805.2500      0.0000    688.1544      7.6913    143.9022
  1805.5000      0.0000    661.3346      7.6663    134.6246
  1805.7500      0.0000    622.5031      7.5837    124.5716
  1806.0000      0.0000    575.0292      7.4089    114.9180
  1806.2500      0.0000    524.2405      7.1480    106.5512
  1806.5000      0.0000    475.2758      6.8598    100.5496
  1806.7500      0.0000    432.7609      6.6223     97.7756
  1807.0000      0.0000    400.8572      6.4849     98.0075
  1807.2500      0.0000    381.8726      6.4462     99.9720
  1807.5000      0.0000    374.8167      6.4647    102.4006
  1807.7500      0.0000    376.1351      6.4858    104.7320
  1808.0000      0.0000    382.5719      6.4677    106.7981
  1808.2500      0.0000    394.3859      6.3959    108.5133
  1808.5000      0.0000    416.3653      6.2845    110.1963
  1808.7500      0.0000    454.1744      6.1638    112.4884
  1809.0000      0.0000    506.4349      6.0642    115.4251
  1809.2500      0.0000    559.3883      6.0023    118.1144
  1809.5000      0.0000    592.7531      5.9754    119.8776
  1809.7500      0.0000    594.7266      5.9702    121.3042
  1810.0000      0.0000    571.9628      5.9797    123.6151
  1810.2500      0.0000    543.8247      6.0093    127.1468
  1810.5000      0.0000    526.3671      6.0652    130.9395
  1810.7500      0.0000    521.5684      6.1412    133.7242
  1811.0000      0.0000    521.1650      6.2208    134.7670
  1811.2500      0.0000    519.0054      6.2882    133.8922
  1811.5000      0.0000    517.0685      6.3373    131.4209
  1811.7500      0.0000    519.1525      6.3774    128.2518
  1812.0000      0.0000    522.2853      6.4337    125.5740
  1812.2500      0.0000    518.2620      6.5346    124.3558
  1812.5000      0.0000    503.2042      6.6902    125.0618
  1812.7500      0.0000    482.2496      6.8812    127.5915
  1813.0000      0.0000    464.0328      7.0702    131.4962
  1813.2500      0.0000    453.1061      7.2281    136.4977
  1813.5000      0.0000    448.5423      7.3505    142.7366
  1813.7500      0.0000    447.2654      7.4514    150.2426
  1814.0000      0.0000    446.9386      7.5426    158.1215
  1814.2500      0.0000    446.5364      7.6223    164.4502
  1814.5000      0.0000    445.8156      7.6796    167.1927
  1814.7500      0.0000    444.7983      7.7050    165.3240
  1815.0000      0.0000    443.5327      7.6932    159.3501
  1815.2500      0.0000    442.0575      7.6410    151.1847
  1815.5000      0.0000    440.4000      7.5517    143.3873
  1815.7500      0.0000    438.5933      7.4381    137.9206
  1816.0000      0.0000    436.7023      7.3169    135.2085
  1816.2500      0.0000    434.8436      7.1999    134.2447
  1816.5000      0.0000    433.2063      7.0940    133.6036
  1816.7500      0.0000    432.1160      7.0085    132.6147
  1817.0000      0.0000    432.2547      6.9568    131.9551
  1817.2500      0.0000    434.8351      6.9470    133.1653
  1817.5000      0.0000    441.1783      6.9707    137.0609
  1817.7500      0.0000    451.2976      7.0019    142.1946
  1818.0000      0.0000    462.2899      7.0089    145.2814
  1818.2500      0.0000    468.6317      6.9729    143.8274
  1818.5000      0.0000    465.6892      6.9028    138.4686
  1818.7500      0.0000    454.0828      6.8312    132.3953
  1819.0000      0.0000    440.0116      6.7909    128.4318
  1819.2500      0.0000    430.3073      6.7941    127.0657
  1819.5000      0.0000    427.3414      6.8334    127.3006
  1819.7500      0.0000    428.8456      6.9012    128.6006
  1820.0000      0.0000    431.4434      6.9979    131.3974
  1820.2500      0.0000    433.5853      7.1223    136.1123
  1820.5000      0.0000    436.2000      7.2611    142.2710
  1820.7500      0.0000    442.4324      7.3956    148.4659
  1821.0000      0.0000    457.0692      7.5137    152.9571
  1821.2500      0.0000    484.3799      7.6158    154.6700
  1821.5000      0.0000    524.4088      7.7075    153.9597
  1821.7500      0.0000    571.2036      7.7861    152.2106
  1822.0000      0.0000    615.8587      7.8334    150.5639
  1822.2500      0.0000    651.6008      7.8271    149.3067
  1822.5000      0.0000    676.1163      7.7636    148.4798
  1822.7500      0.0000    690.5438      7.6697    148.4991
  1823.0000      0.0000    697.5374      7.5887    149.8441
  1823.2500      0.0000    699.7424      7.5520    152.4694
  1823.5000      0.0000    699.0220      7.5590    155.7159
  1823.7500      0.0000    696.6703      7.5804    158.5580
  1824.0000      0.0000    694.1080      7.5842    159.9847
  1824.2500      0.0000    692.8978      7.5634    159.4349
  1824.5000      0.0000    693.6642      7.5409    156.7541
  1824.7500      0.0000    695.2520      7.5422    151.7349
  1825.0000      0.0000    695.1107      7.5638    144.3470
  1825.2500      0.0000    690.6025      7.5645    135.6266
  1825.5000      0.0000    680.2892      7.4906    127.6653
  1825.7500      0.0000    664.4102      7.3205    122.2470
  1826.0000      0.0000    643.5598      7.0989    119.7501
  1826.2500      0.0000    616.3704      6.9218    119.4329
  1826.5000      0.0000    579.8060      6.8696    120.2923
  1826.7500      0.0000    533.5172      6.9523    121.2964
  1827.0000      0.0000    483.6122      7.1234    121.2898
  1827.2500      0.0000    440.3359      7.3344    119.3525
  1827.5000      0.0000    411.2204      7.5610    115.5245
  1827.7500      0.0000    396.9099      7.7912    111.3845
  1828.0000      2.0000    393.6933      8.0068    109.7316
  1828.2500     -2.0000    399.1907      8.1790    112.6883
  1828.5000      0.0000    414.5099      8.2853    119.4947
  1828.7500      0.0000    440.1625      8.3453    126.7114
  1829.0000      0.0000    470.1308      8.4281    131.0643
  1829.2500      0.0000    492.1734      8.5936    131.8696
  1829.5000      0.0000    497.0331      8.8240    130.6565
  1829.7500      0.0000    488.1451      9.0361    129.0123
  1830.0000      0.0000    479.7301      9.1604    127.2017
  1830.2500      0.0000    483.2607      9.1867    124.5673
  1830.5000      0.0000    496.8095      9.1416    120.7187
  1830.7500      0.0000    509.2036      9.0488    116.1228
  1831.0000      0.0000    513.2360      8.9210    111.9800
  1831.2500      0.0000    512.2850      8.7801    109.9046
  1831.5000      0.0000    514.5923      8.6668    111.2975
  1831.7500      0.0000    523.8502      8.6183    116.4736
  1832.0000      0.0000    536.3657      8.6393    124.4378
  1832.2500      0.0000    545.5452      8.6991    133.4270
  1832.5000      0.0000    547.2874      8.7557    141.3503
  1832.7500      0.0000    541.4637      8.7791    146.1536
  1833.0000      0.0000    530.2886      8.7592    146.6903
  1833.2500      0.0000    516.6486      8.6989    143.6496
  1833.5000      0.0000    503.4290      8.6031    139.4757
  1833.7500      0.0000    492.9293      8.4777    136.9898
  1834.0000      0.0000    486.6584      8.3370    137.5763
  1834.2500      0.0000    485.7091      8.2062    140.5182
  1834.5000      0.0000    489.7829      8.1111    144.0215
  1834.7500      0.0000    494.8304      8.0656    146.5531
  1835.0000      0.0000    493.9135      8.0681    147.2976
  1835.2500      0.0000    483.2898      8.1031    146.1089
  1835.5000      0.0000    467.1663      8.1469    143.3024
  1835.7500      0.0000    454.9362      8.1760    139.2135
  1836.0000      0.0000    454.8732      8.1752    134.0757
  1836.2500      0.0000    470.5634      8.1441    128.4394
  1836.5000      0.0000    500.2667      8.0964    123.3107
  1836.7500      0.0000    537.8184      8.0516    119.8460
  1837.0000      0.0000    576.0317      8.0248    119.0234
  1837.2500      0.0000    610.6883      8.0240    121.2194
  1837.5000      0.0000    640.6096      8.0551    125.7989
  1837.7500      0.0000    664.7657      8.1246    131.3208
  1838.0000      0.0000    681.6771      8.2322    136.1288
