~Version Information
VERS.                      2.0: CWLS Log ASCII Standard - VERSION 2.0
WRAP.                       NO: One line per depth step
~Well Information Block
STRT.FT               387.1000: 
STOP.FT              1748.0000: 
STEP.FT                 0.1000: 
NULL.                -999.2500: 
COMP.          Evergreen Operating Corp.: COMPANY
WELL.          Pachorek 13-31 Tr: WELL
FLD.           Cottontail Pass: FIELD
LOC.           1575' FSL & 900' FWL--API# 05-071-07019-00: LOCATION
PROV.                 Colorado: PROVINCE
CNTY.               Las Animas: COUNTRY
SRVC.          Scientific Data Systems, Inc.: SERVICE COMPANY
DATE.          Tue Aug 08 15:02:37 2000: LOG DATE
UWI.                      05071070190000:UNIQUE WELL IDENTIFICATION
~Curve Information Block
DEPT.FT            0 000 00 00: Depth
DCAL.in                       : CDL Caliper
RHOB.g/cc                     : CDL Bulk Density
RHOC.g/cc                     : CDL Density Correction
DPOR.pu                       : CDL Density Porosity
GR.GAPI                       : Gamma Ray
NPOR.pu                       : Neutron Porosity
~Parameter Information Block
~A  Depth       DCAL        RHOB        RHOC        DPOR         GR         NPOR    
# ...
  1548.7000      7.9578      2.5525      0.0930      5.9070    175.6254     24.2548
  1548.8000      7.9587      2.5552      0.1012      5.7428    175.2305     24.5726
  1548.9000      7.9587      2.5587      0.1089      5.5345    174.5009     24.9612
  1549.0000      7.9664      2.5626      0.1154      5.2971    173.3855     25.3968
  1549.1000      7.9664      2.5667      0.1202      5.0457    171.8880     25.8544
  1549.2000      7.9664      2.5709      0.1230      4.7948    170.0688     26.3094
  1549.3000      7.9903      2.5748      0.1236      4.5568    168.0374     26.7394
  1549.4000      7.9903      2.5784      0.1223      4.3414    165.9431     27.1255
  1549.5000      8.0096      2.5814      0.1192      4.1550    163.9456     27.4534
  1549.6000      8.0096      2.5840      0.1147      4.0005    162.1993     27.7136
  1549.7000      8.0096      2.5860      0.1092      3.8776    160.8305     27.9017
  1549.8000      8.0050      2.5876      0.1034      3.7836    159.9203     28.0175
  1549.9000      8.0050      2.5887      0.0976      3.7135    159.4885     28.0644
  1550.0000      7.9926      2.5896      0.0922      3.6615    159.4954     28.0482
  1550.1000      7.9926      2.5902      0.0877      3.6216    159.8390     27.9763
  1550.2000      7.9926      2.5908      0.0842      3.5885    160.3707     27.8567
  1550.3000      7.9721      2.5913      0.0817      3.5578    160.9126     27.6977
  1550.4000      7.9721      2.5918      0.0802      3.5267    161.2821     27.5075
  1550.5000      7.9488      2.5924      0.0794      3.4934    161.3202     27.2939
  1550.6000      7.9488      2.5930      0.0790      3.4574    160.9151     27.0647
  1550.7000      7.9488      2.5936      0.0786      3.4183    160.0155     26.8279
  1550.8000      7.9315      2.5943      0.0781      3.3757    158.6437     26.5908
  1550.9000      7.9315      2.5951      0.0773      3.3283    156.8822     26.3609
  1551.0000      7.9185      2.5960      0.0763      3.2737    154.8646     26.1446
  1551.1000      7.9185      2.5971      0.0756      3.2086    152.7513     25.9467
  1551.2000      7.9185      2.5984      0.0755      3.1288    150.7048     25.7706
  1551.3000      7.8988      2.6000      0.0765      3.0301    148.8691     25.6174
  1551.4000      7.8988      2.6020      0.0794      2.9091    147.3569     25.4864
  1551.5000      7.8867      2.6044      0.0842      2.7645    146.2391     25.3748
  1551.6000      7.8867      2.6071      0.0912      2.5979    145.5435     25.2782
  1551.7000      7.8867      2.6102      0.0998      2.4146    145.2621     25.1911
  1551.8000      7.8962      2.6133      0.1096      2.2240    145.3566     25.1073
  1551.9000      7.8962      2.6164      0.1194      2.0392    145.7657     25.0202
  1552.0000      7.8959      2.6190      0.1283      1.8763    146.4152     24.9234
  1552.1000      7.8959      2.6211      0.1352      1.7533    147.2219     24.8114
  1552.2000      7.8959      2.6221      0.1391      1.6881    148.1060     24.6795
  1552.3000      7.8640      2.6220      0.1395      1.6970    148.9942     24.5252
  1552.4000      7.8640      2.6204      0.1360      1.7925    149.8300     24.3483
  1552.5000      7.8331      2.6173      0.1287      1.9818    150.5858     24.1510
  1552.6000      7.8331      2.6126      0.1181      2.2658    151.2740     23.9380
  1552.7000      7.8331      2.6065      0.1051      2.6387    151.9429     23.7161
  1552.8000      7.8484      2.5991      0.0909      3.0878    152.6805     23.4934
  1552.9000      7.8484      2.5907      0.0768      3.5945    153.6023     23.2776
  1553.0000      7.8908      2.5817      0.0642      4.1364    154.8324     23.0761
  1553.1000      7.8908      2.5726      0.0542      4.6880    156.4858     22.8947
  1553.2000      7.8908      2.5638      0.0477      5.2240    158.6400     22.7382
  1553.3000      7.9204      2.5556      0.0450      5.7203    161.3214     22.6103
  1553.4000      7.9204      2.5484      0.0463      6.1563    164.4988     22.5145
  1553.5000      7.9358      2.5425      0.0512      6.5164    168.0764     22.4544
  1553.6000      7.9358      2.5380      0.0589      6.7905    171.9142     22.4339
  1553.7000      7.9358      2.5349      0.0688      6.9742    175.8380     22.4566
  1553.8000      7.9483      2.5334      0.0798      7.0692    179.6687     22.5251
  1553.9000      7.9483      2.5332      0.0912      7.0817    183.2377     22.6394
  1554.0000      7.9533      2.5341      0.1022      7.0224    186.4081     22.7965
  1554.1000      7.9533      2.5361      0.1123      6.9046    189.0863     22.9897
  1554.2000      7.9533      2.5387      0.1209      6.7432    191.2300     23.2085
  1554.3000      7.9523      2.5419      0.1278      6.5539    192.8485     23.4394
  1554.4000      7.9523      2.5452      0.1329      6.3516    193.9924     23.6681
  1554.5000      7.9685      2.5485      0.1363      6.1505    194.7507     23.8808
  1554.6000      7.9685      2.5516      0.1381      5.9626    195.2326     24.0663
  1554.7000      7.9685      2.5543      0.1387      5.7981    195.5538     24.2172
  1554.8000      8.0135      2.5565      0.1384      5.6648    195.8205     24.3309
  1554.9000      8.0135      2.5581      0.1375      5.5681    196.1142     24.4091
  1555.0000      8.0543      2.5591      0.1362      5.5111    196.4803     24.4577
  1555.1000      8.0543      2.5593      0.1349      5.4947    196.9256     24.4844
  1555.2000      8.0543      2.5590      0.1334      5.5173    197.4130     24.4983
  1555.3000      8.0631      2.5580      0.1319      5.5754    197.8767     24.5079
  1555.4000      8.0631      2.5566      0.1303      5.6628    198.2344     24.5200
  1555.5000      8.0570      2.5548      0.1287      5.7717    198.4096     24.5401
  1555.6000      8.0570      2.5528      0.1272      5.8923    198.3472     24.5713
  1555.7000      8.0570      2.5508      0.1259      6.0133    198.0352     24.6157
  1555.8000      8.0641      2.5490      0.1251      6.1225    197.5044     24.6749
  1555.9000      8.0641      2.5476      0.1252      6.2076    196.8346     24.7496
  1556.0000      8.0741      2.5468      0.1263      6.2565    196.1345     24.8402
  1556.1000      8.0741      2.5467      0.1288      6.2590    195.5239     24.9466
  1556.2000      8.0741      2.5476      0.1326      6.2075    195.1033     25.0676
  1556.3000      8.0759      2.5494      0.1378      6.0975    194.9325     25.2003
  1556.4000      8.0759      2.5522      0.1442      5.9287    195.0149     25.3401
  1556.5000      8.0703      2.5559      0.1514      5.7052    195.2971     25.4809
  1556.6000      8.0703      2.5603      0.1590      5.4354    195.6717     25.6157
  1556.7000      8.0703      2.5653      0.1663      5.1319    195.9974     25.7371
  1556.8000      8.0580      2.5706      0.1724      4.8098    196.1350     25.8388
  1556.9000      8.0580      2.5760      0.1768      4.4865    195.9579     25.9165
  1557.0000      8.0267      2.5810      0.1786      4.1795    195.3832     25.9676
  1557.1000      8.0267      2.5856      0.1772      3.9053    194.3786     25.9924
  1557.2000      8.0267      2.5893      0.1723      3.6779    192.9613     25.9929
  1557.3000      7.9643      2.5921      0.1638      3.5073    191.1970     25.9728
  1557.4000      7.9643      2.5939      0.1519      3.3994    189.1799     25.9369
  1557.5000      7.9044      2.5946      0.1370      3.3548    187.0244     25.8905
  1557.6000      7.9044      2.5944      0.1200      3.3698    184.8455     25.8391
  1557.7000      7.9044      2.5933      0.1017      3.4367    182.7504     25.7883
  1557.8000      7.8869      2.5915      0.0832      3.5444    180.8337     25.7438
  1557.9000      7.8869      2.5893      0.0655      3.6805    179.1679     25.7103
  1558.0000      7.9138      2.5868      0.0495      3.8322    177.8040     25.6919
  1558.1000      7.9138      2.5842      0.0357      3.9873    176.7703     25.6916
  1558.2000      7.9138      2.5818      0.0247      4.1360    176.0703     25.7099
