~Version Information
VERS.                      2.0: CWLS Log ASCII Standard - VERSION 2.0
WRAP.                       NO: One line per depth step
~Well Information Block
STRT.FT                -7.2500: 
STOP.FT               868.2500: 
STEP.FT                 0.2500: 
NULL.                -999.2500: 
COMP.          Pioneer Natural Resources: COMPANY
WELL.              Venom 32-22: WELL
FLD.           Purgatorie River: FIELD
LOC.           2307' FNL & 2024' FWL--: LOCATION
PROV.                       CO: PROVINCE
CNTY.               Las Animas: COUNTRY
SRVC.          Patterson Wireline: SERVICE COMPANY
DATE.          Mon May 16 15:26:38 2005: LOG DATE
UWI.           05 071 08361 00: UNIQUE WELL ID
~Curve Information Block
DEPT.FT            0 000 00 00: Depth
CCL.                          : Casing Collar Locator
TT3.usec                      : CBL 3' Travel Time
AMP3.mV                       : CBL 3' Amplitude
GR.GAPI                       : Gamma Ray
~Parameter Information Block
~A  Depth       CCL         TT3         AMP3         GR     
# ...
    93.2500      0.0000    857.4164      4.9165     85.7149
    93.5000      0.0000    855.3307      4.6856     82.7609
    93.7500      0.0000    859.5940      4.5195     79.1308
    94.0000      0.0000    866.0634      4.4808     76.8993
    94.2500      0.0000    872.5994      4.5684     77.5035
    94.5000      0.0000    879.7672      4.7176     80.8312
    94.7500      0.0000    888.1269      4.8487     85.4364
    95.0000      0.0000    895.6479      4.9201     89.9103
    95.2500      0.0000    898.4158      4.9446     94.0682
    95.5000      0.0000    894.2628      4.9672     98.5286
    95.7500      0.0000    885.2960      5.0288    103.1940
    96.0000      0.0000    876.7630      5.1438    106.4956
    96.2500      0.0000    874.3767      5.2972    106.3554
    96.5000      0.0000    882.0626      5.4540    101.9764
    96.7500      0.0000    899.1173      5.5756     94.7532
    97.0000      0.0000    918.0596      5.6381     87.4160
    97.2500      0.0000    928.0573      5.6363     82.1839
    97.5000      0.0000    923.5148      5.5757     79.6936
    97.7500      0.0000    908.5540      5.4756     79.5479
    98.0000      0.0000    891.8757      5.3835     81.4126
    98.2500      0.0000    879.0303      5.3657     85.1140
    98.5000      0.0000    871.3608      5.4596     89.8704
    98.7500      0.0000    870.8683      5.6383     94.0849
    99.0000      0.0000    882.6108      5.8377     96.2128
    99.2500      0.0000    908.8517      6.0063     95.6978
    99.5000      0.0000    940.0999      6.1113     92.9717
    99.7500      0.0000    957.4362      6.1189     88.8719
   100.0000      0.0000    949.3004      6.0117     84.5176
   100.2500      0.0000    923.9001      5.8284     81.6323
   100.5000      0.0000    899.8212      5.6579     82.0285
   100.7500      0.0000    887.2604      5.5778     85.9398
   101.0000      0.0000    883.0430      5.5957     91.0839
   101.2500      0.0000    878.8596      5.6506     94.1640
   101.5000      0.0000    867.1558      5.6699     93.6498
   101.7500      0.0000    842.8467      5.6211     90.9454
   102.0000      0.0000    807.3962      5.5141     88.8149
   102.2500      0.0000    771.4594      5.3773     88.9130
   102.5000      0.0000    749.2426      5.2517     90.7786
   102.7500      0.0000    749.6287      5.1826     92.6398
   103.0000      0.0000    772.8365      5.1798     92.9132
   103.2500      0.0000    812.4219      5.1909     91.2645
   103.5000      0.0000    858.2444      5.1475     88.5955
   103.7500      0.0000    900.7632      5.0363     86.1169
   104.0000      0.0000    936.8547      4.9003     84.4717
   104.2500      0.0000    970.9467      4.7834     83.6764
   104.5000     -2.0000   1006.3249      4.7046     83.6703
   104.7500      2.0000   1035.6586      4.6775     84.6299
   105.0000      0.0000   1044.2255      4.7234     86.7198
   105.2500      0.0000   1024.3678      4.8595     89.6477
   105.5000      0.0000    985.0695      5.0804     92.3025
   105.7500      0.0000    946.4127      5.3481     92.8004
   106.0000      0.0000    924.9553      5.6046     89.6004
   106.2500      0.0000    923.0209      5.8105     83.1691
   106.5000      0.0000    928.7089      5.9651     76.1210
   106.7500      0.0000    926.0532      6.0781     71.2321
   107.0000      0.0000    909.2978      6.1517     69.6381
   107.2500      0.0000    890.2306      6.2009     71.0768
   107.5000      0.0000    889.6694      6.2574     74.9521
   107.7500      0.0000    918.1506      6.3290     80.3046
   108.0000      0.0000    963.7076      6.3780     85.3275
   108.2500      0.0000   1000.2794      6.3608     88.2755
   108.5000      0.0000   1009.7545      6.2890     89.3405
   108.7500      0.0000    995.7877      6.2283     90.7927
   109.0000      0.0000    976.7376      6.2284     94.5123
   109.2500      0.0000    967.8012      6.2692     99.7006
   109.5000      0.0000    971.1374      6.2893    103.6272
   109.7500      0.0000    980.1176      6.2557    104.3824
   110.0000      0.0000    988.4771      6.1934    102.4545
   110.2500      0.0000    994.7269      6.1578     99.8946
   110.5000      0.0000   1001.1429      6.1938     98.4660
   110.7500      0.0000   1011.3224      6.3074     98.5590
   111.0000      0.0000   1027.7892      6.4611     99.5073
   111.2500      0.0000   1049.5107      6.6016    100.4891
   111.5000      0.0000   1070.3788      6.6965    100.9144
   111.7500      0.0000   1081.0885      6.7398    100.3216
   112.0000      0.0000   1075.4844      6.7271     98.5409
   112.2500      0.0000   1056.2290      6.6473     96.0507
   112.5000      0.0000   1031.0225      6.5128     93.7347
   112.7500      0.0000   1001.5488      6.3859     92.0249
   113.0000      0.0000    961.2216      6.3479     90.5692
   113.2500      0.0000    907.5305      6.4314     88.9846
   113.5000      0.0000    851.3481      6.5891     87.6455
   113.7500      0.0000    808.7971      6.7364     87.3538
   114.0000      0.0000    786.6323      6.8131     88.4206
   114.2500      0.0000    779.7083      6.8065     90.4133
   114.5000      0.0000    781.0436      6.7367     92.7176
   114.7500      0.0000    790.7752      6.6424     95.0069
   115.0000      0.0000    815.5077      6.5705     97.1413
   115.2500      0.0000    861.2598      6.5499     98.9621
   115.5000      0.0000    925.9465      6.5641    100.4754
   115.7500      0.0000    995.8615      6.5644    102.0402
   116.0000      0.0000   1050.5665      6.5186    103.9686
   116.2500      0.0000   1075.4011      6.4369    105.8795
   116.5000      0.0000   1071.4214      6.3479    106.8456
   116.7500      0.0000   1053.3038      6.2708    106.5259
   117.0000      0.0000   1037.4408      6.2244    105.7973
   117.2500      0.0000   1031.3193      6.2367    105.7632
   117.5000      0.0000   1031.8369      6.3153    106.4559
   117.7500      0.0000   1030.4988      6.4206    107.0640
   118.0000      0.0000   1019.3738      6.4913    107.1389
   118.2500      0.0000    995.4486      6.4972    106.9649
   118.5000      0.0000    962.7656      6.4569    106.8864
   118.7500      0.0000    930.1991      6.4115    106.8463
   119.0000      0.0000    905.4502      6.3869    106.5978
   119.2500      0.0000    890.8695      6.3861    105.9561
   119.5000      0.0000    884.3869      6.4063    104.8272
   119.7500      0.0000    882.6675      6.4405    103.3335
   120.0000      0.0000    883.3754      6.4620    102.0014
   120.2500      0.0000    886.0358      6.4400    101.4974
   120.5000      0.0000    891.4426      6.3842    101.8571
   120.7500      0.0000    899.5209      6.3534    102.0725
   121.0000      0.0000    907.6936      6.4042    100.7266
   121.2500      0.0000    912.4247      6.5314     97.1423
   121.5000      0.0000    912.5360      6.6644     91.9376
   121.7500      0.0000    910.1663      6.7245     86.6259
   122.0000      0.0000    908.1903      6.6901     82.7361
   122.2500      0.0000    907.5895      6.6028     80.9820
   122.5000      0.0000    908.2996      6.5167     80.9194
   122.7500      0.0000    911.3969      6.4535     81.3288
   123.0000      0.0000    918.5480      6.3997     80.9276
   123.2500      0.0000    929.4636      6.3252     78.8894
   123.5000      0.0000    941.3044      6.2065     75.1142
   123.7500      0.0000    950.3806      6.0508     70.2569
   124.0000      0.0000    953.5552      5.9036     65.4659
   124.2500      0.0000    948.7441      5.8142     62.0083
   124.5000      0.0000    935.9471      5.7899     60.9181
   124.7500      0.0000    918.1749      5.7893     62.4983
   125.0000      0.0000    900.3407      5.7625     65.8501
   125.2500      0.0000    886.3077      5.6964     69.1701
   125.5000      0.0000    875.9689      5.6290     70.9095
   125.7500      0.0000    864.3679      5.6203     70.6894
   126.0000      0.0000    844.6518      5.6944     69.2342
   126.2500      0.0000    814.0329      5.8043     67.7647
   126.5000      0.0000    777.4453      5.8699     67.3577
