~Version Information
VERS.                      2.0: CWLS Log ASCII Standard - VERSION 2.0
WRAP.                       NO: One line per depth step
~Well Information Block
STRT.FT               577.0000: 
STOP.FT              2643.2000: 
STEP.FT                 0.1000: 
NULL.                -999.2500: 
COMP.          Petrogulf Corporation: COMPANY
WELL.           Montoya 12-41V: WELL
FLD.           Purgatorie River: FIELD
LOC.           1081' FNL & 605' FEL: LOCATION
CNTY.               Las Animas: COUNTY
SRVC.                         : SERVICE COMPANY
DATE.          Tue Aug 10 14:17:12 2004: LOG DATE
UWI.           05 071 08094 00: UNIQUE WELL ID
STAT.                 Colorado: STATE
~Curve Information Block
DEPT.FT            0 000 00 00: Depth
DCAL.in                       : CDL Caliper
RHOB.g/cc                     : CDL Bulk Density
RHOC.g/cc                     : CDL Density Correction
DPOR.pu                       : CDL Density Porosity
GR.GAPI                       : Gamma Ray
NPOR.pu                       : Neutron Porosity
~Parameter Information Block
~A  Depth       DCAL        RHOB        RHOC        DPOR         GR         NPOR    
# ...
  2218.6000      7.6633      2.6863      0.2676     -2.1976     74.5190     26.1497
  2218.7000      7.6633      2.6133      0.1181      2.2240     80.3392     26.0894
  2218.8000      7.6992      2.5320      0.0358      7.1510     83.0047     26.2554
  2218.9000      7.6992      2.4785      0.0222     10.3939     84.1610     26.8742
  2219.0000      7.7424      2.4505      0.0175     12.0937     86.8188     26.8200
  2219.1000      7.7424      2.4359      0.0033     12.9756     89.0547     26.0436
  2219.2000      7.7424      2.4374      0.0320     12.8831     85.9022     26.0418
  2219.3000      7.8038      2.4528      0.1152     11.9491     81.9184     27.0418
  2219.4000      7.8038      2.4664      0.1505     11.1254     83.9740     27.9776
  2219.5000      7.7794      2.4702      0.1199     10.8956     88.7244     28.2408
  2219.6000      7.7794      2.4708      0.1025     10.8633     88.4504     27.8833
  2219.7000      7.7794      2.4775      0.1053     10.4532     84.3613     27.1952
  2219.8000      7.7421      2.4928      0.1140      9.5256     83.1018     26.3533
  2219.9000      7.7421      2.5100      0.1203      8.4852     84.2118     25.5462
  2220.0000      7.7385      2.5204      0.1340      7.8529     83.6874     25.1316
  2220.1000      7.7385      2.5202      0.1360      7.8678     81.6363     25.0194
  2220.2000      7.7385      2.5152      0.1171      8.1713     81.5179     24.8496
  2220.3000      7.7431      2.5147      0.0978      8.2016     85.2185     24.8658
  2220.4000      7.7431      2.5155      0.1198      8.1486     88.5138     25.3129
  2220.5000      7.7804      2.5071      0.0959      8.6616     87.9818     25.9899
  2220.6000      7.7804      2.4892      0.0513      9.7473     86.2383     26.4423
  2220.7000      7.7804      2.4673      0.0661     11.0746     87.5252     26.3575
  2220.8000      7.8174      2.4442      0.0321     12.4747     91.2817     26.1563
  2220.9000      7.8174      2.4292     -0.0093     13.3811     93.7531     26.3570
  2221.0000      7.8322      2.4274      0.0229     13.4911     94.3606     26.6526
  2221.1000      7.8322      2.4303      0.0340     13.3177     93.2004     26.7470
  2221.2000      7.8322      2.4318      0.0453     13.2244     91.7491     26.8847
  2221.3000      7.8404      2.4322      0.0353     13.1988     92.6733     26.9568
  2221.4000      7.8404      2.4278      0.0633     13.4686     94.9822     26.6629
  2221.5000      7.8399      2.4120      0.0380     14.4214     95.5700     26.5145
  2221.6000      7.8399      2.3912      0.0163     15.6860     92.9880     27.1159
  2221.7000      7.8399      2.3756      0.0056     16.6299     90.2660     27.9554
  2221.8000      7.8457      2.3592      0.0098     17.6233     93.2718     28.2161
  2221.9000      7.8457      2.3297      0.0203     19.4106    101.7240     27.9077
  2222.0000      7.8391      2.2871     -0.0447     21.9913    106.0564     27.8740
  2222.1000      7.8391      2.2343     -0.0131     25.1941     98.9279     28.7396
  2222.2000      7.8391      2.1601      0.0041     29.6908     87.0816     29.8855
  2222.3000      7.8516      2.0601     -0.0063     35.7526     81.9761     30.6099
  2222.4000      7.8516      1.9581     -0.0303     41.9346     84.3888     30.9232
  2222.5000      7.8527      1.8750     -0.0239     46.9691     88.0736     31.1003
  2222.6000      7.8527      1.7959     -0.0186     51.7616     88.8981     31.5027
  2222.7000      7.8527      1.7009     -0.0613     57.5212     87.5197     32.1338
  2222.8000      7.9071      1.6132     -0.1075     62.8360     84.5353     32.5253
  2222.9000      7.9071      1.5759     -0.0611     65.0948     78.9095     32.3853
  2223.0000      8.0254      1.5929      0.0398     64.0677     71.3675     32.1183
  2223.1000      8.0254      1.6369      0.0540     61.3993     65.1101     32.4377
  2223.2000      8.0254      1.7050      0.0668     57.2714     62.3843     33.2280
  2223.3000      7.8572      1.8122      0.1159     50.7730     60.2355     33.6221
  2223.4000      7.8572      1.9395      0.1755     43.0605     57.8781     33.4250
  2223.5000      7.8481      2.0451      0.1835     36.6581     58.2889     33.1948
  2223.6000      7.8481      2.1305      0.1356     31.4851     61.6316     33.0288
  2223.7000      7.8481      2.2298      0.1800     25.4694     63.9598     32.5781
  2223.8000      7.8666      2.3338      0.1908     19.1623     62.7089     31.9393
  2223.9000      7.8666      2.3966      0.1887     15.3575     64.2967     31.3963
  2224.0000      7.8310      2.4086      0.1475     14.6310     74.1257     30.7781
  2224.1000      7.8310      2.4011      0.1560     15.0844     84.2317     29.9416
  2224.2000      7.8310      2.4000      0.1465     15.1492     89.1511     29.3177
  2224.3000      7.8437      2.4186      0.1022     14.0214     93.3405     29.0894
  2224.4000      7.8437      2.4571      0.1127     11.6895     96.6363     29.1059
  2224.5000      7.9178      2.4957      0.1356      9.3523     97.3070     29.2093
  2224.6000      7.9178      2.5211      0.1257      7.8129     97.9789     29.1738
  2224.7000      7.9178      2.5429      0.1523      6.4899     99.7211     28.9528
  2224.8000      8.0168      2.5687      0.1728      4.9247    100.9602     28.7604
  2224.9000      8.0168      2.5849      0.2717      3.9441    100.8524     28.7354
  2225.0000      8.1001      2.5729      0.2024      4.6709    100.8032     28.6295
  2225.1000      8.1001      2.5361      0.0957      6.9051    100.4707     28.3037
  2225.2000      8.1001      2.4945      0.0633      9.4245     98.1236     27.6771
  2225.3000      7.9816      2.4679      0.0149     11.0385     95.8283     27.0696
  2225.4000      7.9816      2.4614      0.0468     11.4276     94.7373     27.0311
  2225.5000      7.8679      2.4613      0.0153     11.4391     93.6318     27.1066
  2225.6000      7.8679      2.4540      0.0351     11.8808     92.2464     26.9585
  2225.7000      7.8679      2.4416     -0.0049     12.6318     90.9404     27.2781
  2225.8000      7.8536      2.4301      0.0182     13.3248     91.0928     28.3870
  2225.9000      7.8536      2.4109      0.0132     14.4902     95.0552     29.4280
  2226.0000      7.8561      2.3748      0.0217     16.6764    100.7764     29.3475
  2226.1000      7.8561      2.3281      0.0035     19.5064    102.6303     28.3820
  2226.2000      7.8561      2.2815     -0.0246     22.3343     99.6795     27.8519
  2226.3000      7.8656      2.2443     -0.0331     24.5867     98.0866     28.3025
  2226.4000      7.8656      2.2226     -0.0243     25.9060    102.1579     28.9147
  2226.5000      7.8675      2.2118     -0.0130     26.5549    106.5813     29.0707
  2226.6000      7.8675      2.2017      0.0025     27.1678    107.1358     28.9965
  2226.7000      7.8675      2.1913      0.0750     27.8025    106.1737     28.8357
  2226.8000      7.9288      2.2043      0.1215     27.0150    104.3923     28.5538
  2226.9000      7.9288      2.2632      0.2273     23.4404     99.8745     28.2123
  2227.0000      7.8552      2.3449      0.3211     18.4922     92.0016     28.1075
  2227.1000      7.8552      2.4097      0.3622     14.5657     83.2776     28.3968
  2227.2000      7.8552      2.4558      0.3401     11.7669     82.3478     28.8289
  2227.3000      7.7688      2.4965      0.3726      9.3028     93.0779     29.2735
  2227.4000      7.7688      2.5238      0.4017      7.6467    104.6395     29.9114
  2227.5000      7.8332      2.5246      0.3572      7.6010    108.5593     30.3837
  2227.6000      7.8332      2.4987      0.2387      9.1685    106.7361     30.3525
  2227.7000      7.8332      2.4564      0.1881     11.7332    103.1920     30.3463
  2227.8000      7.8567      2.4166      0.0759     14.1444    100.2027     30.6172
  2227.9000      7.8567      2.4044      0.0034     14.8828     98.8101     30.5364
  2228.0000      7.8696      2.4240      0.0046     13.6957     98.5967     29.9930
  2228.1000      7.8696      2.4496      0.0594     12.1442     96.8445     29.7789
