~Version Information
VERS.                      2.0: CWLS Log ASCII Standard - VERSION 2.0
WRAP.                       NO: One line per depth step
~Well Information Block
STRT.FT               -11.5000: 
STOP.FT              2395.2500: 
STEP.FT                 0.2500: 
NULL.                -999.2500: 
COMP.          Petrogulf Corporation: COMPANY
WELL.            Montoya 7-21V: WELL
FLD.           Purgatorie River: FIELD
LOC.           738' FSL & 2070' FWL--: LOCATION
CNTY.               Las Animas: COUNTY
SRVC.                         : SERVICE COMPANY
DATE.          Mon Aug 30 15:10:00 2004: LOG DATE
UWI.                          : UNIQUE WELL ID
STAT.                       CO: STATE
~Curve Information Block
DEPT.FT            0 000 00 00: Depth
CCL.                          : Casing Collar Locator
TT3.usec                      : CBL 3' Travel Time
AMP3.mV                       : CBL 3' Amplitude
GR.GAPI                       : Gamma Ray
~Parameter Information Block
~A  Depth       CCL         TT3         AMP3         GR     
# ...
   926.5000      0.0000    590.6721     11.3434    142.1526
   926.7500      0.0000    672.9852     10.9559    139.7293
   927.0000      0.0000    729.6645     10.7630    137.3108
   927.2500      0.0000    760.0352     10.7199    135.4449
   927.5000      0.0000    772.0307     10.7830    133.8692
   927.7500      0.0000    772.4719     10.9166    131.8620
   928.0000      0.0000    761.2744     11.0771    129.7337
   928.2500      0.0000    731.4866     11.2261    128.9070
   928.5000      0.0000    675.1100     11.3626    130.0728
   928.7500      0.0000    592.7950     11.5275    131.8320
   929.0000      0.0000    499.3004     11.7857    131.7884
   929.2500      0.0000    416.5435     12.2061    129.2822
   929.5000      0.0000    359.4169     12.8365    126.6474
   929.7500      0.0000    328.7000     13.6797    126.8989
   930.0000      0.0000    316.3709     14.6759    130.4243
   930.2500      0.0000    314.9400     15.6928    134.8129
   930.5000      0.0000    322.2852     16.5362    137.5297
   930.7500      0.0000    340.0031     17.0264    137.7988
   931.0000      0.0000    367.0426     17.1388    136.2405
   931.2500      0.0000    393.9893     17.0776    133.7408
   931.5000      0.0000    406.2723     17.1339    131.0487
   931.7500      0.0000    396.3980     17.4327    129.0441
   932.0000      0.0000    371.3323     17.8646    128.6381
   932.2500      0.0000    345.3709     18.2333    129.9536
   932.5000      0.0000    327.8874     18.4042    132.0248
   932.7500      2.0000    319.5853     18.3540    133.7956
   933.0000      0.0000    317.0347     18.1592    135.1629
   933.2500     -1.7865    317.5333     17.9081    136.6876
   933.5000      0.0000    320.5722     17.6052    138.7017
   933.7500      0.0000    327.0471     17.2091    141.1702
   934.0000      0.0000    337.5393     16.7741    144.0611
   934.2500      0.0000    350.2086     16.4773    147.2806
   934.5000      0.0000    359.9710     16.4685    150.4043
   934.7500      0.0000    361.0227     16.7395    152.8033
   935.0000      0.0000    351.7783     17.1384    153.9369
   935.2500      0.0000    336.8266     17.4743    153.4776
   935.5000      0.0000    323.0057     17.6298    151.5631
   935.7500      0.0000    314.1542     17.6192    148.8954
   936.0000      0.0000    310.0013     17.5387    146.0705
   936.2500      0.0000    308.5360     17.4652    142.8854
   936.5000      0.0000    308.1382     17.4152    138.9026
   936.7500      0.0000    308.0546     17.3720    134.3936
   937.0000      0.0000    308.0737     17.3144    130.1388
   937.2500      0.0000    308.2832     17.2117    126.6100
   937.5000      0.0000    309.2995     17.0213    124.0179
   937.7500      0.0000    313.2704     16.7011    122.9083
   938.0000      0.0000    325.2426     16.2122    123.9074
   938.2500      0.0000    353.0234     15.5011    126.5610
   938.5000      0.0000    402.4467     14.5047    129.0412
   938.7500      0.0000    469.7361     13.2064    129.7678
   939.0000      0.0000    540.5425     11.7015    129.1631
   939.2500      0.0000    600.9222     10.1899    129.0227
   939.5000      0.0000    648.0654      8.8727    130.0832
   939.7500      0.0000    686.4883      7.8318    130.9876
   940.0000      0.0000    717.1746      6.9978    130.0035
   940.2500      0.0000    736.1501      6.2290    127.0163
   940.5000      0.0000    741.4810      5.4278    123.1936
   940.7500      0.0000    736.7734      4.6021    119.2245
   941.0000      0.0000    728.3285      3.8351    114.7201
   941.2500      0.0000    721.2106      3.2004    109.0396
   941.5000      0.0000    717.5385      2.7099    102.1617
   941.7500      0.0000    716.6344      2.3417     94.8938
   942.0000      0.0000    716.3268      2.0976     88.4103
   942.2500      0.0000    714.9536      1.9977     83.3601
   942.5000      0.0000    712.6663      2.0265     79.4774
   942.7500      0.0000    711.0184      2.1226     76.2680
   943.0000      0.0000    711.5696      2.2268     73.7949
   943.2500      0.0000    714.9598      2.3127     72.6064
   943.5000      0.0000    720.7066      2.3670     73.1302
   943.7500      0.0000    727.4254      2.3699     75.0612
   944.0000      0.0000    733.5821      2.3091     77.1399
   944.2500      0.0000    738.4376      2.2088     77.8355
   944.5000      0.0000    742.2779      2.1381     76.5755
   944.7500      0.0000    745.5916      2.1765     74.2389
   945.0000      0.0000    747.9619      2.3522     72.3661
   945.2500      0.0000    747.9331      2.6090     71.7926
   945.5000      0.0000    744.4554      2.8343     72.0294
   945.7500      0.0000    738.7308      2.9303     72.1020
   946.0000      0.0000    734.1553      2.8741     71.9798
   946.2500      0.0000    733.8421      2.7207     72.5770
   946.5000      0.0000    738.2455      2.5548     74.1164
   946.7500      0.0000    745.4738      2.4372     75.3905
   947.0000      0.0000    753.5080      2.3943     75.2710
   947.2500      0.0000    761.1429      2.4319     74.2158
   947.5000      0.0000    766.7466      2.5306     73.4838
   947.7500      0.0000    767.7170      2.6425     73.3491
   948.0000      0.0000    762.5411      2.7289     72.8459
   948.2500      0.0000    752.9226      2.7958     71.0170
   948.5000      0.0000    742.8495      2.8682     67.9033
   948.7500      0.0000    735.5746      2.9431     64.4447
   949.0000      0.0000    731.9177      3.0042     61.8073
   949.2500      0.0000    731.0009      3.0803     60.7543
   949.5000      0.0000    731.6878      3.2564     61.0658
   949.7500      0.0000    733.1655      3.6061     61.2210
   950.0000      0.0000    734.7646      4.1326     59.3909
   950.2500      0.0000    735.4732      4.7942     55.3452
   950.5000      0.0000    733.0362      5.5715     51.0020
   950.7500      0.0000    722.4326      6.4827     48.7281
   951.0000      0.0000    695.3347      7.5323     49.4088
   951.2500      0.0000    643.8040      8.6677     52.3078
   951.5000      0.0000    568.2798      9.8063     56.3505
   951.7500      0.0000    482.3187     10.9020     61.2371
   952.0000      0.0000    406.1445     11.9670     67.6021
   952.2500      0.0000    353.4918     13.0180     76.3476
   952.5000      0.0000    325.0079     14.0160     87.4953
   952.7500      0.0000    312.8397     14.8829     99.3679
   953.0000      0.0000    308.6208     15.5845    109.3169
   953.2500      0.0000    307.3286     16.1865    115.7425
   953.5000      0.0000    306.8968     16.8331    119.1082
   953.7500      0.0000    306.6967     17.6678    120.7548
   954.0000      0.0000    306.5868     18.7207    121.2739
   954.2500      0.0000    306.5485     19.8082    120.5574
   954.5000      0.0000    306.5994     20.5606    119.0520
   954.7500      0.0000    306.7372     20.6300    118.2499
   955.0000      0.0000    306.9272     19.9321    119.6446
   955.2500      0.0000    307.1231     18.7079    123.1423
   955.5000      0.0000    307.2984     17.3637    126.5609
   955.7500      0.0000    307.4540     16.2448    127.0357
   956.0000      0.0000    307.5971     15.5119    123.2964
   956.2500      0.0000    307.7292     15.1551    116.6566
   956.5000      0.0000    307.8669     15.0634    109.8253
   956.7500      0.0000    308.0555     15.0813    104.7797
   957.0000      0.0000    308.3354     15.0579    101.7933
   957.2500      0.0000    308.6891     14.9001    100.3194
   957.5000      0.0000    309.0428     14.5973    100.1930
   957.7500      0.0000    309.3270     14.1959    101.6435
   958.0000      0.0000    309.5261     13.7692    104.7190
   958.2500      0.0000    309.6603     13.4233    109.1135
   958.5000      0.0000    309.7372     13.2998    114.1098
   958.7500      0.0000    309.7383     13.5068    118.8747
   959.0000      0.0000    309.6552     14.0149    123.3760
   959.2500      0.0000    309.5305     14.6335    128.5083
   959.5000      0.0000    309.4549     15.1143    134.6934
   959.7500      0.0000    309.5119     15.3014    141.0128
