~Version Information
VERS.                      2.0: CWLS Log ASCII Standard - VERSION 2.0
WRAP.                       NO: One line per depth step
~Well Information Block
STRT.FT                -9.2500: 
STOP.FT              1945.2500: 
STEP.FT                 0.2500: 
NULL.                -999.2500: 
COMP.          Pioneer Natural Resources: COMPANY
WELL.          Titan Federal 34-17: WELL
FLD.           Purgatorie River: FIELD
LOC.           321' FSL & 1911' FEL: LOCATION
STAT.                       CO: State
CNTY.               Las Animas: COUNTY
CTRY. USA : Country
SECT. 17 : Section
TOWN. 32S : Township
RANG. 65W : Range
SRVC.          Patterson Wireline: SERVICE COMPANY
DATE.          Tue Oct 11 10:22:27 2005: LOG DATE
API.           05 071 08272 00: UNIQUE WELL ID
~Curve Information Block
DEPT.FT            0 000 00 00: Depth
CCL.                          : Casing Collar Locator
TT3.usec                      : CBL 3' Travel Time
AMP3.mV                       : CBL 3' Amplitude
GR.GAPI                       : Gamma Ray
~Parameter Information Block
~A  Depth       CCL         TT3         AMP3         GR     
# ...
   258.7500      0.0000    761.7549     10.5097     91.2206
   259.0000      0.0000    755.3694     10.4145     92.3988
   259.2500      0.0000    749.2042     10.3178     91.3094
   259.5000      0.0000    743.9898     10.2187     87.7819
   259.7500      0.0000    740.2631     10.1154     83.2777
   260.0000      0.0000    738.0472     10.0146     80.2210
   260.2500      0.0000    736.9553      9.9337     80.6893
   260.5000      0.0000    736.6694      9.8944     85.0710
   260.7500      0.0000    737.3636      9.9112     91.5462
   261.0000      0.0000    739.7448      9.9814     97.0939
   261.2500      0.0000    744.4708     10.0846     99.6183
   261.5000      0.0000    751.0808     10.1919     99.3594
   261.7500      0.0000    757.4440     10.2804     98.2809
   262.0000      0.0000    760.9291     10.3414     98.2834
   262.2500      0.0000    760.6438     10.3755     99.8057
   262.5000      0.0000    758.3742     10.3840    101.6701
   262.7500      0.0000    757.0516     10.3666    102.2469
   263.0000      0.0000    758.4800     10.3280    100.9768
   263.2500      0.0000    762.5386     10.2819     98.7032
   263.5000      0.0000    767.8666     10.2488     96.5789
   263.7500      0.0000    772.8079     10.2465     95.1033
   264.0000      0.0000    776.0607     10.2803     94.3165
   264.2500      0.0000    776.9008     10.3380     94.3426
   264.5000      0.0000    774.9503     10.3946     95.3103
   264.7500      0.0000    770.0699     10.4224     96.9728
   265.0000      0.0000    762.8538     10.4044     98.8159
   265.2500      0.0000    755.1454     10.3415    100.5234
   265.5000      0.0000    749.5039     10.2499    101.9853
   265.7500      0.0000    747.7237     10.1495    102.8930
   266.0000      0.0000    749.7795     10.0581    102.7864
   266.2500      0.0000    754.1153      9.9948    101.7042
   266.5000      0.0000    758.8332      9.9792    100.4362
   266.7500      0.0000    762.7411     10.0167     99.6865
   267.0000      0.0000    765.7689     10.0825     99.1013
   267.2500      0.0000    768.6653     10.1299     97.6170
   267.5000      0.0000    772.0569     10.1196     94.7906
   267.7500      0.0000    775.6815     10.0445     91.3811
   268.0000      0.0000    778.6932      9.9288     88.5580
   268.2500      0.0000    780.5591      9.8067     86.9109
   268.5000      0.0000    781.4054      9.7032     86.2468
   268.7500      0.0000    781.6603      9.6299     86.0654
   269.0000      0.0000    781.6371      9.5885     86.1826
   269.2500      0.0000    781.4237      9.5710     86.9650
   269.5000      0.0000    780.9332      9.5601     88.8075
   269.7500      0.0000    779.9297      9.5385     91.3925
   270.0000      0.0000    778.1268      9.4993     93.7281
   270.2500      0.0000    775.5806      9.4477     94.9267
   270.5000      0.0000    773.1301      9.3917     94.6513
   270.7500      0.0000    772.0982      9.3350     92.8700
   271.0000      0.0000    773.1735      9.2780     89.7956
   271.2500      0.0000    775.7214      9.2226     86.2935
   271.5000      0.0000    778.4294      9.1746     83.8763
   271.7500      0.0000    780.4268      9.1415     83.9375
   272.0000      0.0000    781.6275      9.1250     87.0006
   272.2500      0.0000    782.3060      9.1142     92.2683
   272.5000      0.0000    782.6552      9.0952     97.3627
   272.7500      0.0000    782.6623      9.0712     99.2293
   273.0000      0.0000    782.1424      9.0680     96.5455
   273.2500      0.0000    780.7271      9.1115     91.3021
   273.5000      0.0000    777.9104      9.2020     87.2666
   273.7500      0.0000    773.5000      9.3119     86.7126
   274.0000      0.0000    768.4235      9.4045     88.6919
   274.2500      0.0000    764.8528      9.4537     90.2844
   274.5000      0.0000    764.7979      9.4563     89.4746
   274.7500      0.0000    768.3177      9.4294     86.8885
   275.0000      0.0000    773.5404      9.3920     84.7779
   275.2500      0.0000    778.5374      9.3507     84.6209
   275.5000      0.0000    782.8780      9.3073     86.0423
   275.7500      0.0000    787.3737      9.2721     87.6952
   276.0000      0.0000    792.5378      9.2582     88.6930
   276.2500      0.0000    797.3950      9.2633     89.2092
   276.5000      0.0000    800.1070      9.2642     89.9808
   276.7500      0.0000    800.1210      9.2330     91.3722
   277.0000      0.0000    799.1748      9.1563     92.7959
   277.2500      0.0000    799.2750      9.0371     92.8352
   277.5000      0.0000    799.7864      8.8723     90.1517
   277.7500      0.0000    797.2873      8.6355     84.8164
   278.0000      0.0000    788.8782      8.3082     78.5836
   278.2500      0.0000    776.2994      7.9444     73.3024
   278.5000      0.0000    768.2377      7.6671     69.1579
   278.7500      0.0000    778.7359      7.5483     64.9005
   279.0000      0.0000    819.8101      7.5143     59.5182
   279.2500      0.0000    890.7943      7.4300     53.2663
   279.5000      0.0000    974.1893      7.2559     47.2910
   279.7500      0.0000   1044.6620      7.0624     42.6759
   280.0000      0.0000   1084.1949      6.9196     39.9170
   280.2500      0.0000   1090.0792      6.8423     39.0667
   280.5000     -2.0000   1071.2423      6.8365     40.1121
   280.7500      0.0000   1038.5966      6.9626     43.0651
   281.0000      0.0000    997.4639      7.3335     47.7233
   281.2500      0.0000    948.2242      8.0234     53.4571
   281.5000      0.0000    894.1572      8.9476     59.3466
   281.7500      0.0000    847.5319      9.8574     64.6147
   282.0000      0.0000    826.1129     10.5056     68.9086
   282.2500      0.0000    841.1591     10.8110     72.2072
   282.5000      0.0000    886.4343     10.8530     74.5840
   282.7500      0.0000    939.2639     10.7572     76.0777
   283.0000      0.0000    975.3295     10.6194     76.6784
   283.2500      0.0000    984.4081     10.4997     76.5111
   283.5000      0.0000    972.6285     10.4348     76.1323
   283.7500      0.0000    952.1639     10.4434     76.4356
   284.0000      0.0000    931.9551     10.5206     78.0335
   284.2500      0.0000    916.3631     10.6340     80.7607
   284.5000      0.0000    906.5455     10.7358     83.6947
   284.7500      0.0000    900.3918     10.7867     85.6211
   285.0000      0.0000    893.5255     10.7704     85.9324
   285.2500      0.0000    881.6770     10.6950     85.3821
   285.5000      0.0000    862.0771     10.5863     85.5289
   285.7500      0.0000    835.1887     10.4771     87.0552
   286.0000      0.0000    806.4337     10.3902     88.8428
   286.2500      0.0000    783.8187     10.3268     88.9336
   286.5000      0.0000    772.1700     10.2710     86.3934
   286.7500      0.0000    770.1102     10.2067     82.2676
   287.0000      0.0000    772.3046     10.1309     78.7592
   287.2500      0.0000    773.6539     10.0549     77.5560
   287.5000      0.0000    771.8881      9.9985     78.9488
   287.7500      0.0000    767.9352      9.9797     82.1015
   288.0000      0.0000    764.6818     10.0032     85.5560
   288.2500      0.0000    764.6563     10.0562     87.5466
   288.5000      0.0000    768.0638     10.1168     86.7604
   288.7500      0.0000    772.8819     10.1713     83.4918
   289.0000      0.0000    776.7923     10.2236     79.7845
   289.2500      0.0000    778.6572     10.2867     77.8790
   289.5000      0.0000    778.2930     10.3645     78.3817
   289.7500      0.0000    775.5809     10.4442     80.1313
   290.0000      0.0000    770.3669     10.5053     81.6245
   290.2500      0.0000    763.3150     10.5378     82.0170
   290.5000      0.0000    756.4292     10.5507     81.0090
   290.7500      0.0000    752.0677     10.5641     78.7380
   291.0000      0.0000    751.1146     10.5900     75.8932
   291.2500      0.0000    752.3610     10.6206     73.2341
   291.5000      0.0000    753.8976     10.6370     70.8838
   291.7500      0.0000    755.0010     10.6259     68.4363
   292.0000      0.0000    756.5601     10.5861     65.6436
