~Version Information
VERS.                      2.0: CWLS Log ASCII Standard - VERSION 2.0
WRAP.                       NO: One line per depth step
~Well Information Block
STRT.FT               580.0000: 
STOP.FT              2729.7500: 
STEP.FT                 0.2500: 
NULL.                -999.2500: 
COMP.          Pioneer Natural Resources: COMPANY
WELL.          Sand Pebbles 13-33: WELL
FLD.           Purgatoire River: FIELD
LOC.           1883' FSL & 63' FWL----: LOCATION
PROV.                 Colorado: PROVINCE
CNTY.               Las Animas: COUNTRY
SRVC.                Patterson: SERVICE COMPANY
DATE.          Fri Mar 11 13:47:45 2005: LOG DATE
UWI.           05 071 08224 00: UNIQUE WELL ID
~Curve Information Block
DEPT.FT            0 000 00 00: Depth
SN.Ohm-m                      : IEL Short Normal
SP.mV                         : IEL Spontaneous Potential
DIR.Ohm-m                     : IEL Induction Resistivity
GR.GAPI                       : Gamma Ray
~Parameter Information Block
~A  Depth        SN          SP         DIR          GR     
# ...
   848.0000     22.3632   -189.6547     24.7682    129.8965
   848.2500     22.0643   -189.4091     24.0751    131.7433
   848.5000     21.7011   -189.1890     23.3607    134.0616
   848.7500     21.3198   -189.0108     22.6724    134.8631
   849.0000     20.9580   -188.8821     22.0361    134.0047
   849.2500     20.6364   -188.8025     21.4557    131.9148
   849.5000     20.3555   -188.7647     20.9213    127.5605
   849.7500     20.1044   -188.7583     20.4211    125.0543
   850.0000     19.8732   -188.7722     19.9516    123.8135
   850.2500     19.6631   -188.7980     19.5229    125.0608
   850.5000     19.4873   -188.8335     19.1587    129.1327
   850.7500     19.3679   -188.8851     18.8939    132.1086
   851.0000     19.3345   -188.9689     18.7725    134.6495
   851.2500     19.4278   -189.1055     18.8442    134.1545
   851.5000     19.7058   -189.3128     19.1588    129.8841
   851.7500     20.2478   -189.5962     19.7584    125.0615
   852.0000     21.1548   -189.9432     20.6707    115.5660
   852.2500     22.5532   -190.3235     21.9064    108.0279
   852.5000     24.6108   -190.6944     23.4579     95.6590
   852.7500     27.5482   -191.0076     25.3007     87.5020
   853.0000     31.5795   -191.2129     27.3940     77.1486
   853.2500     36.7128   -191.2557     29.6766     72.4202
   853.5000     42.4923   -191.0736     32.0515     69.5729
   853.7500     47.9531   -190.5977     34.3616     70.6321
   854.0000     51.9944   -189.7651     36.3843     75.8327
   854.2500     53.9711   -188.5430     37.8867     80.5846
   854.5000     54.0201   -186.9560     38.7414     87.2973
   854.7500     52.8771   -185.0993     39.0121     90.5768
   855.0000     51.4139   -183.1284     38.9242     93.6862
   855.2500     50.2788   -181.2252     38.7462     95.0893
   855.5000     49.7818   -179.5578     38.6868     96.4469
   855.7500     49.9353   -178.2498     38.8596     96.2422
   856.0000     50.5646   -177.3712     39.3032     93.0141
   856.2500     51.4917   -176.9442     40.0278     88.9071
   856.5000     52.7578   -176.9541     41.0605     81.3690
   856.7500     54.7411   -177.3552     42.4690     76.7515
   857.0000     58.0230   -178.0709     44.3440     72.3232
   857.2500     63.0179   -178.9905     46.7481     71.4566
   857.5000     69.5730   -179.9651     49.6485     72.3399
   857.7500     76.8214   -180.8077     52.8543     72.9970
   858.0000     83.4701   -181.3020     55.9838     71.6235
   858.2500     88.3919   -181.2294     58.5217     68.5720
   858.5000     91.1004   -180.4162     60.0111     62.1393
   858.7500     91.7638   -178.7900     60.2856     58.4255
   859.0000     90.8351   -176.4195     59.5419     57.0628
   859.2500     88.6896   -173.5150     58.1832     60.2186
   859.5000     85.5435   -170.3827     56.5971     71.1068
   859.7500     81.5968   -167.3506     55.0349     81.2664
   860.0000     77.1828   -164.6965     53.6158     97.5242
   860.2500     72.7871   -162.6024     52.3858    107.1580
   860.5000     68.9570   -161.1424     51.3685    117.8572
   860.7500     66.1920   -160.2963     50.5800    122.1290
   861.0000     64.8800   -159.9753     50.0252    124.3067
   861.2500     65.2704   -160.0524     49.7032    123.2620
   861.5000     67.4198   -160.3908     49.6282    119.2042
   861.7500     71.0850   -160.8682     49.8433    115.8227
   862.0000     75.6743   -161.3911     50.4057    111.0560
   862.2500     80.3975   -161.9001     51.3535    108.4271
   862.5000     84.5696   -162.3642     52.6773    105.4700
   862.7500     87.8411   -162.7731     54.3074    104.1876
   863.0000     90.2009   -163.1304     56.1219    103.2898
   863.2500     91.8261   -163.4536     57.9774    103.3274
   863.5000     92.9347   -163.7762     59.7536    104.0979
   863.7500     93.7200   -164.1476     61.3778    104.7172
   864.0000     94.3495   -164.6273     62.8171    104.8151
   864.2500     94.9786   -165.2731     64.0578    103.9648
   864.5000     95.7480   -166.1272     65.1053    101.8582
   864.7500     96.7566   -167.2030     65.9964    100.6169
   865.0000     98.0255   -168.4758     66.7907     99.2742
   865.2500     99.4807   -169.8759     67.5422     97.9020
   865.5000    100.9846   -171.2887     68.2768     93.3749
   865.7500    102.4093   -172.5681     68.9972     88.5602
   866.0000    103.7002   -173.5683     69.7067     80.2702
   866.2500    104.8801   -174.1917     70.4311     75.3449
   866.5000    105.9983   -174.4321     71.2185     70.1773
   866.7500    107.0808   -174.3939     72.1112     68.1881
   867.0000    108.1218   -174.2698     73.1208     66.6464
   867.2500    109.0988   -174.2841     74.2278     66.2663
   867.5000    109.9826   -174.6258     75.3961     66.6318
   867.7500    110.7342   -175.3998     76.5790     67.4524
   868.0000    111.3050   -176.6132     77.7119     68.7918
   868.2500    111.6563   -178.1949     78.7158     69.1086
   868.5000    111.7904   -180.0296     79.5332     68.3856
   868.7500    111.7687   -181.9879     80.1504     67.5789
   869.0000    111.6900   -183.9439     80.5839     66.7907
   869.2500    111.6480   -185.7824     80.8431     66.5479
   869.5000    111.6992   -187.4054     80.9168     66.1946
   869.7500    111.8573   -188.7435     80.7835     66.1444
   870.0000    112.1038   -189.7664     80.4054     67.3198
   870.2500    112.4049   -190.4877     79.7216     69.1454
   870.5000    112.7330   -190.9569     78.6845     72.5569
   870.7500    113.0825   -191.2415     77.3376     74.6272
   871.0000    113.4778   -191.4068     75.8552     77.3139
   871.2500    113.9707   -191.5022     74.4839     79.1149
   871.5000    114.6283   -191.5564     73.4422     81.5834
   871.7500    115.5124   -191.5833     72.8658     82.4121
   872.0000    116.6612   -191.5907     72.8256     81.7885
   872.2500    118.0891   -191.5878     73.3524     80.5679
   872.5000    119.8014   -191.5873     74.4276     78.9011
   872.7500    121.8033   -191.6033     75.9415     78.2530
   873.0000    124.0927   -191.6453     77.6832     77.3928
   873.2500    126.6379   -191.7146     79.4097     76.3215
   873.5000    129.3732   -191.8045     80.9560     73.4997
   873.7500    132.2292   -191.9032     82.2780     70.9235
   874.0000    135.1662   -191.9982     83.3937     66.5462
   874.2500    138.1666   -192.0799     84.2925     63.6255
   874.5000    141.1918   -192.1432     84.9085     59.6764
   874.7500    144.1555   -192.1868     85.1448     57.4822
   875.0000    146.9347   -192.2126     84.9060     55.1063
   875.2500    149.3946   -192.2240     84.1300     54.3117
   875.5000    151.3928   -192.2251     82.8361     54.2636
   875.7500    152.7660   -192.2204     81.1622     54.5825
   876.0000    153.3234   -192.2138     79.3292     54.5585
   876.2500    152.8661   -192.2084     77.5413     53.8027
   876.5000    151.2237   -192.2055     75.9022     51.5441
   876.7500    148.2841   -192.2031     74.4094     49.6169
   877.0000    143.9928   -192.1937     73.0181     46.9320
   877.2500    138.3341   -192.1624     71.7041     45.7447
   877.5000    131.3474   -192.0837     70.4727     45.3137
   877.7500    123.2162   -191.9188     69.2992     45.9418
   878.0000    114.3537   -191.6141     68.0681     48.1227
   878.2500    105.3506   -191.1040     66.5810     50.4301
   878.5000     96.7600   -190.3203     64.6430     55.5174
   878.7500     88.8772   -189.2093     62.1696     60.2510
   879.0000     81.6947   -187.7537     59.2326     69.5219
   879.2500     75.0420   -185.9882     56.0253     76.8798
   879.5000     68.7678   -183.9999     52.7803     88.5297
   879.7500     62.8421   -181.9104     49.6917     95.8744
   880.0000     57.3570   -179.8450     46.8749    105.2683
   880.2500     52.4637   -177.9034     44.3697    110.2736
   880.5000     48.2824   -176.1439     42.1666    115.9193
   880.7500     44.8328   -174.5856     40.2302    118.4599
   881.0000     42.0210   -173.2224     38.5116    120.7582
   881.2500     39.6908   -172.0388     36.9537    121.8222
