~Version Information
VERS.                      2.0: CWLS Log ASCII Standard - VERSION 2.0
WRAP.                       NO: One line per depth step
~Well Information Block
STRT.FT               -12.2500: 
STOP.FT              2595.7500: 
STEP.FT                 0.2500: 
NULL.                -999.2500: 
COMP.          Petrogulf Corporation: COMPANY
WELL.            Montoya 1-44V: WELL
FLD.           Purgatoire River: FIELD
LOC.           753' FSL & 990' FEL--: LOCATION
PROV.                       CO: PROVINCE
CNTY.               Las Aniams: COUNTRY
SRVC.          Patterson Wireline: SERVICE COMPANY
DATE.          Mon Jun 13 11:58:10 2005: LOG DATE
UWI.           05 071 08142 00: UNIQUE WELL ID
~Curve Information Block
DEPT.FT            0 000 00 00: Depth
CCL.                          : Casing Collar Locator
TT3.usec                      : CBL 3' Travel Time
AMP3.mV                       : CBL 3' Amplitude
GR.GAPI                       : Gamma Ray
~Parameter Information Block
~A  Depth       CCL         TT3         AMP3         GR     
# ...
  1193.7500      0.0000    782.1020     10.6825    130.4037
  1194.0000      0.0000    776.6635     10.5920    127.3658
  1194.2500      0.0000    763.9189     10.5228    122.2424
  1194.5000      0.0000    747.9279     10.4236    116.9330
  1194.7500      0.0000    736.9598     10.2725    112.0334
  1195.0000      0.0000    737.8339     10.0946    107.7827
  1195.2500      0.0000    751.5463      9.9445    104.9250
  1195.5000      0.0000    773.9584      9.8735    104.2358
  1195.7500      0.0000    798.5550      9.9160    105.7294
  1196.0000      0.0000    817.5391     10.0786    108.8547
  1196.2500      0.0000    821.9546     10.3148    113.2733
  1196.5000      0.0000    804.1331     10.5142    118.9274
  1196.7500      0.0000    763.6772     10.5319    125.3800
  1197.0000      0.0000    712.7150     10.2494    131.6053
  1197.2500      0.0000    672.0939      9.6550    136.5542
  1197.5000      0.0000    657.4692      8.8956    139.6599
  1197.7500      0.0000    668.4629      8.2180    140.7305
  1198.0000      0.0000    692.5569      7.8125    139.6971
  1198.2500      0.0000    717.1950      7.6963    136.9375
  1198.5000      0.0000    736.4567      7.7382    133.6518
  1198.7500      0.0000    749.5654      7.7759    131.0251
  1199.0000     -2.0000    757.1813      7.7151    128.7543
  1199.2500      0.0000    759.7841      7.5633    125.2591
  1199.5000      0.0000    758.4832      7.4181    119.7071
  1199.7500      0.0000    755.6352      7.4187    113.1016
  1200.0000      0.0000    753.1984      7.6635    107.1607
  1200.2500      0.0000    751.2266      8.1353    102.8734
  1200.5000      0.0000    749.1981      8.7091    100.3729
  1200.7500      0.0000    747.5419      9.2461     99.5923
  1201.0000      0.0000    746.7894      9.6728    100.6165
  1201.2500      0.0000    746.5303      9.9796    103.4530
  1201.5000      0.0000    746.2277     10.1829    107.5447
  1201.7500      0.0000    746.0784     10.3076    111.6368
  1202.0000      0.0000    746.2538     10.3802    114.5505
  1202.2500      0.0000    746.1458     10.4183    116.3335
  1202.5000      0.0000    745.2480     10.4294    118.3411
  1202.7500      0.0000    744.2858     10.4272    121.9058
  1203.0000      0.0000    744.7517     10.4374    127.2229
  1203.2500      0.0000    747.4803     10.4797    133.6012
  1203.5000      0.0000    752.0947     10.5489    140.1698
  1203.7500      0.0000    757.5855     10.6216    145.9173
  1204.0000      0.0000    762.9307     10.6765    149.5203
  1204.2500      0.0000    767.3892     10.7052    149.9725
  1204.5000      0.0000    770.8736     10.7079    147.7654
  1204.7500      0.0000    774.3035     10.6868    145.1191
  1205.0000      0.0000    779.2119     10.6451    144.4647
  1205.2500      0.0000    786.3041     10.5861    146.4777
  1205.5000      0.0000    793.8923     10.5029    149.7140
  1205.7500      0.0000    798.2288     10.3705    152.1107
  1206.0000      0.0000    796.5506     10.1682    152.6985
  1206.2500      0.0000    790.2923      9.9186    151.8731
  1206.5000      0.0000    784.7545      9.6937    150.2382
  1206.7500      0.0000    785.0841      9.5682    147.4941
  1207.0000      0.0000    792.3217      9.5699    142.7119
  1207.2500      0.0000    802.9769      9.6745    135.5776
  1207.5000      0.0000    811.8898      9.8345    126.9834
  1207.7500      0.0000    815.2554     10.0038    118.4893
  1208.0000      0.0000    811.7687     10.1461    111.6945
  1208.2500      0.0000    802.3904     10.2381    107.7748
  1208.5000      0.0000    789.4755     10.2676    106.7428
  1208.7500      0.0000    775.5073     10.2322    107.2472
  1209.0000      0.0000    762.2338     10.1444    107.7589
  1209.2500      0.0000    750.8020     10.0372    107.7618
  1209.5000      0.0000    742.1393      9.9620    107.5272
  1209.7500      0.0000    736.7736      9.9711    107.4307
  1210.0000      0.0000    734.5365     10.0834    108.0557
  1210.2500      0.0000    734.8773     10.2551    110.2970
  1210.5000      0.0000    737.4869     10.3982    114.5814
  1210.7500      0.0000    742.4167     10.4492    119.9768
  1211.0000      0.0000    749.3909     10.4194    124.3513
  1211.2500      0.0000    757.1224     10.3725    125.6137
  1211.5000      0.0000    763.6082     10.3519    123.1872
  1211.7500      0.0000    767.1367     10.3385    118.6984
  1212.0000      0.0000    766.8981     10.2877    115.1989
  1212.2500      0.0000    762.9521     10.2000    115.1830
  1212.5000      0.0000    756.1932     10.1274    118.6933
  1212.7500      0.0000    748.3335     10.1018    123.1569
  1213.0000      0.0000    741.3143     10.0930    125.4312
  1213.2500      0.0000    736.3397     10.0570    124.3952
  1213.5000      0.0000    733.4806      9.9988    121.6966
  1213.7500      0.0000    732.1545      9.9626    120.0204
  1214.0000      0.0000    731.8270      9.9777    120.6445
  1214.2500      0.0000    732.3594     10.0284    122.6171
  1214.5000      0.0000    733.8669     10.0681    124.1361
  1214.7500      0.0000    736.1930     10.0540    124.3076
  1215.0000      0.0000    738.4517      9.9748    123.4116
  1215.2500      0.0000    739.3716      9.8534    121.9675
  1215.5000      0.0000    738.4403      9.7318    120.0536
  1215.7500      0.0000    736.5826      9.6507    117.5722
  1216.0000      0.0000    735.4826      9.6297    114.9163
  1216.2500      0.0000    736.3063      9.6540    113.0806
  1216.5000      0.0000    739.0058      9.6802    112.9751
  1216.7500      0.0000    742.5444      9.6640    114.7045
  1217.0000      0.0000    745.7886      9.5928    117.4905
  1217.2500      0.0000    748.4216      9.4936    120.1096
  1217.5000      0.0000    750.9557      9.4033    121.4704
  1217.7500      0.0000    753.8355      9.3350    121.1998
  1218.0000      0.0000    756.8181      9.2794    119.9578
  1218.2500      0.0000    759.3541      9.2260    118.9304
  1218.5000      0.0000    761.3613      9.1725    118.6714
  1218.7500      0.0000    763.3940      9.1176    118.5953
  1219.0000      0.0000    765.9361      9.0627    117.7378
  1219.2500      0.0000    768.7294      9.0176    115.7782
  1219.5000      0.0000    771.0751      8.9968    113.3574
  1219.7500      0.0000    772.6135      9.0124    111.8137
  1220.0000      0.0000    773.5093      9.0740    112.6686
  1220.2500      0.0000    774.0064      9.1769    116.9200
  1220.5000      0.0000    774.0693      9.2881    124.3150
  1220.7500      0.0000    773.5224      9.3593    133.0109
  1221.0000      0.0000    772.5899      9.3592    140.0875
  1221.2500      0.0000    772.2956      9.2906    142.9913
  1221.5000      0.0000    773.9120      9.1829    141.1257
  1221.7500      0.0000    777.6768      9.0709    136.4067
  1222.0000      0.0000    782.4564      8.9769    132.2880
  1222.2500      0.0000    786.9036      8.9090    131.5426
  1222.5000      0.0000    790.2556      8.8680    134.1132
  1222.7500      0.0000    791.8468      8.8491    137.1295
  1223.0000      0.0000    791.0499      8.8392    137.4836
  1223.2500      0.0000    788.4083      8.8252    134.4936
  1223.5000      0.0000    786.0182      8.8080    130.0019
  1223.7500      0.0000    785.9301      8.8037    126.1756
  1224.0000      0.0000    788.1420      8.8289    123.6255
  1224.2500      0.0000    790.4316      8.8883    121.6064
  1224.5000      0.0000    790.3000      8.9719    119.6750
  1224.7500      0.0000    787.0309      9.0608    118.8575
  1225.0000      0.0000    781.6991      9.1358    120.8623
  1225.2500      0.0000    775.4874      9.1825    125.9539
  1225.5000      0.0000    768.7251      9.1968    132.0226
  1225.7500      0.0000    761.8232      9.1897    136.2522
  1226.0000      0.0000    756.5248      9.1811    137.5519
  1226.2500      0.0000    755.4194      9.1786    136.9252
  1226.5000      0.0000    759.8629      9.1683    135.7874
  1226.7500      0.0000    768.4571      9.1358    134.7993
  1227.0000      0.0000    777.7397      9.0952    134.2912
