~Version Information
VERS.                      2.0: CWLS Log ASCII Standard - VERSION 2.0
WRAP.                       NO: One line per depth step
~Well Information Block
STRT.FT                -6.7500: 
STOP.FT               983.2500: 
STEP.FT                 0.2500: 
NULL.                -999.2500: 
COMP.          Pioneer Natural Resources: COMPANY
WELL.          Run-Away-Train 43-26: WELL
FLD.           Purgatorie River: FIELD
LOC.           1693' FSL & 1195' FWL------------: LOCATION
PROV.                       CO: PROVINCE
CNTY.               Las Animas: COUNTRY
SRVC.          Patterson Wireline: SERVICE COMPANY
DATE.          Thu Apr 14 12:30:00 2005: LOG DATE
UWI.           05 071 08188 00: UNIQUE WELL ID
~Curve Information Block
DEPT.FT            0 000 00 00: Depth
CCL.                          : Casing Collar Locator
TT3.usec                      : CBL 3' Travel Time
AMP3.mV                       : CBL 3' Amplitude
GR.GAPI                       : Gamma Ray
~Parameter Information Block
~A  Depth       CCL         TT3         AMP3         GR     
# ...
   964.7500      0.0000    720.9171      5.4068     68.1869
   965.0000      0.0000    721.3522      5.5359     69.5787
   965.2500      0.0000    724.6857      5.7450     72.1047
   965.5000      0.0000    729.9467      5.8919     74.8271
   965.7500      0.0000    736.0820      5.9233     77.4728
   966.0000      0.0000    741.8417      5.8904     80.6736
   966.2500      0.0000    745.1363      5.8546     85.0942
   966.5000      0.0000    743.3037      5.8326     90.2718
   966.7500      0.0000    735.4148      5.8176     94.5070
   967.0000      0.0000    723.9377      5.7949     95.9903
   967.2500      0.0000    712.9492      5.7350     93.9667
   967.5000      0.0000    705.0018      5.6290     89.0547
   967.7500      0.0000    700.4722      5.5233     82.9375
   968.0000      0.0000    699.0574      5.4724     77.8383
   968.2500      0.0000    700.4661      5.4818     75.6517
   968.5000      0.0000    703.5573      5.5374     76.7648
   968.7500      0.0000    706.0875      5.6460     79.1936
   969.0000      0.0000    706.3725      5.7906     78.9307
   969.2500      0.0000    705.0451      5.8995     72.0528
   969.5000      0.0000    704.4595      5.9274     57.6918
   969.7500      0.0000    706.1071      5.9277     39.2544
   970.0000      0.0000    708.9848      5.9712     22.1888
   970.2500      0.0000    711.0816      6.0223     10.2499
   970.5000      0.0000    712.2161      5.9714      3.8229
   970.7500      0.0000    714.1195      5.7953      1.1404
   971.0000      0.0000    717.2284      5.6226      0.2701
   971.2500      0.0000    719.0140      5.6019      0.0498
   971.5000      0.0000    716.8234      5.7335      0.0066
   971.7500      0.0000    711.3304      5.8705      0.0000
   972.0000      0.0000    705.7271      5.8864   -999.2500
   972.2500      0.0000    702.2859      5.8081   -999.2500
   972.5000      0.0000    700.9614      5.7708   -999.2500
   972.7500      0.0000    700.7382      5.8712   -999.2500
   973.0000      0.0000    701.0479      6.0864   -999.2500
   973.2500      0.0000    701.7265      6.3148   -999.2500
   973.5000      0.0000    702.2441      6.4550   -999.2500
   973.7500      0.0000    700.9249      6.4391   -999.2500
   974.0000      0.0000    693.9539      6.2272   -999.2500
   974.2500      0.0000    673.5314      5.8085   -999.2500
   974.5000      0.0000    626.9875      5.2129   -999.2500
   974.7500      0.0000    542.0831      4.4983   -999.2500
   975.0000      0.0000    419.4424      3.7302   -999.2500
   975.2500      0.0000    280.4790      2.9882   -999.2500
   975.5000      0.0000    157.5206      2.3688   -999.2500
   975.7500      0.0000     72.7237      1.9427   -999.2500
   976.0000      0.0000     27.1776      1.7088   -999.2500
   976.2500      0.0000      8.1305      1.6082   -999.2500
   976.5000      0.0000      1.9297      1.5745   -999.2500
   976.7500      0.0000      0.3577      1.5658   -999.2500
   977.0000      0.0000      0.0480      1.5641   -999.2500
   977.2500      0.0000   -999.2500   -999.2500   -999.2500
   977.5000      0.0000   -999.2500   -999.2500   -999.2500
   977.7500      0.0000   -999.2500   -999.2500   -999.2500
   978.0000      0.0000   -999.2500   -999.2500   -999.2500
   978.2500      0.0000   -999.2500   -999.2500   -999.2500
   978.5000      0.0000   -999.2500   -999.2500   -999.2500
   978.7500      0.0000   -999.2500   -999.2500   -999.2500
   979.0000      0.0000   -999.2500   -999.2500   -999.2500
   979.2500      0.0000   -999.2500   -999.2500   -999.2500
   979.5000      0.0000   -999.2500   -999.2500   -999.2500
   979.7500      0.0000   -999.2500   -999.2500   -999.2500
   980.0000      0.0000   -999.2500   -999.2500   -999.2500
   980.2500      0.0000   -999.2500   -999.2500   -999.2500
   980.5000      0.0000   -999.2500   -999.2500   -999.2500
   980.7500      0.0000   -999.2500   -999.2500   -999.2500
   981.0000      0.0000   -999.2500   -999.2500   -999.2500
   981.2500      0.0000   -999.2500   -999.2500   -999.2500
   981.5000      0.0000   -999.2500   -999.2500   -999.2500
   981.7500      0.0000   -999.2500   -999.2500   -999.2500
   982.0000      0.0000   -999.2500   -999.2500   -999.2500
   982.2500      0.0000   -999.2500   -999.2500   -999.2500
   982.5000      0.0000   -999.2500   -999.2500   -999.2500
   982.7500   -999.2500   -999.2500   -999.2500   -999.2500
   983.0000   -999.2500   -999.2500   -999.2500   -999.2500
   983.2500   -999.2500   -999.2500   -999.2500   -999.2500
