~Version Information
 VERS.                                  2.0 : CWLS LAS VERSION
 WRAP.                                   NO : WRAPING MODE
 SWARE .                 MController 2.5.0N : SOFTWARE VERSION
~Well Information
 WELL.                      Piggyback 33-25 : WELL
 COMP.    Pioneer Natural Resources USA Inc : COMPANY
 FLD.                      Purgatoire River : FIELD
 LOC.                NW/SE Sec 25 T34S R65W : LOCATION
 DATE.                               4/29/05: DATE(S) LOGGED
 SRVC.       Blanco Geological Services LLC : SERVICE COMPANY
 STAT.                                   CO : STATE
 CNTY.                           Las Animas : COUNTY
 CTRY.                                  USA : COUNTRY
 API.                       05-071-08233-00 : API NUMBER
 STRT.FT                             260.00 : START DEPTH
 STOP.FT                            1000.00 : STOP DEPTH
 STEP.FT                               1.00 : DEPTH INCREMENT
 NULL.                                -9999 : NULL VALUE
~Curve information
 DEPTH.FT                                   :
 ROP.MIN/FT                                 :
 GAS.UNITS                                  :
~ASCII Log data
       260.0     -9999.00          1.6 
       261.0         0.18          1.7 
       262.0         0.17          1.5 
       263.0         0.63          2.4 
       264.0         0.55          2.2 
       265.0         0.53          1.9 
       266.0         0.27          2.0 
       267.0         3.48          2.1 
       268.0         0.27          1.5 
       269.0         0.27          1.9 
       270.0         0.60          1.9 
       271.0         0.75          2.0 
       272.0         0.13          2.0 
       273.0         0.37          2.1 
       274.0         1.97          2.4 
       275.0         0.23          2.0 
       276.0         0.15          2.8 
       277.0         0.17          2.5 
       278.0         0.20          2.2 
       279.0         0.17          2.5 
       280.0         0.20          2.4 
       281.0         0.37          2.5 
       282.0         0.13          2.8 
       283.0         0.27          2.0 
       284.0         0.20          2.6 
       285.0         0.30          2.4 
       286.0         0.27          2.5 
       287.0         0.13          2.4 
       288.0         0.20          2.8 
       289.0         0.22          2.4 
       290.0         0.13          1.7 
       291.0         0.37          2.4 
       292.0         0.33          2.1 
       293.0         0.30          2.3 
       294.0         0.27          2.3 
       295.0         0.77          2.7 
       296.0         0.33          2.1 
       297.0         0.10          2.4 
       298.0         0.27          2.0 
       299.0         0.20          2.6 
       300.0         0.28          2.2 
       301.0         0.27          2.5 
       302.0         0.23          1.8 
       303.0         0.23          2.7 
       304.0         0.20          2.8 
       305.0         0.23          3.3 
       306.0         0.27          1.9 
       307.0         0.23          1.9 
       308.0         0.23          2.5 
       309.0         0.27          2.6 
       310.0         0.20          2.6 
       311.0         0.23          2.6 
       312.0         0.23          2.8 
       313.0         0.23          2.4 
       314.0         0.20          2.2 
       315.0         0.22          3.1 
       316.0         0.23          2.6 
       317.0         0.23          3.0 
       318.0         0.20          2.7 
       319.0         0.20          2.8 
       320.0         0.23          2.7 
       321.0         0.20          3.3 
       322.0         0.20          2.7 
       323.0         0.20          2.9 
       324.0         0.23          3.2 
       325.0         0.20          3.0 
       326.0         1.08          3.2 
       327.0         0.23          3.2 
       328.0         0.10          2.9 
       329.0         0.13          2.9 
       330.0         0.30          2.4 
       331.0         0.27          2.7 
       332.0         0.23          2.9 
       333.0         0.23          2.9 
       334.0         0.27          2.9 
       335.0         0.27          3.3 
       336.0         0.33          2.9 
       337.0         0.33          2.8 
       338.0         0.23          2.6 
       339.0         0.20          2.9 
       340.0         0.25          2.6 
       341.0         0.20          2.8 
       342.0         0.23          2.9 
       343.0         0.20          2.3 
       344.0         0.27          2.5 
       345.0         0.20          2.5 
       346.0         0.17          3.4 
       347.0         0.20          2.7 
       348.0         0.20          2.9 
       349.0         0.23          3.1 
       350.0         0.20          2.6 
       351.0         0.20          2.9 
       352.0         0.20          2.8 
       353.0         0.23          3.3 
       354.0         0.20          3.3 
       355.0         0.20          3.2 
       356.0         4.03          3.2 
       357.0         0.30          2.6 
       358.0         0.27          2.8 
       359.0         0.27          2.6 
       360.0         0.27          1.0 
       361.0         0.23          2.4 
       362.0         0.23          1.8 
       363.0         0.17          1.5 
       364.0         0.27          1.3 
       365.0         0.27          1.3 
       366.0         0.27          1.0 
       367.0         0.27          0.8 
       368.0         0.28          0.2 
       369.0         0.23          0.9 
       370.0         0.23          0.7 
       371.0         0.23          1.0 
       372.0         0.20          0.9 
       373.0         0.20          0.5 
       374.0         0.20          0.8 
       375.0         0.23          0.3 
       376.0         0.23          0.5 
       377.0         0.27          0.7 
       378.0         0.17          0.8 
       379.0         0.17          0.6 
       380.0         0.23          0.4 
       381.0         0.13          0.9 
       382.0         0.13          0.9 
       383.0         0.17          0.9 
       384.0         0.32          0.4 
       385.0         0.17          0.2 
       386.0         1.63          4.1 
       387.0         0.37          3.6 
       388.0         0.20          3.6 
       389.0         0.37          3.5 
       390.0         0.38          4.5 
       391.0         0.23          3.9 
       392.0         0.23          4.7 
       393.0         0.27          4.6 
       394.0         0.23          5.3 
       395.0         0.23          5.1 
       396.0         0.23          4.8 
       397.0         0.23          4.5 
       398.0         0.27          4.9 
       399.0         0.23          4.3 
       400.0         0.27          4.7 
       401.0         0.23          5.0 
       402.0         0.23          5.3 
       403.0         0.23          4.6 
       404.0         0.22          5.0 
       405.0         0.20          5.3 
       406.0         0.27          5.3 
       407.0         0.33          5.8 
       408.0         0.20          5.7 
       409.0         0.20          5.8 
       410.0         0.20          5.1 
       411.0         0.20          5.4 
       412.0         0.20          5.4 
       413.0         0.23          5.6 
       414.0         0.13          5.3 
       415.0         0.20          5.5 
       416.0         1.65          5.5 
       417.0         0.20          5.2 
       418.0         0.27          5.6 
       419.0         0.17          5.4 
       420.0         0.40          5.1 
       421.0         0.30          4.7 
       422.0         0.27          5.5 
       423.0         0.23          5.3 
       424.0         0.23          5.7 
       425.0         0.27          4.9 
       426.0         0.25          5.4 
       427.0         0.23          4.4 
       428.0         0.23          5.3 
       429.0         0.23          5.5 
       430.0         0.23          5.5 
       431.0         0.27          5.5 
       432.0         0.27          5.5 
       433.0         0.27          4.6 
       434.0         0.23          5.4 
       435.0         0.27          5.0 
       436.0         0.20          5.4 
       437.0         0.23          4.5 
       438.0         0.27          4.8 
       439.0         0.27          4.7 
       440.0         0.22          5.7 
       441.0         0.23          5.4 
       442.0         0.23          5.1 
       443.0         0.23          5.2 
       444.0         0.27          5.5 
       445.0         0.23          5.5 
       446.0         1.73          5.8 
       447.0         0.27          4.8 
       448.0         0.28          5.4 
       449.0         0.20          5.2 
       450.0         0.23          5.8 
       451.0         0.27          6.2 
       452.0         0.30          6.7 
       453.0         0.27          6.5 
       454.0         0.27          5.9 
       455.0         0.23          6.1 
       456.0         0.30          5.5 
       457.0         0.30          6.1 
       458.0         0.23          5.8 
       459.0         0.23          6.6 
