~Version Information
VERS.                      2.0: CWLS Log ASCII Standard - VERSION 2.0
WRAP.                       NO: One line per depth step
~Well Information Block
STRT.FT               583.0000: 
STOP.FT              1701.5000: 
STEP.FT                 0.2500: 
NULL.                -999.2500: 
COMP.          Pioneer Natural Resources: COMPANY
WELL.          Scott Canyon 11-18 Tr: WELL
FLD.           Purgatoire River: FIELD
LOC.           411' FNL & 580' FWL: LOCATION
PROV.                 Colorado: PROVINCE
CNTY.               Las Animas: COUNTRY
SRVC.                Patterson: SERVICE COMPANY
DATE.          Thu Feb 17 02:07:21 2005: LOG DATE
UWI.           05 071 08286 00: UNIQUE WELL ID
~Curve Information Block
DEPT.FT            0 000 00 00: Depth
SN.Ohm-m                      : IEL Short Normal
SP.mV                         : IEL Spontaneous Potential
DIR.Ohm-m                     : IEL Induction Resistivity
GR.GAPI                       : Gamma Ray
~Parameter Information Block
~A  Depth        SN          SP         DIR          GR     
# ...
  1454.0000     18.6419      9.6737     17.9602    102.2489
  1454.2500     17.6186      9.7541     17.5003    107.0315
  1454.5000     16.8029      9.7510     16.8355    111.2991
  1454.7500     16.0807      9.6788     16.0192    112.2102
  1455.0000     15.3581      9.5779     15.1554    112.4879
  1455.2500     14.6038      9.4970     14.3413    113.3540
  1455.5000     13.8673      9.4733     13.6362    117.1205
  1455.7500     13.2506      9.5221     13.0613    121.2887
  1456.0000     12.8290      9.6382     12.6133    128.8628
  1456.2500     12.5936      9.8065     12.2781    133.6895
  1456.5000     12.4716     10.0110     12.0383    138.7922
  1456.7500     12.3872     10.2355     11.8740    140.2450
  1457.0000     12.3052     10.4619     11.7640    139.7418
  1457.2500     12.2360     10.6796     11.6881    138.1619
  1457.5000     12.2200     10.8975     11.6341    134.8455
  1457.7500     12.3054     11.1424     11.6007    132.2504
  1458.0000     12.5201     11.4384     11.5948    127.6216
  1458.2500     12.8547     11.7865     11.6249    123.8717
  1458.5000     13.2618     12.1614     11.6959    117.5750
  1458.7500     13.6696     12.5250     11.8082    113.6361
  1459.0000     14.0185     12.8470     11.9604    109.4850
  1459.2500     14.3028     13.1198     12.1520    108.1592
  1459.5000     14.5600     13.3558     12.3844    107.7329
  1459.7500     14.7934     13.5663     12.6608    108.1061
  1460.0000     14.9383     13.7463     12.9828    109.8360
  1460.2500     14.9434     13.8877     13.3471    112.1260
  1460.5000     14.8598     14.0042     13.7426    117.0194
  1460.7500     14.8083     14.1274     14.1514    120.2031
  1461.0000     14.8862     14.2756     14.5516    122.1768
  1461.2500     15.1194     14.4387     14.9240    120.5224
  1461.5000     15.4722     14.5980     15.2586    114.0042
  1461.7500     15.9315     14.7502     15.5604    108.4236
  1462.0000     16.5989     14.9059     15.8504    100.9255
  1462.2500     17.6077     15.0724     16.1638     97.3349
  1462.5000     18.9402     15.2442     16.5454     93.8956
  1462.7500     20.4142     15.4079     17.0399     92.1988
  1463.0000     21.8371     15.5567     17.6762     88.9748
  1463.2500     23.1034     15.6996     18.4453     85.6649
  1463.5000     24.2068     15.8600     19.2849     78.9037
  1463.7500     25.2466     16.0615     20.0844     73.9107
  1464.0000     26.3730     16.3075     20.7209     67.3718
  1464.2500     27.6639     16.5714     21.1047     64.3286
  1464.5000     29.0461     16.8082     21.1975     62.0336
  1464.7500     30.2691     16.9775     20.9987     61.8692
  1465.0000     30.9559     17.0646     20.5284     63.3531
  1465.2500     30.8155     17.0915     19.8243     65.4074
  1465.5000     29.8152     17.1131     18.9449     70.2046
  1465.7500     28.1071     17.1948     17.9629     74.7027
  1466.0000     25.9107     17.3793     16.9525     83.3986
  1466.2500     23.4945     17.6667     15.9763     90.0919
  1466.5000     21.1082     18.0179     15.0762    100.2211
  1466.7500     18.9257     18.3728     14.2724    106.3898
  1467.0000     17.0807     18.6740     13.5680    114.4297
  1467.2500     15.6384     18.8881     12.9597    119.0778
  1467.5000     14.5547     19.0153     12.4464    124.8810
  1467.7500     13.7433     19.0810     12.0321    127.6789
  1468.0000     13.1421     19.1170     11.7226    130.0360
  1468.2500     12.7157     19.1464     11.5209    130.6557
  1468.5000     12.4516     19.1778     11.4243    130.7965
  1468.7500     12.3595     19.2098     11.4244    130.3629
  1469.0000     12.4555     19.2382     11.5100    128.2260
  1469.2500     12.7483     19.2616     11.6678    125.4450
  1469.5000     13.2364     19.2786     11.8842    119.3678
  1469.7500     13.9189     19.2815     12.1462    114.5225
  1470.0000     14.8257     19.2534     12.4434    106.9014
  1470.2500     16.0348     19.1744     12.7699    101.8348
  1470.5000     17.6216     19.0327     13.1280     94.6288
  1470.7500     19.5666     18.8361     13.5317     90.5895
  1471.0000     21.6972     18.6146     14.0049     86.7008
  1471.2500     23.7113     18.4120     14.5692     85.7350
  1471.5000     25.2843     18.2704     15.2242     86.0742
  1471.7500     26.2071     18.2133     15.9309     86.8798
  1472.0000     26.4380     18.2395     16.6153     88.2482
  1472.2500     26.0361     18.3322     17.1947     89.3423
  1472.5000     25.0841     18.4742     17.6134     92.3202
  1472.7500     23.7171     18.6577     17.8628     95.9029
  1473.0000     22.2143     18.8822     17.9738    103.5502
  1473.2500     20.9555     19.1467     17.9905    108.9777
  1473.5000     20.1924     19.4447     17.9464    114.8372
  1473.7500     19.8947     19.7642     17.8533    116.1737
  1474.0000     19.8575     20.0930     17.7029    114.1643
  1474.2500     19.9287     20.4230     17.4771    110.6458
  1474.5000     20.1126     20.7504     17.1701    103.2267
  1474.7500     20.4932     21.0680     16.8112     97.6149
  1475.0000     21.0865     21.3599     16.4723     89.7767
  1475.2500     21.7464     21.6083     16.2457     85.8933
  1475.5000     22.2310     21.8101     16.2081     83.1746
  1475.7500     22.4057     21.9864     16.3945     83.4105
  1476.0000     22.3670     22.1723     16.7939     85.5684
  1476.2500     22.3538     22.3947     17.3582     87.0651
  1476.5000     22.5591     22.6581     18.0172     87.6429
  1476.7500     22.9968     22.9454     18.6909     86.4295
  1477.0000     23.5037     23.2318     19.2976     82.5114
  1477.2500     23.9060     23.4996     19.7531     79.1003
  1477.5000     24.1915     23.7450     19.9729     73.8650
  1477.7500     24.4715     23.9757     19.8877     70.7898
  1478.0000     24.8535     24.2025     19.4771     67.5220
  1478.2500     25.3913     24.4289     18.7924     66.6374
  1478.5000     26.0377     24.6425     17.9396     67.7065
  1478.7500     26.5875     24.8149     17.0313     70.0180
  1479.0000     26.7419     24.9145     16.1473     75.4118
  1479.2500     26.2576     24.9286     15.3232     79.8431
  1479.5000     25.0091     24.8779     14.5616     86.9771
  1479.7500     22.9811     24.8123     13.8519     91.8428
  1480.0000     20.3443     24.7875     13.1871     99.6456
  1480.2500     17.5342     24.8384     12.5679    105.6044
  1480.5000     15.0786     24.9628     11.9976    115.8556
  1480.7500     13.2736     25.1239     11.4751    123.0730
  1481.0000     12.0678     25.2713     10.9932    133.1547
  1481.2500     11.2275     25.3667     10.5416    138.8265
  1481.5000     10.5586     25.4019     10.1123    145.2931
  1481.7500      9.9885     25.4016      9.7014    147.8793
  1482.0000      9.5107     25.4109      9.3104    148.2117
  1482.2500      9.1145     25.4745      8.9442    145.9290
  1482.5000      8.7761     25.6187      8.6097    140.4896
  1482.7500      8.4843     25.8444      8.3125    137.3882
  1483.0000      8.2487     26.1290      8.0552    135.9703
  1483.2500      8.0918     26.4351      7.8372    137.3380
  1483.5000      8.0308     26.7241      7.6559    141.5067
  1483.7500      8.0331     26.9750      7.5062    144.8416
  1484.0000      8.0120     27.1949      7.3810    150.0257
  1484.2500      7.9088     27.4120      7.2711    153.5149
  1484.5000      7.7402     27.6533      7.1673    158.2859
  1484.7500      7.5533     27.9256      7.0629    160.4920
  1485.0000      7.3834     28.2164      6.9555    161.2575
  1485.2500      7.2410     28.5076      6.8463    159.9510
  1485.5000      7.1143     28.7891      6.7389    156.0960
  1485.7500      6.9922     29.0597      6.6386    153.0753
  1486.0000      6.8757     29.3184      6.5513    149.2541
  1486.2500      6.7622     29.5570      6.4818    147.8015
  1486.5000      6.6406     29.7593      6.4328    147.6996
  1486.7500      6.5087     29.9077      6.4031    148.6762
  1487.0000      6.3855     29.9935      6.3872    150.0240
  1487.2500      6.2976     30.0230      6.3776    149.5914
