~Version Information
VERS.                      2.0: CWLS Log ASCII Standard - VERSION 2.0
WRAP.                       NO: One line per depth step
~Well Information Block
STRT.FT               260.0000: 
STOP.FT              2269.5000: 
STEP.FT                 0.1000: 
NULL.                -999.2500: 
COMP.          Pioneer Natural Resources: COMPANY
WELL.            Moo Moo 31-36: WELL
FLD.           Purgatoire River: FIELD
LOC.           612' FNL & 2326' FEL: LOCATION
PROV.                 Colorado: PROVINCE
CNTY.               Las Animas: COUNTRY
SRVC.                Patterson: SERVICE COMPANY
DATE.          Fri Jun 17 07:04:43 2005: LOG DATE
UWI.           05 071 08395 00: UNIQUE WELL ID
~Curve Information Block
DEPT.FT            0 000 00 00: Depth
DCAL.in                       : CDL Caliper
RHOB.g/cc                     : CDL Bulk Density
RHOC.g/cc                     : CDL Density Correction
DPOR.pu                       : CDL Density Porosity
GR.GAPI                       : Gamma Ray
NPOR.pu                       : Neutron Porosity
~Parameter Information Block
~A  Depth       DCAL        RHOB        RHOC        DPOR         GR         NPOR    
# ...
   922.4000      8.5209      1.7446     -0.0131     54.8720    108.6981     15.3906
   922.5000      8.5465      1.6339     -0.0455     61.5810    109.8321     14.5091
   922.6000      8.5465      1.5481     -0.0746     66.7821    108.6700     13.9367
   922.7000      8.5465      1.5007     -0.0079     69.6528    109.7968     13.8167
   922.8000      8.5333      1.4739      0.0520     71.2790    111.2317     14.0875
   922.9000      8.5333      1.4500     -0.0287     72.7271    109.5432     14.4703
   923.0000      8.5782      1.4524     -0.0172     72.5806    107.6286     14.5025
   923.1000      8.5782      1.4984      0.1443     69.7958    107.9098     14.1808
   923.2000      8.5782      1.5651      0.2379     65.7532    107.5129     14.1525
   923.3000      8.6079      1.6329      0.2697     61.6433    105.8398     14.8443
   923.4000      8.6079      1.6978      0.3570     57.7085    106.8415     16.0276
   923.5000      8.4473      1.7482      0.3361     54.6558    112.5852     17.2997
   923.6000      8.4473      1.7763      0.3273     52.9527    120.3208     18.6985
   923.7000      8.4473      1.7903      0.2955     52.1007    125.8102     20.3621
   923.8000      8.3502      1.8048      0.2669     51.2268    128.1760     22.0049
   923.9000      8.3502      1.8403      0.1788     49.0717    128.6648     23.3080
   924.0000      8.2237      1.9156      0.2020     44.5108    129.1220     24.3207
   924.1000      8.2237      2.0166      0.2615     38.3880    131.7040     25.1106
   924.2000      8.2237      2.1120      0.2386     32.6070    135.5004     25.7039
   924.3000      8.1541      2.1936      0.1912     27.6621    140.8153     26.2052
   924.4000      8.1541      2.2626      0.2599     23.4793    147.1761     26.7598
   924.5000      8.1327      2.3135      0.2214     20.3919    154.6195     27.3332
   924.6000      8.1327      2.3564      0.2211     17.7933    163.8599     27.5586
   924.7000      8.1327      2.4052      0.2347     14.8343    166.0663     27.4634
   924.8000      8.1339      2.4481      0.2030     12.2359    156.2701     27.5457
   924.9000      8.1339      2.4665      0.1182     11.1205    145.5399     27.8198
   925.0000      8.1392      2.4725      0.0250     10.7594    143.1537     28.0320
   925.1000      8.1392      2.4849      0.1102     10.0084    144.5585     28.1448
   925.2000      8.1392      2.4941      0.1288      9.4469    142.8570     28.1564
   925.3000      8.1288      2.4864      0.1165      9.9169    138.5974     28.0387
   925.4000      8.1288      2.4626      0.1027     11.3599    135.6140     27.8596
   925.5000      8.1232      2.4279      0.1076     13.4614    133.2647     27.6147
   925.6000      8.1232      2.3880      0.0643     15.8788    128.7407     26.9629
   925.7000      8.1232      2.3444      0.1018     18.5183    124.4251     25.5924
   925.8000      8.0736      2.2891      0.0686     21.8748    123.1255     23.7094
   925.9000      8.0736      2.2223      0.0542     25.9236    123.0776     22.0539
   926.0000      8.0683      2.1486     -0.0027     30.3870    121.3059     20.7757
   926.1000      8.0683      2.0629      0.0657     35.5791    117.8796     19.4395
   926.2000      8.0683      1.9798      0.0114     40.6159    114.3910     18.2520
   926.3000      8.0691      1.9411      0.0614     42.9625    111.3804     17.5823
   926.4000      8.0691      1.9559      0.3020     42.0663    109.0361     17.1652
   926.5000      8.0733      1.9741      0.3773     40.9612    107.8732     16.7141
   926.6000      8.0733      1.9422      0.3950     42.8987    107.3506     16.3103
   926.7000      8.0733      1.8491      0.3570     48.5395    105.9973     16.0606
   926.8000      8.1243      1.7323      0.1962     55.6162    104.6560     16.0071
   926.9000      8.1243      1.6483      0.1272     60.7082    104.0986     16.0708
   927.0000      8.1486      1.6145      0.1425     62.7555    103.0075     16.1808
   927.1000      8.1486      1.6037      0.1645     63.4094    100.2858     16.4922
   927.2000      8.1486      1.5948      0.1374     63.9521     96.5512     16.9821
   927.3000      8.0747      1.5916      0.1447     64.1471     96.7484     17.5125
   927.4000      8.0747      1.6008      0.1859     63.5877    102.7523     18.2967
   927.5000      8.1030      1.6273      0.1414     61.9816    107.1067     19.4557
   927.6000      8.1030      1.6839      0.1609     58.5498    105.4783     20.8343
   927.7000      8.1030      1.7668      0.2319     53.5291    102.8551     22.4340
   927.8000      8.1225      1.8546      0.1923     48.2083    106.4541     23.9733
   927.9000      8.1225      1.9595      0.1541     41.8496    117.9112     25.1382
   928.0000      8.1701      2.1096      0.3314     32.7545    128.9395     26.1641
   928.1000      8.1701      2.2823      0.3829     22.2834    129.4298     27.1847
   928.2000      8.1701      2.4343      0.3778     13.0737    121.6204     27.9216
   928.3000      8.1809      2.5661      0.3119      5.0841    115.8703     28.4400
   928.4000      8.1809      2.6896      0.3188     -2.4001    113.8172     29.0009
   928.5000      8.1997      2.7816      0.3085     -7.9744    111.9634     29.5299
   928.6000      8.1997      2.8232      0.2749    -10.4964    113.6526     29.7721
   928.7000      8.1997      2.8257      0.2473    -10.6481    121.9769     29.4823
   928.8000      8.1096      2.8084      0.1892     -9.6015    131.4821     28.6877
   928.9000      8.1096      2.7778      0.1276     -7.7477    137.0995     27.8514
   929.0000      8.0483      2.7283      0.0953     -4.7431    141.6597     27.3916
   929.1000      8.0483      2.6656     -0.0408     -0.9431    145.5705     27.2289
   929.2000      8.0483      2.6170     -0.0849      2.0012    147.0739     26.9436
   929.3000      8.0594      2.6008     -0.0245      2.9840    150.0578     26.4289
   929.4000      8.0594      2.5951      0.0864      3.3255    154.3728     25.7428
   929.5000      8.0776      2.5691      0.0463      4.9047    154.4000     24.8529
   929.6000      8.0776      2.5282      0.0158      7.3843    149.5536     24.2182
   929.7000      8.0776      2.4986      0.0245      9.1766    144.5197     24.2184
   929.8000      8.0536      2.4966     -0.0152      9.2958    141.0127     24.5086
   929.9000      8.0536      2.5109      0.0875      8.4293    138.7470     24.7792
   930.0000      8.0468      2.5135      0.0397      8.2704    142.9849     24.9933
   930.1000      8.0468      2.5011      0.0540      9.0247    154.6365     25.0884
   930.2000      8.0468      2.4934      0.0261      9.4927    163.8754     25.0969
   930.3000      8.0429      2.5016      0.0144      8.9949    165.3024     24.9555
   930.4000      8.0429      2.5114      0.0909      8.4015    162.5901     24.8026
   930.5000      8.0415      2.5102      0.0196      8.4717    160.7171     24.9150
   930.6000      8.0415      2.5128      0.0372      8.3164    164.0872     25.2736
   930.7000      8.0415      2.5290      0.0525      7.3327    169.3528     25.9276
   930.8000      8.0448      2.5485      0.0807      6.1490    168.6362     26.7940
   930.9000      8.0448      2.5679      0.0176      4.9773    164.1008     27.3967
   931.0000      8.0472      2.5944      0.0864      3.3687    160.0366     27.4895
   931.1000      8.0472      2.6163      0.0959      2.0419    156.0643     27.3987
   931.2000      8.0472      2.6148     -0.0072      2.1350    152.5277     27.3457
   931.3000      8.0541      2.5951      0.0180      3.3272    150.5382     27.1904
   931.4000      8.0541      2.5746     -0.0080      4.5700    150.9248     27.0196
   931.5000      8.0451      2.5594     -0.0018      5.4885    155.3506     26.9606
   931.6000      8.0451      2.5443      0.0466      6.4071    162.8736     26.8429
   931.7000      8.0451      2.5325     -0.0588      7.1201    169.4881     26.8143
   931.8000      8.0373      2.5318     -0.0123      7.1632    171.9232     27.2456
   931.9000      8.0373      2.5311      0.0368      7.2071    169.1548     27.9607
