~Version Information
VERS.                      2.0: CWLS Log ASCII Standard - VERSION 2.0
WRAP.                       NO: One line per depth step
~Well Information Block
STRT.FT               523.0000: 
STOP.FT              1709.0000: 
STEP.FT                 0.1000: 
NULL.                -999.2500: 
COMP.          Evergreen Operating Corporation: COMPANY
WELL.            Rimrock 14-29: WELL
FLD.           Purgatorie River: FIELD
LOC.           945' FSL & 604' FWL: LOCATION
PROV.                 Colorado: PROVINCE
CNTY.               Las Animas: COUNTRY
SRVC.                         : SERVICE COMPANY
DATE.          Tue Sep 21 04:15:40 2004: LOG DATE
UWI.           05 071 08136 00: UNIQUE WELL ID
~Curve Information Block
DEPT.FT            0 000 00 00: Depth
DCAL.in                       : CDL Caliper
RHOB.g/cc                     : CDL Bulk Density
RHOC.g/cc                     : CDL Density Correction
DPOR.pu                       : CDL Density Porosity
GR.GAPI                       : Gamma Ray
NPOR.pu                       : Neutron Porosity
~Parameter Information Block
~A  Depth       DCAL        RHOB        RHOC        DPOR         GR         NPOR    
# ...
  1617.4000      7.8029      2.7056      0.0869     -3.3679     59.8880     10.1222
  1617.5000      7.8029      2.6987      0.0594     -2.9542     61.1791      9.8069
  1617.6000      7.8029      2.6745      0.0180     -1.4857     60.9856      9.6074
  1617.7000      7.8029      2.6549      0.0046     -0.2942     60.4267      9.5685
  1617.8000      7.8021      2.6478      0.0174      0.1347     60.5475      9.9296
  1617.9000      7.8021      2.6514      0.0144     -0.0824     59.1845     10.3468
  1618.0000      7.8041      2.6565      0.0486     -0.3924     55.4161     10.1609
  1618.1000      7.8041      2.6524      0.0248     -0.1478     53.5365      9.6668
  1618.2000      7.8041      2.6420     -0.0186      0.4866     56.1957      9.4496
  1618.3000      7.8094      2.6366      0.0321      0.8098     60.5371      9.5097
  1618.4000      7.8094      2.6417      0.0189      0.5015     62.7932      9.6867
  1618.5000      7.8056      2.6535      0.0641     -0.2134     64.0771      9.8635
  1618.6000      7.8056      2.6643      0.0372     -0.8673     67.3949      9.7317
  1618.7000      7.8056      2.6687      0.0464     -1.1318     70.2363      9.1803
  1618.8000      7.8052      2.6595      0.0474     -0.5772     71.7797      8.7979
  1618.9000      7.8052      2.6363      0.0447      0.8311     75.9587      9.2705
  1619.0000      7.8045      2.6117      0.0306      2.3225     79.8795     10.5956
  1619.1000      7.8045      2.6019      0.0064      2.9130     77.2644     11.7680
  1619.2000      7.8045      2.6099      0.0200      2.4276     70.9058     11.8974
  1619.3000      7.8043      2.6192      0.0487      1.8688     67.7411     11.7864
  1619.4000      7.8043      2.6112      0.0294      2.3506     66.9773     12.3847
  1619.5000      7.8030      2.5881      0.0409      3.7503     64.4784     13.4515
  1619.6000      7.8030      2.5694      0.0111      4.8850     61.6534     14.3326
  1619.7000      7.8030      2.5665      0.0312      5.0631     60.1328     14.4908
  1619.8000      7.8038      2.5692      0.0440      4.8948     58.5000     14.2749
  1619.9000      7.8038      2.5628      0.0935      5.2859     56.6254     14.5456
  1620.0000      7.8035      2.5480      0.0500      6.1789     58.4860     15.0666
  1620.1000      7.8035      2.5416      0.0220      6.5698     63.7593     15.2457
  1620.2000      7.8035      2.5546      0.0122      5.7827     66.7106     15.4328
  1620.3000      7.8054      2.5755      0.0415      4.5154     66.2909     16.2543
  1620.4000      7.8054      2.5827      0.0732      4.0765     66.0383     17.2926
  1620.5000      7.8048      2.5767      0.0303      4.4404     67.9416     17.5662
  1620.6000      7.8048      2.5731      0.0440      4.6624     70.4775     17.3083
  1620.7000      7.8048      2.5706      0.0623      4.8094     72.8566     17.4445
  1620.8000      7.8061      2.5666      0.0016      5.0532     74.9723     17.5244
  1620.9000      7.8061      2.5728      0.0143      4.6768     75.5306     16.8522
  1621.0000      7.8064      2.5884      0.0341      3.7341     75.0376     16.0926
  1621.1000      7.8064      2.5927      0.0831      3.4744     74.3278     16.1170
  1621.2000      7.8064      2.5751      0.0278      4.5389     73.7888     16.7209
  1621.3000      7.8076      2.5498      0.0066      6.0713     74.7100     17.0353
  1621.4000      7.8076      2.5359      0.0166      6.9137     77.7663     16.8962
  1621.5000      7.8084      2.5393      0.0102      6.7089     79.8079     16.8031
  1621.6000      7.8084      2.5537      0.0323      5.8379     77.1042     16.7720
  1621.7000      7.8084      2.5690      0.0280      4.9094     73.0431     16.2929
  1621.8000      7.8076      2.5772      0.0536      4.4112     73.8048     15.4535
  1621.9000      7.8076      2.5743      0.0312      4.5893     75.6349     14.8096
  1622.0000      7.8063      2.5649      0.0603      5.1573     72.4027     14.9046
  1622.1000      7.8063      2.5563      0.0316      5.6801     67.9685     15.9724
  1622.2000      7.8063      2.5543      0.0281      5.7988     66.0669     17.1540
  1622.3000      7.8065      2.5676     -0.0145      4.9918     64.7031     17.6040
  1622.4000      7.8065      2.5890      0.0878      3.6985     64.0287     17.6604
  1622.5000      7.8136      2.5917      0.0617      3.5325     64.3155     17.7561
  1622.6000      7.8136      2.5728      0.0239      4.6770     65.8442     17.3743
  1622.7000      7.8136      2.5528      0.0248      5.8919     67.6400     16.4009
  1622.8000      7.8092      2.5499      0.0312      6.0669     66.9965     15.7351
  1622.9000      7.8092      2.5722      0.0332      4.7146     65.7435     15.6088
  1623.0000      7.8077      2.5991      0.0890      3.0859     67.1689     15.5991
  1623.1000      7.8077      2.6002      0.0634      3.0160     70.8275     15.7217
  1623.2000      7.8077      2.5819      0.0197      4.1254     74.8058     16.1906
  1623.3000      7.8075      2.5683      0.0408      4.9517     79.2302     16.7484
  1623.4000      7.8075      2.5602      0.0799      5.4418     83.7745     17.2136
  1623.5000      7.8070      2.5496      0.0378      6.0853     84.3548     18.1212
  1623.6000      7.8070      2.5408      0.0308      6.6175     80.4758     19.3078
  1623.7000      7.8070      2.5376      0.0533      6.8149     76.7242     19.2572
  1623.8000      7.8081      2.5404     -0.0008      6.6415     76.0340     18.0564
  1623.9000      7.8081      2.5518      0.0177      5.9503     78.8128     17.5433
  1624.0000      7.8091      2.5609      0.0558      5.4015     82.8784     18.0734
  1624.1000      7.8091      2.5595      0.0261      5.4873     82.6718     18.5415
  1624.2000      7.8091      2.5616      0.0008      5.3558     77.0809     18.0063
  1624.3000      7.8072      2.5718      0.0504      4.7421     74.5471     16.9000
  1624.4000      7.8072      2.5734      0.0616      4.6407     79.1427     16.2619
  1624.5000      7.8054      2.5639      0.0235      5.2209     83.9327     15.9120
  1624.6000      7.8054      2.5562      0.0348      5.6832     84.8881     15.7322
  1624.7000      7.8054      2.5571      0.0478      5.6321     85.1216     16.3593
  1624.8000      7.8076      2.5663      0.0224      5.0738     84.8764     17.1965
  1624.9000      7.8076      2.5787      0.0403      4.3207     81.0029     16.9758
  1625.0000      7.8100      2.5838      0.0626      4.0136     76.6002     16.1480
  1625.1000      7.8100      2.5765      0.0611      4.4546     77.7793     15.8167
  1625.2000      7.8100      2.5610      0.0451      5.3920     82.6815     16.2515
  1625.3000      7.8127      2.5495      0.0173      6.0935     85.3131     17.1291
  1625.4000      7.8127      2.5509      0.0314      6.0056     84.9923     18.0119
  1625.5000      7.8153      2.5532      0.0566      5.8683     84.3275     18.6747
  1625.6000      7.8153      2.5425      0.0246      6.5180     83.2164     19.1854
  1625.7000      7.8153      2.5318      0.0134      7.1622     81.8012     19.3193
  1625.8000      7.8143      2.5323      0.0502      7.1332     83.6032     19.1792
  1625.9000      7.8143      2.5351      0.0103      6.9651     87.9164     19.4599
  1626.0000      7.8146      2.5373      0.0256      6.8301     89.0622     19.5997
  1626.1000      7.8146      2.5430      0.0193      6.4877     84.8154     18.9201
  1626.2000      7.8146      2.5503      0.0145      6.0412     77.8270     18.1901
  1626.3000      7.8153      2.5500      0.0667      6.0609     72.1234     17.7659
  1626.4000      7.8153      2.5319      0.0588      7.1548     69.4566     17.1617
  1626.5000      7.8123      2.5072     -0.0178      8.6561     68.7545     16.4846
  1626.6000      7.8123      2.4952      0.0031      9.3816     69.2267     15.9491
  1626.7000      7.8123      2.4958      0.0027      9.3425     70.4704     15.5055
  1626.8000      7.8130      2.5021     -0.0029      8.9619     71.4864     15.4301
  1626.9000      7.8130      2.5089      0.0261      8.5494     72.9269     15.4363
