~Version Information
VERS.                      2.0: CWLS Log ASCII Standard - VERSION 2.0
WRAP.                       NO: One line per depth step
~Well Information Block
STRT.FT                -2.7500: 
STOP.FT              2141.2500: 
STEP.FT                 0.2500: 
NULL.                -999.2500: 
COMP.          Pioneer Nautural Resources: COMPANY
WELL.             Enzo 43-8 Tr: WELL
FLD.           Purgatorie River: FIELD
LOC.           2303' FSL & 604' FEL--: LOCATION
PROV.                       CO: PROVINCE
CNTY.               Las Animas: COUNTRY
SRVC.                         : SERVICE COMPANY
DATE.          Thu Nov 04 09:01:55 2004: LOG DATE
UWI.            05-071-08213  : UNIQUE WELL ID
~Curve Information Block
DEPT.FT            0 000 00 00: Depth
GR.GAPI                       : Gamma Ray
CCL.                          : Casing Collar Locator
TT3.usec                      : CBL 3' Travel Time
AMP3.mV                       : CBL 3' Amplitude
~Parameter Information Block
~A  Depth        GR         CCL         TT3         AMP3    
# ...
  1672.2500    136.1308      0.0000    762.5200      6.7298
  1672.5000    135.0981      0.0000    757.2446      6.8647
  1672.7500    134.4576      0.0000    751.8516      6.9657
  1673.0000    135.1520      0.0000    746.9225      7.0432
  1673.2500    136.6675      0.0000    743.1367      7.1131
  1673.5000    136.9492      0.0000    741.3840      7.1858
  1673.7500    134.1963      0.0000    742.0037      7.2606
  1674.0000    128.7983      0.0000    744.1978      7.3271
  1674.2500    123.1540      0.0000    746.6036      7.3719
  1674.5000    119.7216      0.0000    748.3212      7.3870
  1674.7500    119.4583      0.0000    749.2300      7.3767
  1675.0000    121.7446      0.0000    749.6234      7.3581
  1675.2500    125.1714      0.0000    749.7992      7.3525
  1675.5000    128.3724      0.0000    749.9088      7.3737
  1675.7500    130.5761      0.0000    749.9780      7.4219
  1676.0000    131.7225      0.0000    749.9767      7.4836
  1676.2500    132.0760      0.0000    749.8845      7.5347
  1676.5000    131.7243      0.0000    749.7239      7.5499
  1676.7500    130.6039      0.0000    749.5658      7.5163
  1677.0000    128.9203      0.0000    749.4974      7.4423
  1677.2500    127.3201      0.0000    749.5765      7.3501
  1677.5000    126.5917      0.0000    749.7997      7.2602
  1677.7500    127.2137      0.0000    750.1014      7.1839
  1678.0000    129.1797      0.0000    750.3515      7.1231
  1678.2500    132.2007      0.0000    750.2905      7.0734
  1678.5000    135.8160      0.0000    749.4023      7.0263
  1678.7500    139.2079      0.0000    746.9602      6.9706
  1679.0000    141.3209      0.0000    742.6172      6.8992
  1679.2500    141.5547      0.0000    737.3425      6.8173
  1679.5000    140.3091      0.0000    733.5096      6.7421
  1679.7500    138.8697      0.0000    733.3097      6.6929
  1680.0000    138.9449      0.0000    736.8234      6.6775
  1680.2500    141.7917      0.0000    742.0015      6.6884
  1680.5000    146.7236      0.0000    746.5417      6.7129
  1680.7500    150.5416      0.0000    749.3226      6.7442
  1681.0000    149.8030      0.0000    750.1089      6.7818
  1681.2500    144.2854      0.0000    748.5019      6.8212
  1681.5000    137.5515      0.0000    743.7699      6.8503
  1681.7500    133.6598      0.0000    735.9337      6.8564
  1682.0000    133.7678      0.0000    726.2612      6.8358
  1682.2500    136.2491      0.0000    715.1613      6.7971
  1682.5000    139.1978      0.0000    699.9946      6.7559
  1682.7500    141.7090      0.0000    678.1496      6.7237
  1683.0000    143.2444      0.0000    653.5868      6.7057
  1683.2500    143.4209      0.0000    637.2117      6.7071
  1683.5000    142.6664      0.0000    638.1490      6.7338
  1683.7500    141.8795      0.0000    655.1819      6.7778
  1684.0000    141.3198      0.0000    677.0305      6.8041
  1684.2500    140.9035      0.0000    690.6003      6.7557
  1684.5000    141.3544      0.0000    690.2288      6.5670
  1684.7500    143.6823      0.0000    681.0328      6.1802
  1685.0000    147.5430      0.0000    674.1761      5.5810
  1685.2500    151.1025      0.0000    678.5177      4.8503
  1685.5000    152.4851      0.0000    695.8578      4.1627
  1685.7500    150.8471      0.0000    721.9758      3.6928
  1686.0000    146.3607      0.0000    749.9913      3.5163
  1686.2500    139.5806      0.0000    773.0367      3.6125
  1686.5000    130.8816      0.0000    786.8679      3.9242
  1686.7500    120.8214      0.0000    792.3588      4.3703
  1687.0000    111.1602     -2.0000    794.6431      4.8253
  1687.2500    104.6771      2.0000    798.1133      5.1535
  1687.5000    103.2251      0.0000    803.2037      5.2931
  1687.7500    106.3265      0.0000    808.9405      5.3109
  1688.0000    111.9306      0.0000    815.7571      5.3769
  1688.2500    118.0305      0.0000    822.9268      5.6433
  1688.5000    123.5152      0.0000    825.1530      6.1005
  1688.7500    128.2767      0.0000    815.6934      6.5692
  1689.0000    132.9124      0.0000    793.4168      6.8843
  1689.2500    137.7857      0.0000    764.6676      7.0599
  1689.5000    141.9787      0.0000    737.8195      7.2287
  1689.7500    143.6422      0.0000    717.2452      7.4617
  1690.0000    141.8986      0.0000    702.5591      7.7084
  1690.2500    138.0893      0.0000    692.1600      7.8858
  1690.5000    134.6631      0.0000    686.4191      7.9691
  1690.7500    132.9460      0.0000    687.3799      7.9952
  1691.0000    132.3176      0.0000    696.0422      8.0183
  1691.2500    131.3741      0.0000    710.3736      8.0751
  1691.5000    129.4372      0.0000    725.9883      8.1741
  1691.7500    126.8178      0.0000    738.7364      8.3050
  1692.0000    124.0456      0.0000    746.8052      8.4538
  1692.2500    121.3779      0.0000    750.7704      8.6040
  1692.5000    119.0899      0.0000    752.2309      8.7221
  1692.7500    117.7562      0.0000    752.5778      8.7624
  1693.0000    117.9396      0.0000    752.5936      8.6964
  1693.2500    119.7037      0.0000    752.5629      8.5356
  1693.5000    122.5020      0.0000    752.5038      8.3177
  1693.7500    125.3776      0.0000    752.3608      8.0785
  1694.0000    127.3015      0.0000    752.1138      7.8384
  1694.2500    127.5962      0.0000    751.8010      7.6043
  1694.5000    126.1886      0.0000    751.5228      7.3767
  1694.7500    123.5144      0.0000    751.4868      7.1613
  1695.0000    120.3968      0.0000    752.0350      6.9764
  1695.2500    117.9286      0.0000    753.4080      6.8368
  1695.5000    116.9502      0.0000    755.1464      6.7317
  1695.7500    117.3663      0.0000    755.8223      6.6308
  1696.0000    118.1615      0.0000    754.2552      6.5185
  1696.2500    118.0020      0.0000    751.6648      6.4149
  1696.5000    115.7607      0.0000    751.5988      6.3583
  1696.7500    111.0450      0.0000    755.9740      6.3696
  1697.0000    104.8195      0.0000    761.3224      6.4332
  1697.2500     99.2961      0.0000    760.7296      6.5108
  1697.5000     96.5521      0.0000    749.8348      6.5699
  1697.7500     96.8546      0.0000    729.4295      6.6011
  1698.0000     98.5447      0.0000    702.2545      6.6114
  1698.2500    100.0132      0.0000    670.0030      6.6076
  1698.5000    101.7800      0.0000    635.1643      6.5905
  1698.7500    106.0450      0.0000    603.9482      6.5654
  1699.0000    113.9675      0.0000    584.4005      6.5499
  1699.2500    123.9205      0.0000    580.7535      6.5628
  1699.5000    132.8631      0.0000    590.7239      6.5992
  1699.7500    139.0663      0.0000    609.0131      6.6206
  1700.0000    143.1075      0.0000    632.4190      6.5782
  1700.2500    146.4982      0.0000    660.0971      6.4547
  1700.5000    149.9064      0.0000    689.7053      6.2831
  1700.7500    152.4864      0.0000    716.1960      6.1177
  1701.0000    152.1760      0.0000    735.3544      5.9847
  1701.2500    146.6774      0.0000    746.9421      5.8719
  1701.5000    135.2852      0.0000    753.7592      5.7634
  1701.7500    120.3162      0.0000    758.7012      5.6707
  1702.0000    106.0144      0.0000    763.0169      5.6289
  1702.2500     95.5288      0.0000    766.4400      5.6694
  1702.5000     89.1870      0.0000    768.3264      5.7942
  1702.7500     85.4305      0.0000    768.6740      5.9662
  1703.0000     82.7577      0.0000    768.1875      6.1193
  1703.2500     80.8973      0.0000    767.5389      6.1889
  1703.5000     80.7421      0.0000    767.0132      6.1479
  1703.7500     83.3618      0.0000    767.1550      6.0208
  1704.0000     88.9250      0.0000    769.1389      5.8655
  1704.2500     96.5008      0.0000    773.5070      5.7432
  1704.5000    104.8635      0.0000    778.4371      5.7051
  1704.7500    113.1691      0.0000    779.9272      5.7909
  1705.0000    120.7091      0.0000    774.1385      6.0164
  1705.2500    126.4330      0.0000    760.0013      6.3473
  1705.5000    129.2828      0.0000    740.1124      6.6932
