~Version Information
VERS.                      2.0: CWLS Log ASCII Standard - VERSION 2.0
WRAP.                       NO: One line per depth step
~Well Information Block
STRT.FT                -7.6500: 
STOP.FT              3097.2500: 
STEP.FT                 0.0500: 
NULL.                -999.2500: 
COMP.          Pioneer Natural Resources: COMPANY
WELL.            Paradise 13-8: WELL
FLD.           Purgatoire River: FIELD
LOC.           1896' FSL & 1120' FWL--: LOCATION
PROV.                 Colorado: PROVINCE
CNTY.               Las Animas: COUNTRY
SRVC.                Patterson: SERVICE COMPANY
DATE.          Fri Feb 04 16:52:25 2005: LOG DATE
UWI.           05 071 07946 00: UNIQUE WELL ID
~Curve Information Block
DEPT.FT            0 000 00 00: Depth
CCL.                          : Casing Collar Locator
TT3.usec                      : CBL 3' Travel Time
AMP3.mV                       : CBL 3' Amplitude
GR.GAPI                       : Gamma Ray
~Parameter Information Block
~A  Depth       CCL         TT3         AMP3         GR     
# ...
  2055.9500      0.0000    535.7696      2.0965     96.9062
  2056.0000      0.0000    554.5248      2.0451     92.7598
  2056.0500      0.0000    554.5248      2.0451     92.7598
  2056.1000      0.0000    554.5248      2.0451     92.7598
  2056.1500      0.0000    554.5248      2.0451     92.7598
  2056.2000      0.0000    554.5248      2.0451     92.7598
  2056.2500      0.0000    577.7518      1.9946     91.6416
  2056.3000      0.0000    577.7518      1.9946     91.6416
  2056.3500      0.0000    577.7518      1.9946     91.6416
  2056.4000      0.0000    577.7518      1.9946     91.6416
  2056.4500      0.0000    577.7518      1.9946     91.6416
  2056.5000      0.0000    604.5701      1.9496     93.8060
  2056.5500      0.0000    604.5701      1.9496     93.8060
  2056.6000      0.0000    604.5701      1.9496     93.8060
  2056.6500      0.0000    604.5701      1.9496     93.8060
  2056.7000      0.0000    604.5701      1.9496     93.8060
  2056.7500      0.0000    632.1069      1.9201     97.8246
  2056.8000      0.0000    632.1069      1.9201     97.8246
  2056.8500      0.0000    632.1069      1.9201     97.8246
  2056.9000      0.0000    632.1069      1.9201     97.8246
  2056.9500      0.0000    632.1069      1.9201     97.8246
  2057.0000      0.0000    657.9374      1.9144    101.4061
  2057.0500      0.0000    657.9374      1.9144    101.4061
  2057.1000      0.0000    657.9374      1.9144    101.4061
  2057.1500      0.0000    657.9374      1.9144    101.4061
  2057.2000      0.0000    657.9374      1.9144    101.4061
  2057.2500      0.0000    682.9540      1.9249    103.0230
  2057.3000      0.0000    682.9540      1.9249    103.0230
  2057.3500      0.0000    682.9540      1.9249    103.0230
  2057.4000      0.0000    682.9540      1.9249    103.0230
  2057.4500      0.0000    682.9540      1.9249    103.0230
  2057.5000      0.0000    710.6885      1.9279    102.6327
  2057.5500      0.0000    710.6885      1.9279    102.6327
  2057.6000      0.0000    710.6885      1.9279    102.6327
  2057.6500      0.0000    710.6885      1.9279    102.6327
  2057.7000      0.0000    710.6885      1.9279    102.6327
  2057.7500      0.0000    742.4409      1.9045    101.1552
  2057.8000      0.0000    742.4409      1.9045    101.1552
  2057.8500      0.0000    742.4409      1.9045    101.1552
  2057.9000      0.0000    742.4409      1.9045    101.1552
  2057.9500      0.0000    742.4409      1.9045    101.1552
  2058.0000      0.0000    773.0022      1.8610     99.7979
  2058.0500      0.0000    773.0022      1.8610     99.7979
  2058.1000      0.0000    773.0022      1.8610     99.7979
  2058.1500      0.0000    773.0022      1.8610     99.7979
  2058.2000      0.0000    773.0022      1.8610     99.7979
  2058.2500      0.0000    792.2678      1.8246     99.6580
  2058.3000      0.0000    792.2678      1.8246     99.6580
  2058.3500      0.0000    792.2678      1.8246     99.6580
  2058.4000      0.0000    792.2678      1.8246     99.6580
  2058.4500      0.0000    792.2678      1.8246     99.6580
  2058.5000      0.0000    792.1210      1.8148    101.3030
  2058.5500      0.0000    792.1210      1.8148    101.3030
  2058.6000      0.0000    792.1210      1.8148    101.3030
  2058.6500      0.0000    792.1210      1.8148    101.3030
  2058.7000      0.0000    792.1210      1.8148    101.3030
  2058.7500      0.0000    772.6257      1.8240    104.5487
  2058.8000      0.0000    772.6257      1.8240    104.5487
  2058.8500      0.0000    772.6257      1.8240    104.5487
  2058.9000      0.0000    772.6257      1.8240    104.5487
  2058.9500      0.0000    772.6257      1.8240    104.5487
  2059.0000      0.0000    742.3724      1.8267    108.4344
  2059.0500      0.0000    742.3724      1.8267    108.4344
  2059.1000      0.0000    742.3724      1.8267    108.4344
  2059.1500      0.0000    742.3724      1.8267    108.4344
  2059.2000      0.0000    742.3724      1.8267    108.4344
  2059.2500      0.0000    712.8939      1.8050    111.2280
  2059.3000      0.0000    712.8939      1.8050    111.2280
  2059.3500      0.0000    712.8939      1.8050    111.2280
  2059.4000      0.0000    712.8939      1.8050    111.2280
  2059.4500      0.0000    712.8939      1.8050    111.2280
  2059.5000      0.0000    691.8773      1.7636    111.2166
  2059.5500      0.0000    691.8773      1.7636    111.2166
  2059.6000      0.0000    691.8773      1.7636    111.2166
  2059.6500      0.0000    691.8773      1.7636    111.2166
  2059.7000      0.0000    691.8773      1.7636    111.2166
  2059.7500      0.0000    680.5455      1.7228    108.3746
  2059.8000      0.0000    680.5455      1.7228    108.3746
  2059.8500      0.0000    680.5455      1.7228    108.3746
  2059.9000      0.0000    680.5455      1.7228    108.3746
  2059.9500      0.0000    680.5455      1.7228    108.3746
  2060.0000      0.0000    675.9769      1.7007    104.7174
  2060.0500      0.0000    675.9769      1.7007    104.7174
  2060.1000      0.0000    675.9769      1.7007    104.7174
  2060.1500      0.0000    675.9769      1.7007    104.7174
  2060.2000      0.0000    675.9769      1.7007    104.7174
  2060.2500      0.0000    674.7357      1.7029    102.0933
  2060.3000      0.0000    674.7357      1.7029    102.0933
  2060.3500      0.0000    674.7357      1.7029    102.0933
  2060.4000      0.0000    674.7357      1.7029    102.0933
  2060.4500      0.0000    674.7357      1.7029    102.0933
  2060.5000      0.0000    674.7056      1.7245    100.1818
  2060.5500      0.0000    674.7056      1.7245    100.1818
  2060.6000      0.0000    674.7056      1.7245    100.1818
  2060.6500      0.0000    674.7056      1.7245    100.1818
  2060.7000      0.0000    674.7056      1.7245    100.1818
  2060.7500      0.0000    675.0187      1.7577     97.5622
  2060.8000      0.0000    675.0187      1.7577     97.5622
  2060.8500      0.0000    675.0187      1.7577     97.5622
  2060.9000      0.0000    675.0187      1.7577     97.5622
  2060.9500      0.0000    675.0187      1.7577     97.5622
  2061.0000      0.0000    675.3808      1.7938     94.1399
  2061.0500      0.0000    675.3808      1.7938     94.1399
  2061.1000      0.0000    675.3808      1.7938     94.1399
  2061.1500      0.0000    675.3808      1.7938     94.1399
  2061.2000      0.0000    675.3808      1.7938     94.1399
  2061.2500      0.0000    675.5781      1.8237     91.6134
  2061.3000      0.0000    675.5781      1.8237     91.6134
  2061.3500      0.0000    675.5781      1.8237     91.6134
  2061.4000      0.0000    675.5781      1.8237     91.6134
  2061.4500      0.0000    675.5781      1.8237     91.6134
  2061.5000      0.0000    675.2598      1.8439     92.0727
  2061.5500      0.0000    675.2598      1.8439     92.0727
  2061.6000      0.0000    675.2598      1.8439     92.0727
  2061.6500      0.0000    675.2598      1.8439     92.0727
  2061.7000      0.0000    675.2598      1.8439     92.0727
  2061.7500      0.0000    673.9279      1.8682     96.8096
  2061.8000      0.0000    673.9279      1.8682     96.8096
  2061.8500      0.0000    673.9279      1.8682     96.8096
  2061.9000      0.0000    673.9279      1.8682     96.8096
  2061.9500      0.0000    673.9279      1.8682     96.8096
  2062.0000      0.0000    671.1490      1.9301    105.6201
  2062.0500      0.0000    671.1490      1.9301    105.6201
  2062.1000      0.0000    671.1490      1.9301    105.6201
  2062.1500      0.0000    671.1490      1.9301    105.6201
  2062.2000      0.0000    671.1490      1.9301    105.6201
  2062.2500      0.0000    666.9915      2.0696    115.9697
  2062.3000      0.0000    666.9915      2.0696    115.9697
  2062.3500      0.0000    666.9915      2.0696    115.9697
  2062.4000      0.0000    666.9915      2.0696    115.9697
  2062.4500      0.0000    666.9915      2.0696    115.9697
  2062.5000      0.0000    662.2740      2.3065    123.2282
  2062.5500      0.0000    662.2740      2.3065    123.2282
  2062.6000      0.0000    662.2740      2.3065    123.2282
