~Version Information
VERS.                      2.0: CWLS Log ASCII Standard - VERSION 2.0
WRAP.                       NO: One line per depth step
~Well Information Block
STRT.FT               -12.2500: 
STOP.FT              1948.2500: 
STEP.FT                 0.2500: 
NULL.                -999.2500: 
COMP.          Petrogulf Corporation: COMPANY
WELL.            Torcom 17-33R: WELL
FLD.           Purgatorie River: FIELD
LOC.           1483' FSL & 1804' FEL--: LOCATION
PROV.                       CO: PROVINCE
CNTY.               Las Animas: COUNTRY
SRVC.          Patterson Wireline: SERVICE COMPANY
DATE.          Fri Sep 30 10:11:43 2005: LOG DATE
UWI.           05 071 08096 00: UNIQUE WELL ID
~Curve Information Block
DEPT.FT            0 000 00 00: Depth
CCL.                          : Casing Collar Locator
TT3.usec                      : CBL 3' Travel Time
AMP3.mV                       : CBL 3' Amplitude
GR.GAPI                       : Gamma Ray
~Parameter Information Block
~A  Depth       CCL         TT3         AMP3         GR     
# ...
  1796.7500      0.0000    673.8203      4.0921    107.6071
  1797.0000      0.0000    698.0519      3.9529    103.6094
  1797.2500      0.0000    724.7502      3.7958    103.4561
  1797.5000      0.0000    746.8602      3.6401    109.2889
  1797.7500      0.0000    755.6744      3.5131    120.3508
  1798.0000      0.0000    748.0582      3.4481    133.1057
  1798.2500      0.0000    730.9716      3.4817    143.5573
  1798.5000      0.0000    715.5994      3.6414    149.5723
  1798.7500      0.0000    707.1533      3.9224    151.2802
  1799.0000      0.0000    702.1862      4.2750    149.8828
  1799.2500      0.0000    695.0765      4.6278    146.6163
  1799.5000      0.0000    684.5431      4.9297    142.7714
  1799.7500      0.0000    673.2684      5.1632    140.0938
  1800.0000      0.0000    663.6509      5.3153    140.5099
  1800.2500      0.0000    656.1952      5.3547    145.0362
  1800.5000      0.0000    651.2711      5.2508    152.7718
  1800.7500      0.0000    650.2828      5.0067    160.9764
  1801.0000      0.0000    653.8791      4.6612    166.5438
  1801.2500      0.0000    659.6715      4.2613    167.8411
  1801.5000      0.0000    663.1245      3.8431    165.2166
  1801.7500      0.0000    661.2001      3.4372    159.8398
  1802.0000      0.0000    654.6951      3.0785    152.4935
  1802.2500      0.0000    646.8802      2.7993    143.6733
  1802.5000      0.0000    640.5339      2.6111    134.3983
  1802.7500      0.0000    636.4743      2.4999    126.3936
  1803.0000      0.0000    634.1409      2.4419    121.3202
  1803.2500      0.0000    632.7255      2.4207    119.8709
  1803.5000      0.0000    631.7277      2.4304    121.5396
  1803.7500      0.0000    630.9391      2.4694    124.9975
  1804.0000      0.0000    630.2617      2.5361    128.5688
  1804.2500      0.0000    629.5477      2.6287    130.6589
  1804.5000      0.0000    628.5247      2.7450    130.2524
  1804.7500      0.0000    626.8956      2.8789    127.1253
  1805.0000      0.0000    624.5390      3.0171    121.5147
  1805.2500      0.0000    621.5822      3.1413    113.7628
  1805.5000      0.0000    618.3391      3.2432    104.4602
  1805.7500      0.0000    615.4740      3.3400     94.6947
  1806.0000      0.0000    614.2439      3.4687     85.8516
  1806.2500      0.0000    616.2668      3.6570     79.0700
  1806.5000      0.0000    622.7104      3.8982     74.7603
  1806.7500      0.0000    633.7294      4.1517     72.4743
  1807.0000      0.0000    648.6146      4.3590     71.1842
  1807.2500      0.0000    665.9700      4.4701     69.7223
  1807.5000      0.0000    683.2370      4.4799     67.1564
  1807.7500      0.0000    696.8262      4.4411     63.3328
  1808.0000      0.0000    704.2654      4.4198     59.2544
  1808.2500      0.0000    706.2365      4.4386     56.3724
  1808.5000     -2.0000    705.3242      4.4685     55.1867
  1808.7500      0.0000    703.0162      4.4611     54.9095
  1809.0000      0.0000    698.9202      4.3817     54.5861
  1809.2500      0.0000    692.3820      4.2303     54.1031
  1809.5000      0.0000    684.0120      4.0465     54.1955
  1809.7500      0.0000    675.9719      3.8867     56.0108
  1810.0000      0.0000    670.8561      3.7825     60.5120
  1810.2500      0.0000    669.5796      3.7207     67.7084
  1810.5000      0.0000    670.3878      3.6647     76.6621
  1810.7500      0.0000    670.7482      3.5879     86.6255
  1811.0000      0.0000    669.9470      3.4846     97.7581
  1811.2500      0.0000    669.3401      3.3610    110.2852
  1811.5000      0.0000    670.4111      3.2284    123.4202
  1811.7500      0.0000    672.8378      3.1008    135.6645
  1812.0000      0.0000    674.0622      2.9922    145.8497
  1812.2500      0.0000    671.0358      2.9096    153.3646
  1812.5000      0.0000    663.1381      2.8504    157.5215
  1812.7500      0.0000    653.1769      2.8058    157.3182
  1813.0000      0.0000    645.0135      2.7708    152.2121
  1813.2500      0.0000    640.6010      2.7485    143.0497
  1813.5000      0.0000    639.4713      2.7459    131.9194
  1813.7500      0.0000    640.1393      2.7641    121.0147
  1814.0000      0.0000    641.3476      2.7945    111.7842
  1814.2500      0.0000    642.4631      2.8284    104.9380
  1814.5000      0.0000    643.4976      2.8723    100.5826
  1814.7500      0.0000    645.0751      2.9495     98.0481
  1815.0000      0.0000    648.1612      3.0841     96.0473
  1815.2500      0.0000    653.3032      3.2816     93.6104
  1815.5000      0.0000    659.6686      3.5257     91.1029
  1815.7500      0.0000    665.1334      3.7928     90.0961
  1816.0000      0.0000    668.2571      4.0676     91.9504
  1816.2500      0.0000    670.6101      4.3486     96.5485
  1816.5000      0.0000    676.4849      4.6401    102.5099
  1816.7500      0.0000    689.2629      4.9436    108.3297
  1817.0000      0.0000    707.5524      5.2591    113.0185
  1817.2500      0.0000    725.0861      5.5897    116.1666
  1817.5000      0.0000    734.9921      5.9383    118.2577
  1817.7500      0.0000    734.6113      6.2938    120.8368
  1818.0000      0.0000    726.5055      6.6214    125.5934
  1818.2500      0.0000    715.4493      6.8676    132.9743
  1818.5000      0.0000    704.8932      6.9812    141.8201
  1818.7500      0.0000    695.8875      6.9418    150.2530
  1819.0000      0.0000    688.3710      6.7768    156.7079
  1819.2500      0.0000    682.5895      6.5505    160.2916
  1819.5000      0.0000    679.0557      6.3270    160.7447
  1819.7500      0.0000    677.9693      6.1374    158.5548
  1820.0000      0.0000    679.5223      5.9763    154.9870
  1820.2500      0.0000    684.1684      5.8262    151.5935
  1820.5000      0.0000    691.4327      5.6826    149.5069
  1820.7500      0.0000    698.7496      5.5583    149.1151
  1821.0000      0.0000    702.7247      5.4746    150.1650
  1821.2500      0.0000    701.8449      5.4541    151.9820
  1821.5000      0.0000    697.5011      5.5171    153.6915
  1821.7500      0.0000    692.3622      5.6712    154.5537
  1822.0000      0.0000    688.0638      5.8971    154.5233
  1822.2500      0.0000    684.5118      6.1501    154.3615
  1822.5000      0.0000    681.1058      6.3833    154.7073
  1822.7500      0.0000    678.0067      6.5724    155.1467
  1823.0000      0.0000    675.8847      6.7177    154.5545
  1823.2500      0.0000    675.0016      6.8249    151.9913
  1823.5000      0.0000    675.1553      6.8887    147.0874
  1823.7500      0.0000    676.4913      6.8952    140.0488
  1824.0000      0.0000    679.9605      6.8374    131.5489
  1824.2500      0.0000    686.6171      6.7278    122.3257
  1824.5000      0.0000    696.2720      6.5953    112.5904
  1824.7500      0.0000    707.0828      6.4717    101.8751
  1825.0000      0.0000    716.7095      6.3775     89.8035
  1825.2500      0.0000    723.4800      6.3143     77.2303
  1825.5000      0.0000    726.2438      6.2669     66.3334
  1825.7500      0.0000    724.1525      6.2134     59.1671
  1826.0000      0.0000    717.6078      6.1386     56.2673
  1826.2500      0.0000    709.0226      6.0421     56.9009
  1826.5000      0.0000    701.6309      5.9266     60.4444
  1826.7500      0.0000    697.0812      5.7766     67.1922
  1827.0000      0.0000    694.2808      5.5634     77.9009
  1827.2500      0.0000    690.8361      5.2821     92.7963
  1827.5000      0.0000    685.6118      4.9703    110.9015
  1827.7500      0.0000    679.8010      4.6745    129.7811
  1828.0000      0.0000    675.7634      4.4071    145.9289
  1828.2500      0.0000    675.0974      4.1505    156.3443
  1828.5000      0.0000    677.4601      3.8954    160.3678
  1828.7500      0.0000    680.6490      3.6573    159.6602
  1829.0000      0.0000    681.7936      3.4582    156.3734
  1829.2500      0.0000    679.1198      3.3047    152.0044
  1829.5000      0.0000    673.2457      3.1868    147.8521
  1829.7500      0.0000    666.9547      3.0870    145.2228
  1830.0000      0.0000    663.3585      2.9926    144.3981
