~Version Information
 VERS.                                  2.0 : CWLS LAS VERSION
 WRAP.                                   NO : WRAPING MODE
 SWARE .                 MController 2.5.0J : SOFTWARE VERSION
~Well Information
 WELL.                        Montoya 1-24V : WELL
 COMP.                       Petrogulf Corp : COMPANY
 FLD.                      Purgatoire River : FIELD
 LOC.                 SE/SW Sec 1 T33S R68W : LOCATION
 DATE.                          10/19-20/04 : DATE(S) LOGGED
 SRVC.       Blanco Geological Services LLC : SERVICE COMPANY
 STAT.                                   CO : STATE
 CNTY.                           Las Animas : COUNTY
 CTRY.                                  USA : COUNTRY
 API.                       05-071-08194-00 : API NUMBER
 STRT.FT                             116.00 : START DEPTH
 STOP.FT                            2700.00 : STOP DEPTH
 STEP.FT                               1.00 : DEPTH INCREMENT
 NULL.                                -9999 : NULL VALUE
~Curve information
 DEPTH.FT                                   :
 ROP.MIN/FT                                 :
 GAS.UNITS                                  :
~ASCII Log data
# ...
      1116.0         0.17          4.7 
      1117.0         0.20          4.7 
      1118.0         0.17          4.6 
      1119.0         0.13          4.8 
      1120.0         0.17          4.3 
      1121.0         0.20          4.3 
      1122.0         0.22          4.5 
      1123.0         0.17          4.2 
      1124.0         0.20          4.9 
      1125.0         0.20          4.9 
      1126.0         0.13          4.9 
      1127.0         0.17         15.0 
      1128.0         0.23         36.0 
      1129.0         0.20        171.0 
      1130.0         0.13        338.3 
      1131.0         0.17        421.4 
      1132.0         0.17        459.5 
      1133.0         0.27        290.1 
      1134.0         0.27        254.7 
      1135.0         0.37        150.2 
      1136.0         0.27         87.6 
      1137.0         0.10         54.0 
      1138.0         0.13         42.5 
      1139.0         0.10         27.8 
      1140.0         0.20         23.9 
      1141.0         0.27         12.8 
      1142.0         0.20          8.9 
      1143.0         0.27          7.7 
      1144.0         0.17          7.0 
      1145.0         0.43          6.6 
      1146.0         0.27          3.4 
      1147.0         0.30          2.7 
      1148.0         0.23          2.9 
      1149.0         0.28          2.8 
      1150.0         0.20          2.4 
      1151.0         0.23          2.0 
      1152.0         0.23          2.0 
      1153.0         0.17          2.2 
      1154.0         0.13       1651.7 
      1155.0         0.20       1379.5 
      1156.0         0.17       1325.6 
      1157.0         0.20        921.6 
      1158.0         0.23        745.4 
      1159.0         0.20        512.3 
      1160.0         0.17        440.0 
      1161.0         0.17         91.1 
      1162.0         0.20         84.1 
      1163.0         0.20         44.4 
      1164.0         0.17         25.0 
      1165.0         0.20         22.2 
      1166.0         0.10         20.8 
      1167.0         0.10         20.8 
      1168.0         0.20         20.6 
      1169.0         0.18         18.8 
      1170.0         0.10         18.8 
      1171.0         0.13         17.4 
      1172.0         0.23         15.7 
      1173.0         0.23         12.0 
      1174.0         0.17          8.8 
      1175.0         0.23          8.1 
      1176.0         0.23          6.0 
      1177.0         0.27          4.5 
      1178.0         0.23          3.6 
      1179.0         0.13          3.6 
      1180.0         0.13          3.6 
      1181.0         0.20       1975.2 
      1182.0         0.17       1975.2 
      1183.0         0.20       1961.7 
      1184.0         0.17       1753.5 
      1185.0         0.10       1729.5 
      1186.0         0.13       1537.8 
      1187.0         0.13       1251.5 
      1188.0         0.15       1135.6 
      1189.0         0.17        719.5 
      1190.0         0.13        635.2 
      1191.0         0.13        445.6 
      1192.0         0.13        440.0 
      1193.0         0.13         86.8 
      1194.0         0.27         66.1 
      1195.0         0.13         42.0 
      1196.0         0.30         35.5 
      1197.0         0.32         12.6 
      1198.0         0.43          7.6 
      1199.0         0.40          3.6 
      1200.0         0.33          2.2 
      1201.0         0.27          2.4 
      1202.0         0.23          3.8 
      1203.0         0.20          4.6 
      1204.0         0.23          4.4 
      1205.0         0.20          4.3 
      1206.0         0.23          3.5 
      1207.0         0.20          3.0 
      1208.0         0.10          2.9 
      1209.0         0.10          2.9 
      1210.0         0.13          2.8 
      1211.0         0.18          2.7 
      1212.0         0.17          2.1 
      1213.0         0.17       1516.6 
      1214.0         0.17       1417.2 
      1215.0         0.10       1417.2 
      1216.0         0.20       1343.8 
      1217.0         0.20        979.2 
      1218.0         0.20        788.5 
      1219.0         0.17        468.1 
      1220.0         0.20        440.0 
      1221.0         0.20         77.2 
      1222.0         0.13         38.4 
      1223.0         0.13         38.4 
      1224.0         0.20         25.4 
      1225.0         0.33         24.0 
      1226.0         0.40         17.6 
      1227.0         0.40         12.3 
      1228.0         0.30          5.2 
      1229.0         0.10          2.5 
      1230.0         0.27          2.6 
      1231.0         0.28          2.1 
      1232.0         0.23          2.0 
      1233.0         0.23          1.4 
      1234.0         0.23          1.9 
      1235.0         0.20          1.5 
      1236.0         0.17          1.5 
      1237.0         0.20          1.7 
      1238.0         0.20          1.7 
      1239.0         0.17          1.3 
      1240.0         0.20          1.6 
      1241.0         0.17          1.7 
      1242.0         0.17          1.2 
      1243.0         0.17          1.4 
      1244.0         0.17       1710.7 
      1245.0         0.17       1710.7 
      1246.0         0.17       1710.7 
      1247.0         0.17       1570.9 
      1248.0         0.32        896.4 
      1249.0         0.23        859.3 
      1250.0         0.20        440.0 
      1251.0         0.20        440.0 
      1252.0         0.20         97.0 
      1253.0         0.17         54.1 
      1254.0         0.20         49.4 
      1255.0         0.30         25.7 
      1256.0         0.33         13.0 
      1257.0         0.40          7.6 
      1258.0         0.30          6.2 
      1259.0         0.27          3.6 
      1260.0         0.23          3.5 
      1261.0         0.27          2.3 
      1262.0         0.27          1.5 
      1263.0         0.23          1.1 
      1264.0         0.20          1.3 
      1265.0         0.23          2.2 
      1266.0         0.22          3.5 
      1267.0         0.27          4.1 
      1268.0         0.17          4.4 
      1269.0         0.17          4.0 
      1270.0         0.10          4.0 
      1271.0         0.13          4.0 
      1272.0         0.10          3.3 
      1273.0         0.10       1861.6 
      1274.0         0.10       1664.5 
      1275.0         0.13       1664.5 
      1276.0         0.17       1519.3 
      1277.0         0.17       1436.4 
      1278.0         0.20       1114.0 
      1279.0         0.17       1002.1 
      1280.0         0.17        625.5 
      1281.0         0.20        588.4 
      1282.0         0.20        440.0 
      1283.0         0.20         74.5 
      1284.0         0.30         35.8 
      1285.0         0.27         13.6 
      1286.0         0.23         13.4 
      1287.0         0.20         13.9 
      1288.0         0.27         13.5 
      1289.0         0.22         11.9 
      1290.0         0.17         11.9 
      1291.0         0.17          9.9 
      1292.0         0.13          9.4 
      1293.0         0.10          6.9 
      1294.0         0.10          4.9 
      1295.0         0.20          4.9 
      1296.0         0.33          3.4 
      1297.0         0.30          2.0 
      1298.0         0.20          1.5 
      1299.0         0.23          1.3 
      1300.0         0.20          1.0 
      1301.0         0.23          1.0 
      1302.0         0.23          1.8 
      1303.0         0.20       1600.2 
      1304.0         0.27       1600.2 
      1305.0         0.22       1534.5 
      1306.0         0.17       1433.1 
      1307.0         0.17       1387.9 
      1308.0         0.17       1285.8 
      1309.0         0.10       1144.3 
      1310.0         0.13        968.5 
      1311.0         0.20        708.7 
      1312.0         0.17        631.9 
      1313.0         0.20        446.2 
      1314.0         0.20        440.0 
      1315.0         0.43         81.9 
