~Version Information
 VERS.                                  2.0 : CWLS LAS VERSION
 WRAP.                                   NO : WRAPING MODE
 SWARE .                 MController 2.5.0N : SOFTWARE VERSION
~Well Information
 WELL.                     HG Duran 34-27Tr : WELL
 COMP.    Pioneer Natural Resources USA Inc : COMPANY
 FLD.                      Purgatoire River : FIELD
 LOC.                SW/SE Sec 27 T33S R67W : LOCATION
 DATE.                              4/13/05 : DATE(S) LOGGED
 SRVC.       Blanco Geological Services LLC : SERVICE COMPANY
 STAT.                                   CO : STATE
 CNTY.                           Las Animas : COUNTY
 CTRY.                                  USA : COUNTRY
 API.                       05-071-08218-00 : API NUMBER
 STRT.FT                             310.00 : START DEPTH
 STOP.FT                             800.00 : STOP DEPTH
 STEP.FT                               1.00 : DEPTH INCREMENT
 NULL.                                -9999 : NULL VALUE
~Curve information
 DEPTH.FT                                   :
 ROP.MIN/FT                                 :
 GAS.UNITS                                  :
~ASCII Log data
# ...
       510.0         0.20        176.8 
       511.0         0.17        168.3 
       512.0         0.20        154.6 
       513.0         0.17        137.8 
       514.0         0.17        121.3 
       515.0         0.17        105.1 
       516.0         0.17         93.2 
       517.0         0.20         83.4 
       518.0         0.17         73.0 
       519.0         0.17         67.2 
       520.0         0.18         63.0 
       521.0         0.20         60.3 
       522.0         0.17         59.0 
       523.0         0.20         56.7 
       524.0         0.17         54.0 
       525.0         0.17         53.2 
       526.0         0.17         52.7 
       527.0         0.17         50.7 
       528.0         0.20         49.0 
       529.0         0.17         48.4 
       530.0         0.17         48.9 
       531.0         0.17         51.3 
       532.0         0.17         53.6 
       533.0         0.20         51.8 
       534.0         0.10         45.6 
       535.0         0.20         42.3 
       536.0         1.75         43.3 
       537.0         0.20         60.2 
       538.0         0.27        108.2 
       539.0         0.10        122.6 
       540.0         0.27        134.8 
       541.0         0.23        132.7 
       542.0         0.20        118.5 
       543.0         0.20        104.0 
       544.0         0.20         92.6 
       545.0         0.17         83.2 
       546.0         0.23         75.6 
       547.0         0.20         70.1 
       548.0         0.22         63.8 
       549.0         0.13         58.1 
       550.0         0.10         58.1 
       551.0         0.17         56.5 
       552.0         0.17         51.1 
       553.0         0.13         49.1 
       554.0         0.23         47.5 
       555.0         0.17         45.2 
       556.0         0.20         45.0 
       557.0         0.17         44.0 
       558.0         0.23         43.5 
       559.0         0.27         42.3 
       560.0         0.27         44.1 
       561.0         0.27         43.9 
       562.0         0.30         43.0 
       563.0         0.17         43.6 
       564.0         0.22         43.3 
       565.0         0.37         40.6 
       566.0         2.40        121.0 
       567.0         0.27        159.2 
       568.0         0.25        168.6 
       569.0         0.27        167.1 
       570.0         0.27        144.0 
       571.0         0.23        117.7 
       572.0         0.17         96.9 
       573.0         0.13         87.1 
       574.0         0.13         79.7 
       575.0         0.17         71.4 
       576.0         0.13         63.9 
       577.0         0.13         58.8 
       578.0         0.17         55.4 
       579.0         0.17         51.5 
       580.0         0.13         48.2 
       581.0         0.20         47.0 
       582.0         0.27         44.3 
       583.0         0.17         41.6 
       584.0         0.20         41.0 
       585.0         0.22         39.9 
       586.0         0.27         39.1 
       587.0         0.27         39.4 
       588.0         0.20         39.2 
       589.0         0.20         39.8 
       590.0         0.27         39.9 
       591.0         0.20         39.1 
       592.0         0.20         38.9 
       593.0         0.27         39.9 
       594.0         0.23         38.1 
       595.0         0.37         36.2 
       596.0         2.55        177.9 
       597.0         0.33        183.3 
       598.0         0.17        167.9 
       599.0         0.30        146.5 
       600.0         0.27        111.6 
       601.0         0.17         87.0 
       602.0         0.20         77.0 
       603.0         0.22         66.6 
       604.0         0.20         58.0 
       605.0         0.13         52.3 
       606.0         0.17         50.7 
       607.0         0.20         47.2 
       608.0         0.17         44.8 
       609.0         0.17         43.4 
       610.0         0.13         42.5 
       611.0         0.13         41.1 
       612.0         0.13         39.4 
       613.0         0.13         38.6 
       614.0         0.13         37.9 
       615.0         0.13         37.9 
       616.0         0.33         37.2 
       617.0         0.17         36.1 
       618.0         0.20         36.3 
       619.0         0.13         36.0 
       620.0         0.23         35.7 
       621.0         0.22         36.0 
       622.0         0.17         37.0 
       623.0         0.20         38.0 
       624.0         0.23         37.2 
       625.0         0.30         35.7 
       626.0         9.02         99.4 
       627.0         0.37        123.0 
       628.0         0.30        384.2 
       629.0         0.30       1328.7 
       630.0         0.27       1618.6 
       631.0         0.20       1636.9 
       632.0         0.13       1561.3 
       633.0         0.23       1361.7 
       634.0         0.20       1045.7 
       635.0         0.30        807.9 
       636.0         0.20        541.3 
       637.0         0.23        440.0 
       638.0         0.32        440.0 
       639.0         0.20        100.6 
       640.0         0.13         79.1 
       641.0         0.13         69.1 
       642.0         0.13         61.7 
       643.0         0.13         55.2 
       644.0         0.13         51.4 
       645.0         0.20         48.5 
       646.0         0.13         44.3 
       647.0         0.10         43.0 
       648.0         0.17         41.2 
       649.0         0.13         39.9 
       650.0         0.20         39.1 
       651.0         0.13         37.8 
       652.0         0.23         37.2 
       653.0         0.17         37.2 
       654.0         0.17         37.7 
       655.0         0.20         37.0 
       656.0         2.78        344.2 
       657.0         0.23        418.3 
       658.0         0.20        443.6 
       659.0         0.23        441.5 
       660.0         0.17        387.3 
       661.0         0.22        327.3 
       662.0         0.20        254.4 
       663.0         0.20        198.7 
       664.0         0.17        156.9 
       665.0         0.17        129.4 
       666.0         0.23        106.2 
       667.0         0.20         82.3 
       668.0         0.17         69.7 
       669.0         0.17         62.3 
       670.0         0.17         56.8 
       671.0         0.27         53.0 
       672.0         0.23         49.4 
       673.0         0.27         49.3 
       674.0         0.20         50.1 
       675.0         0.20         50.7 
       676.0         0.17         51.2 
       677.0         0.15         51.1 
       678.0         0.17         50.2 
       679.0         0.13         50.3 
       680.0         0.17         50.3 
       681.0         0.17         49.6 
       682.0         0.13         51.3 
       683.0         0.17         50.5 
       684.0         0.20         48.5 
       685.0         0.23         45.3 
       686.0         2.98        183.8 
       687.0         0.40        255.3 
       688.0         0.27        264.0 
       689.0         0.23        259.0 
       690.0         0.23        228.1 
       691.0         0.27        189.8 
       692.0         0.30        144.6 
       693.0         0.20        108.6 
       694.0         0.28         92.3 
       695.0         0.20         76.6 
       696.0         0.20         67.2 
       697.0         0.23         60.0 
       698.0         0.17         53.2 
       699.0         0.17         50.0 
       700.0         0.17         46.5 
       701.0         0.17         44.3 
       702.0         0.13         41.4 
       703.0         0.17         40.3 
       704.0         0.17         38.5 
       705.0         0.13         36.6 
       706.0         0.17         36.6 
       707.0         0.13         36.3 
       708.0         0.17         36.5 
       709.0         0.17         37.0 
