~Version Information
VERS.                      2.0: CWLS Log ASCII Standard - VERSION 2.0
WRAP.                       NO: One line per depth step
~Well Information Block
STRT.FT               400.0000: 
STOP.FT              2201.0000: 
STEP.FT                 0.1000: 
NULL.                -999.2500: 
COMP.          Evergreen Operating Corporation: COMPANY
WELL.            Triumph 13-10: WELL
FLD.           Purgatorie River: FIELD
LOC.           1551' FSL & 522' FWL: LOCATION
PROV.                 Colorado: PROVINCE
CNTY.               Las Animas: COUNTRY
SRVC.                Patterson: SERVICE COMPANY
DATE.          Mon Jul 26 07:55:18 2004: LOG DATE
UWI.           05 071 08108 00: UNIQUE WELL ID
~Curve Information Block
DEPT.FT            0 000 00 00: Depth
DCAL.in                       : CDL Caliper
RHOB.g/cc                     : CDL Bulk Density
RHOC.g/cc                     : CDL Density Correction
DPOR.pu                       : CDL Density Porosity
NPOR.pu                       : Neutron Porosity
GR.GAPI                       : Gamma Ray
~Parameter Information Block
~A  Depth       DCAL        RHOB        RHOC        DPOR        NPOR         GR     
# ...
  1340.8000      8.3758      2.2897      0.0215     21.8357     26.5615     57.2174
  1340.9000      8.3758      2.2282      0.0457     25.5643     28.1260     60.7519
  1341.0000      8.4492      2.1753     -0.0540     28.7679     30.0677     66.1680
  1341.1000      8.4492      2.1568     -0.0440     29.8903     31.5111     75.9914
  1341.2000      8.4492      2.1860     -0.0270     28.1231     32.1001     82.1117
  1341.3000      8.4196      2.2355      0.0801     25.1214     31.9774     80.4384
  1341.4000      8.4196      2.2705      0.1245     23.0006     31.8370     77.4491
  1341.5000      8.4531      2.2928      0.1240     21.6457     31.9135     78.6649
  1341.6000      8.4531      2.3212      0.2579     19.9252     31.7965     86.0798
  1341.7000      8.4531      2.3517      0.3126     18.0763     31.3995     98.4764
  1341.8000      8.5870      2.3705      0.3153     16.9389     30.7840    111.4699
  1341.9000      8.5870      2.3714      0.3183     16.8836     30.1141    120.4099
  1342.0000      8.5836      2.3595      0.2242     17.6070     29.8614    124.7923
  1342.1000      8.5836      2.3558      0.1664     17.8273     30.0134    129.7680
  1342.2000      8.5836      2.3791      0.1940     16.4161     30.0841    134.8380
  1342.3000      8.4852      2.4220      0.2496     13.8165     30.0088    131.1366
  1342.4000      8.4852      2.4637      0.2739     11.2897     29.9464    120.5532
  1342.5000      8.6021      2.4879      0.3002      9.8218     29.8326    114.5895
  1342.6000      8.6021      2.4853      0.2997      9.9836     29.7667    115.3388
  1342.7000      8.6021      2.4630      0.2608     11.3345     29.8368    115.0790
  1342.8000      8.6261      2.4407      0.2560     12.6825     29.8017    112.8721
  1342.9000      8.6261      2.4281      0.2421     13.4510     29.4868    114.7236
  1343.0000      8.3016      2.4201      0.2198     13.9309     28.9687    120.2211
  1343.1000      8.3016      2.4102      0.1838     14.5349     28.5782    124.1937
  1343.2000      8.3016      2.3958      0.1542     15.4066     28.6418    124.0540
  1343.3000      8.4208      2.3828      0.1552     16.1951     28.9637    119.4559
  1343.4000      8.4208      2.3835      0.1544     16.1501     29.1014    111.9039
  1343.5000      8.5036      2.4026      0.2037     14.9920     28.9820    109.1662
  1343.6000      8.5036      2.4311      0.2452     13.2671     28.7581    118.5779
  1343.7000      8.5036      2.4598      0.2499     11.5301     28.6389    132.3724
  1343.8000      8.4984      2.4824      0.3005     10.1553     28.8004    135.2471
  1343.9000      8.4984      2.4911      0.2766      9.6285     29.0869    123.8051
  1344.0000      8.5291      2.4850      0.2529     10.0026     29.1472    108.6922
  1344.1000      8.5291      2.4762      0.2185     10.5358     28.7610    100.2241
  1344.2000      8.5291      2.4822      0.1864     10.1714     27.9833     98.5874
  1344.3000      8.3323      2.5167      0.1441      8.0809     27.1470     96.9547
  1344.4000      8.3323      2.5758      0.2202      4.4995     26.6273     94.0518
  1344.5000      8.1789      2.6345      0.2500      0.9380     26.4851     94.6645
  1344.6000      8.1789      2.6812      0.2049     -1.8925     26.5161     99.3583
  1344.7000      8.1789      2.7234      0.2114     -4.4475     26.4473    106.4483
  1344.8000      8.2415      2.7594      0.1998     -6.6302     26.1204    114.1267
  1344.9000      8.2415      2.7904      0.1545     -8.5120     25.6160    115.9167
  1345.0000      8.1953      2.8221      0.1643    -10.4310     25.1475    106.4999
  1345.1000      8.1953      2.8444      0.2045    -11.7798     24.7530     90.9891
  1345.2000      8.1953      2.8537      0.1724    -12.3432     24.1573     77.6481
  1345.3000      8.1096      2.8607      0.1341    -12.7677     23.5701     69.1651
  1345.4000      8.1096      2.8639      0.0757    -12.9660     23.6865     65.6851
  1345.5000      8.1001      2.8510      0.0794    -12.1825     24.5398     66.2243
  1345.6000      8.1001      2.8111      0.0790     -9.7651     25.5320     67.5488
  1345.7000      8.1001      2.7499      0.0013     -6.0559     26.1685     69.6448
  1345.8000      8.0973      2.6920     -0.0209     -2.5466     26.1740     75.7412
  1345.9000      8.0973      2.6558     -0.0184     -0.3517     25.8706     82.9368
  1346.0000      8.1154      2.6424     -0.0463      0.4613     25.9980     88.4737
  1346.1000      8.1154      2.6468     -0.0033      0.1921     26.7281     93.2033
  1346.2000      8.1154      2.6596      0.0234     -0.5800     27.5411     96.8101
  1346.3000      8.2287      2.6715      0.0554     -1.3032     28.0581    103.5220
  1346.4000      8.2287      2.6837      0.0697     -2.0402     28.3494    115.1105
  1346.5000      8.2990      2.6897      0.1331     -2.4067     28.6562    123.1427
  1346.6000      8.2990      2.6654      0.1671     -0.9323     29.1676    122.6928
  1346.7000      8.2990      2.6108      0.1642      2.3766     29.8393    119.1176
  1346.8000      8.1501      2.5710      0.1126      4.7908     30.1948    116.4793
  1346.9000      8.1501      2.5758      0.1334      4.4959     29.9074    118.1699
  1347.0000      8.0559      2.5948      0.1452      3.3484     29.3845    125.0132
  1347.1000      8.0559      2.5801      0.1374      4.2369     29.5036    131.6282
  1347.2000      8.0559      2.5222      0.0350      7.7433     30.1900    133.0995
  1347.3000      8.0213      2.4418      0.0179     12.6187     30.6872    128.8619
  1347.4000      8.0213      2.3559     -0.0383     17.8257     31.0595    125.6593
  1347.5000      7.9891      2.2797     -0.0608     22.4408     31.4959    128.3857
  1347.6000      7.9891      2.2186     -0.0207     26.1432     31.8244    135.9792
  1347.7000      7.9891      2.1582     -0.0558     29.8073     31.7688    143.8506
  1347.8000      8.0192      2.0951     -0.0773     33.6303     31.3038    145.3977
  1347.9000      8.0192      2.0432     -0.1008     36.7756     31.0292    140.4758
  1348.0000      8.2485      1.9994     -0.0204     39.4279     31.2929    134.6191
  1348.1000      8.2485      1.9437     -0.0321     42.8052     31.7502    129.1701
  1348.2000      8.2485      1.8791     -0.0069     46.7241     32.2889    124.4647
  1348.3000      8.5160      1.8291      0.0361     49.7528     33.0461    122.9480
  1348.4000      8.5160      1.7859      0.2049     52.3714     33.9079    126.0564
  1348.5000      9.0160      1.7146      0.1844     56.6911     34.8244    130.8848
  1348.6000      9.0160      1.6156      0.1792     62.6909     35.5416    133.5569
  1348.7000      9.0160      1.5171      0.1604     68.6585     35.8266    136.9848
  1348.8000      9.9040      1.4350      0.1440     73.6390     35.9244    140.2487
  1348.9000      9.9040      1.3763      0.1109     77.1923     35.9032    135.9569
  1349.0000     11.1386      1.3476      0.1223     78.9322     35.7518    125.2425
  1349.1000     11.1386      1.3473      0.1160     78.9489     35.5511    114.1125
  1349.2000     11.1386      1.3699      0.1520     77.5811     35.4800    106.5390
  1349.3000     12.4405      1.4155      0.1586     74.8161     35.6936    103.4234
  1349.4000     12.4405      1.4921      0.1693     70.1764     35.7955    102.5867
  1349.5000     13.0873      1.6030      0.1991     63.4553     35.4755    102.0825
  1349.6000     13.0873      1.7303      0.2529     55.7378     35.0785    102.9943
  1349.7000     13.0873      1.8408      0.2998     49.0429     35.0668    106.1345
  1349.8000     12.8336      1.9049      0.3401     45.1582     35.2664    107.1108
  1349.9000     12.8336      1.9064      0.3436     45.0695     35.2524    104.9448
  1350.0000     12.6911      1.8524      0.2853     48.3387     34.9931    106.4693
  1350.1000     12.6911      1.7709      0.1974     53.2759     34.5105    113.0581
  1350.2000     12.6911      1.6919      0.1388     58.0641     33.9114    118.6701
  1350.3000     12.5666      1.6405      0.1306     61.1835     33.5588    124.5252
