~Version Information
VERS.                      2.0: CWLS Log ASCII Standard - VERSION 2.0
WRAP.                       NO: One line per depth step
~Well Information Block
STRT.FT               395.0000: 
STOP.FT              1998.0000: 
STEP.FT                 0.2500: 
NULL.                -999.2500: 
COMP.          Pioneer Natural Resources: COMPANY
WELL.          Easton 12-30 Tr: WELL
FLD.           Purgatoire River: FIELD
LOC.           549' FWL & 2416' FNL--: LOCATION
PROV.                 Colorado: PROVINCE
CNTY.               Las Animas: COUNTRY
SRVC.                Patterson: SERVICE COMPANY
DATE.          Wed Jun 01 17:36:02 2005: LOG DATE
UWI.           05 071 08379 00: UNIQUE WELL ID
~Curve Information Block
DEPT.FT            0 000 00 00: Depth
SN.Ohm-m                      : IEL Short Normal
SP.mV                         : IEL Spontaneous Potential
DIR.Ohm-m                     : IEL Induction Resistivity
GR.GAPI                       : Gamma Ray
~Parameter Information Block
~A  Depth        SN          SP         DIR          GR     
# ...
  1031.5000   2000.0000   -999.2500     13.9623    110.8300
  1031.7500   2000.0000   -999.2500     13.6880    111.4457
  1032.0000   2000.0000   -999.2500     13.3202    111.7086
  1032.2500   2000.0000   -999.2500     12.8959    112.2068
  1032.5000   2000.0000   -999.2500     12.4607    114.7849
  1032.7500   2000.0000   -999.2500     12.0537    117.9214
  1033.0000   2000.0000   -999.2500     11.6980    123.7432
  1033.2500   2000.0000   -999.2500     11.4020    127.3200
  1033.5000   2000.0000   -999.2500     11.1655    130.7680
  1033.7500   2000.0000   -999.2500     10.9848    131.6818
  1034.0000   2000.0000   -999.2500     10.8540    132.1967
  1034.2500   2000.0000   -999.2500     10.7650    132.8731
  1034.5000   2000.0000   -999.2500     10.7085    134.7746
  1034.7500   2000.0000   -999.2500     10.6771    135.9625
  1035.0000   2000.0000   -999.2500     10.6678    135.9792
  1035.2500   2000.0000   -999.2500     10.6826    134.3286
  1035.5000   2000.0000   -999.2500     10.7275    129.7998
  1035.7500   2000.0000   -999.2500     10.8096    126.1022
  1036.0000   2000.0000   -999.2500     10.9351    120.8336
  1036.2500   2000.0000   -999.2500     11.1078    118.2251
  1036.5000   2000.0000   -999.2500     11.3278    116.5511
  1036.7500   2000.0000   -999.2500     11.5887    116.9008
  1037.0000   2000.0000   -999.2500     11.8760    118.4321
  1037.2500   2000.0000   -999.2500     12.1661    119.1429
  1037.5000   2000.0000   -999.2500     12.4304    118.6382
  1037.7500   2000.0000   -999.2500     12.6409    117.2878
  1038.0000   2000.0000   -999.2500     12.7769    114.6841
  1038.2500   2000.0000   -999.2500     12.8283    113.1181
  1038.5000   2000.0000   -999.2500     12.7966    111.3396
  1038.7500   2000.0000   -999.2500     12.6944    110.5176
  1039.0000   2000.0000   -999.2500     12.5442    110.0601
  1039.2500   2000.0000   -999.2500     12.3753    110.5487
  1039.5000   2000.0000   -999.2500     12.2170    112.8627
  1039.7500   2000.0000   -999.2500     12.0918    115.5388
  1040.0000   2000.0000   -999.2500     12.0109    120.8651
  1040.2500   2000.0000   -999.2500     11.9736    124.6157
  1040.5000   2000.0000   -999.2500     11.9720    129.0711
  1040.7500   2000.0000   -999.2500     11.9959    130.7810
  1041.0000   2000.0000   -999.2500     12.0355    131.7548
  1041.2500   2000.0000   -999.2500     12.0821    131.9007
  1041.5000   2000.0000   -999.2500     12.1267    132.0981
  1041.7500   2000.0000   -999.2500     12.1608    132.2158
  1042.0000   2000.0000   -999.2500     12.1792    131.6307
  1042.2500   2000.0000   -999.2500     12.1844    130.1800
  1042.5000   2000.0000   -999.2500     12.1876    126.0912
  1042.7500   2000.0000   -999.2500     12.2039    122.4965
  1043.0000   2000.0000   -999.2500     12.2452    117.2589
  1043.2500   2000.0000   -999.2500     12.3141    114.8517
  1043.5000   2000.0000   -999.2500     12.4039    114.1979
  1043.7500   2000.0000   -999.2500     12.5055    116.0114
  1044.0000   2000.0000   -999.2500     12.6129    121.4967
  1044.2500   2000.0000   -999.2500     12.7250    126.1881
  1044.5000   2000.0000   -999.2500     12.8409    133.2722
  1044.7500   2000.0000   -999.2500     12.9549    137.3163
  1045.0000   2000.0000   -999.2500     13.0560    141.4190
  1045.2500   2000.0000   -999.2500     13.1329    142.3650
  1045.5000   2000.0000   -999.2500     13.1781    140.6970
  1045.7500   2000.0000   -999.2500     13.1908    137.8929
  1046.0000   2000.0000   -999.2500     13.1770    132.7911
  1046.2500   2000.0000   -999.2500     13.1498    129.7376
  1046.5000   2000.0000   -999.2500     13.1268    126.1786
  1046.7500   2000.0000   -999.2500     13.1240    124.1874
  1047.0000   2000.0000   -999.2500     13.1484    121.2867
  1047.2500   2000.0000   -999.2500     13.1948    119.5162
  1047.5000   2000.0000   -999.2500     13.2482    117.4598
  1047.7500   2000.0000   -999.2500     13.2899    116.2864
  1048.0000   2000.0000   -999.2500     13.3026    113.8825
  1048.2500   2000.0000   -999.2500     13.2739    111.6701
  1048.5000   2000.0000   -999.2500     13.1983    108.5312
  1048.7500   2000.0000   -999.2500     13.0788    107.5087
  1049.0000   2000.0000   -999.2500     12.9265    108.1725
  1049.2500   2000.0000   -999.2500     12.7575    109.6296
  1049.5000   2000.0000   -999.2500     12.5865    112.3060
  1049.7500   2000.0000   -999.2500     12.4229    114.2643
  1050.0000   2000.0000   -999.2500     12.2709    117.9448
  1050.2500   2000.0000   -999.2500     12.1330    121.1424
  1050.5000   2000.0000   -999.2500     12.0134    126.7050
  1050.7500   2000.0000   -999.2500     11.9167    130.3508
  1051.0000   2000.0000   -999.2500     11.8457    134.9190
  1051.2500   2000.0000   -999.2500     11.7991    137.2617
  1051.5000   2000.0000   -999.2500     11.7723    139.8821
  1051.7500   2000.0000   -999.2500     11.7604    141.1084
  1052.0000   2000.0000   -999.2500     11.7608    142.2124
  1052.2500   2000.0000   -999.2500     11.7728    142.4211
  1052.5000   2000.0000   -999.2500     11.7967    141.6649
  1052.7500   2000.0000   -999.2500     11.8339    140.3018
  1053.0000   2000.0000   -999.2500     11.8870    137.3628
  1053.2500   2000.0000   -999.2500     11.9618    135.4642
  1053.5000   2000.0000   -999.2500     12.0672    133.6127
  1053.7500   2000.0000   -999.2500     12.2131    132.9200
  1054.0000   2000.0000   -999.2500     12.4086    131.7686
  1054.2500   2000.0000   -999.2500     12.6605    130.6633
  1054.5000   2000.0000   -999.2500     12.9737    128.9993
  1054.7500   2000.0000   -999.2500     13.3521    128.2965
  1055.0000   2000.0000   -999.2500     13.7974    127.8676
  1055.2500   2000.0000   -999.2500     14.3066    127.5831
  1055.5000   2000.0000   -999.2500     14.8710    126.3797
  1055.7500   2000.0000   -999.2500     15.4782    124.9026
  1056.0000   2000.0000   -999.2500     16.1177    122.0199
  1056.2500   2000.0000   -999.2500     16.7884    120.0009
  1056.5000   2000.0000   -999.2500     17.5006    117.1035
  1056.7500   2000.0000   -999.2500     18.2730    115.0721
  1057.0000   2000.0000   -999.2500     19.1216    111.3923
  1057.2500   2000.0000   -999.2500     20.0483    108.5620
  1057.5000   2000.0000   -999.2500     21.0377    104.5389
  1057.7500   2000.0000   -999.2500     22.0637    102.4526
  1058.0000   2000.0000   -999.2500     23.1029    100.1474
  1058.2500   2000.0000   -999.2500     24.1436     98.6816
  1058.5000   2000.0000   -999.2500     25.1825     95.8563
  1058.7500   2000.0000   -999.2500     26.2123     93.5734
  1059.0000   2000.0000   -999.2500     27.2096     90.3438
  1059.2500   2000.0000   -999.2500     28.1312     88.8292
  1059.5000   2000.0000   -999.2500     28.9218     87.5950
  1059.7500   2000.0000   -999.2500     29.5328     86.9883
  1060.0000   2000.0000   -999.2500     29.9457     85.4619
  1060.2500   2000.0000   -999.2500     30.1840     83.7692
  1060.5000   2000.0000   -999.2500     30.3059     80.2322
  1060.7500   2000.0000   -999.2500     30.3802     77.4212
  1061.0000   2000.0000   -999.2500     30.4623     73.2974
  1061.2500   2000.0000   -999.2500     30.5819     71.1698
  1061.5000   2000.0000   -999.2500     30.7414     69.4040
  1061.7500   2000.0000   -999.2500     30.9190     68.9682
  1062.0000   2000.0000   -999.2500     31.0780     68.4986
  1062.2500   2000.0000   -999.2500     31.1840     67.8285
  1062.5000   2000.0000   -999.2500     31.2251     66.0452
  1062.7500   2000.0000   -999.2500     31.2186     64.4896
  1063.0000   2000.0000   -999.2500     31.1951     62.0211
  1063.2500   2000.0000   -999.2500     31.1773     60.5151
  1063.5000   2000.0000   -999.2500     31.1722     58.8938
  1063.7500   2000.0000   -999.2500     31.1787     58.5268
  1064.0000   2000.0000   -999.2500     31.1973     59.3185
  1064.2500   2000.0000   -999.2500     31.2299     60.5419
  1064.5000   2000.0000   -999.2500     31.2724     62.4609
  1064.7500   2000.0000   -999.2500     31.3110     63.1704
