~Version Information
 VERS.                                  2.0 : CWLS LAS VERSION
 WRAP.                                   NO : WRAPING MODE
 SWARE .                 MController 2.5.0J : SOFTWARE VERSION
~Well Information
 WELL.                        Rancher 12-35 : WELL
 COMP.        Pioneer Natural Resources Inc : COMPANY
 FLD.                      PURGATOIRE RIVER : FIELD
 LOC.                    SW/NW 35 T32S R67W : LOCATION
 DATE.                             10/11/04 : DATE(S) LOGGED
 SRVC.       BLANCO GEOLOGICAL SERVICES LLC : SERVICE COMPANY
 STAT.                             COLORADO : STATE
 CNTY.                           LAS ANIMAS : COUNTY
 CTRY.                                  USA : COUNTRY
 API.                       05-071-08179-00 : API NUMBER
 STRT.FT                             449.00 : START DEPTH
 STOP.FT                            2520.00 : STOP DEPTH
 STEP.FT                               1.00 : DEPTH INCREMENT
 NULL.                                -9999 : NULL VALUE
~Curve information
 DEPTH.FT                                   :
 ROP.MIN/FT                                 :
 GAS.UNITS                                  :
~ASCII Log data
# ...
      1049.0         0.10       1260.6 
      1050.0         0.23       6816.9 
      1051.0         0.23       5351.7 
      1052.0         0.22       3955.9 
      1053.0         0.23       2840.0 
      1054.0         0.27       2322.2 
      1055.0         0.20       2222.4 
      1056.0         0.20       2170.6 
      1057.0         0.20       2112.3 
      1058.0         0.17       2029.4 
      1059.0         0.17       1922.6 
      1060.0         0.17       1830.6 
      1061.0         0.17       1775.4 
      1062.0         0.17       1735.9 
      1063.0         0.17       1698.5 
      1064.0         0.17       1658.8 
      1065.0         0.15       1622.1 
      1066.0         0.10       1594.4 
      1067.0         0.07       1576.9 
      1068.0         0.13       1538.5 
      1069.0         0.22       1485.3 
      1070.0         0.17       1443.8 
      1071.0         0.20       1400.4 
      1072.0         0.20       1362.3 
      1073.0         0.17       1334.0 
      1074.0         0.17       1301.3 
      1075.0         0.17       1283.5 
      1076.0         0.17       1280.1 
      1077.0         0.17       1278.1 
      1078.0         0.17       1274.7 
      1079.0         0.20       1280.1 
      1080.0         0.27       1299.0 
      1081.0         0.27       7234.7 
      1082.0         0.35       4117.9 
      1083.0         0.27       2776.7 
      1084.0         0.23       2100.5 
      1085.0         0.27       1703.9 
      1086.0         0.23       1478.5 
      1087.0         0.23       1314.1 
      1088.0         0.20       1289.2 
      1089.0         0.20       1339.4 
      1090.0         0.20       1409.1 
      1091.0         0.20       1455.0 
      1092.0         0.27       1463.7 
      1093.0         0.27       1444.2 
      1094.0         0.38       1394.6 
      1095.0         0.13       1374.8 
      1096.0         0.27       1331.0 
      1097.0         0.30       1238.3 
      1098.0         0.17       1202.3 
      1099.0         0.17       1182.7 
      1100.0         0.17       1183.4 
      1101.0         0.17       1191.2 
      1102.0         0.20       1205.0 
      1103.0         0.17       1212.7 
      1104.0         0.20       1202.3 
      1105.0         0.20       1166.2 
      1106.0         0.13       1151.7 
      1107.0         0.17       1171.6 
      1108.0         0.13       1202.3 
      1109.0         0.27       1269.7 
      1110.0         0.27       4342.6 
      1111.0         0.27       5248.6 
      1112.0         0.27       6352.0 
      1113.0         0.37       7402.2 
      1114.0         0.37       6500.9 
      1115.0         0.23       4683.6 
      1116.0         0.20       3458.6 
      1117.0         0.25       2494.3 
      1118.0         0.20       2066.5 
      1119.0         0.20       1796.6 
      1120.0         0.17       1646.7 
      1121.0         0.20       1551.3 
      1122.0         0.13       1553.0 
      1123.0         0.13       1594.8 
      1124.0         0.17       1668.6 
      1125.0         0.30       1775.0 
      1126.0         0.23       1778.4 
      1127.0         0.23       1719.1 
      1128.0         0.20       1630.8 
      1129.0         0.23       1566.5 
      1130.0         0.43       1481.9 
      1131.0         0.32       1368.7 
      1132.0         0.30       1327.3 
      1133.0         0.23       1323.9 
      1134.0         0.20       1286.2 
      1135.0         0.17       1241.0 
      1136.0         0.20       1210.0 
      1137.0         0.17       1197.9 
      1138.0         0.20       1197.6 
      1139.0         0.23       1220.5 
      1140.0         0.17       1253.5 
      1141.0         0.20       1297.3 
      1142.0         0.27       5025.2 
      1143.0         0.30       6129.3 
      1144.0         0.23       6509.7 
      1145.0         0.17       6336.2 
      1146.0         0.20       5365.5 
      1147.0         0.20       4342.0 
      1148.0         0.17       3690.4 
      1149.0         0.13       3282.7 
      1150.0         0.20       2689.7 
      1151.0         0.23       2173.9 
      1152.0         0.20       1924.6 
      1153.0         0.17       1805.0 
      1154.0         0.13       1734.3 
      1155.0         0.17       1668.6 
      1156.0         0.20       1615.3 
      1157.0         0.17       1587.0 
      1158.0         0.35       1535.5 
      1159.0         0.20       1490.0 
      1160.0         0.20       1441.8 
      1161.0         0.17       1407.5 
      1162.0         0.20       1369.0 
      1163.0         0.17       1340.7 
      1164.0         0.13       1317.2 
      1165.0         0.17       1286.8 
      1166.0         0.17       1256.9 
      1167.0         0.13       1243.0 
      1168.0         0.20       1238.7 
      1169.0         0.17       1237.6 
      1170.0         0.20       4544.5 
      1171.0         0.23       5081.8 
      1172.0         0.23       5156.6 
      1173.0         0.23       4397.9 
      1174.0         0.22       3504.4 
      1175.0         0.20       2892.2 
      1176.0         0.13       2686.4 
      1177.0         0.20       2511.2 
      1178.0         0.23       2346.8 
      1179.0         0.23       2142.6 
      1180.0         0.40       1826.9 
      1181.0         0.27       1668.6 
      1182.0         0.27       1594.8 
      1183.0         0.20       1557.4 
      1184.0         0.27       1493.4 
      1185.0         0.23       1407.5 
      1186.0         0.20       1358.3 
      1187.0         0.22       1324.2 
      1188.0         0.27       1289.5 
      1189.0         0.17       1288.9 
      1190.0         0.17       1293.6 
      1191.0         0.17       1297.3 
      1192.0         0.10       1294.6 
      1193.0         0.10       1283.8 
      1194.0         0.10       1270.7 
      1195.0         0.10       1258.5 
      1196.0         0.10       1245.4 
      1197.0         0.10       1235.3 
      1198.0         0.17       1223.2 
      1199.0         0.27       1213.7 
      1200.0         0.27       6225.3 
      1201.0         0.27       6031.6 
      1202.0         0.27       4623.6 
      1203.0         0.27       3348.1 
      1204.0         0.28       2757.1 
      1205.0         0.23       2543.9 
      1206.0         0.20       2385.9 
      1207.0         0.20       2215.4 
      1208.0         0.17       2069.5 
      1209.0         0.20       1930.7 
      1210.0         0.20       1821.5 
      1211.0         0.13       1765.9 
      1212.0         0.10       1735.9 
      1213.0         0.13       1709.0 
      1214.0         0.10       1696.2 
      1215.0         0.17       1686.8 
      1216.0         0.17       1685.7 
      1217.0         0.27       1682.7 
      1218.0         0.30       1641.6 
      1219.0         0.27       1567.8 
      1220.0         0.20       1537.2 
      1221.0         0.25       1520.3 
      1222.0         0.17       1515.6 
      1223.0         0.13       1490.7 
      1224.0         0.17       1451.9 
      1225.0         0.17       1422.3 
      1226.0         0.17       1424.3 
      1227.0         0.10       1435.8 
      1228.0         0.13       1449.9 
      1229.0         0.13       1459.7 
      1230.0         0.13      10358.2 
      1231.0         0.27      10388.2 
      1232.0         0.27      10365.7 
      1233.0         0.27       9379.8 
      1234.0         0.23       6392.4 
      1235.0         0.23       4049.9 
      1236.0         0.17       3067.4 
      1237.0         0.20       2491.3 
      1238.0         0.17       2278.4 
      1239.0         0.20       2109.2 
      1240.0         0.13       2005.8 
      1241.0         0.13       1900.0 
      1242.0         0.13       1803.3 
      1243.0         0.13       1719.1 
      1244.0         0.17       1641.6 
      1245.0         0.18       1594.4 
      1246.0         0.17       1580.0 
      1247.0         0.20       1562.1 
      1248.0         0.17       1540.2 
