~Version Information
VERS.                      2.0: CWLS Log ASCII Standard - VERSION 2.0
WRAP.                       NO: One line per depth step
~Well Information Block
STRT.FT               890.0000: 
STOP.FT              1588.2000: 
STEP.FT                 0.1000: 
NULL.                -999.2500: 
COMP.          Evergreen Operating Corporation: COMPANY
WELL.            Tomahawk 44-9: WELL
FLD.           Purgatorie River: FIELD
LOC.           434' FSL & 491' FEL: LOCATION
PROV.                 Colorado: PROVINCE
CNTY.               Las Animas: COUNTRY
SRVC.                         : SERVICE COMPANY
DATE.          Mon Sep 13 10:07:57 2004: LOG DATE
UWI.           05 071 08133 00: UNIQUE WELL ID
~Curve Information Block
DEPT.FT            0 000 00 00: Depth
LTEN.lb                       : Surface Line Tension
DCAL.in                       : CDL Caliper
RHOB.g/cc                     : CDL Bulk Density
RHOC.g/cc                     : CDL Density Correction
DPOR.pu                       : CDL Density Porosity
GR.GAPI                       : Gamma Ray
NPOR.pu                       : Neutron Porosity
~Parameter Information Block
~A  Depth       LTEN        DCAL        RHOB        RHOC        DPOR         GR         NPOR    
# ...
  1024.4000   1034.8427      8.3079      2.4201      0.0585     13.9344    185.0645     26.9666
  1024.5000   1029.0635      8.3195      2.4195      0.0745     13.9701    186.4218     27.2015
  1024.6000   1029.0635      8.3195      2.4340      0.0913     13.0912    177.7512     27.2529
  1024.7000   1029.0635      8.3195      2.4706      0.1143     10.8743    167.1949     27.1003
  1024.8000   1005.8276      8.3471      2.5253      0.1800      7.5584    163.6633     26.8024
  1024.9000   1005.8276      8.3471      2.5758      0.2450      4.4940    165.6661     26.4751
  1025.0000   1005.8029      8.3465      2.6003      0.2821      3.0126    167.6008     26.4780
  1025.1000   1005.8029      8.3465      2.5917      0.2970      3.5335    168.4908     26.8430
  1025.2000   1005.8029      8.3465      2.5593      0.2165      5.4953    169.3423     26.9617
  1025.3000   1036.4562      8.3572      2.5237      0.1746      7.6567    168.5659     26.7055
  1025.4000   1036.4562      8.3572      2.4944      0.1055      9.4306    165.5919     26.6080
  1025.5000   1013.1937      8.3610      2.4695      0.0864     10.9409    167.3173     26.7162
  1025.6000   1013.1937      8.3610      2.4566      0.0250     11.7219    181.2519     26.7335
  1025.7000   1013.1937      8.3610      2.4662      0.0664     11.1370    202.1686     26.5185
  1025.8000   1020.7960      8.3624      2.4902      0.1094      9.6824    217.1065     26.1069
  1025.9000   1020.7960      8.3624      2.5173      0.1027      8.0398    219.4987     25.8127
  1026.0000   1012.2937      8.3631      2.5460      0.1782      6.3041    209.3130     25.9905
  1026.1000   1012.2937      8.3631      2.5671      0.2526      5.0254    193.4951     26.5671
  1026.2000   1012.2937      8.3631      2.5713      0.1748      4.7711    185.9688     27.0773
  1026.3000   1024.2059      8.3641      2.5617      0.1803      5.3529    193.6165     27.4456
  1026.4000   1024.2059      8.3641      2.5375      0.1642      6.8160    206.5798     28.1358
  1026.5000   1057.6309      8.3644      2.5020      0.1257      8.9681    209.9688     28.8991
  1026.6000   1057.6309      8.3644      2.4786      0.0521     10.3871    201.7452     28.8718
  1026.7000   1057.6309      8.3644      2.4802      0.0917     10.2907    193.2926     28.0756
  1026.8000   1034.7794      8.3719      2.4885      0.1172      9.7849    190.9081     27.2684
  1026.9000   1034.7794      8.3719      2.4896      0.0698      9.7198    189.1879     26.6809
  1027.0000   1034.6670      8.3780      2.4873      0.1042      9.8625    182.8732     25.8653
  1027.1000   1034.6670      8.3780      2.4839      0.1133     10.0643    174.3238     24.6911
  1027.2000   1034.6670      8.3780      2.4816      0.1285     10.2039    173.2294     23.8637
  1027.3000   1040.1766      8.3803      2.4830      0.1019     10.1218    185.0634     23.9174
  1027.4000   1040.1766      8.3803      2.4864      0.1799      9.9172    197.6333     24.4708
  1027.5000   1011.2822      8.3813      2.4806      0.2090     10.2663    197.5438     24.9794
  1027.6000   1011.2822      8.3813      2.4579      0.1413     11.6423    188.4942     25.1803
  1027.7000   1011.2822      8.3813      2.4329      0.1202     13.1551    182.4135     25.0904
  1027.8000   1051.7291      8.3801      2.4276      0.0908     13.4771    183.3690     25.1218
  1027.9000   1051.7291      8.3801      2.4457      0.1518     12.3789    185.7545     25.7347
  1028.0000    995.7534      8.3788      2.4795      0.1639     10.3335    185.3084     26.6920
  1028.1000    995.7534      8.3788      2.5275      0.1504      7.4223    179.9426     27.3572
  1028.2000    995.7534      8.3788      2.5866      0.1692      3.8417    169.7768     27.7778
  1028.3000   1055.5983      8.3672      2.6407      0.2614      0.5625    159.2330     28.3921
  1028.4000   1055.5983      8.3672      2.6696      0.3135     -1.1852    155.3522     28.9148
  1028.5000   1019.4988      8.3528      2.6740      0.2186     -1.4545    158.4947     28.7604
  1028.6000   1019.4988      8.3528      2.6742      0.2234     -1.4644    158.1160     28.0902
  1028.7000   1019.4988      8.3528      2.6776      0.1927     -1.6723    148.0836     27.5993
  1028.8000   1044.2743      8.3033      2.6858      0.1712     -2.1703    136.9631     27.4877
  1028.9000   1044.2743      8.3033      2.6982      0.1702     -2.9213    135.1293     27.2246
  1029.0000   1034.8281      8.2964      2.7007      0.1069     -3.0701    138.8664     26.7125
  1029.1000   1034.8281      8.2964      2.6817      0.0970     -1.9205    141.1136     26.2158
  1029.2000   1034.8281      8.2964      2.6479      0.0572      0.1302    142.3411     25.5666
  1029.3000   1016.9973      8.3367      2.6091      0.0642      2.4770    143.8718     24.8667
  1029.4000   1016.9973      8.3367      2.5676      0.0257      4.9936    145.3792     24.5304
  1029.5000   1033.5684      8.3386      2.5325     -0.0109      7.1237    145.4324     24.5503
  1029.6000   1033.5684      8.3386      2.5163     -0.0116      8.1060    147.3138     24.7446
  1029.7000   1033.5684      8.3386      2.5119      0.0511      8.3688    153.1934     25.0117
  1029.8000   1061.6210      8.3393      2.5032      0.0157      8.8957    158.9341     25.2964
  1029.9000   1061.6210      8.3393      2.4962     -0.0289      9.3227    162.3242     25.4406
  1030.0000   1035.7781      8.3343      2.5076     -0.0113      8.6278    165.4599     25.4592
  1030.1000   1035.7781      8.3343      2.5313      0.0716      7.1935    170.0479     25.5496
  1030.2000   1035.7781      8.3343      2.5516      0.0614      5.9608    176.3358     25.8123
  1030.3000   1070.8333      8.2959      2.5711      0.1111      4.7812    177.7861     26.2111
  1030.4000   1070.8333      8.2959      2.5913      0.0999      3.5577    167.2371     26.4632
  1030.5000   1043.0311      8.2344      2.6038      0.1197      2.8019    151.6620     26.4609
  1030.6000   1043.0311      8.2344      2.5982      0.1574      3.1381    139.4313     26.4097
  1030.7000   1043.0311      8.2344      2.5701      0.1154      4.8451    131.0155     26.2983
  1030.8000   1046.3417      8.2254      2.5309      0.0772      7.2200    125.5940     25.8726
  1030.9000   1046.3417      8.2254      2.5034      0.0421      8.8862    123.7654     25.1202
  1031.0000   1050.3634      8.2262      2.5006      0.0576      9.0570    124.2344     24.3991
  1031.1000   1050.3634      8.2262      2.5161      0.0542      8.1163    124.6580     24.0548
  1031.2000   1050.3634      8.2262      2.5376      0.0399      6.8118    124.8140     24.2277
  1031.3000   1074.2031      8.2260      2.5556      0.0684      5.7227    123.3112     24.6425
  1031.4000   1074.2031      8.2260      2.5626      0.1106      5.2968    118.2671     24.7301
  1031.5000   1090.1217      8.2262      2.5658      0.0996      5.1002    110.5626     24.2209
  1031.6000   1090.1217      8.2262      2.5901      0.1516      3.6294    103.9851     23.5193
  1031.7000   1090.1217      8.2262      2.6410      0.1983      0.5437    102.7300     23.2765
  1031.8000   1073.3569      8.2276      2.6912      0.2535     -2.4950    103.5070     23.5370
  1031.9000   1073.3569      8.2276      2.7189      0.2318     -4.1733    101.3025     23.8696
  1032.0000   1065.1842      8.2280      2.7299      0.1908     -4.8443     98.0137     23.9441
  1032.1000   1065.1842      8.2280      2.7329      0.2070     -5.0249     95.5463     23.8270
  1032.2000   1065.1842      8.2280      2.7203      0.2203     -4.2635     93.5282     23.5772
  1032.3000   1056.9176      8.2268      2.6843      0.1742     -2.0806     91.0744     23.2735
  1032.4000   1056.9176      8.2268      2.6418      0.0576      0.4974     88.0585     23.2725
  1032.5000   1089.0293      8.2274      2.6152      0.0926      2.1118     86.3696     23.7616
  1032.6000   1089.0293      8.2274      2.5997      0.0488      3.0499     86.0650     24.3897
  1032.7000   1089.0293      8.2274      2.5855      0.0332      3.9062     86.2815     24.5182
