~Version Information
VERS.                      2.0: CWLS Log ASCII Standard - VERSION 2.0
WRAP.                       NO: One line per depth step
~Well Information Block
STRT.FT               375.0000: 
STOP.FT              1727.7000: 
STEP.FT                 0.1000: 
NULL.                -999.2500: 
COMP.          Pioneer Natural Resources: COMPANY
WELL.          Warrior 33-1 Tr: WELL
FLD.           Purgatoire River: FIELD
LOC.           2648' FSL & 2341' FEL--: LOCATION
PROV.                 Colorado: PROVINCE
CNTY.               Las Animas: COUNTRY
SRVC.                Patterson: SERVICE COMPANY
DATE.          Sat Jun 18 07:53:12 2005: LOG DATE
UWI.           05 071 08412 00: UNIQUE WELL ID
~Curve Information Block
DEPT.FT            0 000 00 00: Depth
DCAL.in                       : CDL Caliper
RHOB.g/cc                     : CDL Bulk Density
RHOC.g/cc                     : CDL Density Correction
DPOR.pu                       : CDL Density Porosity
NPOR.pu                       : Neutron Porosity
GR.GAPI                       : Gamma Ray
~Parameter Information Block
~A  Depth       DCAL        RHOB        RHOC        DPOR        NPOR         GR     
# ...
   547.8000      8.1911      2.5505      0.0264      6.0323     17.7759     45.8266
   547.9000      8.1911      2.5699      0.0856      4.8550     17.4191     50.7837
   548.0000      8.1892      2.5748      0.0395      4.5549     17.3938     55.7983
   548.1000      8.1892      2.5750      0.0218      4.5429     17.8827     58.7467
   548.2000      8.1892      2.5762      0.0736      4.4754     18.4451     57.5976
   548.3000      8.1878      2.5685      0.0358      4.9368     18.7267     56.7233
   548.4000      8.1878      2.5605     -0.0002      5.4252     19.0995     61.2062
   548.5000      8.1872      2.5681      0.0396      4.9653     19.7596     67.7241
   548.6000      8.1872      2.5895      0.0694      3.6679     20.3657     70.3667
   548.7000      8.1872      2.6113      0.0870      2.3428     20.9792     69.7470
   548.8000      8.1881      2.6204      0.0808      1.7957     21.8498     69.9648
   548.9000      8.1881      2.6068      0.0970      2.6211     22.9555     74.5352
   549.0000      8.1967      2.5804      0.0084      4.2190     23.9069     85.3922
   549.1000      8.1967      2.5605      0.0659      5.4217     24.4999     99.0247
   549.2000      8.1967      2.5446      0.0588      6.3855     24.8955    108.8891
   549.3000      8.2129      2.5266      0.0508      7.4806     25.3170    111.3166
   549.4000      8.2129      2.5096      0.0491      8.5116     25.9229    108.7739
   549.5000      8.2312      2.4958     -0.0000      9.3478     26.8031    107.3263
   549.6000      8.2312      2.4861      0.0382      9.9351     27.8928    110.4068
   549.7000      8.2312      2.4765      0.0433     10.5150     28.7668    121.0706
   549.8000      8.2527      2.4685     -0.0022     10.9994     29.1353    137.1172
   549.9000      8.2527      2.4644      0.0752     11.2507     28.9904    145.7495
   550.0000      8.2766      2.4593      0.0577     11.5573     28.4284    139.1723
   550.1000      8.2766      2.4541      0.0693     11.8754     27.9106    125.2439
   550.2000      8.2766      2.4528      0.0553     11.9492     27.6802    118.0316
   550.3000      8.2891      2.4642      0.0392     11.2604     27.5465    120.9375
   550.4000      8.2891      2.4922      0.0872      9.5636     27.5833    126.0208
   550.5000      8.2804      2.5214      0.1122      7.7922     27.8792    128.0005
   550.6000      8.2804      2.5353      0.0864      6.9529     28.0155    127.1433
   550.7000      8.2804      2.5289      0.1133      7.3373     27.7217    123.8187
   550.8000      8.2698      2.5120      0.0370      8.3655     27.1686    119.5599
   550.9000      8.2698      2.5055      0.0452      8.7591     26.5804    117.4434
   551.0000      8.2671      2.5162      0.0448      8.1117     26.2835    121.3999
   551.1000      8.2671      2.5304      0.0693      7.2460     26.3439    132.4055
   551.2000      8.2671      2.5365      0.0777      6.8789     26.3414    144.5793
   551.3000      8.2607      2.5370      0.0439      6.8462     25.9923    149.2782
   551.4000      8.2607      2.5330      0.0296      7.0909     25.3213    142.4236
   551.5000      8.2462      2.5220      0.0225      7.7597     24.5470    129.0704
   551.6000      8.2462      2.5167     -0.0176      8.0790     23.9872    115.9065
   551.7000      8.2462      2.5275      0.0370      7.4234     23.6771    105.3577
   551.8000      8.2310      2.5483      0.0107      6.1663     23.4759     99.2201
   551.9000      8.2310      2.5761      0.0350      4.4790     23.4251     99.9093
   552.0000      8.2193      2.6119      0.0660      2.3078     23.4626    108.1480
   552.1000      8.2193      2.6465      0.0883      0.2127     23.4102    117.1046
   552.2000      8.2193      2.6645      0.1388     -0.8768     23.4171    119.1763
   552.3000      8.2137      2.6621      0.0879     -0.7343     23.9677    116.0492
   552.4000      8.2137      2.6559      0.0733     -0.3575     25.0060    111.8399
   552.5000      8.2142      2.6552      0.1100     -0.3180     25.7888    109.9920
   552.6000      8.2142      2.6445      0.0656      0.3343     25.9366    108.9371
   552.7000      8.2142      2.6070      0.0691      2.6070     25.6240    102.4838
   552.8000      8.2193      2.5527      0.0081      5.8992     25.1857     94.7650
   552.9000      8.2193      2.5138      0.0214      8.2549     25.1537     94.1780
   553.0000      8.2283      2.5018      0.0527      8.9843     25.6069     99.8915
   553.1000      8.2283      2.5036      0.0200      8.8724     26.0944    105.5989
   553.2000      8.2283      2.5170      0.0326      8.0608     26.2464    108.8140
   553.3000      8.2377      2.5407      0.0367      6.6268     26.1127    110.9460
   553.4000      8.2377      2.5569      0.0512      5.6430     26.2898    113.1598
   553.5000      8.2423      2.5522      0.0515      5.9266     26.8237    116.1158
   553.6000      8.2423      2.5382      0.0498      6.7739     26.9747    120.0707
   553.7000      8.2423      2.5433      0.0170      6.4654     26.6119    125.1008
   553.8000      8.2432      2.5756      0.1296      4.5121     26.0867    127.2159
   553.9000      8.2432      2.6030      0.1565      2.8483     25.5400    127.4605
   554.0000      8.2421      2.5986      0.1201      3.1180     25.1192    133.0262
   554.1000      8.2421      2.5713      0.0684      4.7718     24.9654    141.0028
   554.2000      8.2421      2.5433      0.0708      6.4694     25.1622    142.9095
   554.3000      8.2410      2.5259      0.0433      7.5199     25.5383    137.7433
   554.4000      8.2410      2.5178      0.0210      8.0148     25.1861    128.5548
   554.5000      8.2418      2.5141      0.0205      8.2349     23.8785    118.5129
   554.6000      8.2418      2.5239     -0.0155      7.6418     22.9708    112.5948
   554.7000      8.2418      2.5496      0.0838      6.0854     23.1824    111.9001
   554.8000      8.2425      2.5730      0.0296      4.6642     23.8004    112.0548
   554.9000      8.2425      2.5883      0.0230      3.7384     24.2092    110.1114
   555.0000      8.2429      2.5946      0.0845      3.3561     24.7349    108.2654
   555.1000      8.2429      2.5887      0.0356      3.7128     25.6544    111.7661
   555.2000      8.2429      2.5868      0.0225      3.8329     26.4279    118.3506
   555.3000      8.2447      2.5927      0.1159      3.4750     26.6932    121.4193
   555.4000      8.2447      2.5808      0.0926      4.1943     26.6049    121.3862
   555.5000      8.2524      2.5474      0.0313      6.2182     26.3326    117.4876
   555.6000      8.2524      2.5231     -0.0021      7.6923     26.0818    109.1650
   555.7000      8.2524      2.5235      0.0082      7.6656     25.8982    103.7807
   555.8000      8.2688      2.5290      0.0336      7.3316     25.8887    105.9896
   555.9000      8.2688      2.5185     -0.0219      7.9697     26.3054    109.8129
   556.0000      8.2820      2.5013      0.0101      9.0128     27.0049    109.8799
   556.1000      8.2820      2.4965      0.0283      9.3051     27.4843    112.8565
   556.2000      8.2820      2.5047      0.0322      8.8047     27.7986    120.6062
   556.3000      8.2860      2.5136      0.0359      8.2685     28.1867    121.2431
   556.4000      8.2860      2.5162      0.0269      8.1078     28.5831    112.8379
   556.5000      8.2884      2.5152      0.0260      8.1681     29.1165    107.8907
   556.6000      8.2884      2.5086      0.0949      8.5718     29.6299    112.1863
   556.7000      8.2884      2.4938     -0.0018      9.4681     29.3993    119.3025
   556.8000      8.2917      2.4780      0.0511     10.4213     28.5994    123.2592
   556.9000      8.2917      2.4675      0.0408     11.0624     28.1657    124.4607
   557.0000      8.2977      2.4711      0.0185     10.8441     28.1721    120.7621
   557.1000      8.2977      2.4910      0.0991      9.6379     28.3800    113.5388
   557.2000      8.2977      2.5065      0.1195      8.6979     28.6452    111.4039
   557.3000      8.3181      2.4983      0.0820      9.1930     28.8255    116.4930
