~Version Information
VERS.                      2.0: CWLS Log ASCII Standard - VERSION 2.0
WRAP.                       NO: One line per depth step
~Well Information Block
STRT.FT               -11.2500: 
STOP.FT              1597.0000: 
STEP.FT                 0.2500: 
NULL.                -999.2500: 
COMP.          Petrogulf Corporation: COMPANY
WELL.          Great Plains 22-21R: WELL
FLD.           Purgatorie River: FIELD
LOC.           73' FNL & 1992' FWL--: LOCATION
PROV.                       CO: PROVINCE
CNTY.               Las Animas: COUNTRY
SRVC.          Patterson Wireline: SERVICE COMPANY
DATE.          Fri Sep 09 09:02:35 2005: LOG DATE
UWI.           05 071 08343 00: UNIQUE WELL ID
~Curve Information Block
DEPT.FT            0 000 00 00: Depth
CCL.                          : Casing Collar Locator
TT3.usec                      : CBL 3' Travel Time
AMP3.mV                       : CBL 3' Amplitude
GR.GAPI                       : Gamma Ray
~Parameter Information Block
~A  Depth       CCL         TT3         AMP3         GR     
# ...
    89.2500      0.0000    301.2955     43.5845     96.9608
    89.5000      0.0000    301.3127     43.4566    100.8827
    89.7500      0.0000    301.3316     43.3050    102.0494
    90.0000      0.0000    301.3499     43.1346    100.7838
    90.2500      0.0000    301.3665     42.9528     98.2751
    90.5000      0.0000    301.3811     42.7679     95.1741
    90.7500      0.0000    301.3922     42.5862     91.2113
    91.0000      0.0000    301.3990     42.4066     86.1689
    91.2500      0.0000    301.4026     42.2180     81.0128
    91.5000      0.0000    301.4061     42.0068     77.5576
    91.7500      0.0000    301.4153     41.7652     76.6950
    92.0000      0.0000    301.4383     41.4901     77.1521
    92.2500      0.0000    301.4850     41.1790     76.3411
    92.5000      0.0000    301.5645     40.8313     72.5605
    92.7500      0.0000    301.6875     40.4540     66.5554
    93.0000      0.0000    301.8628     40.0615     61.2064
    93.2500      0.0000    302.0780     39.6676     59.6185
    93.5000      0.0000    302.2763     39.2809     62.9824
    93.7500      0.0000    302.3754     38.9058     69.8736
    94.0000      0.0000    302.3375     38.5487     77.4863
    94.2500      0.0000    302.2094     38.2216     83.6144
    94.5000      0.0000    302.0783     37.9418     87.6400
    94.7500      0.0000    302.0001     37.7221     90.0020
    95.0000      0.0000    302.0266     37.5573     91.1408
    95.2500      0.0000    302.3055     37.4159     91.1727
    95.5000      0.0000    303.6032     37.2273     90.3690
    95.7500      0.0000    308.2891     36.8601     89.4401
    96.0000      0.0000    321.2899     36.1204     89.0402
    96.2500      0.0000    348.3189     34.8542     89.0975
    96.5000      0.0000    389.0158     33.1335     88.7771
    96.7500      0.0000    430.0390     31.2988     87.1937
    97.0000      0.0000    450.0938     29.6936     84.2762
    97.2500      0.0000    437.7519     28.3803     80.9248
    97.5000      0.0000    402.6712     27.2345     78.1310
    97.7500      0.0000    366.0010     26.2270     76.1924
    98.0000      0.0000    342.6024     25.4465     75.0912
    98.2500     -2.0000    334.2865     24.9157     75.0941
    98.5000      2.0000    334.9893     24.5496     76.1920
    98.7500      0.0000    337.8542     24.2770     77.3131
    99.0000      0.0000    338.8116     24.1506     76.9445
    99.2500      0.0000    336.9765     24.3588     74.5898
    99.5000      0.0000    333.3466     25.1067     71.2786
    99.7500      0.0000    329.0207     26.3994     68.6684
   100.0000      0.0000    324.3599     27.9679     67.6884
   100.2500      0.0000    319.2849     29.5057     67.8393
   100.5000      0.0000    314.0380     30.9128     67.6770
   100.7500      0.0000    309.3630     32.2128     66.1040
   101.0000      0.0000    305.9705     33.3515     63.2066
   101.2500      0.0000    304.0063     34.2129     59.7920
   101.5000      0.0000    303.0938     34.7560     56.4782
   101.7500      0.0000    302.7340     35.0414     53.6403
   102.0000      0.0000    302.5878     35.1604     51.6869
   102.2500      0.0000    302.5080     35.1817     50.5699
   102.5000      0.0000    302.4535     35.1446     49.3591
   102.7500      0.0000    302.4211     35.0646     47.0966
   103.0000      0.0000    302.4096     34.9482     44.0006
   103.2500      0.0000    302.4134     34.8063     41.5208
   103.5000      0.0000    302.4237     34.6583     41.3687
   103.7500      0.0000    302.4322     34.5240     44.5278
   104.0000      0.0000    302.4340     34.4117     50.8301
   104.2500      0.0000    302.4301     34.3164     59.1803
   104.5000      0.0000    302.4257     34.2264     68.1217
   104.7500      0.0000    302.4271     34.1315     76.3647
   105.0000      0.0000    302.4371     34.0254     83.0988
   105.2500      0.0000    302.4550     33.9050     88.0668
   105.5000      0.0000    302.4779     33.7706     91.3761
   105.7500      0.0000    302.5028     33.6290     93.0995
   106.0000      0.0000    302.5277     33.4929     93.0578
   106.2500      0.0000    302.5528     33.3768     91.2358
   106.5000      0.0000    302.5800     33.2889     88.5671
   106.7500      0.0000    302.6120     33.2270     86.8943
   107.0000      0.0000    302.6492     33.1841     87.5800
   107.2500      0.0000    302.6896     33.1549     90.0897
   107.5000      0.0000    302.7298     33.1367     92.2943
   107.7500      0.0000    302.7664     33.1254     92.2551
   108.0000      0.0000    302.7987     33.1175     89.6490
   108.2500      0.0000    302.8280     33.1146     85.5947
   108.5000      0.0000    302.8562     33.1197     81.4358
   108.7500      0.0000    302.8838     33.1301     77.8502
   109.0000      0.0000    302.9103     33.1368     74.6838
   109.2500      0.0000    302.9351     33.1317     71.1177
   109.5000      0.0000    302.9574     33.1111     66.1660
   109.7500      0.0000    302.9774     33.0710     59.5533
   110.0000      0.0000    302.9980     33.0017     52.2683
   110.2500      0.0000    303.0242     32.8925     46.0578
   110.5000      0.0000    303.0619     32.7398     42.2126
   110.7500      0.0000    303.1143     32.5508     40.7701
   111.0000      0.0000    303.1814     32.3403     40.7803
   111.2500      0.0000    303.2607     32.1242     41.1160
   111.5000      0.0000    303.3486     31.9155     40.9142
   111.7500      0.0000    303.4405     31.7261     39.5389
   112.0000      0.0000    303.5270     31.5692     36.8486
   112.2500      0.0000    303.5951     31.4547     33.7760
   112.5000      0.0000    303.6345     31.3812     32.0802
   112.7500      0.0000    303.6459     31.3334     32.9092
   113.0000      0.0000    303.6401     31.2912     35.6208
   113.2500      0.0000    303.6290     31.2424     38.3772
   113.5000      0.0000    303.6178     31.1896     39.9569
   113.7500      0.0000    303.6046     31.1433     40.6131
   114.0000      0.0000    303.5865     31.1086     41.0823
   114.2500      0.0000    303.5652     31.0766     41.4206
   114.5000      0.0000    303.5474     31.0277     41.2127
   114.7500      0.0000    303.5406     30.9436     40.3405
   115.0000      0.0000    303.5467     30.8151     39.0689
   115.2500      0.0000    303.5613     30.6413     37.8179
   115.5000      0.0000    303.5775     30.4271     37.1345
   115.7500      0.0000    303.5918     30.1836     37.4249
   116.0000      0.0000    303.6075     29.9270     38.5264
   116.2500      0.0000    303.6331     29.6737     39.9993
   116.5000      0.0000    303.6765     29.4367     41.9469
   116.7500      0.0000    303.7376     29.2264     45.0662
   117.0000      0.0000    303.8051     29.0541     49.5872
   117.2500      0.0000    303.8618     28.9291     54.3573
   117.5000      0.0000    303.8943     28.8522     57.2542
   117.7500      0.0000    303.9010     28.8098     56.6645
   118.0000      0.0000    303.8893     28.7782     52.7167
   118.2500      0.0000    303.8659     28.7354     47.1724
   118.5000      0.0000    303.8347     28.6708     42.1199
   118.7500      0.0000    303.8022     28.5861     38.7555
   119.0000      0.0000    303.7813     28.4906     37.1539
   119.2500      0.0000    303.7840     28.3950     36.6847
   119.5000      0.0000    303.8110     28.3073     36.5055
   119.7500      0.0000    303.8503     28.2322     36.1351
   120.0000      0.0000    303.8860     28.1723     35.7893
   120.2500      0.0000    303.9084     28.1294     35.9628
   120.5000      0.0000    303.9174     28.1081     36.7798
   120.7500      0.0000    303.9189     28.1154     37.9852
   121.0000      0.0000    303.9180     28.1552     39.2656
   121.2500      0.0000    303.9147     28.2223     40.2464
   121.5000      0.0000    303.9059     28.3026     40.5194
   121.7500      0.0000    303.8891     28.3797     40.1932
   122.0000      0.0000    303.8633     28.4430     40.2590
   122.2500      0.0000    303.8280     28.4919     41.9030
   122.5000      0.0000    303.7828     28.5330     45.4528
