~Version Information
 VERS.                                  2.0 : CWLS LAS VERSION
 WRAP.                                   NO : WRAPING MODE
 SWARE .                 MController 2.5.0J : SOFTWARE VERSION
~Well Information
 WELL.                        Montoya 1-24V : WELL
 COMP.                       Petrogulf Corp : COMPANY
 FLD.                      Purgatoire River : FIELD
 LOC.                 SE/SW Sec 1 T33S R68W : LOCATION
 DATE.                          10/19-20/04 : DATE(S) LOGGED
 SRVC.       Blanco Geological Services LLC : SERVICE COMPANY
 STAT.                                   CO : STATE
 CNTY.                           Las Animas : COUNTY
 CTRY.                                  USA : COUNTRY
 API.                       05-071-08194-00 : API NUMBER
 STRT.FT                             116.00 : START DEPTH
 STOP.FT                            2700.00 : STOP DEPTH
 STEP.FT                               1.00 : DEPTH INCREMENT
 NULL.                                -9999 : NULL VALUE
~Curve information
 DEPTH.FT                                   :
 ROP.MIN/FT                                 :
 GAS.UNITS                                  :
~ASCII Log data
# ...
      1916.0         0.37         77.2 
      1917.0         0.37         64.5 
      1918.0         0.37         45.3 
      1919.0         0.30         28.4 
      1920.0         0.23         24.5 
      1921.0         0.27         19.3 
      1922.0         0.27         16.2 
      1923.0         0.27         16.1 
      1924.0         0.27         15.5 
      1925.0         0.27         14.7 
      1926.0         0.28         12.6 
      1927.0         0.20         13.3 
      1928.0         0.20         13.0 
      1929.0         0.23         12.8 
      1930.0         0.20         12.3 
      1931.0         0.20         12.2 
      1932.0         0.27         11.3 
      1933.0         0.30         11.3 
      1934.0         0.27         11.9 
      1935.0         0.23         12.4 
      1936.0         0.23         12.4 
      1937.0         0.23         14.5 
      1938.0         0.20         19.3 
      1939.0         0.20         19.3 
      1940.0         0.23         18.6 
      1941.0         0.28         15.1 
      1942.0         0.23         14.1 
      1943.0         0.23         13.0 
      1944.0         0.27         11.1 
      1945.0         2.20         10.3 
      1946.0         0.48          3.5 
      1947.0         0.37          3.7 
      1948.0         0.53        129.6 
      1949.0         0.37         23.8 
      1950.0         0.37         17.9 
      1951.0         0.37         15.8 
      1952.0         0.27         14.7 
      1953.0         0.53         13.6 
      1954.0         0.23         11.7 
      1955.0         0.20         11.2 
      1956.0         0.17         11.0 
      1957.0         0.25         10.8 
      1958.0         0.20         10.6 
      1959.0         0.17         10.4 
      1960.0         0.17         10.3 
      1961.0         0.17         11.1 
      1962.0         0.13         24.1 
      1963.0         0.20          8.3 
      1964.0         0.17          8.3 
      1965.0         0.20          6.7 
      1966.0         0.17          6.0 
      1967.0         0.20          6.0 
      1968.0         0.17          5.8 
      1969.0         0.10          5.9 
      1970.0         0.10          5.3 
      1971.0         0.13          5.3 
      1972.0         0.13          5.6 
      1973.0         0.10          5.6 
      1974.0         0.13          5.6 
      1975.0         0.17          8.0 
      1976.0         0.37         17.4 
      1977.0         0.27         45.1 
      1978.0         0.43         60.4 
      1979.0         0.33         71.6 
      1980.0         0.33         63.7 
      1981.0         0.32         41.7 
      1982.0         0.27         22.5 
      1983.0         0.27         18.2 
      1984.0         0.20         12.7 
      1985.0         0.23          9.5 
      1986.0         0.27          9.3 
      1987.0         0.27         10.2 
      1988.0         0.27         10.5 
      1989.0         0.33         11.2 
      1990.0         0.37         10.3 
      1991.0         0.33          9.0 
      1992.0         0.27          9.1 
      1993.0         0.32          9.2 
      1994.0         0.27          9.3 
      1995.0         0.27          9.5 
      1996.0         0.23          9.0 
      1997.0         0.20          8.4 
      1998.0         0.23          6.6 
      1999.0         0.23          4.3 
      2000.0         0.27          4.1 
      2001.0         0.27          3.6 
      2002.0         0.27          3.5 
      2003.0         0.30          2.9 
      2004.0         0.33          2.7 
      2005.0         0.32          2.6 
      2006.0         0.30          2.7 
      2007.0         0.40          2.7 
      2008.0         0.27          3.1 
      2009.0         0.43          3.0 
      2010.0         0.23          3.0 
      2011.0         0.20          2.6 
      2012.0         0.13          2.7 
      2013.0         0.10          2.7 
      2014.0         0.20          2.5 
      2015.0         0.23          2.8 
      2016.0         0.23          2.4 
      2017.0         0.33          2.5 
      2018.0         0.37          2.4 
      2019.0         0.45          2.4 
      2020.0         0.47          2.4 
      2021.0         0.30          2.3 
      2022.0         0.17          2.2 
      2023.0         0.23          2.2 
      2024.0         0.27          2.3 
      2025.0         0.23          2.0 
      2026.0         0.23          2.1 
      2027.0         0.23          2.3 
      2028.0         0.23          2.2 
      2029.0         0.23          2.0 
      2030.0         0.23          2.0 
      2031.0         0.20          1.5 
      2032.0         0.25          1.5 
      2033.0         0.20          1.5 
      2034.0         0.23          1.7 
      2035.0         0.20          1.7 
      2036.0         0.23          1.5 
      2037.0         0.23          1.7 
      2038.0         0.23          1.5 
      2039.0         0.27          1.7 
      2040.0         0.27          1.8 
      2041.0         0.63          1.9 
      2042.0         0.43          1.9 
      2043.0         0.37          1.7 
      2044.0         0.37          1.6 
      2045.0         0.40          1.5 
      2046.0         0.38          1.2 
      2047.0         0.30          0.9 
      2048.0         0.27          1.1 
      2049.0         0.30          1.0 
      2050.0         0.27          0.8 
      2051.0         0.27          1.1 
      2052.0         0.23          1.1 
      2053.0         0.23          0.9 
      2054.0         0.23          1.2 
      2055.0         0.23          0.9 
      2056.0         0.23          1.0 
      2057.0         0.20          0.9 
      2058.0         0.23          1.0 
      2059.0         0.25          1.3 
      2060.0         0.23          1.0 
      2061.0         0.23          0.9 
      2062.0         0.27          1.1 
      2063.0         0.23          0.9 
      2064.0         0.23          1.0 
      2065.0         0.23          1.0 
      2066.0         0.20          1.0 
      2067.0         0.23          1.1 
      2068.0         0.20          1.1 
      2069.0         0.23          1.0 
      2070.0         0.23          0.8 
      2071.0         0.27          0.7 
      2072.0         0.47          1.0 
      2073.0         0.40          1.2 
      2074.0         0.37          1.1 
      2075.0         0.35          1.2 
      2076.0         0.33          1.1 
      2077.0         0.33          0.7 
      2078.0         0.37          0.8 
      2079.0         0.37          0.9 
      2080.0         0.33          0.9 
      2081.0         0.27          0.7 
      2082.0         0.27          1.1 
      2083.0         0.23          1.1 
      2084.0         0.23          0.7 
      2085.0         0.37          1.0 
      2086.0         0.35          0.9 
      2087.0         0.27          0.7 
      2088.0         0.23          0.8 
      2089.0         0.27          0.9 
      2090.0         0.23          0.9 
      2091.0         0.13          0.7 
      2092.0         0.17          0.7 
      2093.0         0.27          0.7 
      2094.0         0.27          1.0 
      2095.0         0.27          0.6 
      2096.0         0.27          0.5 
      2097.0         0.27          0.8 
      2098.0         0.23          1.0 
      2099.0         0.20          0.3 
      2100.0         0.25          0.7 
      2101.0         0.23          1.0 
      2102.0         0.20          0.7 
      2103.0         0.27          0.4 
      2104.0         0.23          0.8 
      2105.0         0.23          0.7 
      2106.0         0.43          0.6 
      2107.0         0.43          0.8 
      2108.0         0.33          0.6 
      2109.0         0.30          0.7 
      2110.0         0.27          0.4 
      2111.0         0.27          0.8 
      2112.0         0.20          0.6 
      2113.0         0.23          0.6 
      2114.0         0.25          0.7 
      2115.0         0.23          0.7 
