~Version Information
 VERS.                                  2.0 : CWLS LAS VERSION
 WRAP.                                   NO : WRAPING MODE
 SWARE .                 MController 2.5.0I : SOFTWARE VERSION
~Well Information
 WELL.                                  N/A : WELL
 COMP.                                  N/A : COMPANY
 FLD.                                   N/A : FIELD
 LOC.                                   N/A : LOCATION
 DATE.                                  N/A : DATE(S) LOGGED
 SRVC.                                  N/A : SERVICE COMPANY
 STAT.                                  N/A : STATE
 CNTY.                                  N/A : COUNTY
 CTRY.                                  N/A : COUNTRY
 API.                                   N/A : API NUMBER
 STRT.FT                             801.00 : START DEPTH
 STOP.FT                            2405.00 : STOP DEPTH
 STEP.FT                               1.00 : DEPTH INCREMENT
 NULL.                                -9999 : NULL VALUE
~Curve information
 DEPTH.FT                                   :
 ROP.MIN/FT                                 :
 GAS.UNITS                                  :
~ASCII Log data
# ...
      1401.0          0.3         23.9 
      1402.0          0.4         24.1 
      1403.0          0.3         23.8 
      1404.0          0.3         24.2 
      1405.0          0.3         24.9 
      1406.0          0.3         25.2 
      1407.0          0.3         25.1 
      1408.0          0.3         25.4 
      1409.0          0.3         25.6 
      1410.0          3.0         94.5 
      1411.0          0.5         49.3 
      1412.0          0.6         36.7 
      1413.0          0.9         38.4 
      1414.0          0.7         35.8 
      1415.0          0.5         25.3 
      1416.0          0.4         23.0 
      1417.0          0.5         23.2 
      1418.0          0.4         22.8 
      1419.0          0.3         22.8 
      1420.0          0.3         23.0 
      1421.0          0.5         23.3 
      1422.0          0.4         23.0 
      1423.0          0.4         22.2 
      1424.0          0.5         22.4 
      1425.0          0.6         22.5 
      1426.0          0.2         22.0 
      1427.0          0.2         22.3 
      1428.0          0.3         22.3 
      1429.0          0.2         22.1 
      1430.0          0.3         21.9 
      1431.0          0.3         21.7 
      1432.0          0.4         21.8 
      1433.0          0.3         22.1 
      1434.0          0.4         22.7 
      1435.0          0.5         23.7 
      1436.0          0.4         25.3 
      1437.0          0.4         26.2 
      1438.0          0.6         26.4 
      1439.0          0.6         25.6 
      1440.0          3.9        101.9 
      1441.0          1.0         57.1 
      1442.0          0.8         29.4 
      1443.0          0.5         29.1 
      1444.0          0.5         27.7 
      1445.0          0.7         26.5 
      1446.0          0.5         24.0 
      1447.0          0.4         22.9 
      1448.0          0.4         23.3 
      1449.0          0.4         23.6 
      1450.0          0.5         23.8 
      1451.0          0.4         23.5 
      1452.0          0.3         23.6 
      1453.0          0.2         24.0 
      1454.0          0.2         24.1 
      1455.0          0.3         25.0 
      1456.0          0.3         25.6 
      1457.0          0.3         26.3 
      1458.0          0.2         26.6 
      1459.0          0.3         26.6 
      1460.0          0.2         26.5 
      1461.0          0.3         26.2 
      1462.0          0.3         26.0 
      1463.0          0.3         25.7 
      1464.0          0.4         25.8 
      1465.0          0.4         25.9 
      1466.0          0.4         26.4 
      1467.0          0.4         26.3 
      1468.0          0.4         26.0 
      1469.0          0.4         24.8 
      1470.0          5.5        143.5 
      1471.0          0.5         30.7 
      1472.0          0.6         30.5 
      1473.0          0.5         26.3 
      1474.0          0.5         24.8 
      1475.0          0.4         24.3 
      1476.0          0.4         24.2 
      1477.0          0.3         23.8 
      1478.0          0.2         23.7 
      1479.0          0.3         23.8 
      1480.0          0.3         25.0 
      1481.0          0.4         25.8 
      1482.0          0.3         25.9 
      1483.0          0.3         26.0 
      1484.0          0.3         26.1 
      1485.0          0.3         26.2 
      1486.0          0.3         26.2 
      1487.0          0.4         26.7 
      1488.0          0.2         26.6 
      1489.0          0.2         26.5 
      1490.0          0.4         27.2 
      1491.0          0.3         27.6 
      1492.0          0.5         27.7 
      1493.0          0.6         27.1 
      1494.0          0.5         25.5 
      1495.0          0.3         24.8 
      1496.0          0.3         24.6 
      1497.0          0.4         25.0 
      1498.0          0.3         25.7 
      1499.0          0.3         26.4 
      1500.0         10.8        122.3 
      1501.0         11.9        338.6 
      1502.0          1.1         28.0 
      1503.0          0.8         31.4 
      1504.0          0.7         33.8 
      1505.0          0.8         33.8 
      1506.0          0.7         32.7 
      1507.0          0.6         32.8 
      1508.0          0.6         33.8 
      1509.0          1.2         34.0 
      1510.0          1.1         32.6 
      1511.0          0.9         31.8 
      1512.0          0.6         31.9 
      1513.0          0.7         33.3 
      1514.0          0.8         33.8 
      1515.0          0.9         33.7 
      1516.0          0.8         32.7 
      1517.0          0.7         32.1 
      1518.0          0.7         33.1 
      1519.0          0.8         33.5 
      1520.0          0.8         33.5 
      1521.0          0.3         32.9 
      1522.0          0.4         33.1 
      1523.0          0.5         35.5 
      1524.0          0.5         37.6 
      1525.0          0.8         36.3 
      1526.0          0.6         32.6 
      1527.0          0.4         30.7 
      1528.0          0.4         29.7 
      1529.0          0.3         30.4 
      1530.0          5.0        182.5 
      1531.0          0.8        181.8 
      1532.0          4.3         57.6 
      1533.0          0.6         24.6 
      1534.0          0.6         31.2 
      1535.0          0.7         34.7 
      1536.0          0.8         34.7 
      1537.0          0.8         34.5 
      1538.0          0.8         33.0 
      1539.0          0.9         34.2 
      1540.0          0.9         34.4 
      1541.0          1.0         34.0 
      1542.0          1.0         32.6 
      1543.0          1.0         31.8 
      1544.0          1.0         30.5 
      1545.0          0.9         32.0 
      1546.0          0.9         33.3 
      1547.0          0.9         33.5 
      1548.0          0.8         33.3 
      1549.0          0.9         33.2 
      1550.0          0.9         33.3 
      1551.0          0.8         33.7 
      1552.0          0.8         33.4 
      1553.0          0.9         32.7 
      1554.0          0.9         32.9 
      1555.0          0.9         33.1 
      1556.0          0.9         33.0 
      1557.0          0.9         33.3 
      1558.0          0.8         32.9 
      1559.0          0.8         32.9 
      1560.0         15.1        133.1 
      1561.0          0.4         30.7 
      1562.0          0.4         28.0 
      1563.0          0.4         24.8 
      1564.0          0.4         26.7 
      1565.0          0.5         30.1 
      1566.0          0.6         32.2 
      1567.0          0.8         37.7 
      1568.0          1.5         37.6 
      1569.0          1.6         33.3 
      1570.0          1.0         27.5 
      1571.0          1.0         28.2 
      1572.0          1.1         29.5 
      1573.0          1.1         29.7 
      1574.0          0.9         29.4 
      1575.0          2.5         30.6 
      1576.0          1.5         28.9 
      1577.0          0.7         25.7 
      1578.0          0.5         29.3 
      1579.0          0.5         30.5 
      1580.0          0.5         30.4 
      1581.0          0.4         29.3 
      1582.0          0.4         28.6 
      1583.0          0.4         27.8 
      1584.0          0.6         28.1 
      1585.0          0.4         27.9 
      1586.0          0.5         27.6 
      1587.0          0.2         27.8 
      1588.0          0.1         27.7 
      1589.0          0.1         26.3 
      1590.0          5.4        201.7 
      1591.0          1.2         39.2 
      1592.0          1.0         35.3 
      1593.0          0.6         25.8 
      1594.0          0.4         27.5 
      1595.0          0.5         28.4 
      1596.0          0.5         28.1 
      1597.0          0.6         26.9 
      1598.0          0.5         25.2 
      1599.0          0.5         25.4 
      1600.0          0.4         26.1 
