~Version Information
VERS.                      2.0: CWLS Log ASCII Standard - VERSION 2.0
WRAP.                       NO: One line per depth step
~Well Information Block
STRT.FT               890.0000: 
STOP.FT              1588.2000: 
STEP.FT                 0.1000: 
NULL.                -999.2500: 
COMP.          Evergreen Operating Corporation: COMPANY
WELL.            Tomahawk 44-9: WELL
FLD.           Purgatorie River: FIELD
LOC.           434' FSL & 491' FEL: LOCATION
PROV.                 Colorado: PROVINCE
CNTY.               Las Animas: COUNTRY
SRVC.                         : SERVICE COMPANY
DATE.          Mon Sep 13 10:07:57 2004: LOG DATE
UWI.           05 071 08133 00: UNIQUE WELL ID
~Curve Information Block
DEPT.FT            0 000 00 00: Depth
LTEN.lb                       : Surface Line Tension
DCAL.in                       : CDL Caliper
RHOB.g/cc                     : CDL Bulk Density
RHOC.g/cc                     : CDL Density Correction
DPOR.pu                       : CDL Density Porosity
GR.GAPI                       : Gamma Ray
NPOR.pu                       : Neutron Porosity
~Parameter Information Block
~A  Depth       LTEN        DCAL        RHOB        RHOC        DPOR         GR         NPOR    
# ...
  1352.0000   1033.7567      8.0049      2.4471      0.0558     12.2954    103.9452     25.3100
  1352.1000   1033.7567      8.0049      2.4419      0.0418     12.6113    100.7470     26.3706
  1352.2000   1033.7567      8.0049      2.4369      0.0143     12.9134    101.0123     27.3369
  1352.3000   1095.7722      8.0050      2.4414      0.0048     12.6426    103.4283     27.1599
  1352.4000   1095.7722      8.0050      2.4610      0.0552     11.4575    102.8667     25.9668
  1352.5000   1042.8992      8.0051      2.4850      0.0534     10.0024     97.0254     25.0382
  1352.6000   1042.8992      8.0051      2.4933      0.0709      9.4952     88.7539     24.9922
  1352.7000   1042.8992      8.0051      2.4804      0.0369     10.2817     84.8567     25.1477
  1352.8000   1030.8427      8.0039      2.4622      0.0083     11.3796     89.2229     24.8574
  1352.9000   1030.8427      8.0039      2.4540      0.0321     11.8795     98.6807     24.8008
  1353.0000   1063.2987      8.0046      2.4530      0.0450     11.9377    105.8791     25.1257
  1353.1000   1063.2987      8.0046      2.4491      0.0584     12.1764    105.9628     24.7328
  1353.2000   1063.2987      8.0046      2.4430      0.0194     12.5452    101.9962     23.8679
  1353.3000   1000.3120      8.0062      2.4465     -0.0129     12.3349    101.2354     24.0611
  1353.4000   1000.3120      8.0062      2.4583      0.0597     11.6198    105.4876     25.2857
  1353.5000   1090.3440      8.0066      2.4713     -0.0060     10.8322    109.6145     26.0151
  1353.6000   1090.3440      8.0066      2.4887      0.0713      9.7770    108.4917     25.8439
  1353.7000   1090.3440      8.0066      2.5010      0.0960      9.0294    104.5533     25.4411
  1353.8000   1013.9794      8.0063      2.4945      0.0840      9.4250    101.1605     24.8183
  1353.9000   1013.9794      8.0063      2.4752      0.0489     10.5913     98.3189     23.8380
  1354.0000   1088.0084      8.0118      2.4533      0.0343     11.9229     96.7695     23.0156
  1354.1000   1088.0084      8.0118      2.4267      0.0386     13.5336     96.0351     22.8015
  1354.2000   1088.0084      8.0118      2.3975     -0.0064     15.3038     95.4411     23.3213
  1354.3000   1051.9285      8.0349      2.3791      0.0017     16.4180     96.3310     24.4869
  1354.4000   1051.9285      8.0349      2.3733      0.0466     16.7691     99.4886     25.6245
  1354.5000   1034.3195      8.0391      2.3709      0.0005     16.9157    103.6817     26.1190
  1354.6000   1034.3195      8.0391      2.3722      0.0155     16.8354    105.4600     26.1487
  1354.7000   1034.3195      8.0391      2.3806      0.0431     16.3292    103.3889     26.2642
  1354.8000   1074.9895      8.0399      2.3967      0.0425     15.3536     99.6275     26.3444
  1354.9000   1074.9895      8.0399      2.4198      0.0539     13.9523     94.1918     25.7965
  1355.0000   1025.7892      8.0387      2.4408      0.0811     12.6804     89.1072     24.9581
  1355.1000   1025.7892      8.0387      2.4527      0.1079     11.9586     90.8759     24.7544
  1355.2000   1025.7892      8.0387      2.4622      0.1180     11.3796     97.0672     25.0884
  1355.3000   1058.8198      8.0350      2.4789      0.0522     10.3706    101.6669     25.1117
  1355.4000   1058.8198      8.0350      2.5034      0.0802      8.8861    107.0363     24.6388
  1355.5000   1054.0366      8.0374      2.5262      0.0666      7.5016    113.8283     24.3162
  1355.6000   1054.0366      8.0374      2.5460      0.0729      6.3041    118.3861     24.7766
  1355.7000   1054.0366      8.0374      2.5683      0.0664      4.9502    116.1586     25.6502
  1355.8000   1012.1727      8.0397      2.5865      0.0970      3.8503    103.3254     25.6714
  1355.9000   1012.1727      8.0397      2.5875      0.0961      3.7907     89.7080     24.5733
  1356.0000   1098.3940      8.0357      2.5703      0.0725      4.8305     89.3285     23.4731
  1356.1000   1098.3940      8.0357      2.5450      0.0431      6.3621     98.1838     23.5555
  1356.2000   1098.3940      8.0357      2.5247      0.0277      7.5966    102.3440     24.6160
  1356.3000   1021.6346      8.0322      2.5135      0.0451      8.2714     99.3558     25.3780
  1356.4000   1021.6346      8.0322      2.5062      0.0454      8.7160     96.5570     25.4875
  1356.5000   1110.9055      8.0318      2.5021      0.0523      8.9651     96.8397     25.3925
  1356.6000   1110.9055      8.0318      2.5006      0.0738      9.0548     96.3552     24.8321
  1356.7000   1110.9055      8.0318      2.4899      0.1070      9.7057     93.7655     23.7860
  1356.8000   1068.1102      8.0343      2.4625      0.0487     11.3622     93.7543     23.5632
  1356.9000   1068.1102      8.0343      2.4246      0.0516     13.6590     98.2726     24.7207
  1357.0000   1071.4115      8.0355      2.3802      0.0335     16.3532    101.8775     25.8981
  1357.1000   1071.4115      8.0355      2.3379      0.0274     18.9135    100.0781     25.9572
  1357.2000   1071.4115      8.0355      2.3156      0.0371     20.2663     97.1445     25.4572
  1357.3000   1086.7137      8.0409      2.3163      0.0439     20.2265     96.9921     25.2730
  1357.4000   1086.7137      8.0409      2.3269      0.0343     19.5806     98.0631     25.6359
  1357.5000   1031.1918      8.0611      2.3413      0.0533     18.7086     99.0794     26.3162
  1357.6000   1031.1918      8.0611      2.3642      0.0617     17.3235     98.3370     27.0163
  1357.7000   1031.1918      8.0611      2.3988      0.0787     15.2214     95.2941     27.5582
  1357.8000   1113.7770      8.0913      2.4440      0.0979     12.4828     93.2900     27.3512
  1357.9000   1113.7770      8.0913      2.4879      0.1147      9.8248     95.9665     26.4377
  1358.0000   1047.1312      8.0854      2.5072      0.1337      8.6516    101.6818     26.0129
  1358.1000   1047.1312      8.0854      2.5008      0.0348      9.0428    104.2766     26.2899
  1358.2000   1047.1312      8.0854      2.4942      0.0139      9.4433    103.6087     26.2277
  1358.3000   1030.1028      8.0628      2.5037      0.0163      8.8643    102.3440     25.4045
  1358.4000   1030.1028      8.0628      2.5252      0.0391      7.5628    100.6709     24.5086
  1358.5000   1087.4553      8.0199      2.5404      0.0400      6.6401    101.6803     23.9214
  1358.6000   1087.4553      8.0199      2.5338      0.0519      7.0412    106.0626     23.3110
  1358.7000   1087.4553      8.0199      2.5074      0.0472      8.6417    111.0404     22.7018
  1358.8000   1026.1074      7.9905      2.4787      0.0001     10.3810    113.9943     22.5287
  1358.9000   1026.1074      7.9905      2.4646      0.0043     11.2371    113.1189     22.6936
  1359.0000   1108.1084      7.9882      2.4684     -0.0140     11.0040    112.0751     22.7869
  1359.1000   1108.1084      7.9882      2.4836      0.0528     10.0870    113.9365     22.7909
  1359.2000   1108.1084      7.9882      2.4983      0.0604      9.1943    115.4157     23.0143
  1359.3000   1058.4001      7.9911      2.5020      0.0275      8.9695    114.8553     23.5232
  1359.4000   1058.4001      7.9911      2.4943      0.0535      9.4337    112.1753     24.2203
  1359.5000   1045.2925      7.9951      2.4908      0.0303      9.6477    109.5328     24.5789
  1359.6000   1045.2925      7.9951      2.5092      0.0543      8.5333    109.9309     24.3606
  1359.7000   1045.2925      7.9951      2.5469      0.0741      6.2508    111.2557     24.2303
  1359.8000   1062.6272      7.9921      2.5914      0.0924      3.5542    109.4009     24.4763
  1359.9000   1062.6272      7.9921      2.6343      0.1290      0.9509    103.4038     24.6954
  1360.0000   1029.8378      7.9935      2.6647      0.1588     -0.8879     97.1841     24.3743
  1360.1000   1029.8378      7.9935      2.6736      0.1271     -1.4314     96.7738     23.5859
  1360.2000   1029.8378      7.9935      2.6657      0.1550     -0.9495    101.3955     23.2630
  1360.3000   1091.7944      7.9929      2.6507      0.1494     -0.0409    104.4169     23.8644
