~Version Information
VERS.                      2.0: CWLS Log ASCII Standard - VERSION 2.0
WRAP.                       NO: One line per depth step
~Well Information Block
STRT.FT                -7.5000: 
STOP.FT              2226.0000: 
STEP.FT                 0.2500: 
NULL.                -999.2500: 
COMP.          Pioneer Natural Resources: COMPANY
WELL.              Tonto 42-23: WELL
FLD.           Purgatorie River: FIELD
LOC.           2217' FNL & 423' FEL----: LOCATION
PROV.                       CO: PROVINCE
CNTY.               Las Animas: COUNTRY
SRVC.          Patterson Wireline: SERVICE COMPANY
DATE.          Fri Apr 22 11:40:07 2005: LOG DATE
UWI.           05 071 08335 00: UNIQUE WELL ID
~Curve Information Block
DEPT.FT            0 000 00 00: Depth
CCL.                          : Casing Collar Locator
TT3.usec                      : CBL 3' Travel Time
AMP3.mV                       : CBL 3' Amplitude
GR.GAPI                       : Gamma Ray
~Parameter Information Block
~A  Depth       CCL         TT3         AMP3         GR     
# ...
  1165.0000      0.0000    507.9526      9.1796    120.7273
  1165.2500      0.0000    461.6028      9.0080    123.3000
  1165.5000      0.0000    434.8490      8.7570    124.2673
  1165.7500      0.0000    435.0869      8.4265    125.1028
  1166.0000      0.0000    463.3419      8.0873    126.7661
  1166.2500      0.0000    514.1752      7.8559    128.5746
  1166.5000      0.0000    575.5957      7.8317    129.1577
  1166.7500      0.0000    633.2012      8.0340    128.3397
  1167.0000      0.0000    677.4387      8.3864    127.5229
  1167.2500      0.0000    706.8181      8.7630    128.1601
  1167.5000      0.0000    724.7065      9.0590    130.4196
  1167.7500      0.0000    734.7023      9.2273    133.7114
  1168.0000      0.0000    738.9146      9.2755    138.0791
  1168.2500      0.0000    738.8304      9.2536    144.2524
  1168.5000      0.0000    736.2451      9.2400    152.0370
  1168.7500      0.0000    732.9747      9.3044    159.1013
  1169.0000      0.0000    729.8162      9.4536    162.0911
  1169.2500      0.0000    725.7836      9.6091    159.5263
  1169.5000      0.0000    717.9846      9.6437    153.7394
  1169.7500      0.0000    702.9520      9.4410    149.3123
  1170.0000      0.0000    680.1794      8.9453    149.0034
  1170.2500      0.0000    655.1071      8.2020    151.2334
  1170.5000      0.0000    635.4937      7.3775    151.5201
  1170.7500      0.0000    622.0815      6.7108    146.0264
  1171.0000      0.0000    605.9174      6.3896    133.9768
  1171.2500      0.0000    579.0692      6.4389    117.5443
  1171.5000      0.0000    545.3322      6.7172    100.1979
  1171.7500      0.0000    515.7563      7.0154     85.2729
  1172.0000      2.0000    495.9871      7.1823     75.2740
  1172.2500      2.0000    484.0775      7.2026     71.3030
  1172.5000     -2.0000    479.2391      7.2032     72.5662
  1172.7500      0.0000    485.0017      7.3784     76.6954
  1173.0000      0.0000    501.0838      7.8484     81.1335
  1173.2500      0.0000    517.5219      8.5346     84.6011
  1173.5000      0.0000    521.0862      9.1897     87.2776
  1173.7500      0.0000    506.7469      9.5925     89.6129
  1174.0000      0.0000    482.4652      9.7179     91.3412
  1174.2500      0.0000    464.3266      9.7068     91.8277
  1174.5000      0.0000    465.0999      9.7018     90.9836
  1174.7500      0.0000    483.4083      9.7324     89.4237
  1175.0000      0.0000    503.6008      9.7325     87.8559
  1175.2500      0.0000    509.7677      9.6410     86.6124
  1175.5000      0.0000    500.6541      9.4854     85.7360
  1175.7500      0.0000    487.7381      9.3660     85.2422
  1176.0000      0.0000    479.3047      9.3537     85.1244
  1176.2500      0.0000    472.4579      9.4108     85.1217
  1176.5000      0.0000    462.2718      9.4286     84.7560
  1176.7500      0.0000    452.0013      9.3393     83.8298
  1177.0000      0.0000    448.6686      9.1872     82.6645
  1177.2500      0.0000    451.7435      9.0899     81.5763
  1177.5000      0.0000    452.0183      9.1306     80.2729
  1177.7500      0.0000    442.0406      9.2835     78.0590
  1178.0000      0.0000    423.7912      9.4376     74.7228
  1178.2500      0.0000    404.9694      9.4909     71.0168
  1178.5000      0.0000    391.1208      9.4286     68.0422
  1178.7500      0.0000    383.2523      9.3240     66.1240
  1179.0000      0.0000    380.1918      9.2714     64.4821
  1179.2500      0.0000    380.6798      9.3061     62.2488
  1179.5000      0.0000    384.3474      9.3785     59.8115
  1179.7500      0.0000    393.5318      9.4072     58.7858
  1180.0000      0.0000    414.6117      9.3621     60.4984
  1180.2500      0.0000    454.9028      9.2980     64.8330
  1180.5000      0.0000    515.3046      9.3062     70.7846
  1180.7500      0.0000    586.0858      9.4231     77.5940
  1181.0000      0.0000    652.2343      9.5839     84.5598
  1181.2500      0.0000    703.3655      9.6717     90.1056
  1181.5000      0.0000    737.8047      9.6203     92.3427
  1181.7500      0.0000    759.3795      9.4745     90.9362
  1182.0000      0.0000    773.5141      9.3499     87.5255
  1182.2500      0.0000    785.6437      9.3272     83.8728
  1182.5000      0.0000    799.7178      9.3831     80.2860
  1182.7500      0.0000    816.3087      9.4295     76.2064
  1183.0000      0.0000    832.6824      9.4168     71.8128
  1183.2500      0.0000    845.3425      9.3842     68.5195
  1183.5000      0.0000    852.4656      9.4033     67.8986
  1183.7500      0.0000    854.3688      9.4856     70.1958
  1184.0000      0.0000    852.7548      9.5706     73.9103
  1184.2500      0.0000    850.0378      9.6086     76.9874
  1184.5000      0.0000    848.4875      9.6301     78.5899
  1184.7500      0.0000    848.5343      9.7139     79.5326
  1185.0000      0.0000    847.0441      9.8887     80.7953
  1185.2500      0.0000    836.5826     10.0877     82.0564
  1185.5000      0.0000    806.5543     10.2062     82.1737
  1185.7500      0.0000    748.2159     10.2019     80.7207
  1186.0000      0.0000    663.2449     10.1367     78.4581
  1186.2500      0.0000    567.9030     10.1182     76.4384
  1186.5000      0.0000    484.6035     10.1956     75.0583
  1186.7500      0.0000    426.9488     10.3128     74.0121
  1187.0000      0.0000    393.6031     10.3689     73.0518
  1187.2500      0.0000    375.1449     10.3216     72.5524
  1187.5000      0.0000    363.5422     10.2340     73.1773
  1187.7500      0.0000    355.3691     10.2197     75.1676
  1188.0000      0.0000    349.7303     10.3385     78.1264
  1188.2500      0.0000    345.7703     10.5384     81.2418
  1188.5000      0.0000    342.0270     10.6988     83.5687
  1188.7500      0.0000    337.1191     10.7334     84.4736
  1189.0000      0.0000    330.7942     10.6587     84.1437
  1189.2500      0.0000    324.4150     10.5668     83.4692
  1189.5000      0.0000    320.3396     10.5286     83.1624
  1189.7500      0.0000    320.4044     10.5206     83.1014
  1190.0000      0.0000    324.6284     10.4569     82.7117
  1190.2500      0.0000    331.1721     10.2904     81.9015
  1190.5000      0.0000    337.5739     10.0707     81.4715
  1190.7500      0.0000    342.2284      9.8910     82.6220
  1191.0000      0.0000    344.9123      9.7911     86.2306
  1191.2500      0.0000    346.2295      9.7286     92.4769
  1191.5000      0.0000    346.8368      9.6456    100.6255
  1191.7500      0.0000    347.1188      9.5457    108.7653
  1192.0000      0.0000    347.2498      9.4865    114.0518
  1192.2500      0.0000    347.3125      9.5015    114.0468
  1192.5000      0.0000    347.3427      9.5491    108.3866
  1192.7500      0.0000    347.3405      9.5573     98.9932
  1193.0000      0.0000    347.2942      9.5087     88.5678
  1193.2500      0.0000    347.2157      9.4574     79.2066
  1193.5000      0.0000    347.1470      9.4584     72.2425
  1193.7500      0.0000    347.1253      9.4988     68.4061
  1194.0000      0.0000    347.1472      9.5132     67.5026
  1194.2500      0.0000    347.1756      9.4619     68.3084
  1194.5000      0.0000    347.1790      9.3788     69.3463
  1194.7500      0.0000    347.1471      9.3313     69.8315
  1195.0000      0.0000    347.0651      9.3451     69.8221
  1195.2500      0.0000    346.8936      9.3850     69.6760
  1195.5000      0.0000    346.5970      9.4100     69.6035
  1195.7500      0.0000    346.1628      9.4246     69.5542
  1196.0000      0.0000    345.5184      9.4621     69.2457
  1196.2500      0.0000    344.3605      9.5325     68.4830
  1196.5000      0.0000    342.1433      9.6150     67.6630
  1196.7500      0.0000    338.5239      9.7002     67.7159
  1197.0000      0.0000    334.0587      9.8037     69.3189
  1197.2500      0.0000    330.1726      9.9252     72.3336
  1197.5000      0.0000    327.8871     10.0306     76.1075
  1197.7500      0.0000    326.6777     10.0971     80.0932
  1198.0000      0.0000    325.2964     10.1500     84.0440
  1198.2500      0.0000    323.7620     10.2237     87.8007
