~Version Information
VERS.                      2.0: CWLS Log ASCII Standard - VERSION 2.0
WRAP.                       NO: One line per depth step
~Well Information Block
STRT.FT               765.4000: 
STOP.FT              2581.2000: 
STEP.FT                 0.1000: 
NULL.                -999.2500: 
COMP.          Petrogulf Corporation: COMPANY
WELL.            Montoya 7-12V: WELL
FLD.           Purgatorie River: FIELD
LOC.           728' FWL & 1764' FNL: LOCATION
CNTY.               Las Animas: COUNTY
SRVC.                         : SERVICE COMPANY
DATE.          Fri Feb 20 09:23:58 2004: LOG DATE
UWI.           05-071-07887-00: UNIQUE WELL ID
STAT.                 Colorado: STATE
~Curve Information Block
DEPT.FT            0 000 00 00: Depth
DCAL.in                       : CDL Caliper
RHOB.g/cc                     : CDL Bulk Density
RHOC.g/cc                     : CDL Density Correction
DPOR.pu                       : CDL Density Porosity
GR.GAPI                       : Gamma Ray
NPOR.pu                       : Neutron Porosity
~Parameter Information Block
~A  Depth       DCAL        RHOB        RHOC        DPOR         GR         NPOR    
# ...
   890.2000      8.5285      2.4180      0.0933     14.0581    114.5919     36.5759
   890.3000      8.5169      2.3732      0.0667     16.7757    128.0601     36.2922
   890.4000      8.5169      2.3397      0.0300     18.8083    136.3837     35.8456
   890.5000      8.5508      2.3272      0.0370     19.5640    129.2110     35.5695
   890.6000      8.5508      2.3425     -0.0449     18.6361    115.0098     36.0053
   890.7000      8.5508      2.3740      0.0957     16.7286    103.1517     36.6113
   890.8000      8.5471      2.3965      0.0407     15.3606     96.8390     36.5141
   890.9000      8.5471      2.4117      0.0116     14.4446    100.5779     35.7687
   891.0000      8.5008      2.4389      0.0050     12.7944    106.8958     34.9756
   891.1000      8.5008      2.4812      0.0832     10.2330    107.2788     34.6664
   891.2000      8.5008      2.5111      0.1931      8.4199    108.9909     34.8085
   891.3000      8.4777      2.5113      0.0689      8.4057    112.9340     34.4094
   891.4000      8.4777      2.5126      0.0405      8.3259    115.5378     32.9830
   891.5000      8.4872      2.5414      0.1218      6.5823    120.7324     31.2603
   891.6000      8.4872      2.5791      0.1369      4.2971    125.6280     29.9826
   891.7000      8.4872      2.5923      0.0956      3.4985    122.8888     29.4128
   891.8000      8.4173      2.5727      0.0596      4.6820    113.0299     29.4332
   891.9000      8.4173      2.5378      0.0547      6.7978     98.7586     29.9644
   892.0000      8.4057      2.5040      0.0066      8.8456     82.7813     30.8634
   892.1000      8.4057      2.4893     -0.0665      9.7418     75.9212     31.3928
   892.2000      8.4057      2.5203     -0.0815      7.8586     79.4142     31.1327
   892.3000      8.4052      2.5964      0.0620      3.2513     81.9020     30.7647
   892.4000      8.4052      2.6730      0.1303     -1.3956     78.3545     30.7252
   892.5000      8.4037      2.7164      0.1282     -4.0238     75.2491     30.6074
   892.6000      8.4037      2.7341      0.0777     -5.0999     77.5272     30.1018
   892.7000      8.4037      2.7397      0.0877     -5.4380     80.5465     29.5517
   892.8000      8.4061      2.7268      0.0741     -4.6566     79.9708     29.4397
   892.9000      8.4061      2.7015      0.0709     -3.1227     76.0859     29.7830
   893.0000      8.4054      2.6950      0.0311     -2.7273     76.6436     30.3731
   893.1000      8.4054      2.7155      0.0182     -3.9709     86.8184     30.8317
   893.2000      8.4054      2.7305      0.0601     -4.8805    101.9748     30.8864
   893.3000      8.4016      2.7162      0.0016     -4.0114    112.6047     30.6842
   893.4000      8.4016      2.6855     -0.0299     -2.1497    115.1980     30.3669
   893.5000      8.3807      2.6566      0.0022     -0.3989    117.9245     29.9975
   893.6000      8.3807      2.6334      0.0081      1.0054    120.9852     30.0506
   893.7000      8.3807      2.6158      0.0189      2.0717    112.0528     30.6668
   893.8000      8.3733      2.6057      0.0353      2.6861     92.0182     31.0385
   893.9000      8.3733      2.5991      0.0403      3.0838     78.0038     31.1100
   894.0000      8.3731      2.5873      0.0827      3.8005     77.2437     31.3842
   894.1000      8.3731      2.5742     -0.0345      4.5958     81.4389     31.5682
   894.2000      8.3731      2.5707     -0.0065      4.8072     83.1395     31.2089
   894.3000      8.3748      2.5777     -0.0394      4.3823     81.9923     30.6692
   894.4000      8.3748      2.5923     -0.0096      3.4985     83.0423     30.5021
   894.5000      8.3690      2.6023      0.0666      2.8914     89.9583     30.4349
   894.6000      8.3690      2.5942     -0.0036      3.3839     99.7911     30.3862
   894.7000      8.3690      2.5715      0.0046      4.7590    106.7573     30.5586
   894.8000      8.3751      2.5523     -0.0065      5.9208    107.0011     30.8226
   894.9000      8.3751      2.5539     -0.0450      5.8227    103.6167     31.1951
   895.0000      8.3690      2.5727      0.0605      4.6845    102.6315     31.5395
   895.1000      8.3690      2.5837      0.0502      4.0168    102.1805     31.4746
   895.2000      8.3690      2.5774     -0.0095      4.3999    102.2393     31.2227
   895.3000      8.3742      2.5684      0.0459      4.9479    105.7566     31.4347
   895.4000      8.3742      2.5664     -0.0045      5.0685    109.3146     32.0198
   895.5000      8.3679      2.5752      0.0130      4.5360    109.0080     32.1452
   895.6000      8.3679      2.5927     -0.0100      3.4725    105.2231     31.4737
   895.7000      8.3679      2.6088     -0.0085      2.4948     99.7227     30.7964
   895.8000      8.3651      2.6078      0.0710      2.5576     93.3823     30.9474
   895.9000      8.3651      2.5806     -0.0269      4.2061     87.7543     31.6194
   896.0000      8.3499      2.5569     -0.1257      5.6404     86.9979     32.1436
   896.1000      8.3499      2.5676     -0.0540      4.9925     89.7472     32.3548
   896.2000      8.3499      2.5938     -0.0150      3.4049     90.5826     32.2063
   896.3000      8.3301      2.6038      0.0645      2.8028     90.9129     31.8137
   896.4000      8.3301      2.5941      0.0335      3.3850     91.3656     31.6764
   896.5000      8.3226      2.5787      0.0601      4.3198     87.7117     31.8224
   896.6000      8.3226      2.5754     -0.0344      4.5238     83.6126     31.8058
   896.7000      8.3226      2.6003      0.0491      3.0123     87.6165     31.3546
   896.8000      8.3166      2.6400      0.0390      0.6088     94.4685     30.6732
   896.9000      8.3166      2.6617      0.0864     -0.7068     95.6952     30.1555
   897.0000      8.3035      2.6590     -0.0290     -0.5430     94.2649     29.8314
   897.1000      8.3035      2.6551      0.0200     -0.3111     96.2401     29.6233
   897.2000      8.3035      2.6573      0.0118     -0.4423     99.7448     29.6609
   897.3000      8.3026      2.6429      0.0259      0.4314     96.9903     29.6285
   897.4000      8.3026      2.5914      0.0118      3.5525     90.9456     29.2843
   897.5000      8.2958      2.5197     -0.0918      7.8956     95.6451     29.2354
   897.6000      8.2958      2.4752     -0.0709     10.5962    110.7757     29.7411
   897.7000      8.2958      2.4815     -0.0332     10.2139    119.2698     30.1327
   897.8000      8.2962      2.5112      0.0384      8.4118    115.0938     29.8854
   897.9000      8.2962      2.5278      0.0350      7.4081    108.0348     29.3158
   898.0000      8.2866      2.5244      0.0328      7.6125    108.3864     29.0666
   898.1000      8.2866      2.5120     -0.0153      8.3626    116.7119     29.1892
   898.2000      8.2866      2.5022      0.0238      8.9553    120.8407     29.3906
   898.3000      8.2854      2.5066     -0.0220      8.6925    111.5354     29.4076
   898.4000      8.2854      2.5195      0.0365      7.9077     98.6177     29.1274
   898.5000      8.2797      2.5189      0.0577      7.9474     92.4905     29.0179
   898.6000      8.2797      2.5115      0.0121      8.3952     88.6699     29.1735
   898.7000      8.2797      2.5177      0.0753      8.0161     82.8284     29.0752
   898.8000      8.2753      2.5266      0.0623      7.4796     79.2776     28.8541
   898.9000      8.2753      2.5206      0.0662      7.8433     81.7803     28.7818
   899.0000      8.2686      2.5112      0.0085      8.4113     93.8426     28.9776
   899.1000      8.2686      2.5275      0.0344      7.4239    108.5799     29.1946
   899.2000      8.2686      2.5616      0.1274      5.3548    110.1325     28.9756
   899.3000      8.2676      2.5658      0.1046      5.1044    100.7447     28.7891
   899.4000      8.2676      2.5298      0.0492      7.2824     97.4688     29.1354
   899.5000      8.2600      2.4981      0.0257      9.2040     99.3607     29.6812
   899.6000      8.2600      2.4911      0.0935      9.6288     98.8228     29.8016
   899.7000      8.2600      2.4935     -0.0130      9.4866     98.8647     29.1847
