~Version Information
 VERS.                                  2.0 : CWLS LAS VERSION
 WRAP.                                   NO : WRAPING MODE
 SWARE .                 MController 2.5.0J : SOFTWARE VERSION
~Well Information
 WELL.                       Rancher 12-35 Tr : WELL
 COMP.    Pioneer Natural Resources USA Inc : COMPANY
 FLD.                      Purgatoire River : FIELD
 LOC.                2242' FNL & 308' FWL SWNW 35 32S 67W : LOCATION
 DATE.                            7/02/2005 : DATE(S) LOGGED
 SRVC.       BLANCO Geological Services LLC : SERVICE COMPANY
 STAT.                                   CO : STATE
 CNTY.                           Las Animas : COUNTY
 CTRY.                                  USA : COUNTRY
 API.                       05-071-08430-00 : API NUMBER
 STRT.FT                             369.00 : START DEPTH
 STOP.FT                            1735.00 : STOP DEPTH
 STEP.FT                               1.00 : DEPTH INCREMENT
 NULL.                                -9999 : NULL VALUE
~Curve information
 DEPTH.FT                                   :
 ROP.MIN/FT                                 :
 GAS.UNITS                                  :
~ASCII Log data
# ...
      1369.0         0.23       1409.8 
      1370.0         0.20       1382.9 
      1371.0         0.20       1384.2 
      1372.0         0.20       1375.4 
      1373.0         0.20       1288.9 
      1374.0         0.23       1080.0 
      1375.0         0.23        932.1 
      1376.0         1.63       2679.3 
      1377.0         0.25       2718.7 
      1378.0         0.30       2808.7 
      1379.0         0.47       2815.4 
      1380.0         0.43       2497.7 
      1381.0         0.40       2084.6 
      1382.0         0.23       1950.2 
      1383.0         0.27       1963.4 
      1384.0         0.27       1944.5 
      1385.0         0.23       1884.9 
      1386.0         0.30       1841.4 
      1387.0         0.13       1768.6 
      1388.0         0.25       1706.0 
      1389.0         0.30       1644.6 
      1390.0         0.17       1529.8 
      1391.0         0.20       1506.5 
      1392.0         0.17       1461.7 
      1393.0         0.20       1453.3 
      1394.0         0.20       1438.4 
      1395.0         0.17       1427.7 
      1396.0         0.13       1419.6 
      1397.0         0.20       1408.8 
      1398.0         0.20       1397.3 
      1399.0         0.20       1387.6 
      1400.0         0.20       1384.2 
      1401.0         0.20       1384.5 
      1402.0         0.37       1353.2 
      1403.0         0.17       1030.1 
      1404.0         0.22        959.7 
      1405.0         0.10        981.9 
      1406.0         1.80       2812.7 
      1407.0         0.27       2859.9 
      1408.0         0.33       2864.3 
      1409.0         0.30       2606.5 
      1410.0         0.27       2380.5 
      1411.0         0.32       2108.9 
      1412.0         0.23       1889.6 
      1413.0         0.27       1858.9 
      1414.0         0.27       1857.9 
      1415.0         0.23       1844.8 
      1416.0         0.27       1799.6 
      1417.0         0.23       1754.1 
      1418.0         0.23       1697.5 
      1419.0         0.20       1529.4 
      1420.0         0.13       1424.3 
      1421.0         0.13       1417.2 
      1422.0         0.13       1435.8 
      1423.0         0.13       1460.3 
      1424.0         0.23       1512.6 
      1425.0         0.27       1516.6 
      1426.0         0.42       1478.2 
      1427.0         0.30       1354.9 
      1428.0         0.27       1300.7 
      1429.0         0.23       1270.0 
      1430.0         0.17       1276.4 
      1431.0         0.13       1286.2 
      1432.0         0.30       1299.6 
      1433.0         0.17       1234.3 
      1434.0         0.13        989.3 
      1435.0         0.17        930.4 
      1436.0         2.62       3307.6 
      1437.0         0.20       2286.1 
      1438.0         0.33       2397.6 
      1439.0         0.23       2381.5 
      1440.0         0.33       2234.6 
      1441.0         0.23       2009.2 
      1442.0         0.27       1940.1 
      1443.0         0.27       1916.9 
      1444.0         0.28       1909.1 
      1445.0         0.33       1870.4 
      1446.0         0.37       1803.3 
      1447.0         0.30       1698.2 
      1448.0         0.37       1598.8 
      1449.0         0.30       1528.1 
      1450.0         0.30       1467.4 
      1451.0         0.30       1433.7 
      1452.0         0.37       1384.5 
      1453.0         0.33       1384.2 
      1454.0         0.27       1357.3 
      1455.0         0.22       1305.7 
      1456.0         0.13       1338.4 
      1457.0         0.20       1371.7 
      1458.0         0.17       1400.7 
      1459.0         0.27       1429.4 
      1460.0         0.27       1442.2 
      1461.0         0.23       1419.9 
      1462.0         0.23       1420.6 
      1463.0         0.27       1424.3 
      1464.0         0.20       1244.7 
      1465.0         0.30       1038.9 
      1466.0         2.92       3048.6 
      1467.0         0.33       2491.6 
      1468.0         0.30       2474.1 
      1469.0         0.33       2326.6 
      1470.0         0.30       2034.8 
      1471.0         0.28       1982.6 
      1472.0         0.30       1968.8 
      1473.0         0.27       1944.2 
      1474.0         0.23       1905.1 
      1475.0         0.23       1868.3 
      1476.0         0.27       1850.2 
      1477.0         0.23       1810.4 
      1478.0         0.23       1742.7 
      1479.0         0.27       1648.3 
      1480.0         0.23       1573.2 
      1481.0         0.23       1491.7 
      1482.0         0.30       1458.7 
      1483.0         0.23       1395.0 
      1484.0         0.25       1371.7 
      1485.0         0.23       1358.3 
      1486.0         0.20       1349.8 
      1487.0         0.23       1337.4 
      1488.0         0.17       1346.5 
      1489.0         0.17       1352.2 
      1490.0         0.27       1354.6 
      1491.0         0.27       1370.7 
      1492.0         0.17       1394.3 
      1493.0         0.30       1426.3 
      1494.0         0.27       1332.3 
      1495.0         0.23       1089.7 
      1496.0         2.55       3593.0 
      1497.0         0.53       3184.0 
      1498.0         0.47       2823.8 
      1499.0         0.48       2324.9 
      1500.0         0.37       1897.3 
      1501.0         0.23       1896.7 
      1502.0         0.23       1893.3 
      1503.0         0.17       1841.1 
      1504.0         0.30       1822.9 
      1505.0         0.27       1784.1 
      1506.0         0.27       1758.2 
      1507.0         0.27       1729.5 
      1508.0         0.27       1646.7 
      1509.0         0.30       1557.4 
      1510.0         0.23       1518.0 
      1511.0         0.23       1615.0 
      1512.0         0.25       1645.6 
      1513.0         0.23       1635.5 
      1514.0         0.23       1585.0 
      1515.0         0.27       1511.9 
      1516.0         0.27       1477.5 
      1517.0         0.23       1444.5 
      1518.0         0.27       1424.0 
      1519.0         0.23       1419.2 
      1520.0         0.30       1418.6 
      1521.0         0.30       1412.8 
      1522.0         0.23       1410.8 
      1523.0         0.27       1407.8 
      1524.0         0.27       1408.8 
      1525.0         0.32       1405.1 
      1526.0         1.80       2126.8 
      1527.0         0.50       2669.2 
      1528.0         0.37       2683.0 
      1529.0         0.33       2515.9 
      1530.0         0.28       2280.1 
      1531.0         0.27       2059.7 
      1532.0         0.23       1910.8 
      1533.0         0.23       1796.9 
      1534.0         0.27       1828.3 
      1535.0         0.27       1863.0 
      1536.0         0.27       1860.6 
      1537.0         0.30       1826.2 
      1538.0         0.30       1754.8 
      1539.0         0.30       1714.7 
      1540.0         0.27       1662.2 
      1541.0         0.23       1611.3 
      1542.0         0.27       1560.4 
      1543.0         0.22       1486.0 
      1544.0         0.23       1461.4 
      1545.0         0.27       1436.1 
      1546.0         0.23       1421.3 
      1547.0         0.23       1418.6 
      1548.0         0.27       1418.2 
      1549.0         0.27       1420.6 
      1550.0         0.27       1422.9 
      1551.0         0.20       1418.2 
      1552.0         0.20       1380.8 
      1553.0         0.23       1273.4 
      1554.0         0.20       1056.7 
      1555.0         0.27        886.2 
      1556.0         2.25       2081.3 
      1557.0         0.47       2425.9 
      1558.0         0.33       2467.4 
      1559.0         0.30       2409.1 
      1560.0         0.27       2210.7 
      1561.0         0.28       2053.7 
      1562.0         0.23       1885.9 
      1563.0         0.23       1791.5 
      1564.0         0.27       1791.9 
      1565.0         0.27       1794.6 
      1566.0         0.23       1784.5 
      1567.0         0.27       1754.5 
      1568.0         0.23       1717.4 
