~Version Information
VERS.                      2.0: CWLS Log ASCII Standard - VERSION 2.0
WRAP.                       NO: One line per depth step
~Well Information Block
STRT.FT                -7.0000: 
STOP.FT              1656.2500: 
STEP.FT                 0.2500: 
NULL.                -999.2500: 
COMP.          Pioneer Natural Resources: COMPANY
WELL.               Elmo 14-21: WELL
FLD.           Purgatorie River: FIELD
LOC.           623' FSL & 450' FWL--: LOCATION
PROV.                       CO: PROVINCE
CNTY.               Las Animas: COUNTRY
SRVC.          Patterson Wireline: SERVICE COMPANY
DATE.          Mon Jun 27 15:45:41 2005: LOG DATE
UWI.           05 071 08360 00: UNIQUE WELL ID
~Curve Information Block
DEPT.FT            0 000 00 00: Depth
CCL.                          : Casing Collar Locator
TT3.usec                      : CBL 3' Travel Time
AMP3.mV                       : CBL 3' Amplitude
GR.GAPI                       : Gamma Ray
~Parameter Information Block
~A  Depth       CCL         TT3         AMP3         GR     
# ...
   529.0000      0.0000    262.0150     77.3974    123.7938
   529.2500      0.0000    262.0189     77.3025    119.6094
   529.5000      0.0000    262.0227     77.2324    119.0939
   529.7500      0.0000    262.0231     77.1780    121.5276
   530.0000      0.0000    262.0148     77.1221    124.4501
   530.2500      0.0000    262.0009     77.0422    126.0359
   530.5000      0.0000    261.9916     76.9233    126.2938
   530.7500      0.0000    261.9950     76.7743    126.3755
   531.0000      0.0000    262.0126     76.6200    127.2645
   531.2500      0.0000    262.0398     76.4764    128.9406
   531.5000      0.0000    262.0659     76.3490    130.3272
   531.7500      0.0000    262.0820     76.2547    130.3021
   532.0000      0.0000    262.0880     76.2237    129.1734
   532.2500      0.0000    262.0898     76.2711    128.7832
   532.5000      0.0000    262.0902     76.3704    130.6002
   532.7500      0.0000    262.0884     76.4587    133.9749
   533.0000      0.0000    262.0836     76.4779    136.6783
   533.2500      0.0000    262.0776     76.4199    136.9306
   533.5000      0.0000    262.0753     76.3312    134.7420
   533.7500      0.0000    262.0813     76.2635    131.7696
   534.0000      0.0000    262.0958     76.2271    130.0581
   534.2500      0.0000    262.1139     76.1966    130.5956
   534.5000      0.0000    262.1333     76.1520    132.9901
   534.7500      0.0000    262.1553     76.1055    136.4361
   535.0000      0.0000    262.1808     76.0877    140.4867
   535.2500      0.0000    262.2100     76.1083    144.5704
   535.5000      0.0000    262.2412     76.1387    147.4017
   535.7500      0.0000    262.2663     76.1430    147.8577
   536.0000      0.0000    262.2733     76.1151    146.3607
   536.2500      0.0000    262.2588     76.0714    144.4229
   536.5000      0.0000    262.2300     76.0313    142.5690
   536.7500      0.0000    262.1959     76.0244    139.6077
   537.0000      0.0000    262.1617     76.0897    134.4660
   537.2500      0.0000    262.1331     76.2372    127.8757
   537.5000      0.0000    262.1169     76.4190    121.3765
   537.7500      0.0000    262.1180     76.5527    115.3630
   538.0000      0.0000    262.1362     76.5711    109.2832
   538.2500      0.0000    262.1647     76.4600    103.4203
   538.5000      0.0000    262.1927     76.2611     99.1571
   538.7500      0.0000    262.2134     76.0368     97.3750
   539.0000      0.0000    262.2250     75.8313     97.7406
   539.2500      0.0000    262.2251     75.6659     99.7535
   539.5000      0.0000    262.2120     75.5508    103.2804
   539.7500      0.0000    262.1911     75.4830    107.6941
   540.0000      0.0000    262.1719     75.4468    111.6869
   540.2500      0.0000    262.1597     75.4288    114.5570
   540.5000      0.0000    262.1550     75.4211    116.8316
   540.7500      0.0000    262.1580     75.4157    119.1587
   541.0000      0.0000    262.1670     75.4151    121.3498
   541.2500      0.0000    262.1784     75.4369    122.9399
   541.5000      0.0000    262.1906     75.4817    123.9663
   541.7500      0.0000    262.2045     75.5098    124.6200
   542.0000      0.0000    262.2205     75.4756    124.6174
   542.2500      0.0000    262.2377     75.3768    123.5172
   542.5000      0.0000    262.2549     75.2541    121.6454
   542.7500      0.0000    262.2710     75.1532    120.4571
   543.0000      0.0000    262.2851     75.1031    121.6243
   543.2500      0.0000    262.2935     75.1229    125.2606
   543.5000      0.0000    262.2874     75.2267    129.1349
   543.7500      0.0000    262.2622     75.4072    130.3398
   544.0000      0.0000    262.2275     75.6177    127.8990
   544.2500      0.0000    262.2009     75.7832    123.4544
   544.5000      0.0000    262.1922     75.8417    119.6015
   544.7500      0.0000    262.1993     75.7818    117.9150
   545.0000      0.0000    262.2146     75.6494    118.4129
   545.2500      0.0000    262.2313     75.5177    120.3000
   545.5000      0.0000    262.2461     75.4337    122.6597
   545.7500      0.0000    262.2579     75.3818    124.4389
   546.0000      0.0000    262.2661     75.3004    124.6307
   546.2500      0.0000    262.2698     75.1383    123.2972
   546.5000      0.0000    262.2730     74.8856    122.0858
   546.7500      0.0000    262.2914     74.4985    122.8003
   547.0000      0.0000    262.3713     73.7436    125.4264
   547.2500      0.0000    262.6109     72.1443    128.1868
   547.5000      0.0000    263.1478     69.3063    129.4300
   547.7500      0.0000    264.0806     65.4942    128.9269
   548.0000      0.0000    265.3603     61.7233    127.5208
   548.2500      0.0000    266.7607     58.9376    126.0398
   548.5000      0.0000    267.9887     57.1624    124.5834
   548.7500      0.0000    268.8467     55.7764    122.5222
   549.0000      0.0000    269.3127     54.4267    119.1779
   549.2500      0.0000    269.5028     53.2811    114.8134
   549.5000      0.0000    269.6052     52.5543    111.0864
   549.7500      0.0000    269.8622     52.2036    110.0990
   550.0000      0.0000    270.5989     52.0574    112.6047
   550.2500      0.0000    272.1154     52.0905    117.2983
   550.5000      0.0000    274.2674     52.5988    122.0872
   550.7500      0.0000    276.0607     54.0685    125.7266
   551.0000      0.0000    276.0670     56.6931    128.0273
   551.2500      0.0000    273.6830     60.0612    129.1233
   551.5000      0.0000    269.8431     63.5359    129.2653
   551.7500      0.0000    266.2003     66.7807    129.0527
   552.0000      0.0000    263.7850     69.6722    129.1117
   552.2500      0.0000    262.6072     71.9687    129.5408
   552.5000      0.0000    262.1832     73.4188    130.0730
   552.7500      0.0000    262.0829     74.0650    130.5919
   553.0000      0.0000    262.0836     74.2360    131.1080
   553.2500      0.0000    262.0991     74.3022    131.2438
   553.5000      0.0000    262.1029     74.4884    130.0880
   553.7500      0.0000    262.0909     74.8308    126.9177
   554.0000      0.0000    262.0703     75.2249    122.3395
   554.2500      0.0000    262.0499     75.5328    118.4298
   554.5000      0.0000    262.0379     75.6643    117.2616
   554.7500      0.0000    262.0408     75.6007    119.2098
   555.0000      0.0000    262.0587     75.3826    122.6153
   555.2500      0.0000    262.0823     75.0834    124.9224
   555.5000      0.0000    262.0975     74.7686    124.5385
   555.7500      0.0000    262.0946     74.4598    121.8968
   556.0000      0.0000    262.0737     74.1323    118.5513
   556.2500      0.0000    262.0424     73.7570    115.6775
   556.5000      0.0000    262.0113     73.3503    114.0750
   556.7500      0.0000    261.9885     72.9694    114.7125
   557.0000      0.0000    261.9752     72.6521    117.8341
   557.2500      0.0000    261.9709     72.3732    121.8819
   557.5000      0.0000    261.9876     72.0664    124.4352
   557.7500      0.0000    262.0489     71.6841    124.2117
   558.0000      0.0000    262.1674     71.2435    121.7029
   558.2500      0.0000    262.3249     70.8326    118.0039
   558.5000      0.0000    262.4804     70.5551    113.2196
   558.7500      0.0000    262.5971     70.4476    106.0181
   559.0000      0.0000    262.6624     70.4410     95.1141
   559.2500      0.0000    262.6848     70.4043     81.3705
   559.5000      0.0000    262.6778     70.2282     67.8941
   559.7500      0.0000    262.6506     69.8707     57.7569
   560.0000      0.0000    262.6128     69.3427     51.9332
   560.2500      0.0000    262.5826     68.6842     49.3351
   560.5000      0.0000    262.5826     67.9692     48.2142
   560.7500      0.0000    262.6237     67.3145     47.3935
   561.0000      0.0000    262.6935     66.8444     46.6988
   561.2500      0.0000    262.7611     66.6255     46.6986
   561.5000      0.0000    262.7947     66.6326     48.1310
   561.7500      0.0000    262.7779     66.7731     51.5702
   562.0000      0.0000    262.7165     66.9423     57.4525
   562.2500      0.0000    262.6382     67.0642     66.0777
