~Version Information
 VERS.                      2.0: CWLS Log ASCII Standard - VERSION 2.0
 WRAP.                       NO: One line per depth step
 ~Well Information Block
 STRT.FT               115.0000: 
 STOP.FT              1768.2500: 
 STEP.FT                 0.2500: 
 NULL.                -999.2500: 
 COMP.          Petrogulf Corporation: COMPANY
 WELL.           Parsons 23-15V: WELL
 FLD.           Purgatorie River: FIELD
 LOC.           2095' FSL & 1817' FWL--API 05 071 07556 00----: LOCATION
 CNTY.               Las Animas: COUNTY
 SRVC.                         : SERVICE COMPANY
 DATE.          Fri Apr 19 16:58:41 2002: LOG DATE
 UWI.                          : UNIQUE WELL ID
 STAT.                       CO: STATE
 PROV.                         :Province
 ~Curve Information Block
 DEPT.FT            0 000 00 00: Depth
 SP.mV                         : DIL Spontaneous Potential
 RILD.Ohm-m                    : DIL Deep Resistivity
 RILM.Ohm-m                    : DIL Medium Resistivity
 RLL3.Ohm-m                    : DIL Shallow Resistivity
 GR.GAPI                       : Gamma Ray
 ~Parameter Information Block
 ~A  Depth        SP         RILD        RILM        RLL3         GR     
# ...
  1739.0000    -29.2854     15.6663     19.0703     17.4890     56.1705
  1739.2500    -29.9658     14.8800     17.6983     17.2159     56.0172
  1739.5000    -30.6759     14.1898     16.1995     16.8643     58.0696
  1739.7500    -31.3623     13.6330     14.6901     16.2881     61.4693
  1740.0000    -31.9640     13.2231     13.2935     15.3578     64.7739
  1740.2500    -32.4085     12.9504     12.1148     14.0318     66.7383
  1740.5000    -32.6040     12.7873     11.2221     12.4565     67.0064
  1740.7500    -32.4481     12.6982     10.6441     11.0319     66.4104
  1741.0000    -31.8648     12.6492     10.3786     10.2991     66.4111
  1741.2500    -30.8526     12.6151     10.4015     10.6110     67.9681
  1741.5000    -29.5075     12.5814     10.6701     11.8305     70.7075
  1741.7500    -27.9970     12.5441     11.1230     13.3859     72.7332
  1742.0000    -26.5005     12.5093     11.6826     14.6802     71.1414
  1742.2500    -25.1545     12.4959     12.2689     15.4832     63.4941
  1742.5000    -24.0297     12.5342     12.8212     15.9791     49.8260
  1742.7500    -23.1386     12.6593     13.3105     16.4832     33.3551
  1743.0000    -22.4547     12.8993     13.7351     17.0946     18.6110
  1743.2500    -21.9300     13.2632     14.1047     17.5751      8.5064
  1743.5000    -21.5116     13.7365     14.4288     17.5598      3.1443
  1743.7500    -21.1561     14.2843     14.7158     16.9082      0.9309
  1744.0000    -20.8374     14.8629     14.9768     15.8647      0.2189
  1744.2500    -20.5443     15.4315     15.2267     14.8910      0.0402
  1744.5000    -20.2739     15.9576     15.4809     14.3359      0.0052
  1744.7500    -20.0267     16.4140     15.7504     14.2291      0.0000
  1745.0000    -19.8031     16.7753     16.0418     14.3480   -999.2500
  1745.2500    -19.6002     17.0217     16.3609     14.4635   -999.2500
  1745.5000    -19.4134     17.1513     16.7142     14.5434   -999.2500
  1745.7500    -19.2413     17.1871     17.1061     14.7693   -999.2500
  1746.0000    -19.0882     17.1720     17.5300     15.3723   -999.2500
  1746.2500    -18.9581     17.1513     17.9608     16.4009   -999.2500
  1746.5000    -18.8477     17.1572     18.3563     17.6172   -999.2500
  1746.7500    -18.7485     17.2025     18.6678     18.6506   -999.2500
  1747.0000    -18.6522     17.2861     18.8564     19.2674   -999.2500
  1747.2500    -18.5503     17.4006     18.9095     19.4586   -999.2500
  1747.5000    -18.4291     17.5386     18.8485     19.2929   -999.2500
  1747.7500    -18.2721     17.6936     18.7270     18.7795   -999.2500
  1748.0000    -18.0696     17.8576     18.6175     17.9270   -999.2500
  1748.2500    -17.8274     18.0199     18.5938     16.9118   -999.2500
  1748.5000    -17.5641     18.1671     18.7126     16.1347   -999.2500
  1748.7500    -17.2982     18.2860     18.9988     16.0276   -999.2500
  1749.0000    -17.0379     18.3682     19.4366     16.7251   -999.2500
  1749.2500    -16.7803     18.4138     19.9682     17.9154   -999.2500
  1749.5000    -16.5193     18.4326     20.5079     19.0532   -999.2500
  1749.7500    -16.2556     18.4420     20.9718     19.7303   -999.2500
  1750.0000    -15.9990     18.4626     21.3118     19.8684   -999.2500
  1750.2500    -15.7632     18.5129     21.5313     19.6514   -999.2500
  1750.5000    -15.5600     18.3606     21.6716     19.3614   -999.2500
  1750.7500    -15.3994     18.2591     21.7816     19.2398   -999.2500
  1751.0000    -15.2942     18.4474     21.8936     19.3866   -999.2500
  1751.2500    -15.2568     18.6763     22.0154     19.7175   -999.2500
  1751.5000    -15.2885     18.9270     22.1369     20.0304   -999.2500
  1751.7500    -15.3690     19.1748     22.2430     20.1639   -999.2500
  1752.0000    -15.4613     19.3974     22.3251     20.1189   -999.2500
  1752.2500    -15.5272     19.5832     22.3850     20.0343   -999.2500
  1752.5000    -15.5423     19.7338     22.4315     20.0482   -999.2500
  1752.7500    -15.4970     19.8636     22.4728     20.1839   -999.2500
  1753.0000    -15.3901     20.0033     22.5118     20.3504   -999.2500
  1753.2500    -15.2127     20.2150     22.5482     20.4300   -999.2500
  1753.5000    -14.9160     20.6117     22.5848     20.3646   -999.2500
  1753.7500    -14.3545     21.3723     22.6328     20.1842   -999.2500
  1754.0000    -13.2659     22.7449     22.7078     19.9797   -999.2500
  1754.2500    -11.3958     25.5797     22.8221     19.8556   -999.2500
  1754.5000     -8.7661     29.2680     22.9757     19.8871   -999.2500
  1754.7500     -5.8308     34.5010     23.1546     20.0876   -999.2500
  1755.0000     -3.2592     41.1278     23.3352     20.4012   -999.2500
  1755.2500     -1.4985     48.2872     23.4917     20.7290   -999.2500
  1755.5000     -0.5580     54.5700     23.6004     20.9753   -999.2500
  1755.7500     -0.1664     58.9208     23.6413     21.0788   -999.2500
  1756.0000     -0.0394     61.3211     23.5988     21.0148   -999.2500
  1756.2500     -0.0073     62.4535     23.4638     20.7875   -999.2500
  1756.5000     -0.0010     63.0374     23.2453     20.4256   -999.2500
  1756.7500   -999.2500     63.5502     22.9850     19.9709   -999.2500
  1757.0000   -999.2500     64.2503     22.7751     19.4570   -999.2500
  1757.2500   -999.2500    470.4776     22.7716     18.9010   -999.2500
  1757.5000   -999.2500    542.2322     23.2015     18.3181   -999.2500
  1757.7500   -999.2500    646.6544     24.3656     17.7454   -999.2500
  1758.0000   -999.2500    783.4764     26.6417     17.2419   -999.2500
  1758.2500   -999.2500    937.3234     30.3583     16.8612   -999.2500
  1758.5000   -999.2500   1077.6272     36.2997     16.6227   -999.2500
  1758.7500   -999.2500   1177.4404     44.2127     16.5062   -999.2500
  1759.0000   -999.2500   1232.6378     53.4568     16.4706   -999.2500
  1759.2500   -999.2500   1256.9485     62.2281     16.4799   -999.2500
  1759.5000   -999.2500   1265.7316     68.7011     16.5179   -999.2500
  1759.7500   -999.2500   1268.3907     72.3937     16.5825   -999.2500
  1760.0000   -999.2500   1269.0730     74.0693     16.6642   -999.2500
  1760.2500   -999.2500 100000.0000     74.7005     16.7317   -999.2500
  1760.5000   -999.2500 100000.0000     74.9060     16.7455   -999.2500
  1760.7500   -999.2500 100000.0000     74.9616     16.6855   -999.2500
  1761.0000   -999.2500 100000.0000   1190.2601     16.5677   -999.2500
  1761.2500   -999.2500 100000.0000   1182.9103     16.4380   -999.2500
  1761.5000   -999.2500 100000.0000   1171.2145     16.3518   -999.2500
  1761.7500   -999.2500 100000.0000   1157.4622     16.3481   -999.2500
  1762.0000   -999.2500 100000.0000   1146.4259     16.4211   -999.2500
  1762.2500   -999.2500 100000.0000   1146.0651     16.4965   -999.2500
  1762.5000   -999.2500 100000.0000   1167.9360     16.4240   -999.2500
  1762.7500   -999.2500 100000.0000   1227.4391     15.9776   -999.2500
  1763.0000   -999.2500 100000.0000   1344.2118     14.8764   -999.2500
  1763.2500   -999.2500 100000.0000   1542.0847     12.9020   -999.2500
  1763.5000   -999.2500 100000.0000   1845.0775     10.1294   -999.2500
  1763.7500   -999.2500   -999.2500   2261.8870      7.0564   -999.2500
  1764.0000   -999.2500   -999.2500   2756.1938      4.3786   -999.2500
  1764.2500   -999.2500   -999.2500   3232.3955      2.5513   -999.2500
  1764.5000   -999.2500   -999.2500   3587.7761      1.5771   -999.2500
  1764.7500   -999.2500   -999.2500   3791.1597      1.1720   -999.2500
  1765.0000   -999.2500   -999.2500   3882.6130      1.0407   -999.2500
  1765.2500   -999.2500   -999.2500   3916.0437      1.0075   -999.2500
  1765.5000   -999.2500   -999.2500   3926.2336      1.0010   -999.2500
  1765.7500   -999.2500   -999.2500   3928.8628   -999.2500   -999.2500
  1766.0000   -999.2500   -999.2500 100000.0000   -999.2500   -999.2500
  1766.2500   -999.2500   -999.2500 100000.0000   -999.2500   -999.2500
  1766.5000   -999.2500   -999.2500 100000.0000   -999.2500   -999.2500
  1766.7500   -999.2500   -999.2500 100000.0000   -999.2500   -999.2500
