~Version Information
VERS.                      2.0: CWLS Log ASCII Standard - VERSION 2.0
WRAP.                       NO: One line per depth step
~Well Information Block
STRT.FT               483.0000: 
STOP.FT              1702.5000: 
STEP.FT                 0.2500: 
NULL.                -999.2500: 
COMP.          Pioneer Natural Resources: COMPANY
WELL.            Mad Dog 42-31: WELL
FLD.           Purgatorie River: FIELD
LOC.           2064' FNL & 479' FEL: LOCATION
PROV.                 Colorado: PROVINCE
CNTY.               Las Animas: COUNTRY
SRVC.                         : SERVICE COMPANY
DATE.          Sun Oct 10 04:26:24 2004: LOG DATE
UWI.           05 071 08195 00: UNIQUE WELL ID
~Curve Information Block
DEPT.FT            0 000 00 00: Depth
LTEN.lb                       : Surface Line Tension
SN.Ohm-m                      : IEL Short Normal
SP.mV                         : IEL Spontaneous Potential
DIR.Ohm-m                     : IEL Induction Resistivity
GR.GAPI                       : Gamma Ray
~Parameter Information Block
~A  Depth       LTEN         SN          SP         DIR          GR     
# ...
  1043.0000    664.9946     16.6051   -199.3192     16.7602    129.9541
  1043.2500    666.8426     16.4409   -200.0371     16.6418    128.7152
  1043.5000    667.7418     16.5216   -201.3125     16.7164    124.8394
  1043.7500    666.6723     16.8265   -203.0595     17.0011    121.8502
  1044.0000    664.0612     17.3403   -205.1415     17.4671    117.8643
  1044.2500    661.0372     18.0455   -207.3853     18.0775    115.6237
  1044.5000    658.2010     18.9242   -209.5981     18.8128    112.4225
  1044.7500    655.5869     19.9652   -211.5791     19.6764    110.2126
  1045.0000    653.7245     21.1682   -213.1399     20.6888    106.7137
  1045.2500    653.7299     22.5360   -214.1255     21.8904    104.0240
  1045.5000    656.0096     24.0576   -214.4338     23.3425     98.6097
  1045.7500    659.4634     25.6892   -214.0431     25.1044     93.8386
  1046.0000    662.3709     27.3414   -213.0206     27.1632     85.9381
  1046.2500    663.9503     28.8852   -211.5225     29.3315     81.5882
  1046.5000    664.9327     30.1797   -209.7732     31.2113     79.0443
  1046.7500    666.6433     31.1131   -208.0217     32.3586     80.7486
  1047.0000    669.4081     31.6347   -206.5035     32.5947     87.6532
  1047.2500    671.8597     31.7623   -205.3922     32.1049     93.8896
  1047.5000    672.1198     31.5591   -204.7834     31.1862    103.3041
  1047.7500    669.7858     31.0956   -204.6944     29.9839    108.4766
  1048.0000    666.5264     30.4165   -205.0749     28.5053    113.3324
  1048.2500    664.7512     29.5317   -205.8340     26.8150    114.5390
  1048.5000    665.8936     28.4369   -206.8556     25.1298    114.4993
  1048.7500    669.6641     27.1442   -208.0099     23.7052    114.4384
  1049.0000    674.3820     25.6966   -209.1520     22.6748    116.1009
  1049.2500    677.9869     24.1600   -210.1270     22.0053    118.8990
  1049.5000    679.1322     22.6057   -210.7693     21.5502    125.6855
  1049.7500    677.6575     21.1014   -210.9255     21.1393    131.6422
  1050.0000    674.2949     19.7087   -210.4750     20.6497    141.6947
  1050.2500    670.2411     18.4804   -209.3598     20.0272    148.2755
  1050.5000    666.9918     17.4549   -207.6049     19.2600    156.5522
  1050.7500    665.8996     16.6538   -205.3196     18.3512    160.5580
  1051.0000    667.1568     16.0806   -202.6879     17.3202    164.0034
  1051.2500    669.2822     15.7187   -199.9302     16.2191    164.2482
  1051.5000    670.1221     15.5284   -197.2765     15.1322    160.3244
  1051.7500    668.4513     15.4515   -194.9221     14.1530    154.3398
  1052.0000    664.6871     15.4236   -193.0099     13.3600    141.4835
  1052.2500    660.6235     15.3894   -191.6112     12.8068    132.4854
  1052.5000    658.5388     15.3140   -190.7343     12.5262    122.9520
  1052.7500    659.6967     15.1874   -190.3379     12.5327    121.1183
  1053.0000    663.2416     15.0215   -190.3625     12.8171    125.6594
  1053.2500    666.9348     14.8394   -190.7554     13.3331    132.4558
  1053.5000    669.1659     14.6625   -191.4849     13.9858    145.1806
  1053.7500    669.9326     14.5056   -192.5439     14.6371    153.3778
  1054.0000    669.8959     14.3864   -193.9388     15.1448    162.4616
  1054.2500    669.3765     14.3395   -195.6651     15.4208    165.3960
  1054.5000    668.7292     14.4183   -197.6878     15.4706    164.6084
  1054.7500    668.9290     14.6740   -199.9319     15.3850    160.9983
  1055.0000    670.9424     15.1223   -202.2813     15.2930    152.9642
  1055.2500    674.4642     15.7248   -204.5923     15.3093    147.6915
  1055.5000    677.6768     16.4021   -206.7141     15.4981    142.7439
  1055.7500    678.6031     17.0741   -208.5114     15.8615    142.0327
  1056.0000    676.7235     17.7020   -209.8886     16.3456    143.8207
  1056.2500    673.0897     18.3026   -210.8063     16.8637    145.5960
  1056.5000    668.9831     18.9311   -211.2883     17.3418    146.6997
  1056.7500    665.0119     19.6473   -211.4118     17.7703    145.3530
  1057.0000    661.6343     20.4898   -211.2783     18.2220    139.8006
  1057.2500    659.7650     21.4649   -210.9771     18.8085    134.4201
  1057.5000    660.0989     22.5463   -210.5581     19.6011    125.6376
  1057.7500    662.0602     23.6782   -210.0182     20.5688    119.9119
  1058.0000    664.0764     24.7791   -209.3120     21.5716    111.3585
  1058.2500    665.1517     25.7503   -208.3910     22.4148    105.6542
  1058.5000    665.9572     26.4878   -207.2431     22.9318     98.6406
  1058.7500    668.0034     26.8948   -205.9213     23.0396     96.4873
  1059.0000    671.6111     26.8987   -204.5545     22.7513     98.5473
  1059.2500    675.0761     26.4720   -203.3197     22.1712    103.0912
  1059.5000    676.2420     25.6516   -202.4033     21.4596    112.6358
  1059.7500    674.6153     24.5390   -201.9543     20.7589    119.5413
  1060.0000    671.5295     23.2726   -202.0538     20.1302    129.1406
  1060.2500    668.7222     21.9836   -202.6962     19.5541    134.5260
  1060.5000    667.2654     20.7637   -203.8040     18.9833    140.7373
  1060.7500    667.2930     19.6578   -205.2394     18.3922    143.6765
  1061.0000    668.1247     18.6765   -206.8395     17.7829    146.7425
  1061.2500    669.0010     17.8119   -208.4391     17.1697    148.2880
  1061.5000    669.9373     17.0494   -209.9017     16.5749    150.4844
  1061.7500    671.3992     16.3756   -211.1395     16.0315    152.0872
  1062.0000    673.2872     15.7842   -212.1248     15.5718    154.5679
  1062.2500    674.9344     15.2782   -212.8833     15.2079    155.7559
  1062.5000    675.9296     14.8698   -213.4798     14.9313    155.6059
  1062.7500    676.1915     14.5776   -213.9830     14.7345    154.0030
  1063.0000    675.4393     14.4206   -214.4296     14.6304    150.6820
  1063.2500    673.4610     14.4041   -214.8050     14.6398    149.1714
  1063.5000    670.9698     14.5034   -215.0364     14.7569    149.4265
  1063.7500    669.5859     14.6603   -215.0149     14.9195    151.1838
  1064.0000    670.6606     14.8016   -214.6318     15.0176    154.7757
  1064.2500    674.0437     14.8669   -213.8142     14.9520    156.8221
  1064.5000    677.7931     14.8250   -212.5533     14.7015    158.3758
  1064.7500    679.2944     14.6722   -210.9099     14.3334    158.3250
  1065.0000    677.2533     14.4234   -209.0119     13.9500    156.9996
  1065.2500    672.8758     14.1096   -207.0332     13.6321    155.7357
  1065.5000    669.0391     13.7749   -205.1690     13.4208    154.5263
  1065.7500    668.2427     13.4642   -203.6106     13.3238    154.9654
  1066.0000    670.9525     13.2037   -202.5208     13.3252    158.1227
  1066.2500    675.1943     12.9943   -202.0136     13.3944    161.6774
  1066.5000    677.8323     12.8224   -202.1302     13.4980    168.3274
  1066.7500    677.0819     12.6800   -202.8289     13.6107    173.0407
  1067.0000    674.0157     12.5748   -203.9859     13.7163    179.0224
  1067.2500    671.2430     12.5253   -205.4061     13.7959    181.0365
  1067.5000    670.3710     12.5460   -206.8659     13.8203    179.3887
  1067.7500    671.4301     12.6352   -208.1647     13.7617    175.4292
  1068.0000    674.3129     12.7733   -209.1701     13.6224    168.2701
  1068.2500    679.2764     12.9322   -209.8587     13.4492    164.7646
  1068.5000    685.4645     13.0911   -210.3187     13.3145    162.2335
  1068.7500    690.2012     13.2445   -210.7194     13.2737    160.9517
  1069.0000    691.1531     13.3998   -211.2576     13.3380    156.8094
  1069.2500    688.9055     13.5665   -212.0863     13.4779    152.3091
  1069.5000    686.1690     13.7473   -213.2708     13.6595    145.1993
  1069.7500    684.4442     13.9362   -214.7671     13.8832    141.9711
  1070.0000    682.6338     14.1250   -216.4437     14.1893    140.9113
  1070.2500    679.1232     14.3147   -218.1219     14.6224    142.4323
  1070.5000    673.9731     14.5214   -219.6326     15.1813    146.7326
  1070.7500    668.5856     14.7674   -220.8468     15.7910    150.3361
