~Version Information
 VERS.                                  2.0 : CWLS LAS VERSION
 WRAP.                                   NO : WRAPING MODE
 SWARE .                 MController 2.5.0E : SOFTWARE VERSION
~Well Information
 WELL.                  McCullough 34-32 TR : WELL
 COMP.             Evergreen Operating Corp : COMPANY
 FLD.                      Purgatorie River : FIELD
 LOC.                SW/SE Sec 32 T32S R66W : LOCATION
 DATE.                           09/18/2004 : DATE(S) LOGGED
 SRVC.       Blanco Geological Services LLC : SERVICE COMPANY
 STAT.                                   CO : STATE
 CNTY.                            La Animas : COUNTY
 CTRY.                                  USA : COUNTRY
 API.                       05 071 08157-00 : API NUMBER
 STRT.FT                             521.00 : START DEPTH
 STOP.FT                            2000.00 : STOP DEPTH
 STEP.FT                               1.00 : DEPTH INCREMENT
 NULL.                                -9999 : NULL VALUE
~Curve information
 DEPTH.FT                                   :
 ROP.MIN/FT                                 :
 GAS.UNITS                                  :
~ASCII Log data
# ...
      721.00        0.533          3.6 
      722.00        0.267          3.6 
      723.00        0.267          3.6 
      724.00        0.267          3.6 
      725.00        0.283          3.2 
      726.00        0.533          3.6 
      727.00        0.267          3.2 
      728.00        0.267          3.0 
      729.00        0.267          3.5 
      730.00        0.267          2.6 
      731.00        0.267          3.1 
      732.00        0.533          3.7 
      733.00        0.267          3.6 
      734.00        0.367          2.8 
      735.00        0.317          3.5 
      736.00        0.300          3.2 
      737.00        0.167          2.9 
      738.00        0.133          2.9 
      739.00        0.200          3.0 
      740.00        0.267          3.4 
      741.00        0.133          3.4 
      742.00        0.233          2.9 
      743.00        0.200          2.9 
      744.00        0.300          3.4 
      745.00        0.367          2.8 
      746.00        2.550          3.6 
      747.00        0.700          3.5 
      748.00        0.500          3.6 
      749.00        0.333          3.6 
      750.00        0.350          3.5 
      751.00        0.300          3.6 
      752.00        0.300          3.6 
      753.00        0.200          2.9 
      754.00        0.267          3.7 
      755.00        0.300          4.1 
      756.00        0.300          3.8 
      757.00        0.300          2.8 
      758.00        0.267          3.4 
      759.00        0.267          3.4 
      760.00        0.333          2.5 
      761.00        0.267          1.2 
      762.00        0.350          2.1 
      763.00        0.267          2.1 
      764.00        0.267          2.8 
      765.00        0.300          2.1 
      766.00        0.333          2.8 
      767.00        0.367          2.8 
      768.00        0.433          2.1 
      769.00        0.300          2.6 
      770.00        0.333          2.5 
      771.00        0.333          2.8 
      772.00        0.150          2.2 
      773.00        0.167          2.1 
      774.00        0.333          1.8 
      775.00        0.433          3.0 
      776.00        2.917          3.0 
      777.00        0.767          2.8 
      778.00        0.567          2.7 
      779.00        0.300          2.7 
      780.00        0.300          2.9 
      781.00        0.300          2.7 
      782.00        0.267          2.5 
      783.00        0.267          2.5 
      784.00        0.283          2.2 
      785.00        0.267          2.1 
      786.00        0.233          1.9 
      787.00        0.267          2.7 
      788.00        0.233          2.3 
      789.00        0.267          2.6 
      790.00        0.267          2.6 
      791.00        0.300          1.9 
      792.00        0.300          2.1 
      793.00        0.300          2.1 
      794.00        0.200          2.0 
      795.00        0.267          1.7 
      796.00        0.317          2.4 
      797.00        0.233          1.5 
      798.00        0.333          1.3 
      799.00        0.300          1.7 
      800.00        0.333          2.0 
      801.00        0.300          1.7 
      802.00        0.300          2.4 
      803.00        0.333          2.3 
      804.00        0.300          2.3 
      805.00        0.267          2.1 
      806.00        1.350          2.2 
      807.00        0.267          1.0 
      808.00        0.267          1.4 
      809.00        0.267          2.1 
      810.00        0.300          1.0 
      811.00        0.567          1.9 
      812.00        0.333          1.6 
      813.00        0.517          2.0 
      814.00        0.333          1.6 
      815.00        0.367          1.6 
      816.00        0.400          1.7 
      817.00        0.300          1.5 
      818.00        0.333          1.3 
      819.00        0.233          1.3 
      820.00        0.167          0.6 
      821.00        0.167          0.7 
      822.00        0.333          1.2 
      823.00        0.233          0.4 
      824.00        0.267          0.7 
      825.00        0.283          1.8 
      826.00        0.300          1.5 
      827.00        0.267          1.6 
      828.00        0.267          1.8 
      829.00        0.633          1.1 
      830.00        0.300          0.5 
      831.00        0.300         -0.1 
      832.00        0.633          0.5 
      833.00        0.133          0.0 
      834.00        0.133          0.5 
      835.00        0.617          0.6 
      836.00        3.083          0.5 
      837.00        0.500         -0.4 
      838.00        0.367         -0.4 
      839.00        0.433         -0.6 
      840.00        0.400         -1.0 
      841.00        0.367         -0.9 
      842.00        0.400         -1.1 
      843.00        0.300         -1.1 
      844.00        0.300         -1.0 
      845.00        0.617         -0.5 
      846.00        0.367         -1.4 
      847.00        0.367         -1.0 
      848.00        0.367         -0.4 
      849.00        0.367         -0.6 
      850.00        0.367         -0.9 
      851.00        0.333          3.4 
      852.00        0.433          5.1 
      853.00        0.417          6.5 
      854.00        0.333          6.3 
      855.00        0.333          4.1 
      856.00        0.667          2.7 
      857.00        0.333          1.3 
      858.00        0.267          0.6 
      859.00        0.400          1.2 
      860.00        0.233          0.6 
      861.00        0.100          0.6 
      862.00        0.200          0.9 
      863.00        0.300          1.6 
      864.00        0.350          1.4 
      865.00        0.267          0.3 
      866.00        2.100          1.2 
      867.00        0.500          0.9 
      868.00        0.250          0.9 
      869.00        0.267          0.4 
      870.00        0.267          0.4 
      871.00        0.433          1.1 
      872.00        0.333          0.8 
      873.00        0.367          1.1 
      874.00        0.500          1.0 
      875.00        0.533          1.1 
      876.00        0.433          1.1 
      877.00        0.383          0.7 
      878.00        0.400          1.1 
      879.00        0.367          1.3 
      880.00        0.433          2.2 
      881.00        0.367          2.4 
      882.00        0.333          2.0 
      883.00        0.700          2.2 
      884.00        0.267          1.8 
      885.00        0.550          1.3 
      886.00        0.567          0.9 
      887.00        0.600          1.1 
      888.00        0.233          0.6 
      889.00        0.300          1.0 
      890.00        0.333          1.0 
      891.00        0.267          0.4 
      892.00        0.333          1.3 
      893.00        0.300          0.6 
      894.00        0.550          1.2 
      895.00        0.400          1.3 
      896.00        1.467          1.1 
      897.00        0.433          1.3 
      898.00        0.133          0.2 
      899.00        0.333          0.3 
      900.00        0.350          1.0 
      901.00        0.367          0.6 
      902.00        0.533          0.5 
      903.00        0.233          1.2 
      904.00        0.233          0.5 
      905.00        0.267          1.0 
      906.00        0.533          0.8 
      907.00        0.500          1.4 
      908.00        0.367          0.4 
      909.00        0.283          1.2 
      910.00        0.333          1.1 
      911.00        0.267          0.4 
      912.00        0.300          1.2 
      913.00        0.267          1.2 
      914.00        0.500          0.9 
      915.00        0.400          2.2 
      916.00        0.133          1.8 
      917.00        0.400          2.3 
      918.00        0.333          2.7 
      919.00        0.550          3.0 
      920.00        0.267          3.3 
