~Version Information
VERS.                      2.0: CWLS Log ASCII Standard - VERSION 2.0
WRAP.                       NO: One line per depth step
~Well Information Block
STRT.FT               483.5000: 
STOP.FT              2348.7500: 
STEP.FT                 0.2500: 
NULL.                -999.2500: 
COMP.          Pioneer Natural Resources: COMPANY
WELL.          Hill Climb 22-2: WELL
FLD.           Purgatoire River: FIELD
LOC.           1820' FNL & 2193' FWL: LOCATION
PROV.                 Colorado: PROVINCE
CNTY.               Las Animas: COUNTRY
SRVC.                Patterson: SERVICE COMPANY
DATE.          Wed Oct 20 08:57:51 2004: LOG DATE
UWI.           05 071 08175 00: UNIQUE WELL ID
~Curve Information Block
DEPT.FT            0 000 00 00: Depth
DIR.Ohm-m                     : IEL Induction Resistivity
SN.Ohm-m                      : IEL Short Normal
SP.mV                         : IEL Spontaneous Potential
GR.GAPI                       : Gamma Ray
~Parameter Information Block
~A  Depth       DIR          SN          SP          GR     
# ...
  2192.0000     16.8269     16.9909     58.1250     95.8968
  2192.2500     16.7381     17.2122     58.6889     95.3362
  2192.5000     16.6431     17.8569     59.0482     98.7068
  2192.7500     16.5635     18.7283     59.2098    103.0241
  2193.0000     16.5033     19.6098     59.1932    110.2034
  2193.2500     16.4598     20.3529     59.0313    113.9411
  2193.5000     16.4335     20.8977     58.7688    116.3783
  2193.7500     16.4292     21.2440     58.4588    115.7043
  2194.0000     16.4533     21.4223     58.1562    111.6023
  2194.2500     16.5109     21.4719     57.9106    107.3612
  2194.5000     16.6048     21.4189     57.7575    100.5812
  2194.7500     16.7338     21.2701     57.7129     96.9779
  2195.0000     16.8872     21.0302     57.7688     93.7071
  2195.2500     17.0420     20.7202     57.8942     92.4063
  2195.5000     17.1673     20.3752     58.0402     90.3155
  2195.7500     17.2369     20.0282     58.1488     88.5190
  2196.0000     17.2444     19.7028     58.1638     86.2144
  2196.2500     17.2072     19.4228     58.0412     85.8903
  2196.5000     17.1597     19.2279     57.7572     87.7310
  2196.7500     17.1411     19.1798     57.3121     89.7202
  2197.0000     17.1858     19.3440     56.7309     91.5930
  2197.2500     17.3208     19.7552     56.0601     91.1320
  2197.5000     17.5649     20.3861     55.3623     87.6077
  2197.7500     17.9241     21.1400     54.7083     83.9027
  2198.0000     18.3830     21.8798     54.1687     77.7681
  2198.2500     18.8978     22.4827     53.8024     74.0270
  2198.5000     19.3975     22.8822     53.6459     69.4036
  2198.7500     19.7958     23.0696     53.7040     66.7976
  2199.0000     20.0125     23.0685     53.9453     63.2090
  2199.2500     20.0008     22.9159     54.3059     61.2422
  2199.5000     19.7695     22.6588     54.7014     60.4463
  2199.7500     19.3832     22.3513     55.0435     62.4806
  2200.0000     18.9347     22.0386     55.2567     69.8059
  2200.2500     18.5070     21.7420     55.2896     76.2823
  2200.5000     18.1474     21.4568     55.1179     85.3203
  2200.7500     17.8660     21.1640     54.7422     90.2619
  2201.0000     17.6525     20.8491     54.1824     97.3677
  2201.2500     17.4992     20.5244     53.4722    102.3302
  2201.5000     17.4169     20.2477     52.6542    107.8951
  2201.7500     17.4351     20.1183     51.7744    108.4311
  2202.0000     17.5918     20.2397     50.8768    103.9804
  2202.2500     17.9195     20.6604     49.9972     99.3514
  2202.5000     18.4324     21.3349     49.1603     93.7617
  2202.7500     19.1167     22.1379     48.3801     91.6457
  2203.0000     19.9253     22.9256     47.6648     88.8756
  2203.2500     20.7838     23.6004     47.0213     85.7597
  2203.5000     21.6084     24.1396     46.4601     78.9854
  2203.7500     22.3323     24.5827     45.9942     74.4796
  2204.0000     22.9253     24.9962     45.6350     70.2181
  2204.2500     23.3968     25.4381     45.3841     69.2512
  2204.5000     23.7824     25.9387     45.2271     68.9375
  2204.7500     24.1239     26.5043     45.1323     68.3299
  2205.0000     24.4572     27.1368     45.0564     65.8213
  2205.2500     24.8119     27.8473     44.9564     63.0564
  2205.5000     25.2140     28.6511     44.8019     58.0305
  2205.7500     25.6825     29.5517     44.5820     55.0329
  2206.0000     26.2212     30.5266     44.3041     52.8129
  2206.2500     26.8149     31.5257     43.9862     53.3176
  2206.5000     27.4338     32.4798     43.6453     56.5008
  2206.7500     28.0362     33.3168     43.2895     59.4413
  2207.0000     28.5718     33.9822     42.9137     63.6119
  2207.2500     28.9925     34.4604     42.5017     65.5343
  2207.5000     29.2785     34.7871     42.0317     66.3868
  2207.7500     29.4592     35.0400     41.4838     65.6657
  2208.0000     29.6033     35.3069     40.8473     63.9678
  2208.2500     29.7781     35.6440     40.1241     63.3749
  2208.5000     30.0059     36.0434     39.3313     63.5197
  2208.7500     30.2489     36.4327     38.5005     63.5504
  2209.0000     30.4326     36.7143     37.6769     62.3714
  2209.2500     30.4915     36.8151     36.9176     60.7708
  2209.5000     30.4021     36.7154     36.2870     57.6429
  2209.7500     30.1799     36.4487     35.8497     55.3276
  2210.0000     29.8543     36.0853     35.6609     52.2188
  2210.2500     29.4469     35.6963     35.7563     51.0009
  2210.5000     28.9647     35.3031     36.1454     51.1337
  2210.7500     28.4042     34.8487     36.8081     52.4979
  2211.0000     27.7675     34.2246     37.6978     56.2151
  2211.2500     27.0808     33.3378     38.7464     59.7613
  2211.5000     26.3993     32.1683     39.8736     66.1405
  2211.7500     25.7835     30.7848     40.9960     70.1862
  2212.0000     25.2661     29.3202     42.0383     74.1197
  2212.2500     24.8408     27.9336     42.9432     74.9820
  2212.5000     24.4813     26.7731     43.6778     74.7408
  2212.7500     24.1667     25.9429     44.2351     74.4026
  2213.0000     23.8881     25.4717     44.6297     73.9580
  2213.2500     23.6353     25.3028     44.8895     73.4631
  2213.5000     23.3879     25.3277     45.0464     72.9420
  2213.7500     23.1233     25.4454     45.1291     73.9415
  2214.0000     22.8325     25.5967     45.1599     79.4786
  2214.2500     22.5249     25.7507     45.1566     85.7468
  2214.5000     22.2214     25.8696     45.1387     96.3012
  2214.7500     21.9481     25.8907     45.1358    102.3336
  2215.0000     21.7365     25.7405     45.1940    108.8694
  2215.2500     21.6210     25.3665     45.3761    112.1303
  2215.5000     21.6252     24.7637     45.7534    116.5832
  2215.7500     21.7421     23.9835     46.3896    119.2909
  2216.0000     21.9188     23.1179     47.3237    121.7588
  2216.2500     22.0605     22.2649     48.5567    121.5698
  2216.5000     22.0647     21.4873     50.0481    118.5581
  2216.7500     21.8737     20.7914     51.7238    115.6225
  2217.0000     21.5058     20.1458     53.4902    111.7330
  2217.2500     21.0327     19.5323     55.2508    110.3137
  2217.5000     20.5280     18.9850     56.9182    110.8572
  2217.7500     20.0334     18.5775     58.4219    113.2371
  2218.0000     19.5613     18.3712     59.7119    119.1472
  2218.2500     19.1122     18.3686     60.7601    123.3548
  2218.5000     18.6860     18.5027     61.5628    127.1382
  2218.7500     18.2824     18.6628     62.1401    126.9000
  2219.0000     17.8988     18.7438     62.5324    122.9281
  2219.2500     17.5295     18.6930     62.7915    119.1122
  2219.5000     17.1675     18.5205     62.9694    113.5900
  2219.7500     16.8036     18.2683     63.1074    110.5795
  2220.0000     16.4259     17.9662     63.2288    107.0351
  2220.2500     16.0195     17.6132     63.3389    104.9619
  2220.5000     15.5713     17.1965     63.4293    101.6796
  2220.7500     15.0799     16.7219     63.4869     99.3339
  2221.0000     14.5621     16.2232     63.5008     96.2935
  2221.2500     14.0494     15.7437     63.4665     95.4128
  2221.5000     13.5732     15.3138     63.3856     97.1620
  2221.7500     13.1518     14.9445     63.2610    100.4247
  2222.0000     12.7875     14.6343     63.0914    106.7172
  2222.2500     12.4737     14.3689     62.8684    110.3480
  2222.5000     12.2067     14.1129     62.5757    113.3207
  2222.7500     11.9902     13.8191     62.1928    113.7536
  2223.0000     11.8310     13.4657     61.7000    113.6209
  2223.2500     11.7279     13.0874     61.0842    114.0443
  2223.5000     11.6674     12.7638     60.3438    116.0808
  2223.7500     11.6314     12.5754     59.4925    117.6406
  2224.0000     11.6131     12.5642     58.5617    117.9115
  2224.2500     11.6243     12.7186     57.6014    115.9250
  2224.5000     11.6865     12.9900     56.6796    110.8175
  2224.7500     11.8146     13.3281     55.8785    107.3812
  2225.0000     12.0108     13.6970     55.2859    103.2777
  2225.2500     12.2698     14.0562     54.9820    100.7981
