~Version Information
VERS.                      2.0: CWLS Log ASCII Standard - VERSION 2.0
WRAP.                       NO: One line per depth step
~Well Information Block
STRT.FT               780.0000: 
STOP.FT              3152.2000: 
STEP.FT                 0.1000: 
NULL.                -999.2500: 
COMP.          Pioneer Natural Resources: COMPANY
WELL.            Paradise 13-8: WELL
FLD.           Purgatoire River: FIELD
LOC.           1896' FSL & 1120' FWL: LOCATION
PROV.                 Colorado: PROVINCE
CNTY.               Las Animas: COUNTRY
SRVC.                Patterson: SERVICE COMPANY
DATE.          Sat Jan 22 20:51:32 2005: LOG DATE
UWI.           05 071 07946 00: UNIQUE WELL ID
~Curve Information Block
DEPT.FT            0 000 00 00: Depth
DCAL.in                       : CDL Caliper
RHOB.g/cc                     : CDL Bulk Density
RHOC.g/cc                     : CDL Density Correction
DPOR.pu                       : CDL Density Porosity
NPOR.pu                       : Neutron Porosity
GR.GAPI                       : Gamma Ray
~Parameter Information Block
~A  Depth       DCAL        RHOB        RHOC        DPOR        NPOR         GR     
# ...
  2498.4000      7.9412      2.6415      0.0595      0.5161     18.3038    101.3700
  2498.5000      7.9347      2.6446      0.0721      0.3298     17.1042     97.7201
  2498.6000      7.9347      2.6398      0.0453      0.6169     16.5444     96.0802
  2498.7000      7.9347      2.6342      0.0546      0.9588     16.3798     94.1637
  2498.8000      7.9264      2.6268      0.0733      1.4036     16.3720     88.4660
  2498.9000      7.9264      2.6170      0.0192      1.9972     16.4749     81.1018
  2499.0000      7.9272      2.6157      0.0438      2.0814     16.4102     79.2654
  2499.1000      7.9272      2.6250      0.0256      1.5157     16.1717     83.0072
  2499.2000      7.9272      2.6327      0.0959      1.0486     16.0760     86.1360
  2499.3000      7.9308      2.6279      0.0724      1.3404     16.2861     85.5630
  2499.4000      7.9308      2.6226      0.0023      1.6636     16.7453     84.0932
  2499.5000      7.9368      2.6336      0.0554      0.9949     17.3477     86.2122
  2499.6000      7.9368      2.6509      0.0698     -0.0533     17.9594     88.0957
  2499.7000      7.9368      2.6537      0.0653     -0.2245     18.1146     85.2458
  2499.8000      7.9413      2.6355      0.0576      0.8807     17.5968     81.3751
  2499.9000      7.9413      2.6083      0.0683      2.5301     17.2022     79.3620
  2500.0000      7.9402      2.5927      0.0077      3.4718     17.6498     80.7823
  2500.1000      7.9402      2.5964      0.0513      3.2462     18.4023     85.5774
  2500.2000      7.9402      2.6082      0.0461      2.5331     18.6435     91.3074
  2500.3000      7.9382      2.6222      0.0466      1.6847     18.6209     96.1068
  2500.4000      7.9382      2.6408      0.0798      0.5585     18.8337     97.9081
  2500.5000      7.9406      2.6568      0.0828     -0.4142     19.3467     96.5579
  2500.6000      7.9406      2.6547      0.1047     -0.2820     19.9588     94.5755
  2500.7000      7.9406      2.6270      0.0868      1.3964     20.0982     93.8715
  2500.8000      7.9453      2.5870      0.0414      3.8167     19.6872     91.2513
  2500.9000      7.9453      2.5520      0.0524      5.9365     19.5340     84.6685
  2501.0000      7.9488      2.5307      0.0226      7.2273     19.6239     79.5593
  2501.1000      7.9488      2.5269      0.0436      7.4621     19.3033     80.7986
  2501.2000      7.9488      2.5303      0.0532      7.2528     18.7145     83.6178
  2501.3000      7.9465      2.5245      0.0792      7.6063     18.1004     81.5964
  2501.4000      7.9465      2.5110      0.0092      8.4264     17.6802     77.2888
  2501.5000      7.9425      2.5096      0.0345      8.5078     17.8527     74.3822
  2501.6000      7.9425      2.5251      0.0815      7.5676     18.3154     74.9423
  2501.7000      7.9425      2.5439      0.0601      6.4313     18.4747     79.6113
  2501.8000      7.9412      2.5523      0.0952      5.9226     18.4312     82.5167
  2501.9000      7.9412      2.5448      0.0749      6.3773     18.5097     79.7264
  2502.0000      7.9408      2.5362      0.0280      6.8955     18.9991     73.7269
  2502.1000      7.9408      2.5417      0.0794      6.5635     20.0379     65.0323
  2502.2000      7.9408      2.5501      0.0694      6.0541     20.8021     56.9380
  2502.3000      7.9396      2.5449      0.1024      6.3675     20.3198     56.6316
  2502.4000      7.9396      2.5305      0.0575      7.2422     19.2592     61.4752
  2502.5000      7.9393      2.5208      0.0673      7.8282     18.8493     62.8309
  2502.6000      7.9393      2.5129      0.0811      8.3114     19.0120     61.2858
  2502.7000      7.9393      2.5022      0.0479      8.9587     18.9442     61.4325
  2502.8000      7.9396      2.5010      0.0470      9.0289     18.5346     62.4608
  2502.9000      7.9396      2.5096      0.1011      8.5077     18.4483     62.3869
  2503.0000      7.9410      2.5125      0.0739      8.3361     18.7212     62.1493
  2503.1000      7.9410      2.5108      0.0470      8.4370     18.6296     63.5139
  2503.2000      7.9410      2.5182      0.0514      7.9887     18.0132     64.0825
  2503.3000      7.9421      2.5323      0.0979      7.1305     17.3829     61.5031
  2503.4000      7.9421      2.5381      0.0941      6.7832     17.2976     57.5323
  2503.5000      7.9416      2.5325      0.0748      7.1203     17.7576     53.3385
  2503.6000      7.9416      2.5237      0.0716      7.6569     17.8981     50.3760
  2503.7000      7.9416      2.5152      0.0657      8.1721     17.6359     51.9711
  2503.8000      7.9411      2.5127      0.0379      8.3236     17.7437     58.0384
  2503.9000      7.9411      2.5254      0.0537      7.5536     17.8684     64.9693
  2504.0000      7.9390      2.5510      0.0886      6.0024     17.5241     71.6977
  2504.1000      7.9390      2.5741      0.0798      4.5992     17.4485     79.2099
  2504.2000      7.9390      2.5820      0.0994      4.1233     18.0516     86.1167
  2504.3000      7.9370      2.5782      0.0907      4.3498     18.7029     88.9138
  2504.4000      7.9370      2.5801      0.0697      4.2375     19.1794     87.0213
  2504.5000      7.9393      2.5913      0.1079      3.5599     19.9412     83.1114
  2504.6000      7.9393      2.5968      0.0804      3.2265     20.9598     79.0225
  2504.7000      7.9393      2.5881      0.1151      3.7493     21.5817     74.7522
  2504.8000      7.9414      2.5688      0.0896      4.9202     21.2010     71.9683
  2504.9000      7.9414      2.5530      0.0056      5.8815     20.1942     75.0008
  2505.0000      7.9413      2.5476      0.0613      6.2063     19.8254     83.3899
  2505.1000      7.9413      2.5421      0.0491      6.5423     20.2163     91.2101
  2505.2000      7.9413      2.5407      0.0246      6.6258     20.2624     92.6015
  2505.3000      7.9415      2.5573      0.0596      5.6160     19.7815     86.6589
  2505.4000      7.9415      2.5814      0.1132      4.1604     19.5667     80.1014
  2505.5000      7.9419      2.5943      0.0766      3.3781     20.0129     80.2310
  2505.6000      7.9419      2.5947      0.0827      3.3542     20.8711     87.1740
  2505.7000      7.9419      2.5869      0.0967      3.8249     21.3034     96.0498
  2505.8000      7.9429      2.5798      0.0592      4.2529     21.1562    101.5845
  2505.9000      7.9429      2.5773      0.0942      4.4036     21.4216    103.4957
  2506.0000      7.9437      2.5673      0.0867      5.0140     22.2174    106.5124
  2506.1000      7.9437      2.5480      0.0691      6.1799     22.4707    109.4107
  2506.2000      7.9437      2.5289      0.0428      7.3372     21.5401    106.2647
  2506.3000      7.9425      2.5169      0.0357      8.0689     19.9728     97.2868
  2506.4000      7.9425      2.5121      0.0589      8.3597     18.4103     86.8639
  2506.5000      7.9410      2.5056      0.0682      8.7541     17.1653     82.6456
  2506.6000      7.9410      2.4971      0.0329      9.2670     16.2378     87.1362
  2506.7000      7.9410      2.5002      0.0626      9.0815     15.2638     89.5662
  2506.8000      7.9408      2.5161      0.0795      8.1131     14.4779     83.4687
  2506.9000      7.9408      2.5229      0.1397      7.7026     14.5379     74.4230
  2507.0000      7.9406      2.5059      0.1025      8.7327     15.3755     67.3149
  2507.1000      7.9406      2.4854      0.0505      9.9744     16.3941     62.9214
  2507.2000      7.9406      2.4801      0.0919     10.2943     17.3687     62.5374
  2507.3000      7.9400      2.4816      0.0833     10.2068     18.5910     66.1662
  2507.4000      7.9400      2.4704      0.1010     10.8854     20.0614     68.1669
  2507.5000      7.9393      2.4301      0.0715     13.3303     21.1535     66.8649
  2507.6000      7.9393      2.3714      0.0334     16.8846     22.1088     67.3942
  2507.7000      7.9393      2.3280     -0.0017     19.5134     23.6785     70.2754
  2507.8000      7.9382      2.3147     -0.0015     20.3204     25.3634     74.4002
  2507.9000      7.9382      2.3188      0.0103     20.0717     26.0126     81.3532
