~Version Information
VERS.                      2.0: CWLS Log ASCII Standard - VERSION 2.0
WRAP.                       NO: One line per depth step
~Well Information Block
STRT.FT               521.0000: 
STOP.FT              2732.5000: 
STEP.FT                 0.2500: 
NULL.                -999.2500: 
COMP.          Petrogulf Corporation: COMPANY
WELL.              Silva 6-22V: WELL
FLD.           Purgatorie River: FIELD
LOC.           1936' FNL & 1798' FWL: LOCATION
CNTY.               Las Animas: COUNTY
SRVC.                         : SERVICE COMPANY
DATE.          Tue Nov 09 08:09:38 2004: LOG DATE
UWI.           05 071 08143 00: UNIQUE WELL ID
STAT.                 Colorado: STATE
~Curve Information Block
DEPT.FT            0 000 00 00: Depth
SP.mV                         : DIL Spontaneous Potential
RILD.Ohm-m                    : DIL Deep Resistivity
RILM.Ohm-m                    : DIL Medium Resistivity
RLL3.Ohm-m                    : DIL Shallow Resistivity
GR.GAPI                       : Gamma Ray
~Parameter Information Block
~A  Depth        SP         RILD        RILM        RLL3         GR     
# ...
   969.0000   2000.0000     49.2707     55.4198   2000.0000     49.3717
   969.2500   2000.0000     48.9666     55.9475   2000.0000     50.4735
   969.5000   2000.0000     48.7850     56.2744   2000.0000     51.6137
   969.7500   2000.0000     48.7787     56.3897   2000.0000     52.1311
   970.0000   2000.0000     48.9798     56.3245   2000.0000     52.6961
   970.2500   2000.0000     49.3955     56.1522   2000.0000     53.0466
   970.5000   2000.0000     50.0022     55.9794   2000.0000     53.8126
   970.7500   2000.0000     50.7421     55.9238   2000.0000     54.5200
   971.0000   2000.0000     51.5231     56.1033   2000.0000     55.4629
   971.2500   2000.0000     52.2283     56.6076   2000.0000     55.6671
   971.5000   2000.0000     52.7332     57.4969   2000.0000     55.1216
   971.7500   2000.0000     52.9288     58.7829   2000.0000     54.3646
   972.0000   2000.0000     52.7516     60.4243   2000.0000     53.1397
   972.2500   2000.0000     52.2032     62.3113   2000.0000     52.5108
   972.5000   2000.0000     51.3474     64.2547   2000.0000     52.0713
   972.7500   2000.0000     50.2961     65.9843   2000.0000     52.0747
   973.0000   2000.0000     49.1792     67.1829   2000.0000     52.2358
   973.2500   2000.0000     48.1115     67.5440   2000.0000     52.3805
   973.5000   2000.0000     47.1736     66.8569   2000.0000     53.0731
   973.7500   2000.0000     46.3990     65.0837   2000.0000     54.2174
   974.0000   2000.0000     45.7703     62.3675   2000.0000     56.9922
   974.2500   2000.0000     45.2229     58.9776   2000.0000     59.1205
   974.5000   2000.0000     44.6543     55.2195   2000.0000     62.0240
   974.7500   2000.0000     43.9409     51.3559   2000.0000     63.8128
   975.0000   2000.0000     42.9635     47.5721   2000.0000     67.0189
   975.2500   2000.0000     41.6361     43.9739   2000.0000     69.8913
   975.5000   2000.0000     39.9310     40.6085   2000.0000     75.3552
   975.7500   2000.0000     37.8913     37.4890   2000.0000     79.5268
   976.0000   2000.0000     35.6186     34.6133   2000.0000     86.2010
   976.2500   2000.0000     33.2438     31.9758   2000.0000     90.9088
   976.5000   2000.0000     30.8977     29.5737   2000.0000     98.5380
   976.7500   2000.0000     28.6829     27.4052   2000.0000    104.0619
   977.0000   2000.0000     26.6670     25.4677   2000.0000    113.0191
   977.2500   2000.0000     24.8817     23.7560   2000.0000    119.4744
   977.5000   2000.0000     23.3301     22.2602   2000.0000    129.5979
   977.7500   2000.0000     21.9965     20.9656   2000.0000    135.8856
   978.0000   2000.0000     20.8550     19.8540   2000.0000    142.5050
   978.2500   2000.0000     19.8756     18.9043   2000.0000    144.0805
   978.5000   2000.0000     19.0289     18.0939   2000.0000    142.2251
   978.7500   2000.0000     18.2889     17.4014   2000.0000    139.1092
   979.0000   2000.0000     17.6349     16.8070   2000.0000    133.7012
   979.2500   2000.0000     17.0522     16.2939   2000.0000    130.6601
   979.5000   2000.0000     16.5315     15.8496   2000.0000    128.1962
   979.7500   2000.0000     16.0693     15.4655   2000.0000    128.2832
   980.0000   2000.0000     15.6659     15.1367   2000.0000    130.7153
   980.2500   2000.0000     15.3247     14.8606   2000.0000    133.2575
   980.5000   2000.0000     15.0497     14.6357   2000.0000    137.1131
   980.7500   2000.0000     14.8445     14.4605   2000.0000    139.1196
   981.0000   2000.0000     14.7109     14.3324   2000.0000    141.1205
   981.2500   2000.0000     14.6471     14.2474   2000.0000    142.1582
   981.5000   2000.0000     14.6481     14.2001   2000.0000    143.9669
   981.7500   2000.0000     14.7050     14.1842   2000.0000    145.4676
   982.0000   2000.0000     14.8058     14.1938   2000.0000    148.1492
   982.2500   2000.0000     14.9362     14.2233   2000.0000    150.2600
   982.5000   2000.0000     15.0816     14.2692   2000.0000    153.6973
   982.7500   2000.0000     15.2280     14.3294   2000.0000    155.7148
   983.0000   2000.0000     15.3643     14.4034   2000.0000    157.5747
   983.2500   2000.0000     15.4835     14.4916   2000.0000    158.0586
   983.5000   2000.0000     15.5827     14.5942   2000.0000    158.3623
   983.7500   2000.0000     15.6630     14.7106   2000.0000    158.5762
   984.0000   2000.0000     15.7278     14.8388   2000.0000    158.7340
   984.2500   2000.0000     15.7821     14.9749   2000.0000    158.5352
   984.5000   2000.0000     15.8309     15.1145   2000.0000    157.8990
   984.7500   2000.0000     15.8783     15.2532   2000.0000    157.4753
   985.0000   2000.0000     15.9273     15.3874   2000.0000    157.2327
   985.2500   2000.0000     15.9806     15.5155   2000.0000    157.6379
   985.5000   2000.0000     16.0407     15.6378   2000.0000    159.5126
   985.7500   2000.0000     16.1102     15.7556   2000.0000    161.3774
   986.0000   2000.0000     16.1926     15.8708   2000.0000    163.8500
   986.2500   2000.0000     16.2904     15.9850   2000.0000    164.6888
   986.5000   2000.0000     16.4057     16.0989   2000.0000    164.9722
   986.7500   2000.0000     16.5386     16.2125   2000.0000    165.1493
   987.0000   2000.0000     16.6869     16.3260   2000.0000    166.0121
   987.2500   2000.0000     16.8465     16.4399   2000.0000    166.7626
   987.5000   2000.0000     17.0118     16.5564   2000.0000    167.4507
   987.7500   2000.0000     17.1780     16.6796   2000.0000    167.4525
   988.0000   2000.0000     17.3421     16.8154   2000.0000    166.9944
   988.2500   2000.0000     17.5054     16.9725   2000.0000    166.7245
   988.5000   2000.0000     17.6738     17.1616   2000.0000    167.1051
   988.7500   2000.0000     17.8573     17.3944   2000.0000    168.0751
   989.0000   2000.0000     18.0693     17.6839   2000.0000    169.9967
   989.2500   2000.0000     18.3236     18.0426   2000.0000    170.8488
   989.5000   2000.0000     18.6328     18.4816   2000.0000    170.4415
   989.7500   2000.0000     19.0065     19.0094   2000.0000    168.8466
   990.0000   2000.0000     19.4504     19.6301   2000.0000    164.6395
   990.2500   2000.0000     19.9667     20.3432   2000.0000    160.8344
   990.5000   2000.0000     20.5538     21.1434   2000.0000    154.2037
   990.7500   2000.0000     21.2088     22.0214   2000.0000    149.7874
   991.0000   2000.0000     21.9282     22.9655   2000.0000    144.4674
   991.2500   2000.0000     22.7093     23.9637   2000.0000    142.1650
   991.5000   2000.0000     23.5506     25.0072   2000.0000    139.9282
   991.7500   2000.0000     24.4515     26.0913   2000.0000    138.3822
   992.0000   2000.0000     25.4107     27.2163   2000.0000    134.7230
   992.2500   2000.0000     26.4269     28.3888   2000.0000    131.1551
   992.5000   2000.0000     27.4965     29.6190   2000.0000    124.6976
   992.7500   2000.0000     28.6150     30.9217   2000.0000    120.4538
   993.0000   2000.0000     29.7784     32.3148   2000.0000    115.8139
   993.2500   2000.0000     30.9841     33.8187   2000.0000    114.5732
   993.5000   2000.0000     32.2331     35.4561   2000.0000    115.4448
   993.7500   2000.0000     33.5280     37.2483   2000.0000    116.8917
   994.0000   2000.0000     34.8731     39.2116   2000.0000    117.8636
   994.2500   2000.0000     36.2699     41.3527   2000.0000    116.5835
   994.5000   2000.0000     37.7122     43.6619   2000.0000    111.4454
   994.7500   2000.0000     39.1829     46.1121   2000.0000    106.5002
   995.0000   2000.0000     40.6512     48.6563   2000.0000     98.3479
   995.2500   2000.0000     42.0720     51.2342   2000.0000     93.2124
   995.5000   2000.0000     43.3898     53.7740   2000.0000     86.8408
   995.7500   2000.0000     44.5408     56.1986   2000.0000     83.6710
   996.0000   2000.0000     45.4615     58.4272   2000.0000     80.2980
   996.2500   2000.0000     46.1013     60.3713   2000.0000     78.6291
   996.5000   2000.0000     46.4296     61.9354   2000.0000     76.5175
   996.7500   2000.0000     46.4473     63.0196   2000.0000     75.3303
