~Version Information
VERS.                      2.0: CWLS Log ASCII Standard - VERSION 2.0
WRAP.                       NO: One line per depth step
~Well Information Block
STRT.FT               757.3000: 
STOP.FT              2418.0000: 
STEP.FT                 0.1000: 
NULL.                -999.2500: 
COMP.          Petrogulf Corporation: COMPANY
WELL.            Montoya 7-21V: WELL
FLD.           Purgatorie River: FIELD
LOC.           738' FSL & 2070' FWL: LOCATION
CNTY.               Las Animas: COUNTY
SRVC.                         : SERVICE COMPANY
DATE.          Fri Aug 20 14:08:15 2004: LOG DATE
UWI.           05 071 08018 00: UNIQUE WELL ID
STAT.                 Colorado: STATE
~Curve Information Block
DEPT.FT            0 000 00 00: Depth
DCAL.in                       : CDL Caliper
RHOB.g/cc                     : CDL Bulk Density
RHOC.g/cc                     : CDL Density Correction
DPOR.pu                       : CDL Density Porosity
GR.GAPI                       : Gamma Ray
NPOR.pu                       : Neutron Porosity
~Parameter Information Block
~A  Depth       DCAL        RHOB        RHOC        DPOR         GR         NPOR    
# ...
  1323.7000      8.1738      2.5384     -0.0087      6.7625    117.8425     18.3438
  1323.8000      8.1710      2.5511     -0.0322      5.9965    106.2493     18.0592
  1323.9000      8.1710      2.5734      0.0331      4.6403     97.0042     16.9829
  1324.0000      8.1641      2.5904      0.0095      3.6150     97.4644     16.5661
  1324.1000      8.1641      2.5971      0.0490      3.2075    106.4975     17.0496
  1324.2000      8.1641      2.5945      0.0402      3.3624    114.6966     17.2153
  1324.3000      8.1563      2.5893      0.0243      3.6789    114.2318     16.8380
  1324.4000      8.1563      2.5940      0.0205      3.3931    110.9686     16.9406
  1324.5000      8.1491      2.6060      0.0751      2.6690    113.1526     17.6264
  1324.6000      8.1491      2.6071      0.0528      2.5991    117.9761     18.1794
  1324.7000      8.1491      2.5953     -0.0244      3.3167    118.6242     18.3246
  1324.8000      8.1470      2.5844      0.0032      3.9734    113.1541     18.0450
  1324.9000      8.1470      2.5844     -0.0016      3.9737    104.1239     17.3500
  1325.0000      8.1522      2.5950     -0.0037      3.3347     96.5644     16.8041
  1325.1000      8.1522      2.6025      0.0517      2.8791     94.2801     16.8975
  1325.2000      8.1522      2.5933      0.0419      3.4349     94.8781     17.0337
  1325.3000      8.1561      2.5716      0.0032      4.7538     94.4997     16.6358
  1325.4000      8.1561      2.5512     -0.0112      5.9883     93.5438     16.2985
  1325.5000      8.1562      2.5422      0.0157      6.5311     92.9029     16.6136
  1325.6000      8.1562      2.5452     -0.0033      6.3520     95.2842     17.4626
  1325.7000      8.1562      2.5524      0.0154      5.9162    100.6098     18.5500
  1325.8000      8.1587      2.5490      0.0326      6.1213    102.3390     19.6692
  1325.9000      8.1587      2.5315     -0.0014      7.1834     98.3057     20.3016
  1326.0000      8.1620      2.5148     -0.0104      8.1967     92.5844     19.9626
  1326.1000      8.1620      2.5078      0.0023      8.6207     88.6428     19.1287
  1326.2000      8.1620      2.5113     -0.0373      8.4051     87.2523     18.4533
  1326.3000      8.1667      2.5247     -0.0155      7.5919     92.3933     18.0424
  1326.4000      8.1667      2.5354      0.0249      6.9451    105.4033     17.8662
  1326.5000      8.1695      2.5293      0.0244      7.3135    115.6904     17.7697
  1326.6000      8.1695      2.5110     -0.0522      8.4267    114.3334     17.6404
  1326.7000      8.1695      2.4993     -0.0201      9.1337    106.9552     17.4460
  1326.8000      8.1627      2.5035     -0.0280      8.8801    102.3685     17.2409
  1326.9000      8.1627      2.5142      0.0499      8.2328    101.0492     17.0571
  1327.0000      8.1574      2.5220     -0.0068      7.7575     99.5464     16.9708
  1327.1000      8.1574      2.5293      0.0180      7.3144     96.2953     16.9831
  1327.2000      8.1574      2.5320      0.0417      7.1542     94.2974     16.7960
  1327.3000      8.1614      2.5247      0.0397      7.5936     93.3317     16.4303
  1327.4000      8.1614      2.5143      0.0149      8.2220     89.2249     16.3018
  1327.5000      8.1640      2.5032      0.0432      8.8948     80.4235     16.2205
  1327.6000      8.1640      2.4869     -0.0307      9.8874     71.1265     15.8364
  1327.7000      8.1640      2.4699     -0.0182     10.9138     65.6994     15.5083
  1327.8000      8.1648      2.4608     -0.0192     11.4691     62.0423     15.7153
  1327.9000      8.1648      2.4587      0.0452     11.5962     59.0072     16.4607
  1328.0000      8.1647      2.4650     -0.0319     11.2133     60.6309     17.2207
  1328.1000      8.1647      2.4868      0.0266      9.8903     65.2754     17.4341
  1328.2000      8.1647      2.5142      0.0168      8.2316     68.2789     17.1902
  1328.3000      8.1655      2.5299      0.0344      7.2798     69.9757     16.8597
  1328.4000      8.1655      2.5304      0.0458      7.2510     70.1131     16.2486
  1328.5000      8.1629      2.5218      0.0520      7.7708     68.4584     15.3234
  1328.6000      8.1629      2.5121      0.0323      8.3594     66.8282     14.5265
  1328.7000      8.1629      2.5040      0.0156      8.8499     66.3653     14.1588
  1328.8000      8.1575      2.4987      0.0077      9.1670     67.1192     14.6066
  1328.9000      8.1575      2.5010      0.0507      9.0330     69.8327     15.8299
  1329.0000      8.1601      2.5080      0.0246      8.6091     72.9058     16.6989
  1329.1000      8.1601      2.5123      0.0205      8.3467     75.1512     16.9206
  1329.2000      8.1601      2.5120      0.0445      8.3628     78.8533     17.2092
  1329.3000      8.1690      2.5048      0.0517      8.8029     80.7183     17.6509
  1329.4000      8.1690      2.4910      0.0064      9.6383     76.2646     17.9282
  1329.5000      8.1674      2.4883      0.0038      9.7973     71.9924     18.0658
  1329.6000      8.1674      2.5087      0.0328      8.5634     71.5981     18.3734
  1329.7000      8.1674      2.5312      0.0574      7.1980     69.6244     18.8453
  1329.8000      8.1601      2.5351      0.0570      6.9609     67.4223     18.9548
  1329.9000      8.1601      2.5242      0.0794      7.6248     68.2207     18.5796
  1330.0000      8.1592      2.5095      0.0541      8.5173     69.9470     18.0858
  1330.1000      8.1592      2.5010      0.0585      9.0329     73.5310     17.7055
  1330.2000      8.1592      2.5031      0.0614      8.9044     79.3773     17.2608
  1330.3000      8.1617      2.5100      0.0665      8.4859     84.4429     16.6843
  1330.4000      8.1617      2.5131      0.0838      8.2942     88.1840     16.2229
  1330.5000      8.1610      2.5137      0.0505      8.2636     91.0090     15.8894
  1330.6000      8.1610      2.5245      0.0277      7.6047     91.3435     15.4440
  1330.7000      8.1610      2.5520      0.0634      5.9411     90.8503     14.8252
  1330.8000      8.1568      2.5758      0.0847      4.4947     95.3431     14.2496
  1330.9000      8.1568      2.5694      0.0669      4.8861    102.6284     13.6336
  1331.0000      8.1540      2.5368      0.0305      6.8606    102.2034     12.9410
  1331.1000      8.1540      2.5117      0.0190      8.3794     94.2953     12.5675
  1331.2000      8.1540      2.5162      0.0321      8.1086     88.5938     12.7513
  1331.3000      8.1535      2.5368      0.0440      6.8618     86.2215     13.2437
  1331.4000      8.1535      2.5464      0.0493      6.2812     82.6216     13.4009
  1331.5000      8.1530      2.5360      0.0251      6.9069     77.8592     12.8639
  1331.6000      8.1530      2.5212      0.0023      7.8087     74.1631     12.0889
  1331.7000      8.1530      2.5188      0.0238      7.9521     69.6089     11.6873
  1331.8000      8.1553      2.5230      0.0491      7.6963     66.6712     11.9062
  1331.9000      8.1553      2.5159      0.0183      8.1263     70.0698     12.4533
  1332.0000      8.1612      2.4995      0.0201      9.1224     73.3670     12.7223
  1332.1000      8.1612      2.4960      0.0045      9.3346     69.1442     12.8719
  1332.2000      8.1612      2.5119      0.0410      8.3703     61.9062     13.3320
  1332.3000      8.1680      2.5238      0.0370      7.6482     59.1583     13.8773
  1332.4000      8.1680      2.5157      0.0140      8.1417     59.5197     14.1126
  1332.5000      8.1663      2.4977     -0.0230      9.2288     58.1288     13.9244
  1332.6000      8.1663      2.4875      0.0032      9.8462     58.9550     13.7265
  1332.7000      8.1663      2.4906     -0.0403      9.6579     65.1692     14.0827
  1332.8000      8.1611      2.5012      0.0251      9.0173     73.2225     14.9431
  1332.9000      8.1611      2.5092      0.0213      8.5314     78.5396     15.9472
  1333.0000      8.1657      2.5122      0.0416      8.3509     76.4053     16.9429
  1333.1000      8.1657      2.5177      0.0522      8.0169     69.9017     17.5706
  1333.2000      8.1657      2.5303      0.0391      7.2533     67.0375     17.8258
