~Version Information
VERS.                      2.0: CWLS Log ASCII Standard - VERSION 2.0
WRAP.                       NO: One line per depth step
~Well Information Block
STRT.FT               825.0000: 
STOP.FT              2446.5000: 
STEP.FT                 0.2500: 
NULL.                -999.2500: 
COMP.          Petrogulf Corporation: COMPANY
WELL.            Kraft 17-23 V: WELL
FLD.           Purgatorie River: FIELD
LOC.           1500' FSL & 1773' FWL: LOCATION
CNTY.               Las Animas: COUNTY
SRVC.                         : SERVICE COMPANY
DATE.          Thu Nov 20 06:35:41 2003: LOG DATE
UWI.                          : UNIQUE WELL ID
STAT.                 Colorado: STATE
~Curve Information Block
DEPT.FT            0 000 00 00: Depth
SN.Ohm-m                      : IEL Short Normal
SP.mV                         : IEL Spontaneous Potential
DIR.Ohm-m                     : IEL Induction Resistivity
GR.GAPI                       : Gamma Ray
~Parameter Information Block
~A  Depth        SN          SP         DIR          GR     
# ...
  1964.0000     20.2883    -13.3078     11.2983    153.6483
  1964.2500     20.2112    -12.6726     11.2935    148.9095
  1964.5000     19.6987    -12.2573     11.3573    140.1963
  1964.7500     19.1559    -11.9671     11.4810    135.4508
  1965.0000     18.8985    -11.5810     11.6630    132.2157
  1965.2500     18.9983    -10.9195     11.9121    132.6436
  1965.5000     19.4082    -10.0106     12.2503    135.4766
  1965.7500     20.0857     -9.0856     12.7132    137.5821
  1966.0000     21.0387     -8.4195     13.3482    139.5228
  1966.2500     22.3703     -8.2322     14.2054    139.6088
  1966.5000     24.2169     -8.7059     15.3217    137.9066
  1966.7500     26.5636     -9.9384     16.6934    135.7791
  1967.0000     29.3150    -11.8195     18.2456    131.6334
  1967.2500     32.5661    -14.0588     19.8167    128.4527
  1967.5000     36.7172    -16.4000     21.1904    123.4197
  1967.7500     42.4582    -18.7887     22.1876    120.3940
  1968.0000     50.2414    -21.3374     22.7537    117.3315
  1968.2500     59.3315    -24.1622     22.9655    116.0723
  1968.5000     67.9732    -27.2394     22.9613    113.0340
  1968.7500     74.7309    -30.3650     22.8660    108.6208
  1969.0000     79.0595    -33.2320     22.7621     97.4774
  1969.2500     80.9015    -35.5957     22.6827     87.9277
  1969.5000     80.3906    -37.4340     22.6094     73.2127
  1969.7500     77.7773    -38.9986     22.4601     64.5791
  1970.0000     73.4503    -40.6958     22.0991     54.7955
  1970.2500     67.8754    -42.8342     21.3976     50.7812
  1970.5000     61.4429    -45.4212     20.3285     48.8621
  1970.7500     54.6204    -48.1850     19.0123     50.1670
  1971.0000     48.1251    -50.7752     17.6605     54.8730
  1971.2500     42.7286    -52.9511     16.4674     58.9318
  1971.5000     38.9350    -54.6575     15.5398     65.2467
  1971.7500     36.6691    -55.9860     14.8895     69.3568
  1972.0000     35.2567    -57.0734     14.4546     75.3517
  1972.2500     33.9014    -58.0217     14.1317     79.2696
  1972.5000     31.9725    -58.9003     13.8166     85.1995
  1972.7500     29.1190    -59.7902     13.4479     89.4119
  1973.0000     25.8254    -60.7899     13.0306     96.3221
  1973.2500     23.3427    -61.9693     12.6224    100.9360
  1973.5000     22.2709    -63.3223     12.2955    106.2552
  1973.7500     21.7761    -64.7692     12.1020    107.7657
  1974.0000     20.8857    -66.1998     12.0585    106.3417
  1974.2500     19.8078    -67.5170     12.1457    103.3315
  1974.5000     19.4432    -68.6402     12.3137     97.6282
  1974.7500     20.0501    -69.4808     12.4929     94.7082
  1975.0000     20.9833    -69.9617     12.6118     94.6205
  1975.2500     21.6448    -70.0908     12.6192     98.3867
  1975.5000     21.9776    -69.9799     12.5020    108.8740
  1975.7500     22.0963    -69.7453     12.2855    117.1335
  1976.0000     22.0503    -69.4226     12.0195    127.4193
  1976.2500     21.9467    -69.0193     11.7606    131.3833
  1976.5000     21.9576    -68.6077     11.5582    132.6902
  1976.7500     22.1481    -68.2925     11.4495    131.1505
  1977.0000     22.4777    -68.0989     11.4566    126.9360
  1977.2500     22.9359    -67.9778     11.5841    124.0174
  1977.5000     23.4555    -67.9391     11.8171    121.3113
  1977.7500     23.8393    -68.1168     12.1219    121.2148
  1978.0000     24.0107    -68.6626     12.4512    123.6175
  1978.2500     24.0975    -69.6006     12.7590    126.3920
  1978.5000     24.0905    -70.8059     13.0143    130.5041
  1978.7500     23.7659    -72.1207     13.2082    131.8438
  1979.0000     23.1866    -73.4948     13.3465    130.1773
  1979.2500     22.8799    -75.0208     13.4386    126.6729
  1979.5000     23.2439    -76.8253     13.4915    118.8304
  1979.7500     24.0970    -78.9152     13.5154    112.2332
  1980.0000     24.8107    -81.1162     13.5306    100.5627
  1980.2500     24.8288    -83.1507     13.5656     92.3624
  1980.5000     24.1476    -84.7943     13.6452     82.4817
  1980.7500     23.0657    -85.9813     13.7753     79.6467
  1981.0000     21.8014    -86.7761     13.9339     83.1740
  1981.2500     20.6384    -87.2917     14.0791     90.2488
  1981.5000     19.8606    -87.6708     14.1640    104.1327
  1981.7500     19.4052    -88.0892     14.1580    112.5993
  1982.0000     18.8966    -88.6784     14.0580    120.7584
  1982.2500     18.0817    -89.4127     13.8890    123.1858
  1982.5000     17.2963    -90.0726     13.6899    124.6261
  1982.7500     17.1743    -90.3243     13.4961    125.4528
  1983.0000     17.5248    -89.8972     13.3153    127.3222
  1983.2500     17.4381    -88.7888     13.1093    128.7382
  1983.5000     16.6139    -87.3253     12.7967    130.3940
  1983.7500     15.3318    -85.9875     12.2937    131.0187
  1984.0000     13.8281    -85.1289     11.5810    131.4406
  1984.2500     12.5777    -84.7836     10.7390    131.4113
  1984.5000     12.1458    -84.6765      9.9053    130.3235
  1984.7500     12.3813    -84.4411      9.2017    128.5294
  1985.0000     12.6172    -83.8776      8.6906    124.7638
  1985.2500     12.6012    -83.0029      8.3771    122.6781
  1985.5000     12.5527    -81.8931      8.2286    122.1727
  1985.7500     12.5675    -80.6067      8.1949    123.7853
  1986.0000     12.5130    -79.3069      8.2244    127.4652
  1986.2500     12.3218    -78.3070      8.2740    129.3331
  1986.5000     12.0479    -77.8452      8.3133    129.6008
  1986.7500     11.7628    -77.8546      8.3216    127.8969
  1987.0000     11.4914    -78.0259      8.2869    123.3150
  1987.2500     11.1590    -78.0559      8.2084    119.8459
  1987.5000     10.6070    -77.7912      8.0983    115.9909
  1987.7500      9.7677    -77.2128      7.9816    115.1581
  1988.0000      8.9254    -76.4140      7.8873    116.4030
  1988.2500      8.5927    -75.6307      7.8408    117.9630
  1988.5000      8.9469    -75.1565      7.8580    119.7132
  1988.7500      9.7427    -75.0558      7.9435    120.2170
  1989.0000     10.6705    -74.9872      8.0897    120.8295
  1989.2500     11.4239    -74.4590      8.2790    121.7522
  1989.5000     11.7773    -73.2869      8.4872    123.9379
  1989.7500     11.7627    -71.7386      8.6901    125.2698
  1990.0000     11.6352    -70.2458      8.8713    125.6136
  1990.2500     11.6437    -69.0456      9.0258    124.1857
  1990.5000     11.8298    -68.0855      9.1588    119.6533
  1990.7500     12.1032    -67.1803      9.2823    115.8163
  1991.0000     12.4073    -66.1865      9.4100    110.9306
  1991.2500     12.7204    -65.0541      9.5547    109.2021
  1991.5000     12.9491    -63.7965      9.7236    109.0322
  1991.7500     12.9181    -62.4666      9.9140    110.0112
  1992.0000     12.6853    -61.1467     10.1108    112.3301
  1992.2500     12.7392    -59.9368     10.2881    114.1708
  1992.5000     13.4138    -58.9375     10.4191    116.7534
  1992.7500     14.3187    -58.2263     10.4882    117.8889
  1993.0000     14.9616    -57.8122     10.5007    118.2090
  1993.2500     15.5545    -57.5699     10.4821    117.6701
  1993.5000     16.3299    -57.2147     10.4684    116.9839
  1993.7500     16.6393    -56.4081     10.4941    117.5030
  1994.0000     15.8935    -54.9700     10.5812    120.0969
  1994.2500     14.6597    -52.9896     10.7319    122.2178
  1994.5000     13.8707    -50.7012     10.9247    124.1017
  1994.7500     13.9412    -48.2795     11.1174    124.0786
  1995.0000     14.7542    -45.7770     11.2612    122.8206
  1995.2500     15.5389    -43.1960     11.3207    121.7063
  1995.5000     15.4952    -40.5550     11.2909    120.0576
  1995.7500     14.8738    -37.8945     11.1932    119.2605
  1996.0000     14.4485    -35.2588     11.0565    119.5310
  1996.2500     14.4525    -32.6803     10.8970    121.0994
  1996.5000     14.6221    -30.1444     10.7138    124.9249
  1996.7500     14.6836    -27.5543     10.5007    127.5860
  1997.0000     14.6881    -24.7832     10.2646    130.4414
  1997.2500     14.8906    -21.8466     10.0374    131.0399
