~Version Information
VERS.                      2.0: CWLS Log ASCII Standard - VERSION 2.0
WRAP.                       NO: One line per depth step
~Well Information Block
STRT.FT               533.0000: 
STOP.FT              1578.0000: 
STEP.FT                 0.2500: 
NULL.                -999.2500: 
COMP.          Pioneer Natural Resources: COMPANY
WELL.           Telna 24-22 Tr: WELL
FLD.           Purgatoire River: FIELD
LOC.           748' FSL & 1931' FWL: LOCATION
PROV.                 Colorado: PROVINCE
CNTY.               Las Animas: COUNTRY
SRVC.                Patterson: SERVICE COMPANY
DATE.          Sun May 01 14:14:42 2005: LOG DATE
UWI.           05 071 08304 00: UNIQUE WELL ID
~Curve Information Block
DEPT.FT            0 000 00 00: Depth
SN.Ohm-m                      : IEL Short Normal
SP.mV                         : IEL Spontaneous Potential
DIR.Ohm-m                     : IEL Induction Resistivity
GR.GAPI                       : Gamma Ray
~Parameter Information Block
~A  Depth        SN          SP         DIR          GR     
# ...
  1002.0000     34.3339      5.6511 100000.0000    108.9708
  1002.2500     35.4467      5.1532 100000.0000    108.8803
  1002.5000     36.3929      4.5726 100000.0000    108.8592
  1002.7500     37.1347      3.8947 100000.0000    108.4432
  1003.0000     37.6756      3.1076 100000.0000    106.8575
  1003.2500     38.0938      2.2041 100000.0000    105.4152
  1003.5000     38.5014      1.1790 100000.0000    103.7031
  1003.7500     38.9639      0.0224 100000.0000    103.3896
  1004.0000     39.4738     -1.2849 100000.0000    104.1664
  1004.2500     39.9757     -2.7708 100000.0000    104.9866
  1004.5000     40.3980     -4.4673 100000.0000    105.7127
  1004.7500     40.6916     -6.4060 100000.0000    105.7224
  1005.0000     40.8598     -8.6218 100000.0000    105.4480
  1005.2500     40.9484    -11.1605 100000.0000    105.2808
  1005.5000     40.9913    -14.0848 100000.0000    104.7835
  1005.7500     40.9400    -17.4771 100000.0000    103.9016
  1006.0000     40.6431    -21.4375 100000.0000    101.3875
  1006.2500     39.9179    -26.0712 100000.0000     99.1602
  1006.5000     38.6399    -31.4727 100000.0000     96.3821
  1006.7500     36.7583    -37.7333 100000.0000     96.1585
  1007.0000     34.2587    -44.9946 100000.0000    100.3143
  1007.2500     31.1158    -53.5442      6.0657    106.5384
  1007.5000     27.2624    -63.9027      2.1240    119.6859
  1007.7500     22.6320    -76.8425      1.2629    129.0400
  1008.0000     17.2924    -93.2873      0.9442    139.9228
  1008.2500     11.6594   -114.0104      0.8153    143.1842
  1008.5000      6.5789   -138.9899      0.7778    140.6076
  1008.7500      2.9014   -166.4728      0.8001    134.1671
  1009.0000      0.8496   -192.4673      0.8865    119.3876
  1009.2500     -0.0088   -211.8170      1.0821    107.7738
  1009.5000     -0.2267   -220.9053      1.5286     90.7471
  1009.7500     -0.0858   -219.9637      2.7971     81.2257
  1010.0000      0.4649   -212.7616     11.5292     71.3487
  1010.2500      1.7423   -204.0069 100000.0000     67.7862
  1010.5000      4.2052   -196.8992 100000.0000     65.8016
  1010.7500      8.2216   -192.4952 100000.0000     65.7438
  1011.0000     13.5548   -190.5088 100000.0000     66.3010
  1011.2500     18.7711   -190.3515 100000.0000     66.7845
  1011.5000     21.6298   -191.7368 100000.0000     67.6807
  1011.7500     20.6835   -194.8011 100000.0000     68.6529
  1012.0000     16.3922   -199.9379 100000.0000     71.6277
  1012.2500     10.6659   -207.4210 100000.0000     75.2817
  1012.5000      5.5729   -216.8915 100000.0000     83.5698
  1012.7500      2.2424   -227.0081 100000.0000     90.2874
  1013.0000      0.6135   -235.6952 100000.0000    100.0979
  1013.2500      0.0158   -241.0865 100000.0000    105.3857
  1013.5000     -0.1609   -242.7157 100000.0000    110.2381
  1013.7500     -0.2227   -242.2565 100000.0000    110.8937
  1014.0000     -0.2581   -243.0232 100000.0000    107.3152
  1014.2500     -0.2843   -248.0089 100000.0000    101.9824
  1014.5000     -0.3079   -257.6122 100000.0000     91.2510
  1014.7500     -0.3252   -269.0764 100000.0000     83.9543
  1015.0000     -0.3313   -278.5205 100000.0000     75.5277
  1015.2500     -0.3455   -283.7542 100000.0000     72.5083
  1015.5000     -0.4051   -285.0015 100000.0000     72.3250
  1015.7500     -0.5005   -283.0717 100000.0000     75.0201
  1016.0000     -0.5424   -277.5361 100000.0000     82.7415
  1016.2500     -0.4724   -266.8456 100000.0000     89.6205
  1016.5000     -0.3409   -249.7411 100000.0000    100.5368
  1016.7500     -0.1614   -226.4188      9.8431    106.9722
  1017.0000      0.2972   -198.7292      2.5534    114.2356
  1017.2500      1.6233   -169.4740      1.3443    117.6263
  1017.5000      4.5973   -141.3841      0.8815    121.1390
  1017.7500      9.5256   -116.3934      0.6559    122.2908
  1018.0000     15.6647    -95.3339      0.5454    121.2544
  1018.2500     21.6706    -77.9721      0.5155    118.3883
  1018.5000     26.6033    -63.3725      0.5674    111.2521
  1018.7500     30.2476    -50.5299      0.7404    105.1449
  1019.0000     32.6956    -38.9350      1.1801     95.0107
  1019.2500     33.9739    -28.6328      2.6016     88.4875
  1019.5000     34.1106    -19.8051     25.0896     81.0527
  1019.7500     33.4402    -12.3988 100000.0000     78.5826
  1020.0000     32.5822     -6.2309 100000.0000     78.6769
  1020.2500     31.9990     -1.3405 100000.0000     80.4355
  1020.5000     31.7518      1.9548 100000.0000     83.7675
  1020.7500     31.7066      3.4723 100000.0000     85.7327
  1021.0000     31.8028      3.5952 100000.0000     87.9554
  1021.2500     32.0556      3.1694 100000.0000     89.0258
  1021.5000     32.3568      2.9530 100000.0000     90.0872
  1021.7500     32.4831      3.2275 100000.0000     90.3776
  1022.0000     32.3554      3.8793 100000.0000     90.0323
  1022.2500     32.0867      4.6896 100000.0000     89.2120
  1022.5000     31.8005      5.5073 100000.0000     87.1635
  1022.7500     31.5564      6.2619 100000.0000     85.4576
  1023.0000     31.3831      6.9281 100000.0000     82.9257
  1023.2500     31.2686      7.5063 100000.0000     81.5456
  1023.5000     31.1659      8.0118 100000.0000     80.3443
  1023.7500     31.0477      8.4599 100000.0000     80.2815
  1024.0000     30.9175      8.8543 100000.0000     81.0600
  1024.2500     30.7788      9.1956 100000.0000     81.6335
  1024.5000     30.6360      9.4931 100000.0000     81.6772
  1024.7500     30.5042      9.7630 100000.0000     81.1398
  1025.0000     30.4065     10.0178 100000.0000     80.2328
  1025.2500     30.3667     10.2633 100000.0000     79.9656
  1025.5000     30.3870     10.5048 100000.0000     80.2206
  1025.7500     30.4373     10.7494     59.8516     80.7256
  1026.0000     30.4905     11.0010     29.9683     81.7079
  1026.2500     30.5554     11.2553     21.6627     82.2314
  1026.5000     30.6568     11.5014     18.3436     82.1979
  1026.7500     30.7896     11.7284     16.9510     81.4863
  1027.0000     30.9063     11.9322     16.5004     79.9431
  1027.2500     30.9651     12.1191     16.6060     79.1765
  1027.5000     30.9791     12.3024     17.1308     78.9293
  1027.7500     31.0020     12.4938     18.0567     79.1472
  1028.0000     31.0840     12.6925     19.4059     79.3037
  1028.2500     31.2480     12.8818     21.1809     79.0849
  1028.5000     31.4818     13.0371     23.3240     78.4982
  1028.7500     31.7498     13.1410     25.7095     78.1810
  1029.0000     32.0275     13.1949     28.1749     78.0900
  1029.2500     32.3159     13.2169     30.5718     78.4268
  1029.5000     32.6194     13.2288     32.7953     79.9013
  1029.7500     32.9418     13.2413     34.7874     81.7116
  1030.0000     33.3097     13.2467     36.5339     85.5135
  1030.2500     33.7673     13.2207     38.0616     88.3594
  1030.5000     34.3461     13.1332     39.4184     92.2617
  1030.7500     35.0536     12.9638     40.6373     94.3796
  1031.0000     35.8840     12.7137     41.7057     97.0167
  1031.2500     36.8358     12.4064     42.5612     98.7018
  1031.5000     37.9229     12.0773     43.1171    101.5232
  1031.7500     39.1856     11.7601     43.2843    103.6459
  1032.0000     40.7096     11.4775     42.9548    106.7199
  1032.2500     42.5787     11.2383     41.9621    108.0751
  1032.5000     44.7399     11.0401     40.1030    107.9035
  1032.7500     46.9375     10.8758     37.2899    106.0083
  1033.0000     48.8000     10.7397     33.7493    100.9449
  1033.2500     49.9743     10.6283     30.0206     96.7645
  1033.5000     50.2452     10.5376     26.7041     90.6247
  1033.7500     49.6227     10.4600     24.2270     87.2353
  1034.0000     48.3075     10.3853     22.8284     83.4864
  1034.2500     46.5472     10.3043     22.7085     81.5242
  1034.5000     44.5359     10.2094     24.2754     78.5187
  1034.7500     42.4190     10.0932     28.6211     76.2588
  1035.0000     40.3343      9.9488     39.1442     72.7962
  1035.2500     38.4149      9.7718     71.3635     70.8159
