~Version Information
VERS.                      2.0: CWLS Log ASCII Standard - VERSION 2.0
WRAP.                       NO: One line per depth step
~Well Information Block
STRT.FT                -8.5000: 
STOP.FT              2286.0000: 
STEP.FT                 0.2500: 
NULL.                -999.2500: 
COMP.          Pioneer Natural Resources: COMPANY
WELL.             Culver 14-12: WELL
FLD.           Purgatorie River: FIELD
LOC.           913' FSL & 1140' FWL--: LOCATION
PROV.                       CO: PROVINCE
CNTY.               Las Animas: COUNTRY
SRVC.          Patterson Wireline: SERVICE COMPANY
DATE.          Wed Jun 15 13:05:36 2005: LOG DATE
UWI.           05 071 08386 00: UNIQUE WELL ID
~Curve Information Block
DEPT.FT            0 000 00 00: Depth
CCL.                          : Casing Collar Locator
TT3.usec                      : CBL 3' Travel Time
AMP3.mV                       : CBL 3' Amplitude
GR.GAPI                       : Gamma Ray
~Parameter Information Block
~A  Depth       CCL         TT3         AMP3         GR     
# ...
  1666.5000      0.0000    716.5732      2.9566    161.2666
  1666.7500      0.0000    722.2040      2.9887    161.2644
  1667.0000      0.0000    723.0532      3.1278    159.9114
  1667.2500      0.0000    718.9008      3.3152    158.5601
  1667.5000      0.0000    711.8628      3.4474    157.5389
  1667.7500      0.0000    704.8207      3.4555    155.7753
  1668.0000      0.0000    700.0480      3.3549    152.1129
  1668.2500      0.0000    698.3748      3.2385    146.9407
  1668.5000      0.0000    698.6882      3.1995    142.1208
  1668.7500      0.0000    698.7270      3.2437    138.9327
  1669.0000      0.0000    697.1725      3.2963    136.5566
  1669.2500      0.0000    694.7452      3.3001    133.4655
  1669.5000      0.0000    692.7028      3.2800    130.1639
  1669.7500      0.0000    691.0353      3.2896    129.3838
  1670.0000      0.0000    689.5089      3.3198    133.0142
  1670.2500      0.0000    690.1852      3.2936    139.4129
  1670.5000      0.0000    696.6798      3.1561    144.2142
  1670.7500      0.0000    709.7266      2.9483    143.7045
  1671.0000      0.0000    724.5323      2.7825    137.5338
  1671.2500      0.0000    733.6062      2.7472    128.6495
  1671.5000      0.0000    732.5909      2.8303    120.9210
  1671.7500      0.0000    724.1948      2.9266    116.6803
  1672.0000      0.0000    716.3280      2.9333    116.0347
  1672.2500      0.0000    714.9114      2.8444    117.7742
  1672.5000      0.0000    718.7483      2.7366    120.5428
  1672.7500      0.0000    722.4905      2.6653    123.4475
  1673.0000      0.0000    723.0010      2.6137    125.8508
  1673.2500      0.0000    721.1390      2.5543    126.5789
  1673.5000      0.0000    718.9706      2.5108    123.8295
  1673.7500      0.0000    717.4842      2.5237    116.5552
  1674.0000      0.0000    716.5779      2.5878    105.8971
  1674.2500      0.0000    715.8334      2.6710     94.7889
  1674.5000      0.0000    714.7558      2.7761     86.0516
  1674.7500      0.0000    712.3956      2.9353     80.8359
  1675.0000      0.0000    706.5924      3.1402     78.4116
  1675.2500      0.0000    693.8682      3.3165     76.8585
  1675.5000      0.0000    671.5131      3.3840     74.2402
  1675.7500      0.0000    641.7980      3.3294     69.9623
  1676.0000      0.0000    614.3071      3.2172     65.1908
  1676.2500      0.0000    601.6458      3.1244     61.7167
  1676.5000      0.0000    610.3749      3.0585     60.5388
  1676.7500      0.0000    635.7729      2.9568     61.5523
  1677.0000      0.0000    665.8447      2.7780     63.9493
  1677.2500      0.0000    690.1282      2.5757     66.5386
  1677.5000      0.0000    704.9452      2.4526     68.2515
  1677.7500      0.0000    712.3220      2.4509     68.9876
  1678.0000      0.0000    716.2328      2.5153     69.7966
  1678.2500      0.0000    719.8782      2.5636     71.6858
  1678.5000      0.0000    724.4397      2.5686     74.3435
  1678.7500      0.0000    728.7889      2.5595     76.4607
  1679.0000      0.0000    730.6016      2.5678     77.1359
  1679.2500      0.0000    728.6911      2.5842     76.4596
  1679.5000      0.0000    724.2762      2.5631     74.9147
  1679.7500      0.0000    719.7384      2.4696     72.7884
  1680.0000      0.0000    716.5947      2.3289     70.1735
  1680.2500      0.0000    714.9463      2.2143     67.1081
  1680.5000      0.0000    714.2550      2.1706     63.7064
  1680.7500      0.0000    714.0676      2.1661     60.3782
  1681.0000      0.0000    714.1626      2.1374     57.7359
  1681.2500      0.0000    714.4144      2.0693     56.0692
  1681.5000      0.0000    714.6806      2.0070     55.1029
  1681.7500      0.0000    714.7875      1.9968     54.5041
  1682.0000      0.0000    714.5729      2.0429     54.4492
  1682.2500      0.0000    713.8281      2.1211     55.4102
  1682.5000      0.0000    711.9509      2.2090     57.4874
  1682.7500      0.0000    707.3636      2.2938     60.1882
  1683.0000      0.0000    697.2499      2.3698     62.7945
  1683.2500      0.0000    678.4717      2.4405     64.6758
  1683.5000      0.0000    650.1873      2.5155     65.3303
  1683.7500      0.0000    616.5592      2.6002     64.5636
  1684.0000      0.0000    585.8661      2.6901     62.8048
  1684.2500      0.0000    565.0180      2.7810     60.9977
  1684.5000      0.0000    555.3372      2.8770     59.9414
  1684.7500      0.0000    555.1530      2.9727     59.6371
  1685.0000      0.0000    564.6174      3.0316     59.2512
  1685.2500      0.0000    584.7943      3.0126     57.8152
  1685.5000      0.0000    613.0971      2.9271     55.1404
  1685.7500      0.0000    643.0214      2.8472     52.1022
  1686.0000      0.0000    668.6961      2.8298     50.0192
  1686.2500      0.0000    688.1561      2.8453     49.8274
  1686.5000      0.0000    702.6576      2.8148     51.6814
  1686.7500      0.0000    714.3483      2.7138     54.8964
  1687.0000      0.0000    724.5091      2.6016     58.1656
  1687.2500      0.0000    732.9197      2.5402     60.3380
  1687.5000      0.0000    738.4137      2.5234     61.4100
  1687.7500      0.0000    739.9146      2.5087     62.6034
  1688.0000      0.0000    737.2053      2.4854     65.1424
  1688.2500      0.0000    731.2016      2.4771     68.9905
  1688.5000      0.0000    723.5650      2.4951     72.9046
  1688.7500      0.0000    715.7286      2.5290     75.6236
  1689.0000      0.0000    708.3923      2.5809     76.7952
  1689.2500      0.0000    701.9465      2.6771     76.8864
  1689.5000      0.0000    696.7337      2.8377     76.6742
  1689.7500     -2.0000    692.8425      3.0450     77.0148
  1690.0000      0.0000    690.2159      3.2439     78.6880
  1690.2500      0.0000    688.9906      3.3816     81.9842
  1690.5000      0.0000    689.4357      3.4512     86.4180
  1690.7500      0.0000    691.4567      3.4885     91.1702
  1691.0000      0.0000    693.8787      3.5200     95.9240
  1691.2500      0.0000    693.7764      3.5351    101.0788
  1691.5000      0.0000    687.0895      3.5190    106.9170
  1691.7500      0.0000    671.0995      3.4799    112.6755
  1692.0000      0.0000    646.7354      3.4222    116.7254
  1692.2500      0.0000    617.9766      3.3273    117.7765
  1692.5000      0.0000    589.3848      3.1833    115.8887
  1692.7500      0.0000    565.0844      3.0128    112.5873
  1693.0000      0.0000    549.1284      2.8514    110.2558
  1693.2500      0.0000    544.2548      2.7190    111.0517
  1693.5000      0.0000    549.1818      2.6280    115.5258
  1693.7500      0.0000    558.2316      2.6011    121.8656
  1694.0000      0.0000    565.2325      2.6564    126.9686
  1694.2500      0.0000    569.2193      2.7691    128.7762
  1694.5000      0.0000    576.1512      2.8689    127.6042
  1694.7500      0.0000    593.4604      2.8947    125.2265
  1695.0000      0.0000    622.0992      2.8540    123.0467
  1695.2500      0.0000    655.0244      2.8206    121.4101
  1695.5000      0.0000    684.1951      2.8624    120.0599
  1695.7500      0.0000    707.5366      2.9716    118.5748
  1696.0000      0.0000    728.0477      3.0797    116.6161
  1696.2500      0.0000    748.3299      3.1333    114.3398
  1696.5000      0.0000    768.0466      3.1288    112.6049
  1696.7500      0.0000    785.1751      3.0705    112.4237
  1697.0000      0.0000    797.8858      2.9337    114.0868
  1697.2500      0.0000    805.7647      2.7005    117.1388
  1697.5000      0.0000    810.0728      2.4166    121.2335
  1697.7500      0.0000    812.6245      2.1751    126.3765
  1698.0000      0.0000    814.1854      2.0367    132.1590
  1698.2500      0.0000    814.2805      1.9875    137.5717
  1698.5000      0.0000    812.9701      1.9878    142.1253
  1698.7500      0.0000    812.7006      2.0332    146.4424
  1699.0000      0.0000    817.0477      2.1408    150.9914
  1699.2500      0.0000    826.6948      2.2929    154.6705
  1699.5000      0.0000    837.6915      2.4340    155.4619
  1699.7500      0.0000    844.8268      2.5273    152.4680
