~Version Information
VERS.                      2.0: CWLS Log ASCII Standard - VERSION 2.0
WRAP.                       NO: One line per depth step
~Well Information Block
STRT.FT               419.7500: 
STOP.FT              1170.0000: 
STEP.FT                 0.2500: 
NULL.                -999.2500: 
COMP.          Evergreen Operating Corporation: COMPANY
WELL.             Bernice 21-3: WELL
FLD.           Purgatoire River: FIELD
LOC.           201' FNL & 2575' FWL: LOCATION
PROV.                 Colorado: PROVINCE
CNTY.               Las Animas: COUNTRY
SRVC.                Patterson: SERVICE COMPANY
DATE.          Mon Jan 26 13:04:04 2004: LOG DATE
UWI.           05 071 07912   : UNIQUE WELL ID
~Curve Information Block
DEPT.FT            0 000 00 00: Depth
SN.Ohm-m                      : IEL Short Normal
SP.mV                         : IEL Spontaneous Potential
DIR.Ohm-m                     : IEL Induction Resistivity
GR.GAPI                       : Gamma Ray
~Parameter Information Block
~A  Depth        SN          SP         DIR          GR     
# ...
   821.7500     26.9918   -349.4470     25.2827     72.0853
   822.0000     27.3348   -348.4740     25.2903     71.9260
   822.2500     27.7587   -347.5377     25.3884     71.9413
   822.5000     28.0913   -346.6912     25.6100     71.5257
   822.7500     28.2371   -345.9649     25.9469     70.7828
   823.0000     28.3167   -345.3477     26.3704     69.3385
   823.2500     28.5491   -344.7862     26.8508     68.5070
   823.5000     29.0246   -344.2076     27.3622     67.5403
   823.7500     29.6860   -343.5576     27.8797     66.7632
   824.0000     30.4420   -342.8222     28.3878     64.8008
   824.2500     31.2009   -342.0197     28.8982     62.8720
   824.5000     31.8826   -341.1898     29.4473     59.4730
   824.7500     32.4731   -340.3957     30.0482     57.3830
   825.0000     33.0482   -339.7223     30.6336     55.4367
   825.2500     33.6680   -339.2367     31.0512     55.1638
   825.5000     34.2675   -338.9324     31.1504     55.9046
   825.7500     34.6766   -338.7202     30.8862     56.7595
   826.0000     34.6593   -338.4864     30.3331     58.3325
   826.2500     34.0819   -338.1743     29.6104     59.7903
   826.5000     33.1527   -337.8098     28.8246     62.9978
   826.7500     32.2835   -337.4581     28.0684     65.6884
   827.0000     31.7374   -337.1683     27.4304     69.6560
   827.2500     31.4754   -336.9572     26.9651     71.7483
   827.5000     31.2699   -336.8264     26.6440     73.9914
   827.7500     30.9806   -336.7735     26.3526     75.2815
   828.0000     30.6794   -336.7812     25.9678     77.4394
   828.2500     30.4800   -336.8034     25.4636     78.8563
   828.5000     30.3202   -336.7784     24.9364     80.0125
   828.7500     30.0174   -336.6731     24.5192     79.6776
   829.0000     29.4870   -336.5109     24.2762     77.6082
   829.2500     28.7679   -336.3422     24.1704     75.8409
   829.5000     27.9504   -336.1844     24.1068     74.3291
   829.7500     27.1540   -335.9997     23.9917     75.0289
   830.0000     26.4536   -335.7307     23.7568     79.3804
   830.2500     25.8774   -335.3448     23.3444     84.1328
   830.5000     25.4368   -334.8409     22.7085     92.3068
   830.7500     25.0626   -334.2296     21.8498     97.2959
   831.0000     24.5997   -333.5254     20.8404    102.8819
   831.2500     23.9160   -332.7623     19.7904    105.2660
   831.5000     23.0446   -332.0071     18.7852    107.3177
   831.7500     22.1584   -331.3428     17.8585    107.9560
   832.0000     21.4007   -330.8310     17.0131    108.1628
   832.2500     20.7798   -330.4815     16.2498    108.0541
   832.5000     20.1884   -330.2440     15.5751    107.9118
   832.7500     19.5059   -330.0258     14.9932    107.7670
   833.0000     18.6796   -329.7365     14.4996    107.1033
   833.2500     17.7515   -329.3416     14.0855    106.5670
   833.5000     16.8442   -328.8788     13.7423    107.2026
   833.7500     16.1168   -328.4153     13.4586    109.7200
   834.0000     15.6833   -327.9856     13.2126    117.3310
   834.2500     15.5129   -327.5692     12.9683    124.1455
   834.5000     15.4468   -327.1157     12.6822    134.0766
   834.7500     15.3085   -326.5823     12.3218    138.8082
   835.0000     14.9756   -325.9654     11.8855    141.5719
   835.2500     14.4454   -325.3199     11.4055    140.8003
   835.5000     13.8148   -324.7464     10.9304    137.9677
   835.7500     13.1132   -324.3356     10.5022    136.8180
   836.0000     12.3315   -324.1090     10.1463    138.8487
   836.2500     11.6327   -323.9977      9.8752    143.3764
   836.5000     11.2758   -323.8690      9.6983    154.9420
   836.7500     11.3653   -323.5837      9.6249    165.8277
   837.0000     11.8132   -323.0594      9.6599    187.2471
   837.2500     12.3983   -322.3220      9.7951    204.7818
   837.5000     12.8322   -321.5161     10.0034    233.7672
   837.7500     12.9946   -320.8448     10.2420    252.1150
   838.0000     13.0370   -320.4547     10.4667    271.5838
   838.2500     13.1158   -320.3452     10.6514    275.3177
   838.5000     13.2448   -320.3772     10.8013    263.0189
   838.7500     13.4517   -320.3687     10.9477    243.4787
   839.0000     13.8781   -320.1967     11.1312    204.2077
   839.2500     14.6541   -319.8378     11.3852    177.6647
   839.5000     15.7403   -319.3415     11.7285    146.4239
   839.7500     16.9228   -318.7714     12.1623    133.4059
   840.0000     17.9360   -318.1624     12.6683    124.0138
   840.2500     18.6276   -317.5191     13.2096    122.3601
   840.5000     19.0297   -316.8502     13.7438    123.3158
   840.7500     19.2542   -316.1932     14.2465    124.4738
   841.0000     19.3631   -315.5923     14.7280    124.4495
   841.2500     19.3600   -315.0599     15.2227    122.5475
   841.5000     19.2498   -314.5706     15.7531    117.7397
   841.7500     19.0550   -314.0888     16.2935    114.7167
   842.0000     18.8242   -313.5922     16.7605    113.2029
   842.2500     18.6464   -313.0786     17.0499    114.9792
   842.5000     18.5700   -312.5676     17.1049    120.7511
   842.7500     18.5590   -312.0919     16.9624    125.0049
   843.0000     18.5783   -311.6729     16.7266    129.3365
   843.2500     18.6099   -311.3036     16.5005    130.2881
   843.5000     18.6141   -310.9561     16.3414    129.4395
   843.7500     18.5911   -310.6039     16.2650    128.0924
   844.0000     18.6321   -310.2457     16.2765    126.0579
   844.2500     18.8377   -309.9187     16.3927    125.2443
   844.5000     19.2249   -309.6898     16.6350    125.3381
   844.7500     19.7522   -309.6226     17.0028    125.9492
   845.0000     20.3818   -309.7408     17.4508    125.6949
   845.2500     21.0861   -310.0173     17.8852    123.2308
   845.5000     21.8953   -310.3884     18.1817    114.7680
   845.7500     22.9397   -310.7760     18.2239    106.5654
   846.0000     24.2982   -311.1094     17.9606     93.4205
   846.2500     25.7608   -311.3441     17.4492     86.2560
   846.5000     26.8202   -311.4707     16.8354     80.8506
   846.7500     27.0589   -311.5052     16.2725     81.3836
   847.0000     26.5209   -311.4763     15.8509     87.1001
   847.2500     25.5504   -311.4159     15.5806     92.7607
   847.5000     24.4003   -311.3471     15.4179    101.8249
   847.7500     23.2251   -311.2663     15.3038    107.2518
   848.0000     22.2610   -311.1355     15.1920    112.9966
   848.2500     21.6980   -310.8983     15.0608    114.7254
   848.5000     21.4726   -310.5119     14.9135    114.5027
   848.7500     21.3736   -309.9784     14.7747    113.2505
   849.0000     21.3029   -309.3485     14.6792    111.2011
   849.2500     21.3173   -308.6896     14.6567    110.3257
   849.5000     21.4520   -308.0425     14.7205    110.1221
   849.7500     21.6839   -307.4050     14.8669    110.5833
   850.0000     22.0621   -306.7531     15.0846    111.4282
   850.2500     22.6998   -306.0729     15.3621    111.3936
   850.5000     23.5500   -305.3731     15.6891    108.9480
   850.7500     24.3054   -304.6777     16.0544    105.0648
   851.0000     24.7410   -304.0159     16.4479     96.2894
   851.2500     25.0150   -303.4148     16.8661     89.9806
   851.5000     25.3989   -302.8910     17.3162     83.8301
   851.7500     25.9383   -302.4430     17.8074     83.9688
   852.0000     26.5019   -302.0486     18.3313     91.3807
   852.2500     26.9687   -301.6648     18.8442     99.7444
   852.5000     27.3347   -301.2292     19.2684    113.2713
   852.7500     27.6520   -300.6740     19.5234    120.7726
   853.0000     27.8472   -299.9594     19.5685    128.0620
   853.2500     27.7861   -299.1033     19.4301    130.3907
   853.5000     27.5181   -298.1697     19.1947    130.9631
   853.7500     27.2345   -297.2251     18.9785    129.9785
   854.0000     27.0728   -296.3131     18.8985    127.7650
   854.2500     27.0973   -295.4626     19.0562    126.5901
   854.5000     27.3875   -294.6957     19.5304    125.6427
   854.7500     28.0594   -294.0039     20.3691    124.9873
   855.0000     29.1700   -293.3238     21.5738    122.4917
