~Version Information
 VERS.                                  2.0 : CWLS LAS VERSION
 WRAP.                                   NO : WRAPING MODE
 SWARE .                 MController 2.5.0N : SOFTWARE VERSION
~Well Information
 WELL.                   Blackjack 32-11 Tr : WELL
 COMP.  Pioneer Natural Resources USA, Inc. : COMPANY
 FLD.                      Purgatoire River : FIELD
 LOC.               SW/NE Sec 11 T32S  R66W : LOCATION
 DATE.                             08/14/05 : DATE(S) LOGGED
 SRVC.       BLANCO Geological Services LLC : SERVICE COMPANY
 STAT.                                   CO : STATE
 CNTY.                           Las Animas : COUNTY
 CTRY.                                  USA : COUNTRY
 API.                       05-071-08310-00 : API NUMBER
 STRT.FT                             521.00 : START DEPTH
 STOP.FT                            1862.00 : STOP DEPTH
 STEP.FT                               1.00 : DEPTH INCREMENT
 NULL.                                -9999 : NULL VALUE
~Curve information
 DEPTH.FT                                   :
 ROP.MIN/FT                                 :
 GAS.UNITS                                  :
~ASCII Log data
# ...
       721.0         0.20          3.4 
       722.0         0.20          3.7 
       723.0         0.20          3.7 
       724.0         0.23          3.6 
       725.0         0.23          3.6 
       726.0         0.20          2.9 
       727.0         0.23          3.8 
       728.0         0.20          3.6 
       729.0         0.23          3.5 
       730.0         0.23          3.4 
       731.0         0.20          3.6 
       732.0         0.17          3.6 
       733.0         0.20          3.4 
       734.0         0.20          3.1 
       735.0         0.17          4.1 
       736.0         0.22          2.9 
       737.0         0.20          3.5 
       738.0         0.20          3.7 
       739.0         0.20          3.6 
       740.0         0.17          3.3 
       741.0         0.20          3.4 
       742.0         0.20          3.4 
       743.0         0.23          3.4 
       744.0         0.17          3.3 
       745.0         0.33          3.9 
       746.0         1.30          3.9 
       747.0         0.28          3.2 
       748.0         0.23          3.4 
       749.0         0.23          3.5 
       750.0         0.27          3.6 
       751.0         0.20          3.0 
       752.0         0.20          3.1 
       753.0         0.23          3.6 
       754.0         0.17          3.3 
       755.0         0.17          3.1 
       756.0         0.20          3.5 
       757.0         0.17          3.4 
       758.0         0.17          3.6 
       759.0         0.17          3.1 
       760.0         0.17          3.4 
       761.0         0.17          3.4 
       762.0         0.17          3.7 
       763.0         0.17          3.4 
       764.0         0.22          3.7 
       765.0         0.20          3.8 
       766.0         0.17          3.6 
       767.0         0.20          3.3 
       768.0         0.17          3.1 
       769.0         0.17          3.2 
       770.0         0.13          3.2 
       771.0         0.17          2.4 
       772.0         0.17          3.0 
       773.0         0.17          2.7 
       774.0         0.17          3.4 
       775.0         0.23          3.0 
       776.0         1.35          3.6 
       777.0         0.33          3.0 
       778.0         0.23          2.8 
       779.0         0.27          3.4 
       780.0         0.17          3.1 
       781.0         0.23          3.4 
       782.0         0.23          2.9 
       783.0         0.20          3.3 
       784.0         0.23          3.3 
       785.0         0.20          2.9 
       786.0         0.23          3.3 
       787.0         0.17          3.3 
       788.0         0.17          3.5 
       789.0         0.20          3.0 
       790.0         0.17          3.4 
       791.0         0.22          3.0 
       792.0         0.17          3.9 
       793.0         0.13          2.7 
       794.0         0.20          3.4 
       795.0         0.17          3.6 
       796.0         0.27          3.7 
       797.0         0.27          3.5 
       798.0         0.20          3.7 
       799.0         0.20          3.5 
       800.0         0.17          2.9 
       801.0         0.20          3.4 
       802.0         0.20          3.2 
       803.0         0.17          3.4 
       804.0         0.20          3.7 
       805.0         0.23          3.2 
       806.0         1.48          3.9 
       807.0         0.43          3.3 
       808.0         0.27          3.5 
       809.0         0.23          3.7 
       810.0         0.23          3.6 
       811.0         0.20          3.0 
       812.0         0.20          3.8 
       813.0         0.20          3.4 
       814.0         0.23          3.7 
       815.0         0.17          3.8 
       816.0         0.22          3.7 
       817.0         0.17          3.8 
       818.0         0.20          3.4 
       819.0         0.17          3.7 
       820.0         0.20          3.7 
       821.0         0.17          3.5 
       822.0         0.17          3.5 
       823.0         0.20          3.9 
       824.0         0.17          3.0 
       825.0         0.20          3.6 
       826.0         0.20          3.9 
       827.0         0.27          3.1 
       828.0         0.27          3.6 
       829.0         0.27          3.5 
       830.0         0.20          3.0 
       831.0         0.23          3.1 
       832.0         0.20          3.1 
       833.0         0.28          3.5 
       834.0         0.17          2.9 
       835.0         0.27          3.2 
       836.0         2.33          4.1 
       837.0         0.32          3.4 
       838.0         0.23          3.3 
       839.0         0.23          3.3 
       840.0         0.20          3.5 
       841.0         0.27          3.7 
       842.0         0.27          3.7 
       843.0         0.17          3.4 
       844.0         0.17          3.4 
       845.0         0.20          3.4 
       846.0         0.20          3.3 
       847.0         0.20          3.1 
       848.0         0.23          3.6 
       849.0         0.20          3.4 
       850.0         0.27          3.4 
       851.0         0.17          3.3 
       852.0         0.20          3.1 
       853.0         0.25          3.4 
       854.0         0.20          3.5 
       855.0         0.20          3.7 
       856.0         0.17          4.2 
       857.0         0.23          3.2 
       858.0         0.17          2.8 
       859.0         0.17          3.0 
       860.0         0.20          3.4 
       861.0         0.20          2.8 
       862.0         0.17          3.1 
       863.0         0.13          2.6 
       864.0         0.13          3.7 
       865.0         0.20          3.3 
       866.0         1.35          4.3 
       867.0         0.40          3.4 
       868.0         0.20          4.0 
       869.0         0.30          5.1 
       870.0         0.23          3.3 
       871.0         0.30          5.0 
       872.0         0.27          3.3 
       873.0         0.23          3.3 
       874.0         0.27          5.1 
       875.0         0.20          3.0 
       876.0         0.27          3.0 
       877.0         0.20          3.3 
       878.0         0.22          3.3 
       879.0         0.20          3.3 
       880.0         0.27          2.9 
       881.0         0.17          2.9 
       882.0         0.20          3.3 
       883.0         0.17          4.6 
       884.0         0.13          3.3 
       885.0         0.17          7.4 
       886.0         0.20          2.9 
       887.0         0.27          5.7 
       888.0         0.27          3.3 
       889.0         0.20          2.9 
       890.0         0.20          3.0 
       891.0         0.17          3.0 
       892.0         0.20          3.1 
       893.0         0.20          3.4 
       894.0         0.17          2.7 
       895.0         0.18          2.7 
       896.0         1.10          4.2 
       897.0         0.27          3.5 
       898.0         0.37          3.6 
       899.0         0.30          3.1 
       900.0         0.33          2.9 
       901.0         0.27          3.3 
       902.0         0.20          3.2 
       903.0         0.23          2.5 
       904.0         0.18          2.9 
       905.0         0.17          2.2 
       906.0         0.17          2.6 
       907.0         0.20          2.8 
       908.0         0.17          3.1 
       909.0         0.20          2.2 
       910.0         0.13          2.9 
       911.0         0.20          3.0 
       912.0         0.13          3.0 
       913.0         0.20          3.4 
       914.0         0.13          2.6 
       915.0         0.23          3.7 
       916.0         0.40          4.4 
       917.0         0.13          3.1 
       918.0         0.17          3.1 
       919.0         0.23          2.7 
       920.0         0.23          3.8 
