~Version Information
VERS.                      2.0: CWLS Log ASCII Standard - VERSION 2.0
WRAP.                       NO: One line per depth step
~Well Information Block
STRT.FT               -11.7500: 
STOP.FT              2025.5000: 
STEP.FT                 0.2500: 
NULL.                -999.2500: 
COMP.          Evergreen Operating Corp.: COMPANY
WELL.            Sumatra 34-22: WELL
FLD.           Purgatorie River: FIELD
LOC.           542 FSL & 2438 FEL--: LOCATION
PROV.                       CO: PROVINCE
CNTY.               Las Animas: COUNTRY
SRVC.          Patterson Wireline, Inc.: SERVICE COMPANY
DATE.          Wed Apr 02 10:17:21 2003: LOG DATE
UWI.           05 071 07804 00: UNIQUE WELL ID
~Curve Information Block
DEPT.FT            0 000 00 00: Depth
CCL.                          : Casing Collar Locator
TT3.usec                      : CBL 3' Travel Time
AMP3.mV                       : CBL 3' Amplitude
GR.GAPI                       : Gamma Ray
~Parameter Information Block
~A  Depth       CCL         TT3         AMP3         GR     
# ...
   658.2500      0.0000    859.0883      2.9906    172.6826
   658.5000      0.0000    855.7643      2.9785    157.7199
   658.7500      0.0000    850.7385      2.9377    139.9941
   659.0000      0.0000    846.6089      2.8250    122.1195
   659.2500      0.0000    844.2042      2.6561    106.4242
   659.5000      0.0000    840.8948      2.4877     95.2238
   659.7500      0.0000    837.3540      2.3717     90.3505
   660.0000      0.0000    838.7667      2.3146     91.8840
   660.2500      0.0000    846.0298      2.2929     97.9204
   660.5000      0.0000    853.9579      2.3047    106.3701
   660.7500      0.0000    858.6492      2.3784    116.7351
   661.0000      0.0000    860.3303      2.5278    129.5035
   661.2500      0.0000    860.2916      2.7174    144.0310
   661.5000      0.0000    858.5726      2.8850    157.8235
   661.7500      0.0000    853.8127      2.9960    167.9245
   662.0000      0.0000    845.4669      3.0665    172.7835
   662.2500      0.0000    836.8244      3.1347    173.2301
   662.5000      0.0000    832.0795      3.2226    172.1577
   662.7500      0.0000    830.1497      3.3235    172.8033
   663.0000      0.0000    828.0445      3.4074    176.3751
   663.2500      0.0000    828.0740      3.4572    181.0890
   663.5000      0.0000    834.1627      3.4834    183.9253
   663.7500      0.0000    844.5037      3.4774    183.4071
   664.0000      0.0000    853.4666      3.4297    180.3963
   664.2500      0.0000    858.2974      3.3712    176.4562
   664.5000      0.0000    860.2101      3.3306    172.2670
   664.7500      0.0000    860.9717      3.3084    167.8107
   665.0000      0.0000    861.2337      3.2951    163.2174
   665.2500      0.0000    861.0559      3.2633    158.8308
   665.5000      0.0000    860.5327      3.1687    155.0388
   665.7500      0.0000    859.7532      3.0192    152.4003
   666.0000      0.0000    858.2444      2.9019    151.2811
   666.2500      0.0000    854.9965      2.8700    151.2476
   666.5000      0.0000    850.3248      2.8809    151.5970
   666.7500      0.0000    846.7235      2.8820    152.3559
   667.0000      0.0000    844.3390      2.8584    153.8761
   667.2500      0.0000    838.4825      2.8248    155.7569
   667.5000      0.0000    826.6064      2.8195    157.2947
   667.7500      0.0000    813.1895      2.8691    158.9486
   668.0000      0.0000    804.3130      2.9700    162.4240
   668.2500      0.0000    800.1571      3.0962    168.9444
   668.5000      0.0000    796.1346      3.2037    177.5516
   668.7500      0.0000    792.3041      3.2674    185.0736
   669.0000      0.0000    794.9539      3.2874    188.0251
   669.2500      0.0000    806.9130      3.2670    185.0638
   669.5000      0.0000    823.2214      3.2546    177.7048
   669.7500      0.0000    835.6814      3.3125    168.6697
   670.0000      0.0000    839.2703      3.4070    159.8594
   670.2500      0.0000    837.4954      3.4702    151.9060
   670.5000      0.0000    838.6702      3.5072    145.1104
   670.7500      0.0000    844.6254      3.5271    140.2298
   671.0000      0.0000    849.3476      3.5084    138.0592
   671.2500      0.0000    849.3669      3.4781    138.4611
   671.5000      0.0000    848.4157      3.4825    140.3413
   671.7500      0.0000    849.6766      3.4962    142.4709
   672.0000      0.0000    849.3377      3.4712    143.8615
   672.2500      0.0000    842.4797      3.4194    143.6248
   672.5000      0.0000    830.9812      3.3935    141.2007
   672.7500      0.0000    820.8841      3.4181    136.9184
   673.0000      0.0000    814.5438      3.4606    132.2151
   673.2500      0.0000    809.4559      3.4706    129.1573
   673.5000      0.0000    804.0518      3.4326    129.4606
   673.7500      0.0000    801.1032      3.3828    133.4696
   674.0000      0.0000    803.1137      3.3622    139.8078
   674.2500      0.0000    807.8822      3.3666    146.0687
   674.5000      0.0000    812.5524      3.3894    150.0832
   674.7500      0.0000    817.6275      3.4490    151.0341
   675.0000      0.0000    823.4154      3.5279    149.9553
   675.2500      0.0000    825.2247      3.5569    149.0472
   675.5000      0.0000    815.3933      3.4693    149.8752
   675.7500      0.0000    792.9833      3.2766    151.9527
   676.0000      0.0000    773.4256      3.0964    153.2943
   676.2500      0.0000    778.4067      3.0103    152.4703
   676.5000      0.0000    807.9540      2.9338    149.9181
   676.7500      0.0000    838.9454      2.7852    147.0923
   677.0000      0.0000    853.8903      2.6568    144.6787
   677.2500      0.0000    854.4006      2.6597    142.2675
   677.5000      0.0000    850.6365      2.7606    139.7081
   677.7500     -5.0000    847.5055      2.8575    137.8106
   678.0000     -5.0000    842.1721      2.8890    137.1450
   678.2500      0.0000    834.3073      2.8345    136.6803
   678.5000      0.0000    829.4768      2.7221    134.3784
   678.7500      0.0000    829.3943      2.6696    129.0351
   679.0000      0.0000    830.6312      2.7803    121.0073
   679.2500      0.0000    832.6127      2.9654    111.1433
   679.5000      0.0000    837.3202      3.0863     99.7842
   679.7500      0.0000    844.9730      3.2087     87.2258
   680.0000      0.0000    853.5931      3.4411     74.6514
   680.2500      0.0000    860.3887      3.7261     64.0656
   680.5000      0.0000    863.9348      3.9462     57.3769
   680.7500      0.0000    864.9294      4.0240     55.5543
   681.0000      0.0000    864.7432      3.9375     58.1240
   681.2500      0.0000    864.2072      3.7718     63.0973
   681.5000      0.0000    863.5750      3.6540     67.7708
   681.7500      0.0000    862.9454      3.5919     70.2416
   682.0000      0.0000    862.4943      3.5229     70.4092
   682.2500      0.0000    862.3412      3.4770     69.6785
   682.5000      0.0000    862.4566      3.5128     69.8755
   682.7500      0.0000    862.7737      3.5768     72.0736
   683.0000      0.0000    863.1479      3.5941     75.7918
   683.2500      0.0000    863.3470      3.5940     79.1710
   683.5000      0.0000    863.2040      3.6350     80.2458
   683.7500      0.0000    862.3259      3.7033     78.2829
   684.0000      0.0000    859.5960      3.7575     74.1306
   684.2500      0.0000    854.0771      3.7848     69.5243
   684.5000      0.0000    846.9949      3.7715     66.0354
   684.7500      0.0000    841.2348      3.6850     64.3439
   685.0000      0.0000    838.4158      3.5453     64.1950
   685.2500      0.0000    838.4415      3.4606     64.8564
   685.5000      0.0000    841.4725      3.4969     65.6027
   685.7500      0.0000    847.7479      3.5741     65.9970
   686.0000      0.0000    855.3500      3.5791     66.0565
   686.2500      0.0000    860.4935      3.5229     66.2467
   686.5000      0.0000    860.5268      3.5053     67.1342
   686.7500      0.0000    855.5823      3.5600     68.7893
   687.0000      0.0000    848.3844      3.6107     70.5055
   687.2500      0.0000    842.5913      3.5946     71.2528
   687.5000      0.0000    840.3582      3.5613     70.4501
   687.7500      0.0000    842.1100      3.5789     68.3094
   688.0000      0.0000    847.2444      3.6178     65.6354
   688.2500      0.0000    853.1872      3.6302     63.4505
   688.5000      0.0000    855.8345      3.6555     62.6209
   688.7500      0.0000    853.0872      3.7353     63.4609
   689.0000      0.0000    847.0017      3.7994     65.6063
   689.2500      0.0000    841.4458      3.7437     68.3535
   689.5000      0.0000    838.3789      3.5689     71.0645
   689.7500      0.0000    837.2562      3.3808     73.1287
   690.0000      0.0000    836.8990      3.2894     73.8326
   690.2500      0.0000    836.6820      3.3190     72.8004
   690.5000      0.0000    836.5203      3.4021     70.6235
   690.7500      0.0000    836.5145      3.4470     68.5886
   691.0000      0.0000    836.6493      3.4056     67.6311
   691.2500      0.0000    836.7816      3.3117     67.8101
   691.5000      0.0000    836.8575      3.2641     68.7051
