~Version Information
VERS.                      2.0: CWLS Log ASCII Standard - VERSION 2.0
WRAP.                       NO: One line per depth step
~Well Information Block
STRT.FT                -3.7500: 
STOP.FT               930.7500: 
STEP.FT                 0.2500: 
NULL.                -999.2500: 
COMP.          Pioneer Natural Resources: COMPANY
WELL.                Pug 33-19: WELL
FLD.           Purgatorie River: FIELD
LOC.           1381' FSL & 2140' FEL--: LOCATION
PROV.                       CO: PROVINCE
CNTY.               Las Animas: COUNTRY
SRVC.                         : SERVICE COMPANY
DATE.          Mon Dec 20 15:44:45 2004: LOG DATE
UWI.                          : UNIQUE WELL ID
~Curve Information Block
DEPT.FT            0 000 00 00: Depth
GR.GAPI                       : Gamma Ray
CCL.                          : Casing Collar Locator
TT3.usec                      : CBL 3' Travel Time
AMP3.mV                       : CBL 3' Amplitude
~Parameter Information Block
~A  Depth        GR         CCL         TT3         AMP3    
# ...
   666.2500     91.8643      0.0000    719.8992      7.4608
   666.5000     96.4454      0.0000    719.3919      7.4533
   666.7500    100.4441      0.0000    719.8799      7.4576
   667.0000    101.8010      0.0000    721.3600      7.4736
   667.2500    100.1717      0.0000    723.5905      7.5008
   667.5000     97.2323      0.0000    725.7321      7.5322
   667.7500     94.8916      0.0000    726.6318      7.5465
   668.0000     93.4173      0.0000    725.7862      7.5151
   668.2500     91.6825      0.0000    723.9765      7.4269
   668.5000     89.0168      0.0000    722.8249      7.3046
   668.7500     86.2204      0.0000    723.8535      7.1940
   669.0000     84.5041      0.0000    727.8314      7.1327
   669.2500     83.8136      0.0000    734.4042      7.1225
   669.5000     82.7270      0.0000    742.0232      7.1303
   669.7500     80.0136      0.0000    748.5064      7.1088
   670.0000     75.9271      0.0000    752.0513      7.0155
   670.2500     71.9022      0.0000    751.9208      6.8215
   670.5000     69.2818      0.0000    748.8771      6.5211
   670.7500     68.2684      0.0000    745.7612      6.1513
   671.0000     67.7612      0.0000    747.0362      5.8014
   671.2500     66.2002      0.0000    756.0925      5.5681
   671.5000     62.8959      0.0000    772.5938      5.4751
   671.7500     58.6867      0.0000    793.1189      5.4610
   672.0000     55.1986      0.0000    813.8701      5.4672
   672.2500     53.3742      0.0000    832.3721      5.4999
   672.5000     52.7001      0.0000    848.2800      5.5820
   672.7500     51.8729      2.0000    863.2646      5.6932
   673.0000     50.1473      2.0000    878.4306      5.7901
   673.2500     47.9938      0.0000    891.6402      5.8571
   673.5000     46.5163      0.0000    898.6575      5.9220
   673.7500     46.3391      0.0000    896.3900      6.0495
   674.0000     47.1332      0.0000    884.0968      6.3226
   674.2500     48.1665      0.0000    862.8339      6.7766
   674.5000     49.1267      0.0000    835.6711      7.3283
   674.7500     50.2405      0.0000    807.8957      7.8133
   675.0000     51.7031      0.0000    785.0360      8.1102
   675.2500     53.2798      0.0000    769.8693      8.2072
   675.5000     54.4974      0.0000    761.5223      8.1673
   675.7500     55.0221      0.0000    757.0641      8.0672
   676.0000     54.7949      0.0000    753.5179      7.9622
   676.2500     54.0355      0.0000    749.0219      7.8770
   676.5000     53.2103      0.0000    743.4512      7.8133
   676.7500     52.7739      0.0000    738.5117      7.7639
   677.0000     52.7982      0.0000    736.6605      7.7180
   677.2500     53.0045      0.0000    739.2091      7.6601
   677.5000     53.2234      0.0000    745.2852      7.5805
   677.7500     53.6013      0.0000    752.5887      7.4896
   678.0000     54.3393      0.0000    758.7974      7.4155
   678.2500     55.5813      0.0000    762.2832      7.3805
   678.5000     57.6047      0.0000    762.4692      7.3782
   678.7500     60.6350      0.0000    760.5300      7.3760
   679.0000     64.1285      0.0000    759.3030      7.3429
   679.2500     66.4826      0.0000    761.4706      7.2758
   679.5000     65.8736      0.0000    767.4556      7.1997
   679.7500     61.6428      0.0000    774.8790      7.1394
   680.0000     54.8985      0.0000    779.6747      7.0957
   680.2500     47.7278      0.0000    778.5173      7.0536
   680.5000     41.7983      0.0000    771.6815      7.0101
   680.7500     37.6914      0.0000    763.3181      6.9873
   681.0000     35.4907      0.0000    757.7988      7.0106
   681.2500     35.8145      0.0000    756.0892      7.0787
   681.5000     39.9831      0.0000    756.0526      7.1621
   681.7500     48.8925      0.0000    755.1165      7.2282
   682.0000     61.6623      0.0000    752.0408      7.2621
   682.2500     75.5194      0.0000    747.1771      7.2671
   682.5000     87.3810      0.0000    741.8572      7.2573
   682.7500     95.9786      0.0000    737.2532      7.2488
   683.0000    102.4929      0.0000    733.5065      7.2488
   683.2500    108.9042      0.0000    730.1561      7.2508
   683.5000    115.8279      0.0000    727.1604      7.2437
   683.7500    122.1601      0.0000    725.1465      7.2224
   684.0000    126.5127      0.0000    724.7943      7.1862
   684.2500    128.4358      0.0000    726.1755      7.1323
   684.5000    128.0784      0.0000    728.5515      7.0620
   684.7500    125.1813      0.0000    730.7793      6.9906
   685.0000    119.2164      0.0000    732.0692      6.9444
   685.2500    110.5890      0.0000    732.3325      6.9479
   685.5000    101.0442      0.0000    732.0081      7.0093
   685.7500     92.6272      0.0000    732.0182      7.1142
   686.0000     86.5783      0.0000    733.6801      7.2298
   686.2500     83.0483      0.0000    737.7945      7.3201
   686.5000     81.3527      0.0000    743.6009      7.3623
   686.7500     80.6302      0.0000    749.0319      7.3550
   687.0000     80.6153      0.0000    752.1790      7.3170
   687.2500     81.5822      0.0000    752.5675      7.2763
   687.5000     83.4489      0.0000    751.3295      7.2545
   687.7500     85.3872      0.0000    750.3052      7.2570
   688.0000     86.6239      0.0000    750.6989      7.2777
   688.2500     87.2044      0.0000    752.3790      7.3121
   688.5000     87.4785      0.0000    754.4057      7.3636
   688.7500     87.0906      0.0000    756.0060      7.4312
   689.0000     85.1175      0.0000    756.9711      7.4968
   689.2500     81.4033      0.0000    757.4503      7.5290
   689.5000     77.3135      0.0000    757.6708      7.5019
   689.7500     74.5274      0.0000    757.8102      7.4132
   690.0000     73.0827      0.0000    757.9654      7.2903
   690.2500     71.3147      0.0000    758.1648      7.1733
   690.5000     68.1033      0.0000    758.3967      7.0841
   690.7500     64.5895      0.0000    758.6508      7.0144
   691.0000     63.1128      0.0000    759.0064      6.9496
   691.2500     64.8150      0.0000    759.7430      6.9005
   691.5000     68.7475      0.0000    761.2614      6.9003
   691.7500     73.1370      0.0000    763.6359      6.9725
   692.0000     77.1203      0.0000    766.1321      7.1046
   692.2500     81.1653      0.0000    767.4789      7.2538
   692.5000     86.0824      0.0000    766.9490      7.3736
   692.7500     91.8873      0.0000    765.0298      7.4376
   693.0000     97.6564      0.0000    762.8492      7.4447
   693.2500    102.2619      0.0000    761.1727      7.4096
   693.5000    105.0667      0.0000    760.1008      7.3504
   693.7500    106.0054      0.0000    759.4081      7.2837
   694.0000    105.4355      0.0000    758.8851      7.2226
   694.2500    104.2162      0.0000    758.4512      7.1705
   694.5000    103.6444      0.0000    758.1376      7.1187
   694.7500    104.7801      0.0000    758.0074      7.0603
   695.0000    107.7310      0.0000    758.0477      7.0045
   695.2500    111.6843      0.0000    758.1135      6.9688
   695.5000    115.4528      0.0000    757.9543      6.9559
   695.7500    117.9994      0.0000    757.2613      6.9468
   696.0000    118.8668      0.0000    755.7619      6.9190
   696.2500    118.3783      0.0000    753.5282      6.8670
   696.5000    117.3921      0.0000    751.3200      6.8043
   696.7500    116.8635      0.0000    750.3175      6.7486
   697.0000    117.4321      0.0000    751.1472      6.7124
   697.2500    118.8997      0.0000    753.2738      6.7024
   697.5000    120.0330      0.0000    755.5547      6.7199
   697.7500    119.4756      0.0000    757.1984      6.7576
   698.0000    117.0706      0.0000    758.0517      6.8040
   698.2500    113.8540      0.0000    758.2903      6.8545
   698.5000    110.7708      0.0000    758.1556      6.9152
   698.7500    107.8548      0.0000    757.8976      6.9927
   699.0000    104.4412      0.0000    757.7267      7.0821
   699.2500     99.8074      0.0000    757.7237      7.1668
   699.5000     94.0355      0.0000    757.8265      7.2253
