~Version Information
VERS.                      2.0: CWLS Log ASCII Standard - VERSION 2.0
WRAP.                       NO: One line per depth step
~Well Information Block
STRT.FT                 3.7500: 
STOP.FT               979.7500: 
STEP.FT                 0.2500: 
NULL.                -999.2500: 
COMP.          Pioneer Natural Resources: COMPANY
WELL.          Rising Star 22-11: WELL
FLD.           Purgatoire River: FIELD
LOC.           2152' FNL & 2105' FWL: LOCATION
PROV.                 Colorado: PROVINCE
CNTY.               Las Animas: COUNTRY
SRVC.                Patterson: SERVICE COMPANY
DATE.          Sat Apr 16 09:17:01 2005: LOG DATE
UWI.           05 071 08354 00: UNIQUE WELL ID
~Curve Information Block
DEPT.FT            0 000 00 00: Depth
GR.GAPI                       : Gamma Ray
CCL.                          : Casing Collar Locator
TT3.usec                      : CBL 3' Travel Time
AMP3.mV                       : CBL 3' Amplitude
~Parameter Information Block
~A  Depth        GR         CCL         TT3         AMP3    
# ...
   506.2500     94.5721      0.0000    975.0518      4.9276
   506.5000     95.2922      0.0000   1077.2450      4.8558
   506.7500     97.6519      0.0000   1189.6823      4.7710
   507.0000     99.6282      0.0000   1274.2629      4.7071
   507.2500     99.7194      0.0000   1321.3867      4.7039
   507.5000     98.0106      0.0000   1341.3981      4.7805
   507.7500     95.7243      0.0000   1347.9512      4.9192
   508.0000     93.9759      0.0000   1349.6107      5.0825
   508.2500     93.2434      0.0000   1349.8667      5.2420
   508.5000     93.3761      0.0000   1349.5375      5.3912
   508.7500     93.5110      0.0000   1348.0017      5.5388
   509.0000     92.6823      0.0000   1343.1104      5.6972
   509.2500     91.1299      0.0000   1330.9983      5.8721
   509.5000     90.3355      0.0000   1307.7765      6.0576
   509.7500     91.2818      0.0000   1273.8041      6.2378
   510.0000     93.3100      0.0000   1237.1204      6.3963
   510.2500     94.9304      0.0000   1210.4562      6.5266
   510.5000     95.1480      0.0000   1202.2360      6.6336
   510.7500     93.9757      0.0000   1209.8944      6.7253
   511.0000     92.3299      0.0000   1221.5769      6.8027
   511.2500     91.6059      0.0000   1223.5684      6.8596
   511.5000     92.7741      0.0000   1208.2915      6.8936
   511.7500     95.4936      0.0000   1179.1185      6.9201
   512.0000     98.3213      0.0000   1148.0168      6.9742
   512.2500     99.9182      0.0000   1127.0416      7.0911
   512.5000     99.7775      0.0000   1121.1403      7.2731
   512.7500     97.9849      0.0000   1126.7035      7.4781
   513.0000     95.0422      0.0000   1134.3207      7.6483
   513.2500     91.9147      0.0000   1135.0773      7.7563
   513.5000     89.4463      0.0000   1127.7299      7.8197
   513.7500     87.5630      0.0000   1118.2859      7.8716
   514.0000     85.5895      0.0000   1110.3115      7.9214
   514.2500     83.3320      0.0000   1099.6121      7.9446
   514.5000     81.4017      0.0000   1081.5913      7.9067
   514.7500     80.5170      0.0000   1059.3068      7.7965
   515.0000     80.8369      0.0000   1040.3743      7.6410
   515.2500     81.7921      0.0000   1029.3365      7.4887
   515.5000     82.1728      0.0000   1026.2357      7.3717
   515.7500     80.6465      0.0000   1030.3793      7.2778
   516.0000     76.8737      0.0000   1042.1104      7.1541
   516.2500     72.2033      0.0000   1060.0081      6.9327
   516.5000     68.7718      0.0000   1078.3026      6.5582
   516.7500     67.7363      0.0000   1091.5782      6.0166
   517.0000     68.6008      0.0000   1104.1191      5.3581
   517.2500     70.0613      0.0000   1129.5596      4.6830
   517.5000     70.9655      0.0000   1176.0225      4.0967
   517.7500     70.6119      0.0000   1234.7479      3.6808
   518.0000     69.0280      0.0000   1287.5638      3.4822
   518.2500     67.3810      0.0000   1322.6479      3.4880
   518.5000     67.5635      0.0000   1340.0999      3.6200
   518.7500     70.7911     -1.6724   1345.9418      3.7848
   519.0000     76.6366     -2.5317   1345.0198      3.9267
   519.2500     83.6188      0.0000   1338.7931      4.0403
   519.5000     90.6794      0.0000   1326.9172      4.1623
   519.7500     97.7531      0.0000   1309.2385      4.3552
   520.0000    104.8171      0.0000   1286.4221      4.6700
   520.2500    110.9531      0.0000   1260.8485      5.1077
   520.5000    114.9507      0.0000   1238.9187      5.6282
   520.7500    116.5697      0.0000   1229.8278      6.1777
   521.0000    116.6212      0.0000   1237.8390      6.6871
   521.2500    115.9642      0.0000   1257.0273      7.0777
   521.5000    114.9614      0.0000   1276.5272      7.3041
   521.7500    113.8276      0.0000   1289.1990      7.3839
   522.0000    113.0094      0.0000   1293.9080      7.3719
   522.2500    112.9721      0.0000   1292.7183      7.3213
   522.5000    113.6546      0.0000   1288.7047      7.2725
   522.7500    114.3128      0.0000   1286.0570      7.2576
   523.0000    113.9294      0.0000   1289.6270      7.2921
   523.2500    111.6953      0.0000   1301.4839      7.3637
   523.5000    107.3261      0.0000   1318.1621      7.4357
   523.7500    101.4740      0.0000   1333.2908      7.4732
   524.0000     95.8887      0.0000   1342.8331      7.4665
   524.2500     92.4350      0.0000   1346.2898      7.4352
   524.5000     91.5656      0.0000   1343.5481      7.4085
   524.7500     92.1919      0.0000   1331.7380      7.3993
   525.0000     93.2286      0.0000   1306.4388      7.3940
   525.2500     94.7102      0.0000   1268.6487      7.3666
   525.5000     97.2836      0.0000   1231.6345      7.3024
   525.7500    101.3195      0.0000   1215.8375      7.2100
   526.0000    106.7674      0.0000   1231.3944      7.1097
   526.2500    113.1880      0.0000   1267.4297      7.0146
   526.5000    119.5185      0.0000   1301.6348      6.9246
   526.7500    124.1246      0.0000   1316.9984      6.8335
   527.0000    125.4360      0.0000   1308.4478      6.7403
   527.2500    122.7747      0.0000   1281.7190      6.6530
   527.5000    116.9145      0.0000   1251.6212      6.5858
   527.7500    110.0061      0.0000   1235.1405      6.5504
   528.0000    104.5316      0.0000   1236.8470      6.5475
   528.2500    101.7423      0.0000   1241.5653      6.5634
   528.5000    100.9306      0.0000   1226.7576      6.5759
   528.7500    100.3187      0.0000   1181.6539      6.5691
   529.0000     98.7195      0.0000   1112.2144      6.5440
   529.2500     96.2991      0.0000   1031.7950      6.5130
   529.5000     93.8057      0.0000    953.2299      6.4842
   529.7500     91.3236      0.0000    887.4879      6.4529
   530.0000     88.2659      0.0000    841.8552      6.4091
   530.2500     84.7382      0.0000    816.6879      6.3484
   530.5000     82.3460      0.0000    806.8949      6.2759
   530.7500     82.9124      0.0000    808.0652      6.2035
   531.0000     86.4702      0.0000    821.9766      6.1437
   531.2500     91.0094      0.0000    857.3459      6.1024
   531.5000     94.2174      0.0000    923.7224      6.0738
   531.7500     95.2733      0.0000   1020.3539      6.0472
   532.0000     95.1545      0.0000   1129.7036      6.0194
   532.2500     95.6072      0.0000   1225.2729      5.9970
   532.5000     97.8447      0.0000   1287.2247      5.9864
   532.7500    101.7569      0.0000   1309.2711      5.9859
   533.0000    105.9412      0.0000   1293.4745      5.9884
   533.2500    108.7604      0.0000   1246.8606      5.9871
   533.5000    109.8474      0.0000   1187.1868      5.9767
   533.7500    110.3845      0.0000   1144.4762      5.9546
   534.0000    111.5204      0.0000   1144.5120      5.9217
   534.2500    112.8492      0.0000   1187.4612      5.8846
   534.5000    112.8551      0.0000   1248.3536      5.8513
   534.7500    110.5519      0.0000   1299.7517      5.8251
   535.0000    106.5315      0.0000   1330.1923      5.8006
   535.2500    102.6391      0.0000   1342.7799      5.7707
   535.5000    100.5630      0.0000   1343.7576      5.7349
   535.7500    100.3777      0.0000   1334.9673      5.7030
   536.0000    100.4447      0.0000   1314.5625      5.6872
   536.2500     99.0528      0.0000   1283.8624      5.6905
   536.5000     96.0877      0.0000   1253.7704      5.7024
   536.7500     92.8068      0.0000   1240.9576      5.7050
   537.0000     90.4073      0.0000   1253.7338      5.6869
   537.2500     89.4164      0.0000   1283.6234      5.6502
   537.5000     89.9803      0.0000   1313.3850      5.6075
   537.7500     91.7457      0.0000   1330.4407      5.5725
   538.0000     93.4717      0.0000   1330.4178      5.5526
   538.2500     93.5868      0.0000   1313.2897      5.5460
   538.5000     91.6305      0.0000   1283.3619      5.5439
   538.7500     89.0383      0.0000   1252.9364      5.5373
   539.0000     88.0974      0.0000   1238.3638      5.5234
   539.2500     89.8904      0.0000   1246.0426      5.5075
   539.5000     93.3516      0.0000   1264.4850      5.4983
