~Version Information
VERS.                      2.0: CWLS Log ASCII Standard - VERSION 2.0
WRAP.                       NO: One line per depth step
~Well Information Block
STRT.FT               -10.8000: 
STOP.FT              2238.7000: 
STEP.FT                 0.1000: 
NULL.                -999.2500: 
COMP.          Petrogulf Corporation: COMPANY
WELL.             McLeod 9-42V: WELL
FLD.           Purgatorie River: FIELD
LOC.           1658' FNL & 415' FEL----: LOCATION
CNTY.               Las Animas: COUNTY
SRVC.                         : SERVICE COMPANY
DATE.          Wed Nov 17 12:01:16 2004: LOG DATE
UWI.                          : UNIQUE WELL ID
STAT.                       CO: STATE
~Curve Information Block
DEPT.FT            0 000 00 00: Depth
GR.GAPI                       : Gamma Ray
CCL.                          : Casing Collar Locator
TT3.usec                      : CBL 3' Travel Time
AMP3.mV                       : CBL 3' Amplitude
~Parameter Information Block
~A  Depth        GR         CCL         TT3         AMP3    
# ...
  1771.4000    144.1425      0.0000    756.5975      2.7392
  1771.5000    144.6913      0.0000    736.4009      2.8175
  1771.6000    144.6913      0.0000    736.4009      2.8175
  1771.7000    144.6913      0.0000    736.4009      2.8175
  1771.8000    139.9176      0.0000    725.3729      3.0001
  1771.9000    139.9176      0.0000    725.3729      3.0001
  1772.0000    132.1387      0.0000    718.5563      3.2634
  1772.1000    132.1387      0.0000    718.5563      3.2634
  1772.2000    132.1387      0.0000    718.5563      3.2634
  1772.3000    124.4896      0.0000    711.8771      3.5608
  1772.4000    124.4896      0.0000    711.8771      3.5608
  1772.5000    118.7035      0.0000    705.2354      3.8336
  1772.6000    118.7035      0.0000    705.2354      3.8336
  1772.7000    118.7035      0.0000    705.2354      3.8336
  1772.8000    114.9339      0.0000    701.8356      4.0338
  1772.9000    114.9339      0.0000    701.8356      4.0338
  1773.0000    112.8888      0.0000    705.5837      4.1632
  1773.1000    112.8888      0.0000    705.5837      4.1632
  1773.2000    112.8888      0.0000    705.5837      4.1632
  1773.3000    112.8888      0.0000    718.2025      4.2910
  1773.4000    112.8888      0.0000    718.2025      4.2910
  1773.5000    115.8215      0.0000    737.5519      4.5011
  1773.6000    115.8215      0.0000    737.5519      4.5011
  1773.7000    115.8215      0.0000    737.5519      4.5011
  1773.8000    121.8150      0.0000    758.5948      4.8152
  1773.9000    121.8150      0.0000    758.5948      4.8152
  1774.0000    129.0012      0.0000    776.5200      5.1938
  1774.1000    129.0012      0.0000    776.5200      5.1938
  1774.2000    129.0012      0.0000    776.5200      5.1938
  1774.3000    134.1546      0.0000    788.8665      5.6030
  1774.4000    134.1546      0.0000    788.8665      5.6030
  1774.5000    135.0454      0.0000    795.0242      6.0484
  1774.6000    135.0454      0.0000    795.0242      6.0484
  1774.7000    135.0454      0.0000    795.0242      6.0484
  1774.8000    132.0808     -2.0000    795.5683      6.5488
  1774.9000    132.0808      0.0000    795.5683      6.5488
  1775.0000    127.6768      2.0000    793.1220      7.0961
  1775.1000    127.6768     -2.0000    793.1220      7.0961
  1775.2000    127.6768      0.0000    793.1220      7.0961
  1775.3000    124.5141      0.0000    791.9770      7.6401
  1775.4000    124.5141      0.0000    791.9770      7.6401
  1775.5000    124.1812      0.0000    794.5426      8.1198
  1775.6000    124.1812      0.0000    794.5426      8.1198
  1775.7000    124.1812      0.0000    794.5426      8.1198
  1775.8000    126.3528      0.0000    798.4240      8.5284
  1775.9000    126.3528      0.0000    798.4240      8.5284
  1776.0000    128.8223      0.0000    798.3588      8.9194
  1776.1000    128.8223      0.0000    798.3588      8.9194
  1776.2000    128.8223      0.0000    798.3588      8.9194
  1776.3000    128.9618      0.0000    791.2198      9.3054
  1776.4000    128.9618      0.0000    791.2198      9.3054
  1776.5000    125.8278      0.0000    778.7877      9.5777
  1776.6000    125.8278      0.0000    778.7877      9.5777
  1776.7000    125.8278      0.0000    778.7877      9.5777
  1776.8000    120.8285      0.0000    765.9232      9.5938
  1776.9000    120.8285      0.0000    765.9232      9.5938
  1777.0000    116.2590      0.0000    756.5928      9.3230
  1777.1000    116.2590      0.0000    756.5928      9.3230
  1777.2000    116.2590      0.0000    756.5928      9.3230
  1777.3000    113.5466      0.0000    751.7154      8.8551
  1777.4000    113.5466      0.0000    751.7154      8.8551
  1777.5000    113.0277      0.0000    749.9815      8.3010
  1777.6000    113.0277      0.0000    749.9815      8.3010
  1777.7000    113.0277      0.0000    749.9815      8.3010
  1777.8000    114.8078      0.0000    749.6632      7.7477
  1777.9000    114.8078      0.0000    749.6632      7.7477
  1778.0000    119.0028      0.0000    749.5166      7.2739
  1778.1000    119.0028      0.0000    749.5166      7.2739
  1778.2000    119.0028      0.0000    749.5166      7.2739
  1778.3000    124.9829      0.0000    748.5969      6.9444
  1778.4000    124.9829      0.0000    748.5969      6.9444
  1778.5000    131.1058      0.0000    745.9060      6.7770
  1778.6000    131.1058      0.0000    745.9060      6.7770
  1778.7000    131.1058      0.0000    745.9060      6.7770
  1778.8000    135.8758      0.0000    740.5800      6.7309
  1778.9000    135.8758      0.0000    740.5800      6.7309
  1779.0000    139.0693      0.0000    732.6623      6.7323
  1779.1000    139.0693      0.0000    732.6623      6.7323
  1779.2000    139.0693      0.0000    732.6623      6.7323
  1779.3000    141.0363      0.0000    723.6608      6.7175
  1779.4000    141.0363      0.0000    723.6608      6.7175
  1779.5000    141.4427      0.0000    716.0877      6.6614
  1779.6000    141.4427      0.0000    716.0877      6.6614
  1779.7000    141.4427      0.0000    716.0877      6.6614
  1779.8000    139.8981      0.0000    712.2676      6.5672
  1779.9000    139.8981      0.0000    712.2676      6.5672
  1780.0000    137.5283      0.0000    713.3230      6.4364
  1780.1000    137.5283      0.0000    713.3230      6.4364
  1780.2000    137.5283      0.0000    713.3230      6.4364
  1780.3000    136.4356      0.0000    718.7182      6.2551
  1780.4000    136.4356      0.0000    718.7182      6.2551
  1780.5000    137.3742      0.0000    726.4191      6.0082
  1780.6000    137.3742      0.0000    726.4191      6.0082
  1780.7000    137.3742      0.0000    726.4191      6.0082
  1780.8000    138.9277      0.0000    733.8735      5.6972
  1780.9000    138.9277      0.0000    733.8735      5.6972
  1781.0000    139.3023      0.0000    739.3716      5.3475
  1781.1000    139.3023      0.0000    739.3716      5.3475
  1781.2000    139.3023      0.0000    739.3716      5.3475
  1781.3000    138.2951      0.0000    742.6615      5.0041
  1781.4000    138.2951      0.0000    742.6615      5.0041
  1781.5000    137.3729      0.0000    744.5117      4.7139
  1781.6000    137.3729      0.0000    744.5117      4.7139
  1781.7000    137.3729      0.0000    744.5117      4.7139
  1781.8000    138.2831      0.0000    746.0856      4.5023
  1781.9000    138.2831      0.0000    746.0856      4.5023
  1782.0000    141.3759      0.0000    748.6486      4.3673
  1782.1000    141.3759      0.0000    748.6486      4.3673
  1782.2000    141.3759      0.0000    748.6486      4.3673
  1782.3000    144.7253      0.0000    753.0695      4.3004
  1782.4000    144.7253      0.0000    753.0695      4.3004
  1782.5000    145.2606      0.0000    758.7256      4.3050
  1782.6000    145.2606      0.0000    758.7256      4.3050
  1782.7000    145.2606      0.0000    758.7256      4.3050
  1782.8000    141.3422      0.0000    762.7320      4.3848
  1782.9000    141.3422      0.0000    762.7320      4.3848
  1783.0000    134.1163      0.0000    760.9813      4.5210
  1783.1000    134.1163      0.0000    760.9813      4.5210
  1783.2000    134.1163      0.0000    760.9813      4.5210
  1783.3000    126.3910      0.0000    751.0529      4.6731
  1783.4000    126.3910      0.0000    751.0529      4.6731
  1783.5000    120.8003      0.0000    734.8135      4.8069
  1783.6000    120.8003      0.0000    734.8135      4.8069
  1783.7000    120.8003      0.0000    734.8135      4.8069
  1783.8000    118.8834      0.0000    718.2661      4.9146
  1783.9000    118.8834      0.0000    718.2661      4.9146
  1784.0000    120.8123      0.0000    708.4067      5.0017
  1784.1000    120.8123      0.0000    708.4067      5.0017
  1784.2000    120.8123      0.0000    708.4067      5.0017
  1784.3000    125.3681      0.0000    709.2766      5.0632
  1784.4000    125.3681      0.0000    709.2766      5.0632
  1784.5000    130.5177      0.0000    719.7433      5.0861
  1784.6000    130.5177      0.0000    719.7433      5.0861
  1784.7000    130.5177      0.0000    719.7433      5.0861
