~Version Information
VERS.                      2.0: CWLS Log ASCII Standard - VERSION 2.0
WRAP.                       NO: One line per depth step
~Well Information Block
STRT.FT               580.0000: 
STOP.FT              1756.0000: 
STEP.FT                 0.1000: 
NULL.                -999.2500: 
COMP.          Pioneer Natural Resources: COMPANY
WELL.          Lookout Point 31-23 Tr: WELL
FLD.           Purgatoire River: FIELD
LOC.           541' FNL & 1768' FEL: LOCATION
PROV.                 Colorado: PROVINCE
CNTY.               Las Animas: COUNTRY
SRVC.                Patterson: SERVICE COMPANY
DATE.          Mon Jan 24 07:20:20 2005: LOG DATE
UWI.           05 071 08260 00: UNIQUE WELL ID
~Curve Information Block
DEPT.FT            0 000 00 00: Depth
DCAL.in                       : CDL Caliper
DPOR.pu                       : CDL Density Porosity
GR.GAPI                       : Gamma Ray
NPOR.pu                       : Neutron Porosity
RHOB.g/cc                     : CDL Bulk Density
RHOC.g/cc                     : CDL Density Correction
~Parameter Information Block
~A  Depth       DCAL        DPOR         GR         NPOR        RHOB        RHOC    
# ...
  1492.0000      7.8105      5.4808    136.4894     24.0533      2.5596      0.0275
  1492.1000      7.8105      5.0892    152.9051     23.8226      2.5660      0.0730
  1492.2000      7.8105      4.8565    164.6349     23.1590      2.5699      0.0709
  1492.3000      7.8184      5.7903    166.5632     22.6187      2.5545      0.0568
  1492.4000      7.8184      7.0822    167.1988     23.2429      2.5331      0.0015
  1492.5000      7.8114      7.1693    173.7079     24.6635      2.5317      0.0240
  1492.6000      7.8114      6.3249    181.8758     25.7549      2.5456      0.0790
  1492.7000      7.8114      6.0945    185.4603     26.2545      2.5494      0.0533
  1492.8000      7.8015      6.7501    184.4796     26.2425      2.5386      0.0597
  1492.9000      7.8015      7.7444    180.6026     25.9433      2.5222      0.0628
  1493.0000      7.7987      8.8750    178.1213     25.8054      2.5036      0.0298
  1493.1000      7.7987      9.8947    180.3141     25.7592      2.4867      0.0101
  1493.2000      7.7987     10.5314    185.9279     25.5895      2.4762      0.0308
  1493.3000      7.7979     10.6899    189.1967     25.3780      2.4736      0.0195
  1493.4000      7.7979     10.3794    187.0923     25.2852      2.4787      0.0424
  1493.5000      7.7938      9.8031    183.7961     25.2966      2.4882      0.0459
  1493.6000      7.7938      9.4239    181.2810     25.0502      2.4945      0.0614
  1493.7000      7.7938      9.5592    175.0354     24.7134      2.4923      0.0738
  1493.8000      7.7870      9.6846    164.1835     24.3765      2.4902      0.0619
  1493.9000      7.7870      9.3582    154.0573     24.0095      2.4956      0.0757
  1494.0000      7.7751      8.9537    147.1258     24.0180      2.5023      0.0493
  1494.1000      7.7751      8.3258    143.8289     24.0580      2.5126      0.0724
  1494.2000      7.7751      6.9686    144.2703     23.4765      2.5350      0.1042
  1494.3000      7.7522      5.2137    146.7137     22.6881      2.5640      0.1356
  1494.4000      7.7522      3.6515    148.2005     22.2749      2.5898      0.1154
  1494.5000      7.7184      2.6164    143.5799     22.0240      2.6068      0.1482
  1494.6000      7.7184      2.5758    133.7541     21.5316      2.6075      0.1380
  1494.7000      7.7184      3.5478    126.6004     20.5721      2.5915      0.0951
  1494.8000      7.6821      4.8301    124.8223     19.6965      2.5703      0.0654
  1494.9000      7.6821      5.4889    127.0735     19.7549      2.5594      0.0377
  1495.0000      7.6609      5.3318    129.3460     20.1019      2.5620      0.0688
  1495.1000      7.6609      5.4763    126.6839     19.5743      2.5596      0.0839
  1495.2000      7.6609      6.7963    121.6655     18.5401      2.5379      0.0727
  1495.3000      7.6531      8.1355    118.1891     18.1330      2.5158      0.0048
  1495.4000      7.6531      7.6837    116.4216     18.4388      2.5232      0.0459
  1495.5000      7.6448      5.7179    115.8399     18.6065      2.5557      0.0746
  1495.6000      7.6448      3.3857    115.9559     18.4501      2.5941      0.0882
  1495.7000      7.6448      0.8115    116.5411     18.5593      2.6366      0.1039
  1495.8000      7.6407     -1.4750    116.3209     19.3167      2.6743      0.1846
  1495.9000      7.6407     -2.1483    115.9700     20.5038      2.6854      0.1653
  1496.0000      7.6492     -1.5440    118.5570     21.6705      2.6755      0.0948
  1496.1000      7.6492     -1.0528    124.1829     22.4226      2.6674      0.1535
  1496.2000      7.6492     -0.4876    128.9188     22.5910      2.6580      0.1199
  1496.3000      7.6722      0.7678    127.4102     22.4372      2.6373      0.1005
  1496.4000      7.6722      2.6505    122.8782     22.5729      2.6063      0.0658
  1496.5000      7.6974      4.8111    122.1353     23.3181      2.5706      0.0358
  1496.6000      7.6974      6.5015    125.9546     24.3253      2.5427      0.0433
  1496.7000      7.6974      7.1629    135.2337     24.8645      2.5318      0.0265
  1496.8000      7.7137      7.0187    148.9619     24.7201      2.5342      0.0632
  1496.9000      7.7137      6.5704    159.8702     24.3298      2.5416      0.0443
  1497.0000      7.7372      6.1908    164.1279     23.8376      2.5479      0.0937
  1497.1000      7.7372      6.0629    166.5900     23.4784      2.5500      0.0960
  1497.2000      7.7372      6.2713    169.2778     23.4363      2.5465      0.1120
  1497.3000      7.7747      6.8764    169.2277     23.2850      2.5365      0.1069
  1497.4000      7.7747      7.4694    165.6222     23.0193      2.5268      0.0496
  1497.5000      7.8098      7.7037    162.9089     23.3995      2.5229      0.0666
  1497.6000      7.8098      7.8149    166.0323     24.7032      2.5211      0.0919
  1497.7000      7.8098      7.6500    170.6855     25.8479      2.5238      0.0283
  1497.8000      7.8346      6.7422    171.7800     25.9065      2.5388      0.0595
  1497.9000      7.8346      5.7873    173.1553     25.5476      2.5545      0.1141
  1498.0000      7.8549      5.8604    173.7149     25.2698      2.5533      0.0643
  1498.1000      7.8549      6.6134    166.6737     24.7061      2.5409      0.0777
  1498.2000      7.8549      6.8807    156.9827     24.0653      2.5365      0.0367
  1498.3000      7.8739      6.1567    155.1686     24.1593      2.5484      0.0429
  1498.4000      7.8739      5.1597    161.9470     24.9470      2.5649      0.0827
  1498.5000      7.8867      4.8945    170.8645     25.3816      2.5692      0.0661
  1498.6000      7.8867      5.5878    172.7462     25.3907      2.5578      0.0969
  1498.7000      7.8867      6.9582    165.7092     25.7470      2.5352      0.0652
  1498.8000      7.9017      8.4491    160.4007     26.2099      2.5106      0.0140
  1498.9000      7.9017      9.5795    165.3257     26.1909      2.4919      0.0403
  1499.0000      7.9223     10.0806    172.7330     26.0893      2.4837      0.0102
  1499.1000      7.9223      9.3605    172.1414     26.7939      2.4956      0.0034
  1499.2000      7.9223      7.4548    168.7972     28.0563      2.5270      0.0625
  1499.3000      7.9320      6.0094    169.6284     28.7090      2.5508      0.1059
  1499.4000      7.9320      6.4379    171.5706     28.5240      2.5438      0.1086
  1499.5000      7.9287      7.9519    170.7700     28.2862      2.5188      0.0493
  1499.6000      7.9287      8.7960    169.4800     28.4259      2.5049      0.0282
  1499.7000      7.9287      8.6626    173.8663     28.6126      2.5071      0.0869
  1499.8000      7.9111      8.9876    181.1291     28.6487      2.5017      0.1275
  1499.9000      7.9111     10.5466    184.7276     28.3144      2.4760      0.0956
  1500.0000      7.8645     11.8870    180.5004     27.4382      2.4539      0.0453
  1500.1000      7.8645     11.7082    166.3295     26.4594      2.4568      0.0768
  1500.2000      7.8645     10.9901    151.5538     25.8607      2.4687      0.1142
  1500.3000      7.8093     10.6836    145.2782     25.8635      2.4737      0.0582
  1500.4000      7.8093     10.0105    145.6761     26.3395      2.4848      0.0966
  1500.5000      7.7870      8.2166    151.9673     26.7490      2.5144      0.1387
  1500.6000      7.7870      5.3793    164.1256     26.9905      2.5612      0.1289
  1500.7000      7.7870      2.3038    176.5012     27.1182      2.6120      0.1743
  1500.8000      7.7921      0.1506    181.0315     26.8744      2.6475      0.1610
  1500.9000      7.7921     -0.7535    173.9248     26.8080      2.6624      0.1673
  1501.0000      7.7990     -0.7314    163.6718     27.5821      2.6621      0.1780
  1501.1000      7.7990     -0.1911    159.2045     28.0734      2.6532      0.1234
  1501.2000      7.7990      0.2640    160.4241     27.4317      2.6456      0.0832
  1501.3000      7.8009      0.4999    162.7520     26.9176      2.6418      0.0801
  1501.4000      7.8009      1.1542    161.8350     27.2506      2.6310      0.0504
  1501.5000      7.8004      2.5965    161.6774     27.4059      2.6072      0.0535
