~Version Information
VERS.                      2.0: CWLS Log ASCII Standard - VERSION 2.0
WRAP.                       NO: One line per depth step
~Well Information Block
STRT.FT                 5.0000: 
STOP.FT              1874.2500: 
STEP.FT                 0.2500: 
NULL.                -999.2500: 
COMP.          Pioneer Natural Resources: COMPANY
WELL.           Stampede 42-18: WELL
FLD.           Purgatoire River: FIELD
LOC.           2479' FNL & 160' FEL--: LOCATION
CNTY.               Las Animas: COUNTY
SRVC.          Superior Well Services: SERVICE COMPANY
DATE.          Mon Jun 25 12:19:16 2007: LOG DATE
UWI.                          : UNIQUE WELL ID
STAT.                 Colorado: STATE
~Curve Information Block
DEPT.FT            0 000 00 00: Depth
GR.GAPI                       : Gamma Ray
CCL.                          : Casing Collar Locator
TT3.usec                      : CBL 3' Travel Time
AMP3.mV                       : CBL 3' Amplitude
AMP5.mV                       : CBL 5' Amplitude
~Parameter Information Block
~A  Depth        GR         CCL         TT3         AMP3        AMP5    
     5.0000     60.3896      0.0000    948.0000      2.6052      2.2694
     5.2500     60.8802      0.0000    948.0000      2.6331      2.2939
     5.5000     61.5228      0.0000    948.0000      2.6387      2.3146
     5.7500     61.9192      0.0000    948.0000      2.6254      2.3256
     6.0000     62.0146      0.0000    948.0000      2.6107      2.3285
     6.2500     61.9210      0.0000    948.0000      2.6103      2.3313
     6.5000     61.6725      0.0000    948.0000      2.6260      2.3422
     6.7500     61.1416      0.0000    948.0000      2.6484      2.3625
     7.0000     60.2002      0.0000    948.0000      2.6684      2.3840
     7.2500     59.1169      0.0000    948.0000      2.6813      2.3951
     7.5000     58.7881      0.0000    948.0000      2.6829      2.3899
     7.7500     60.2468      0.0000    948.0000      2.6689      2.3711
     8.0000     63.6335      0.0000    948.0000      2.6392      2.3446
     8.2500     67.7278      0.0000    948.0000      2.6013      2.3149
     8.5000     70.8182      0.0000    948.0000      2.5652      2.2862
     8.7500     72.0891      0.0000    948.0000      2.5359      2.2630
     9.0000     71.8975      0.0000    948.0000      2.5121      2.2493
     9.2500     70.8929      0.0000    948.0000      2.4933      2.2472
     9.5000     69.5515      0.0000    948.0000      2.4810      2.2563
     9.7500     68.6134      0.0000    948.0000      2.4749      2.2745
    10.0000     69.1103      0.0000    948.0000      2.4719      2.2974
    10.2500     71.3518      0.0000    948.0000      2.4706      2.3201
    10.5000     74.2424      0.0000    948.0000      2.4744      2.3398
    10.7500     76.1557      0.0000    947.9604      2.4887      2.3580
    11.0000     76.4413      0.0000    947.7023      2.5170      2.3784
    11.2500     75.7585      0.0000    946.3911      2.5611      2.4037
    11.5000     74.9637      0.0000    941.2053      2.6256      2.4309
    11.7500     74.0551      0.0000    925.2303      2.7286      2.4537
    12.0000     72.4194      0.0000    886.9039      2.9073      2.4666
    12.2500     69.7669      0.0000    815.2877      3.2015      2.4704
    12.5000     66.4669      0.0000    711.0595      3.6121      2.4704
    12.7500     63.2050      0.0000    592.9063      4.0732      2.4727
    13.0000     60.7751      0.0000    488.5653      4.4820      2.4789
    13.2500     59.9606      0.0000    416.7448      4.7645      2.4849
    13.5000     60.9261      0.0000    378.1315      4.9111      2.4831
    13.7500     62.6759      0.0000    361.7807      4.9574      2.4682
    14.0000     63.7351      0.0000    356.1454      4.9468      2.4406
    14.2500     63.5604      0.0000    354.3653      4.9139      2.4054
    14.5000     62.8980      0.0000    353.6851      4.8837      2.3687
    14.7500     62.7624      0.0000    353.3185      4.8740      2.3362
    15.0000     63.5150      0.0000    353.1025      4.8944      2.3140
    15.2500     64.8283      0.0000    352.9711      4.9445      2.3071
    15.5000     65.9722      0.0000    352.8576      5.0136      2.3163
    15.7500     66.0807      0.0000    352.6934      5.0829      2.3359
    16.0000     64.6478      0.0000    352.4609      5.1339      2.3542
    16.2500     62.0506      0.0000    352.2122      5.1605      2.3599
    16.5000     59.4856      0.0000    352.0378      5.1715      2.3490
    16.7500     58.2602      0.0000    352.0119      5.1820      2.3276
    17.0000     59.0654      0.0000    352.1583      5.2032      2.3094
    17.2500     61.6684      0.0000    352.4643      5.2380      2.3075
    17.5000     65.0717      0.0000    352.9789      5.2844      2.3280
    17.7500     68.0747      0.0000    353.9979      5.3375      2.3667
    18.0000     69.8358      0.0000    356.5376      5.3860      2.4134
    18.2500     69.9677      0.0000    363.2462      5.4116      2.4569
    18.5000     68.3994      0.0000    379.4591      5.4015      2.4887
    18.7500     65.5355      0.0000    412.8584      5.3636      2.5030
    19.0000     62.4416      0.0000    469.2112      5.3269      2.4968
    19.2500     60.4068      0.0000    544.5699      5.3220      2.4740
    19.5000     60.0003      0.0000    620.4957      5.3612      2.4485
    19.7500     60.6240      0.0000    670.1437      5.4352      2.4370
    20.0000     61.2544      0.0000    673.6976      5.5239      2.4486
    20.2500     61.6498      0.0000    631.4339      5.6092      2.4786
    20.5000     62.4708      0.0000    563.6528      5.6810      2.5133
    20.7500     64.0244      0.0000    497.2916      5.7381      2.5395
    21.0000     65.4041      0.0000    450.0751      5.7873      2.5529
    21.2500     65.4886      0.0000    424.5665      5.8393      2.5582
    21.5000     64.5747      0.0000    413.7185      5.8980      2.5630
    21.7500     64.3125      0.0000    409.1860      5.9530      2.5702
    22.0000     65.8821      0.0000    405.3822      5.9845      2.5760
    22.2500     68.6999      0.0000    399.6209      5.9781      2.5718
    22.5000     71.1563      0.0000    391.4651      5.9383      2.5499
    22.7500     72.4050      0.0000    382.2189      5.8880      2.5101
    23.0000     73.1658      0.0000    373.9094      5.8548      2.4638
    23.2500     74.7410      0.0000    367.9571      5.8545      2.4291
    23.5000     77.3836      0.0000    364.5888      5.8850      2.4204
    23.7500     79.7708      0.0000    363.4180      5.9323      2.4411
    24.0000     80.1491      0.0000    364.5801      5.9814      2.4814
    24.2500     78.0387      0.0000    369.8211      6.0225      2.5246
    24.5000     74.6534      0.0000    383.2493      6.0516      2.5563
    24.7500     71.5506      0.0000    410.8246      6.0676      2.5737
    25.0000     69.1864      0.0000    457.0511      6.0708      2.5858
    25.2500     66.9784      0.0000    519.5093      6.0629      2.6055
    25.5000     64.3954      0.0000    586.1819      6.0478      2.6397
    25.7500     61.7068      0.0000    640.5373      6.0332      2.6814
    26.0000     59.7759      0.0000    671.0187      6.0306      2.7093
    26.2500     59.2189      0.0000    676.0572      6.0494      2.7004
    26.5000     59.8196      0.0000    662.1702      6.0891      2.6493
    26.7500     60.8889      0.0000    639.7539      6.1386      2.5768
    27.0000     62.0534      0.0000    619.0540      6.1823      2.5127
    27.2500     63.4733      0.0000    606.6679      6.2087      2.4733
    27.5000     65.3664      0.0000    605.1752      6.2121      2.4558
    27.7500     67.4535      0.0000    615.2563      6.1910      2.4485
    28.0000     68.8640      0.0000    635.3564      6.1452      2.4421
    28.2500     68.6371      0.0000    660.1104      6.0760      2.4322
    28.5000     66.4677      0.0000    682.9365      5.9887      2.4202
    28.7500     63.0257      0.0000    700.4459      5.8927      2.4122
    29.0000     59.4746      0.0000    712.7723      5.7983      2.4161
    29.2500     56.6650      0.0000    721.1109      5.7134      2.4346
    29.5000     54.8463      0.0000    726.4623      5.6444      2.4606
    29.7500     53.9815      0.0000    728.9044      5.5964      2.4827
    30.0000     53.9603      0.0000    726.5192      5.5719      2.4929
    30.2500     54.4243      0.0000    716.9501      5.5704      2.4899
    30.5000     54.7328      0.0000    701.2268      5.5921      2.4750
    30.7500     54.4981      0.0000    684.3522      5.6386      2.4508
    31.0000     54.0879      0.0000    671.3357      5.7104      2.4232
    31.2500     54.2886      0.0000    663.7792      5.8047      2.4009
    31.5000     55.4219      0.0000    660.3888      5.9168      2.3896
    31.7500     57.0208      0.0000    659.3367      6.0432      2.3888
    32.0000     58.3768      0.0000    659.5814      6.1821      2.3957
    32.2500     59.1273      0.0000    660.9021      6.3283      2.4092
    32.5000     59.3105      0.0000    663.5319      6.4677      2.4303
    32.7500     59.1695      0.0000    667.8120      6.5828      2.4578
