~Version Information
VERS.                      2.0: CWLS Log ASCII Standard - VERSION 2.0
WRAP.                       NO: One line per depth step
~Well Information Block
STRT.FT               745.0000: 
STOP.FT              2945.7000: 
STEP.FT                 0.1000: 
NULL.                -999.2500: 
COMP.          Pioneer Natural Resources: COMPANY
WELL.          Old Yeller 31-32: WELL
FLD.           Purgatoire River: FIELD
LOC.           1832' FEL & 793' FNL--: LOCATION
STAT.                 Colorado: State
CNTY.               Las Animas: COUNTY
CTRY. USA : Country
SECT. 32 : Section
TOWN. 32S : Township
RANG. 67W : Range
SRVC.                Patterson: SERVICE COMPANY
DATE.          Mon Aug 29 11:12:35 2005: LOG DATE
API.           05 071 08356 00: UNIQUE WELL ID
~Curve Information Block
DEPT.FT            0 000 00 00: Depth
DCAL.in                       : CDL Caliper
RHOB.g/cc                     : CDL Bulk Density
RHOC.g/cc                     : CDL Density Correction
DPOR.pu                       : CDL Density Porosity
NPOR.pu                       : Neutron Porosity
GR.GAPI                       : Gamma Ray
~Parameter Information Block
~A  Depth       DCAL        RHOB        RHOC        DPOR        NPOR         GR     
# ...
  2338.6000      8.1335      2.3212      0.0416     19.9249     29.8953    132.8575
  2338.7000      8.1335      2.2979      0.0803     21.3375     29.4362    135.2331
  2338.8000      8.1549      2.2894      0.0771     21.8573     29.2761    139.5728
  2338.9000      8.1549      2.3021      0.0797     21.0850     29.5822    142.2998
  2339.0000      8.1429      2.3348      0.0987     19.1030     29.8241    143.0256
  2339.1000      8.1429      2.3756      0.1313     16.6333     29.5243    141.2779
  2339.2000      8.1429      2.4134      0.1174     14.3407     28.8642    137.7878
  2339.3000      8.0751      2.4492      0.1251     12.1687     28.0199    136.3376
  2339.4000      8.0751      2.4876      0.1431      9.8413     26.9328    139.3197
  2339.5000      8.0237      2.5239      0.1855      7.6412     26.0063    142.4640
  2339.6000      8.0237      2.5504      0.1143      6.0337     25.9982    139.8013
  2339.7000      8.0237      2.5676      0.0895      4.9932     26.5850    133.4613
  2339.8000      8.0118      2.5750      0.0969      4.5461     26.6628    128.8116
  2339.9000      8.0118      2.5739      0.0412      4.6145     26.3420    128.8992
  2340.0000      8.0130      2.5755      0.0389      4.5141     26.5774    130.8464
  2340.1000      8.0130      2.5862      0.0146      3.8682     27.0651    128.4877
  2340.2000      8.0130      2.5970      0.0050      3.2126     26.8388    125.3133
  2340.3000      8.0138      2.6020     -0.0046      2.9067     26.2028    129.8169
  2340.4000      8.0138      2.6103      0.0160      2.4086     26.0275    137.8796
  2340.5000      8.0141      2.6211      0.0722      1.7527     26.1386    141.1310
  2340.6000      8.0141      2.6222      0.0413      1.6874     26.1594    139.1338
  2340.7000      8.0141      2.6074      0.0464      2.5823     26.3099    136.0694
  2340.8000      8.0144      2.5856     -0.0283      3.9008     26.6930    136.3342
  2340.9000      8.0144      2.5794     -0.0076      4.2790     27.0643    137.6992
  2341.0000      8.0133      2.5945      0.0244      3.3611     27.1011    133.4405
  2341.1000      8.0133      2.6118      0.0818      2.3158     26.6301    125.0465
  2341.2000      8.0133      2.6207      0.0022      1.7772     26.0017    119.5244
  2341.3000      8.0127      2.6264      0.0484      1.4297     25.8695    120.8947
  2341.4000      8.0127      2.6270      0.0317      1.3961     26.0251    126.7837
  2341.5000      8.0120      2.6239      0.0291      1.5806     25.7269    128.8070
  2341.6000      8.0120      2.6207      0.0483      1.7766     24.9324    126.0744
  2341.7000      8.0120      2.6133      0.0407      2.2271     24.1471    125.1925
  2341.8000      8.0110      2.6082      0.0138      2.5353     24.0603    125.9868
  2341.9000      8.0110      2.6127      0.0605      2.2631     24.9371    125.5584
  2342.0000      8.0119      2.6215      0.0242      1.7282     25.8227    123.8649
  2342.1000      8.0119      2.6294      0.0368      1.2473     25.6181    122.5851
  2342.2000      8.0119      2.6294      0.0311      1.2505     24.6316    125.8059
  2342.3000      8.0129      2.6121      0.0376      2.2970     23.8762    131.5322
  2342.4000      8.0129      2.5864     -0.0222      3.8568     23.8596    134.0686
  2342.5000      8.0132      2.5788     -0.0144      4.3169     24.4526    136.7448
  2342.6000      8.0132      2.5896      0.0222      3.6605     25.0599    142.2131
  2342.7000      8.0132      2.5932      0.0358      3.4448     25.3650    146.5198
  2342.8000      8.0116      2.5907     -0.0032      3.5910     25.4837    147.9995
  2342.9000      8.0116      2.5980      0.0508      3.1508     25.4119    146.3809
  2343.0000      8.0083      2.6096      0.0409      2.4493     25.1179    140.1538
  2343.1000      8.0083      2.6161      0.0849      2.0542     25.0125    130.8730
  2343.2000      8.0083      2.6216      0.0361      1.7199     25.3172    126.5024
  2343.3000      8.0071      2.6328      0.0803      1.0441     25.4494    132.3217
  2343.4000      8.0071      2.6432      0.0938      0.4138     25.0452    140.6562
  2343.5000      8.0085      2.6461      0.0995      0.2382     24.4481    142.6802
  2343.6000      8.0085      2.6472      0.1022      0.1702     23.8953    139.6864
  2343.7000      8.0085      2.6518      0.1230     -0.1089     23.5620    132.8775
  2343.8000      8.0101      2.6467      0.1154      0.1985     23.6309    125.7377
  2343.9000      8.0101      2.6195      0.0632      1.8463     23.8860    124.8018
  2344.0000      8.0104      2.5891     -0.0146      3.6894     24.1069    126.8131
  2344.1000      8.0104      2.5781     -0.0021      4.3564     24.2578    126.4491
  2344.2000      8.0104      2.5721      0.0298      4.7201     24.1033    124.5383
  2344.3000      8.0102      2.5527     -0.0242      5.8999     23.6273    122.7566
  2344.4000      8.0102      2.5449     -0.0340      6.3722     23.1643    123.5279
  2344.5000      8.0098      2.5717      0.0206      4.7437     23.0138    126.6326
  2344.6000      8.0098      2.6079      0.0384      2.5526     23.3703    129.2995
  2344.7000      8.0098      2.6249      0.0117      1.5229     23.7700    130.4905
  2344.8000      8.0104      2.6185      0.0746      1.9085     23.6237    127.3923
  2344.9000      8.0104      2.5918      0.0066      3.5273     23.0673    120.5206
  2345.0000      8.0089      2.5645     -0.0174      5.1848     22.4943    117.7172
  2345.1000      8.0089      2.5604     -0.0096      5.4299     21.8844    121.8165
  2345.2000      8.0089      2.5781      0.0101      4.3597     21.1516    124.5567
  2345.3000      8.0059      2.5975      0.0392      3.1797     20.6286    119.4927
  2345.4000      8.0059      2.6102      0.0627      2.4135     20.5279    108.8986
  2345.5000      8.0046      2.6200      0.0621      1.8204     20.5772     97.2418
  2345.6000      8.0046      2.6191      0.0709      1.8743     20.5180     90.2807
  2345.7000      8.0046      2.5973      0.0665      3.1963     20.2402     90.2456
  2345.8000      8.0058      2.5739      0.0007      4.6136     19.8566     89.9738
  2345.9000      8.0058      2.5758      0.0117      4.4981     19.5893     84.4489
  2346.0000      8.0072      2.5977      0.0821      3.1695     19.2679     79.0978
  2346.1000      8.0072      2.6188      0.0427      1.8934     18.7896     77.6438
  2346.2000      8.0072      2.6279      0.0570      1.3407     18.4802     77.8007
  2346.3000      8.0074      2.6245      0.0694      1.5471     18.3486     77.2576
  2346.4000      8.0074      2.6192      0.0436      1.8676     18.0341     76.2463
  2346.5000      8.0096      2.6173      0.0813      1.9842     17.7405     76.1557
  2346.6000      8.0096      2.6143      0.0291      2.1634     17.9388     75.9014
  2346.7000      8.0096      2.6184      0.0512      1.9157     18.2889     72.9085
  2346.8000      8.0131      2.6385      0.0278      0.6981     18.0071     70.2497
  2346.9000      8.0131      2.6647      0.0537     -0.8912     17.2602     72.2019
  2347.0000      8.0148      2.6790      0.0453     -1.7596     17.1435     74.2485
  2347.1000      8.0148      2.6693      0.0733     -1.1705     17.9853     72.3763
  2347.2000      8.0148      2.6407      0.0533      0.5630     18.9142     69.9698
  2347.3000      8.0147      2.6189     -0.0243      1.8871     19.4161     68.7002
  2347.4000      8.0147      2.6168      0.0572      2.0150     19.9929     69.1409
  2347.5000      8.0130      2.6190      0.0747      1.8787     20.9897     73.8959
  2347.6000      8.0130      2.6187      0.0557      1.8958     21.9842     82.9478
  2347.7000      8.0130      2.6210      0.0474      1.7549     22.6656     92.0931
  2347.8000      8.0108      2.6188      0.0443      1.8901     23.0629     97.4520
  2347.9000      8.0108      2.5984      0.0755      3.1280     23.1576     97.6881
  2348.0000      8.0100      2.5616      0.0314      5.3591     22.9922     92.9759
  2348.1000      8.0100      2.5358      0.0135      6.9188     22.9170     89.0601
