~Version Information
VERS.                      2.0: CWLS Log ASCII Standard - VERSION 2.0
WRAP.                       NO: One line per depth step
~Well Information Block
STRT.FT               720.0000: 
STOP.FT              2730.2000: 
STEP.FT                 0.1000: 
NULL.                -999.2500: 
COMP.          Evergreen Operating Corporation: COMPANY
WELL.            Rangely 22-28: WELL
FLD.           Purgatoire River: FIELD
LOC.           1741' FNL & 2335' FWL: LOCATION
PROV.                 Colorado: PROVINCE
CNTY.               Las Animas: COUNTRY
SRVC.                Patterson: SERVICE COMPANY
DATE.          Thu Sep 16 15:10:36 2004: LOG DATE
UWI.           05 071 08044 00: UNIQUE WELL ID
~Curve Information Block
DEPT.FT            0 000 00 00: Depth
DCAL.in                       : CDL Caliper
DPOR.pu                       : CDL Density Porosity
NPOR.pu                       : Neutron Porosity
RHOB.g/cc                     : CDL Bulk Density
RHOC.g/cc                     : CDL Density Correction
GR.GAPI                       : Gamma Ray
~Parameter Information Block
~A  Depth       DCAL        DPOR        NPOR        RHOB        RHOC         GR     
# ...
  2601.6000      8.0136      5.5511     19.1988      2.5584      0.0519    115.2245
  2601.7000      8.0136      5.1338     19.8204      2.5653      0.0376     93.3713
  2601.8000      8.0173      5.5955     20.0805      2.5577      0.0596     88.6091
  2601.9000      8.0173      7.2869     19.6248      2.5298      0.0298    106.5194
  2602.0000      8.0159      9.2269     18.9135      2.4978     -0.0088    125.6488
  2602.1000      8.0159     10.0895     18.4448      2.4835      0.0064    128.8315
  2602.2000      8.0159      9.4606     18.3396      2.4939      0.0193    119.3598
  2602.3000      8.0115      7.4812     18.6055      2.5266      0.0241    109.8952
  2602.4000      8.0115      4.9669     18.9413      2.5680      0.1103    107.5030
  2602.5000      8.0079      3.2771     19.1794      2.5959      0.1087    112.5870
  2602.6000      8.0079      2.8105     19.6330      2.6036      0.0864    118.4163
  2602.7000      8.0079      3.1988     20.1966      2.5972      0.0726    120.0909
  2602.8000      8.0073      4.4078     20.6680      2.5773      0.1093    121.5352
  2602.9000      8.0073      6.3685     21.2042      2.5449      0.0254    126.3635
  2603.0000      8.0042      8.3071     21.6079      2.5129      0.0243    130.7329
  2603.1000      8.0042      9.6941     21.6131      2.4900      0.0107    120.9039
  2603.2000      8.0042     10.1482     21.7786      2.4826     -0.0353     98.0369
  2603.3000      7.9996      9.0383     22.6800      2.5009     -0.0331     88.4302
  2603.4000      7.9996      6.9961     23.9185      2.5346      0.0325     99.5856
  2603.5000      7.9968      5.8648     24.5982      2.5532      0.0604    112.4366
  2603.6000      7.9968      6.3508     24.3126      2.5452      0.0618    117.0081
  2603.7000      7.9968      7.2914     23.4600      2.5297      0.0205    116.4001
  2603.8000      7.9921      7.1999     22.5490      2.5312      0.0486    116.8192
  2603.9000      7.9921      6.1374     22.0712      2.5487      0.0864    123.1343
  2604.0000      7.9867      5.2665     22.2247      2.5631      0.0902    129.2815
  2604.1000      7.9867      5.0250     22.5065      2.5671      0.0868    126.6521
  2604.2000      7.9867      5.0713     22.5013      2.5663      0.0670    120.8918
  2604.3000      7.9850      5.3279     22.3035      2.5621      0.0865    120.1155
  2604.4000      7.9850      5.9532     22.1650      2.5518      0.0634    123.0899
  2604.5000      7.9861      6.7332     22.1720      2.5389      0.0725    126.4245
  2604.6000      7.9861      7.3651     22.1468      2.5285      0.0753    125.7823
  2604.7000      7.9861      7.5736     21.7583      2.5250      0.0472    122.3959
  2604.8000      7.9878      7.3617     20.9379      2.5285      0.0647    119.9529
  2604.9000      7.9878      7.1921     20.1994      2.5313      0.0563    118.4195
  2605.0000      7.9908      7.4056     19.9565      2.5278      0.0472    119.1548
  2605.1000      7.9908      7.6115     20.0580      2.5244      0.0198    115.7234
  2605.2000      7.9908      7.2148     20.0466      2.5310      0.0502    102.7865
  2605.3000      7.9968      6.3588     19.6056      2.5451      0.0467     93.6298
  2605.4000      7.9968      5.7395     18.9288      2.5553      0.0417     98.8542
  2605.5000      8.0029      5.7373     18.6494      2.5553      0.0316    112.0942
  2605.6000      8.0029      6.2009     18.8821      2.5477      0.0493    121.0880
  2605.7000      8.0029      6.9381     19.1368      2.5355      0.0289    117.7715
  2605.8000      8.0031      7.7779     19.3659      2.5217      0.0344    104.1172
  2605.9000      8.0031      8.7409     19.6788      2.5058      0.0522     87.1665
  2606.0000      8.0006      9.6997     19.8374      2.4900     -0.0073     75.4785
  2606.1000      8.0006      9.9936     20.0666      2.4851      0.0156     77.0150
  2606.2000      8.0006      9.8307     20.9329      2.4878      0.0478     89.3167
  2606.3000      8.0009      9.8487     22.4072      2.4875      0.0156    103.6338
  2606.4000      8.0009      9.9169     23.7361      2.4864      0.0369    114.8667
  2606.5000      8.0002     10.0120     24.2104      2.4848      0.0635    120.4669
  2606.6000      8.0002     10.1328     23.9971      2.4828      0.0291    117.6925
  2606.7000      8.0002      9.9725     23.6733      2.4855      0.0465    110.6348
  2606.8000      7.9950      9.5478     23.4984      2.4925      0.0406    113.2601
  2606.9000      7.9950      9.2003     23.2496      2.4982      0.0757    129.4039
  2607.0000      7.9909      9.2251     22.7399      2.4978      0.0459    140.7240
  2607.1000      7.9909      9.1967     22.1536      2.4983      0.0371    134.0778
  2607.2000      7.9909      8.4517     21.4575      2.5105      0.0603    123.9673
  2607.3000      7.9900      7.1281     20.5950      2.5324      0.0486    123.7703
  2607.4000      7.9900      5.5354     20.2019      2.5587      0.0303    122.9275
  2607.5000      7.9887      4.0911     20.5917      2.5825      0.0776    112.1743
  2607.6000      7.9887      3.7929     21.0011      2.5874      0.0708     98.7732
  2607.7000      7.9887      4.8852     20.5933      2.5694      0.0486     94.3463
  2607.8000      7.9871      6.1353     19.8545      2.5488     -0.0128     96.8228
  2607.9000      7.9871      6.2461     19.9366      2.5469      0.0229     96.7907
  2608.0000      7.9868      5.4711     20.8829      2.5597      0.0457     97.8764
  2608.1000      7.9868      4.9188     21.7437      2.5688      0.0469    107.3517
  2608.2000      7.9868      4.9240     21.8766      2.5688      0.0395    122.1428
  2608.3000      7.9871      5.1273     21.4308      2.5654      0.0547    135.8206
  2608.4000      7.9871      5.5332     20.9991      2.5587      0.0789    147.7985
  2608.5000      7.9880      6.5631     20.7484      2.5417      0.0595    154.5611
  2608.6000      7.9880      8.1144     20.4266      2.5161      0.0231    149.7998
  2608.7000      7.9880      9.2730     20.1664      2.4970      0.0400    139.1204
  2608.8000      7.9895      9.4180     20.0125      2.4946      0.0646    128.4195
  2608.9000      7.9895      8.6277     19.9030      2.5076      0.0463    120.3968
  2609.0000      7.9905      7.3017     20.1852      2.5295      0.0752    112.5656
  2609.1000      7.9905      6.4605     20.9274      2.5434      0.1022    101.3523
  2609.2000      7.9905      6.8952     21.8224      2.5362      0.0816     89.2715
  2609.3000      7.9889      8.1665     22.6439      2.5153      0.0364     80.4190
  2609.4000      7.9889      9.3437     22.8576      2.4958      0.0181     79.3941
  2609.5000      7.9818      9.7397     22.3182      2.4893     -0.0070     89.2822
  2609.6000      7.9818      8.9537     21.5447      2.5023      0.0332    105.8062
  2609.7000      7.9818      7.5688     20.9610      2.5251      0.0693    116.9389
  2609.8000      7.9731      7.0672     20.9042      2.5334      0.0729    115.3165
  2609.9000      7.9731      8.1046     21.5063      2.5163      0.0381    103.2743
  2610.0000      7.9671      9.4833     22.4421      2.4935      0.0406     90.8963
  2610.1000      7.9671      9.9772     22.7527      2.4854      0.0551     92.8281
  2610.2000      7.9671      9.3031     22.1255      2.4965      0.0380    110.8834
  2610.3000      7.9626      6.7292     21.4241      2.5390      0.0304    123.3030
  2610.4000      7.9626      1.8489     20.7520      2.6195      0.1273    109.8696
  2610.5000      7.9611     -3.9088     19.8450      2.7145      0.1410     79.1228
  2610.6000      7.9611     -8.7592     19.1862      2.7945      0.2173     57.6545
  2610.7000      7.9611    -11.9622     18.8468      2.8474      0.1984     58.1884
  2610.8000      7.9670    -13.8114     18.7711      2.8779      0.1975     72.0502
  2610.9000      7.9670    -15.1637     19.2590      2.9002      0.1026     85.3633
  2611.0000      7.9882    -16.0499     20.0954      2.9148      0.1133     87.8287
  2611.1000      7.9882    -15.2802     20.4227      2.9021      0.0440     80.9794
