~Version Information
VERS.                      2.0: CWLS Log ASCII Standard - VERSION 2.0
WRAP.                       NO: One line per depth step
~Well Information Block
STRT.FT                30.0000: 
STOP.FT              2789.0000: 
STEP.FT                 0.1000: 
NULL.                -999.2500: 
COMP.          Pioneer Natural Resources: COMPANY
WELL.          Rabbit Bush Federal 44-19: WELL
FLD.           Purgatorie River: FIELD
LOC.           826' FSL & 1127' FEL: LOCATION
CNTY.               Las Animas: COUNTY
SRVC.                Patterson: SERVICE COMPANY
DATE.          Mon Aug 28 10:56:57 2006: LOG DATE
UWI.           05-071-08149-00: UNIQUE WELL ID
STAT.                 Colorado: STATE
~Curve Information Block
DEPT.FT            0 000 00 00: Depth
DCAL.in                       : CDL Caliper
RHOB.g/cc                     : CDL Bulk Density
RHOC.g/cc                     : CDL Density Correction
DPOR.pu                       : CDL Density Porosity
GR.GAPI                       : Gamma Ray
NPOR.pu                       : Neutron Porosity
~Parameter Information Block
~A  Depth       DCAL        RHOB        RHOC        DPOR         GR         NPOR    
# ...
   759.6000      8.0844      2.6626      0.2450     -0.7629    137.8676     26.8100
   759.7000      8.0844      2.6756      0.2680     -1.5504    134.6759     27.0440
   759.8000      8.0857      2.6646      0.2952     -0.8866    132.9898     27.1679
   759.9000      8.0857      2.6455      0.1840      0.2700    134.0400     27.5533
   760.0000      8.0834      2.6266      0.1808      1.4164    136.0534     28.2266
   760.1000      8.0834      2.5993      0.1602      3.0742    136.9888     28.7780
   760.2000      8.0834      2.5715      0.0299      4.7566    137.1417     28.9454
   760.3000      8.0822      2.5588      0.1003      5.5280    137.6734     28.7659
   760.4000      8.0822      2.5553      0.0445      5.7371    138.0553     28.4235
   760.5000      8.0771      2.5590      0.0686      5.5122    138.6853     28.2101
   760.6000      8.0771      2.5643      0.0892      5.1912    137.9608     28.0261
   760.7000      8.0771      2.5526      0.1214      5.9011    133.4971     27.7863
   760.8000      8.0664      2.5273      0.0339      7.4336    128.8351     27.7335
   760.9000      8.0664      2.5125      0.1243      8.3354    127.8023     27.7715
   761.0000      8.0604      2.5170      0.0511      8.0577    129.6947     27.5277
   761.1000      8.0604      2.5433      0.0588      6.4639    134.0473     27.0029
   761.2000      8.0604      2.5877      0.0727      3.7731    139.8353     26.3659
   761.3000      8.0592      2.6245      0.2173      1.5472    143.7828     25.6164
   761.4000      8.0592      2.6307      0.1928      1.1674    143.7848     24.9464
   761.5000      8.0590      2.6178      0.1306      1.9502    141.4928     24.6093
   761.6000      8.0590      2.6037      0.1734      2.8065    139.7253     24.4412
   761.7000      8.0590      2.5902      0.1554      3.6251    136.7963     24.1686
   761.8000      8.0599      2.5838      0.1400      4.0101    129.8794     23.7921
   761.9000      8.0599      2.5906      0.1345      3.6010    121.8923     23.4343
   762.0000      8.0594      2.5946      0.1455      3.3557    118.4781     23.0980
   762.1000      8.0594      2.5720      0.1844      4.7278    120.8310     22.8053
   762.2000      8.0594      2.5275      0.1005      7.4247    126.1373     22.7985
   762.3000      8.0568      2.4947      0.0663      9.4138    129.4347     23.2032
   762.4000      8.0568      2.4952      0.0349      9.3800    128.8846     23.5898
   762.5000      8.0525      2.5172      0.1438      8.0473    129.0945     23.4506
   762.6000      8.0525      2.5341      0.1395      7.0241    132.1001     22.9692
   762.7000      8.0525      2.5460      0.0781      6.3059    133.7818     22.6338
   762.8000      8.0461      2.5703      0.1334      4.8295    131.1804     22.4996
   762.9000      8.0461      2.6038      0.1369      2.8002    126.1438     22.3347
   763.0000      8.0366      2.6291      0.1723      1.2674    122.3253     22.1690
   763.1000      8.0366      2.6354      0.1775      0.8841    121.0265     22.1767
   763.2000      8.0366      2.6251      0.1901      1.5113    120.9341     22.4040
   763.3000      8.0311      2.6128      0.1192      2.2565    122.1998     22.8197
   763.4000      8.0311      2.6103      0.1091      2.4058    125.6889     23.2427
   763.5000      8.0330      2.6075      0.1093      2.5787    129.5665     23.4782
   763.6000      8.0330      2.5901      0.1039      3.6307    130.5853     23.6955
   763.7000      8.0330      2.5648      0.0654      5.1648    129.4661     24.1468
   763.8000      8.0370      2.5431      0.0313      6.4797    129.9909     24.6074
   763.9000      8.0370      2.5290      0.0367      7.3325    133.1172     24.7271
   764.0000      8.0363      2.5262      0.0233      7.5060    134.7880     24.6188
   764.1000      8.0363      2.5331      0.0446      7.0859    131.5253     24.6925
   764.2000      8.0363      2.5404      0.0623      6.6434    125.8669     24.9088
   764.3000      8.0286      2.5534      0.0181      5.8526    121.2489     25.2497
   764.4000      8.0286      2.5835      0.0553      4.0317    119.5242     26.1887
   764.5000      8.0211      2.6096      0.1163      2.4462    121.9701     27.7251
   764.6000      8.0211      2.6029      0.0953      2.8542    126.9848     28.8279
   764.7000      8.0211      2.5701      0.0626      4.8407    132.2039     28.8441
   764.8000      8.0128      2.5415      0.0705      6.5752    137.4323     28.8206
   764.9000      8.0128      2.5385      0.0476      6.7580    139.7070     29.6130
   765.0000      7.9947      2.5583      0.0844      5.5571    134.9875     30.6322
   765.1000      7.9947      2.5844      0.1087      3.9735    125.7656     31.1812
   765.2000      7.9947      2.6118      0.0908      2.3180    116.9175     31.2692
   765.3000      7.9773      2.6454      0.0835      0.2768    111.7956     31.1094
   765.4000      7.9773      2.6818      0.1522     -1.9258    112.4009     30.8841
   765.5000      7.9664      2.7073      0.1769     -3.4748    116.5065     30.7564
   765.6000      7.9664      2.7081      0.2114     -3.5241    118.4799     30.6521
   765.7000      7.9664      2.6814      0.1355     -1.9004    116.5041     30.2495
   765.8000      7.9596      2.6525      0.0259     -0.1538    114.9922     29.5311
   765.9000      7.9596      2.6488      0.0400      0.0753    115.4028     28.7636
   766.0000      7.9564      2.6574      0.0607     -0.4472    114.6879     27.9965
   766.1000      7.9564      2.6521      0.0435     -0.1302    112.4834     27.2819
   766.2000      7.9564      2.6249      0.0626      1.5218    111.5314     26.5718
   766.3000      7.9584      2.5862      0.0173      3.8687    112.6014     25.7848
   766.4000      7.9584      2.5639     -0.0441      5.2154    113.5502     25.0669
   766.5000      7.9700      2.5666      0.0266      5.0533    113.5997     24.6078
   766.6000      7.9700      2.5700      0.0124      4.8469    115.2354     24.4976
   766.7000      7.9700      2.5641     -0.0037      5.2072    119.7205     24.5911
   766.8000      7.9914      2.5598      0.0190      5.4695    124.8535     24.5540
   766.9000      7.9914      2.5650      0.0181      5.1492    129.1551     24.3914
   767.0000      8.0099      2.5804      0.0368      4.2167    132.6508     24.5161
   767.1000      8.0099      2.6042      0.0393      2.7783    134.7349     24.9273
   767.2000      8.0099      2.6268      0.0713      1.4075    134.8267     25.2777
   767.3000      8.0212      2.6301      0.0856      1.2045    133.5031     25.3972
   767.4000      8.0212      2.6097      0.0625      2.4435    131.5370     25.2866
   767.5000      8.0301      2.5776      0.0761      4.3892    128.7103     25.1599
   767.6000      8.0301      2.5530      0.0086      5.8775    126.7888     25.2858
   767.7000      8.0301      2.5466      0.0527      6.2676    128.3961     25.6379
   767.8000      8.0327      2.5499      0.0140      6.0677    130.5873     26.0538
   767.9000      8.0327      2.5624      0.0330      5.3119    129.9734     26.4047
   768.0000      8.0294      2.5940     -0.0277      3.3956    127.9667     26.7049
   768.1000      8.0294      2.6283      0.0906      1.3124    125.1063     26.9284
   768.2000      8.0294      2.6369      0.0446      0.7918    122.3686     26.9190
   768.3000      8.0252      2.6209      0.0808      1.7607    123.6019     26.7127
   768.4000      8.0252      2.6005      0.0082      3.0002    126.9110     26.2385
   768.5000      8.0230      2.5932      0.0485      3.4422    125.3150     25.5758
   768.6000      8.0230      2.5971      0.0785      3.2039    118.1053     25.1282
   768.7000      8.0230      2.5989      0.0241      3.0982    110.3598     24.9637
   768.8000      8.0213      2.5943      0.0195      3.3760    106.1410     24.7780
   768.9000      8.0213      2.5881      0.0471      3.7506    106.2835     24.5064
   769.0000      8.0121      2.5845      0.0200      3.9703    108.3859     24.4497
   769.1000      8.0121      2.5809      0.0437      4.1905    109.1072     24.6161
