~Version Information
VERS.                      2.0: CWLS Log ASCII Standard - VERSION 2.0
WRAP.                       NO: One line per depth step
~Well Information Block
STRT.FT                 0.0000: 
STOP.FT              2006.5000: 
STEP.FT                 0.2500: 
NULL.                -999.2500: 
COMP.          Petrogulf Corporation: COMPANY
WELL.           Lavedure 7-44R: WELL
FLD.           Purgatorie River: FIELD
LOC.           946' FSL & 521' FEL: LOCATION
STAT.                 Colorado: State
CNTY.               Las Animas: COUNTY
CTRY. USA : Country
SECT. 7 : Section
TOWN. 33S : Township
RANG. 67W : Range
SRVC.                Patterson: SERVICE COMPANY
DATE.          Thu Nov 10 15:49:38 2005: LOG DATE
API. 05-071-08090       : UNIQUE WELL ID
~Curve Information Block
DEPT.FT            0 000 00 00: Depth
CCL.                          : Casing Collar Locator
TT3.usec                      : CBL 3' Travel Time
AMP3.mV                       : CBL 3' Amplitude
GR.GAPI                       : Gamma Ray
~Parameter Information Block
~A  Depth       CCL         TT3         AMP3         GR     
# ...
   804.0000      0.0000    494.5916      5.2365     75.8902
   804.2500      0.0000    505.2349      5.4798     72.2025
   804.5000      0.0000    517.6503      5.7805     68.0821
   804.7500      0.0000    530.6723      6.0329     64.1893
   805.0000      0.0000    543.6180      6.1674     61.4471
   805.2500      0.0000    555.0537      6.1984     60.4324
   805.5000      0.0000    555.7853      6.1898     60.8698
   805.7500      0.0000    537.7617      6.1925     61.8304
   806.0000      0.0000    516.6759      6.1655     62.4342
   806.2500      0.0000    523.6694      6.0057     62.3553
   806.5000      0.0000    567.4526      5.8123     61.9284
   806.7500      0.0000    625.0253      5.8862     61.9894
   807.0000      0.0000    667.3066      6.1930     63.3217
   807.2500      0.0000    682.9120      6.3633     65.8101
   807.5000      0.0000    682.9876      6.3176     68.0740
   807.7500      0.0000    682.3719      6.2101     68.2834
   808.0000      0.0000    681.9252      6.0630     65.6823
   808.2500     -2.0000    680.0122      5.8430     61.3785
   808.5000      0.0000    685.7883      5.5568     57.4592
   808.7500      0.0000    705.0541      5.2403     55.3294
   809.0000      0.0000    724.8819      5.0020     55.0378
   809.2500      0.0000    723.1215      5.0481     56.0407
   809.5000      0.0000    697.5964      5.5017     58.1227
   809.7500      0.0000    674.0566      6.1176     61.3475
   810.0000      0.0000    671.1459      6.5039     65.3901
   810.2500      0.0000    679.6228      6.5702     69.2397
   810.5000      0.0000    683.8797      6.4133     71.6485
   810.7500      0.0000    679.8370      6.1247     72.0259
   811.0000      0.0000    670.7531      5.8352     71.1969
   811.2500      0.0000    659.1760      5.6682     71.1402
   811.5000      0.0000    646.5805      5.6656     73.4662
   811.7500      0.0000    636.5202      5.7748     77.9190
   812.0000      0.0000    631.0130      5.8837     82.5222
   812.2500      0.0000    624.5997      5.9058     85.2033
   812.5000      0.0000    612.1160      5.8262     85.1939
   812.7500      0.0000    602.0353      5.6511     83.1534
   813.0000      0.0000    605.4955      5.3837     80.4817
   813.2500      0.0000    615.3333      5.0839     78.6557
   813.5000      0.0000    614.6917      4.8402     78.6432
   813.7500      0.0000    598.3636      4.6613     80.2948
   814.0000      0.0000    577.3128      4.5230     82.2989
   814.2500      0.0000    570.0948      4.4655     83.1559
   814.5000      0.0000    585.4872      4.5285     82.3083
   814.7500      0.0000    612.0443      4.6967     80.1806
   815.0000      0.0000    633.3606      4.9490     77.3366
   815.2500      0.0000    645.2194      5.2557     74.0305
   815.5000      0.0000    651.6010      5.5617     70.6676
   815.7500      0.0000    654.9238      5.8171     68.2820
   816.0000      0.0000    655.1081      5.9982     68.1230
   816.2500      0.0000    652.2984      6.1048     70.6226
   816.5000      0.0000    645.5963      6.1545     74.8061
   816.7500      0.0000    629.7892      6.1766     78.7807
   817.0000      0.0000    601.8107      6.1818     80.8673
   817.2500      0.0000    571.2217      6.1583     80.3619
   817.5000      0.0000    549.1686      6.1039     77.5101
   817.7500      0.0000    532.2428      6.0372     73.2041
   818.0000      0.0000    509.1803      5.9844     68.7188
   818.2500      0.0000    477.2820      5.9532     65.2311
   818.5000      0.0000    449.7815      5.9262     63.2355
   818.7500      0.0000    442.1638      5.8704     62.4126
   819.0000      0.0000    454.5584      5.7663     62.0885
   819.2500      0.0000    473.0924      5.6469     61.8151
   819.5000      0.0000    483.2180      5.5668     61.6080
   819.7500      0.0000    477.5139      5.5400     61.7166
   820.0000      0.0000    458.5399      5.5284     62.2129
   820.2500      0.0000    440.3137      5.4821     62.7962
   820.5000      0.0000    435.9441      5.4094     62.9526
   820.7500      0.0000    446.4538      5.3718     62.2594
   821.0000      0.0000    468.6752      5.4048     60.5921
   821.2500      0.0000    501.7442      5.4936     58.1389
   821.5000      0.0000    539.3270      5.6022     55.2050
   821.7500      0.0000    568.6871      5.6900     52.0513
   822.0000      0.0000    583.0009      5.7302     49.0075
   822.2500      0.0000    583.3257      5.7421     46.5821
   822.5000      0.0000    569.0788      5.7556     45.2991
   822.7500      0.0000    538.7739      5.7619     45.5090
   823.0000      0.0000    500.5372      5.7357     47.3216
   823.2500      0.0000    469.7169      5.6604     50.4389
   823.5000      0.0000    453.3667      5.5602     54.0267
   823.7500      0.0000    446.8607      5.4967     57.0794
   824.0000      0.0000    445.2118      5.4933     59.1614
   824.2500      0.0000    451.7856      5.5041     60.7477
   824.5000      0.0000    472.3420      5.4770     62.6697
   824.7500      0.0000    498.4276      5.4056     65.1524
   825.0000      0.0000    513.9189      5.3191     67.4931
   825.2500      0.0000    522.1091      5.2698     68.7396
   825.5000      0.0000    533.3615      5.3060     68.5786
   825.7500      0.0000    533.5740      5.4311     67.5566
   826.0000      0.0000    502.7427      5.6142     66.5617
   826.2500      0.0000    450.2408      5.8317     66.1393
   826.5000      0.0000    404.8123      6.0704     66.2565
   826.7500      0.0000    381.1694      6.3126     66.5955
   827.0000      0.0000    373.4952      6.5367     66.9448
   827.2500      0.0000    371.2922      6.7145     67.3175
   827.5000      0.0000    368.6071      6.8320     67.8316
   827.7500      0.0000    364.6375      6.9164     68.5200
   828.0000      0.0000    362.5458      7.0081     69.2258
   828.2500      0.0000    364.7385      7.1086     69.7924
   828.5000      0.0000    369.0863      7.1846     70.3566
   828.7500      0.0000    372.4885      7.1980     71.0829
   829.0000      0.0000    375.3907      7.1360     71.4999
   829.2500      0.0000    382.6986      7.0437     70.6611
   829.5000      0.0000    403.5643      6.9789     68.2847
   829.7500      0.0000    445.0193      6.9370     65.3916
   830.0000      0.0000    499.4374      6.8809     63.5710
   830.2500      0.0000    546.5948      6.8052     63.7240
   830.5000      0.0000    573.8998      6.7224     65.5058
   830.7500      0.0000    585.0842      6.6454     67.7859
   831.0000      0.0000    589.9833      6.5938     69.6234
   831.2500      0.0000    596.1481      6.5905     70.9083
   831.5000      0.0000    607.9476      6.6449     72.1298
   831.7500      0.0000    624.7803      6.7384     73.4915
   832.0000      0.0000    639.3945      6.8255     74.1977
   832.2500      0.0000    644.5386      6.8657     72.8258
   832.5000      0.0000    642.3363      6.8688     68.7879
   832.7500      0.0000    640.9500      6.8820     63.2657
   833.0000      0.0000    643.8069      6.9234     58.2572
   833.2500      0.0000    648.5446      6.9587     54.9124
   833.5000      0.0000    650.1559      6.9572     53.2055
   833.7500      0.0000    640.4897      6.9394     52.8059
   834.0000      0.0000    614.8716      6.9452     53.5646
   834.2500      0.0000    579.3844      6.9749     55.2119
   834.5000      0.0000    542.8893      6.9937     57.0643
   834.7500      0.0000    507.2773      6.9965     58.2586
   835.0000      0.0000    467.2129      7.0168     58.2269
   835.2500      0.0000    419.9586      7.0668     56.9654
   835.5000      0.0000    377.2284      7.1291     55.0957
   835.7500      0.0000    352.1355      7.1912     53.7823
   836.0000      0.0000    342.8591      7.2424     54.2136
   836.2500      0.0000    340.5773      7.2616     56.6496
   836.5000      0.0000    340.0797      7.2151     59.8616
   836.7500      0.0000    339.9366      7.0739     61.8710
   837.0000      0.0000    339.9248      6.8780     61.5987
   837.2500      0.0000    339.9119      6.7598     59.7535
