~Version Information
 VERS.                                  2.0 : CWLS LAS VERSION
 WRAP.                                   NO : WRAPING MODE
 SWARE .                 MController 2.5.0J : SOFTWARE VERSION
~Well Information
 WELL.                         Schedler9-23R: WELL
 COMP.                             Petrogulf: COMPANY
 FLD.                      Purgatoire River : FIELD
 LOC.                 NE/SW Sec.9 T33s R67w : LOCATION
 DATE.                              10/31/04: DATE(S) LOGGED
 SRVC.                    Blanco Geological : SERVICE COMPANY
 STAT.                                   CO : STATE
 CNTY.                           Las Animas : COUNTY
 CTRY.                                  USA: COUNTRY
 API.                           05-071-08040: API NUMBER
 STRT.FT                             713.00 : START DEPTH
 STOP.FT                            2080.00 : STOP DEPTH
 STEP.FT                               1.00 : DEPTH INCREMENT
 NULL.                                -9999 : NULL VALUE
~Curve information
 DEPTH.FT                                   :
 ROP.MIN/FT                                 :
 GAS.UNITS                                  :
~ASCII Log data
# ...
      1913.0         0.23         40.0 
      1914.0         0.23         37.6 
      1915.0         0.27         33.7 
      1916.0         0.33         28.6 
      1917.0         0.37         25.4 
      1918.0         0.45         22.2 
      1919.0         0.33         20.8 
      1920.0         0.27         18.3 
      1921.0         0.33         18.3 
      1922.0         0.40         17.5 
      1923.0         0.40         18.9 
      1924.0         0.40         19.0 
      1925.0         0.37         18.1 
      1926.0         0.55         18.8 
      1927.0         0.27         18.8 
      1928.0         0.27         19.4 
      1929.0         0.37         18.7 
      1930.0         0.33         18.5 
      1931.0         0.27         18.1 
      1932.0         0.30         18.5 
      1933.0         0.27         18.4 
      1934.0         0.30         17.8 
      1935.0         0.27         17.5 
      1936.0         0.27         18.2 
      1937.0         0.33         18.9 
      1938.0         0.35         17.7 
      1939.0         0.33         20.9 
      1940.0         0.30         14.8 
      1941.0         0.33         13.1 
      1942.0         0.33         13.2 
      1943.0         0.30         17.0 
      1944.0         0.30         20.7 
      1945.0         0.37         26.2 
      1946.0         0.27         31.1 
      1947.0         0.33         39.1 
      1948.0         0.47         39.8 
      1949.0         0.40         37.6 
      1950.0         0.40         36.8 
      1951.0         0.33         31.3 
      1952.0         0.27         27.4 
      1953.0         0.27         27.6 
      1954.0         0.25         23.5 
      1955.0         0.20         22.2 
      1956.0         0.20         21.6 
      1957.0         0.27         21.4 
      1958.0         0.30         21.5 
      1959.0         0.33         19.7 
      1960.0         0.30         20.1 
      1961.0         0.23         19.8 
      1962.0         0.23         19.2 
      1963.0         0.23         19.7 
      1964.0         0.20         18.3 
      1965.0         0.23         18.7 
      1966.0         0.27         18.7 
      1967.0         0.25         19.0 
      1968.0         0.23         20.9 
      1969.0         0.27         14.9 
      1970.0         0.30         19.0 
      1971.0         0.27         20.9 
      1972.0         0.27         25.0 
      1973.0         0.27         31.0 
      1974.0         0.23         34.3 
      1975.0         0.23         34.3 
      1976.0         0.30         36.3 
      1977.0         0.10         35.6 
      1978.0         0.37         35.7 
      1979.0         0.33         32.2 
      1980.0         0.33         30.8 
      1981.0         0.23         28.0 
      1982.0         0.22         28.2 
      1983.0         0.27         26.7 
      1984.0         0.30         25.7 
      1985.0         0.27         23.9 
      1986.0         0.33         20.1 
      1987.0         0.27         19.4 
      1988.0         0.33         20.3 
      1989.0         0.27         21.0 
      1990.0         0.33         21.0 
      1991.0         0.27         19.6 
      1992.0         0.30         19.7 
      1993.0         0.27         19.0 
      1994.0         0.28         19.0 
      1995.0         0.33         19.3 
      1996.0         0.33         19.5 
      1997.0         0.30         18.7 
      1998.0         0.33         18.5 
      1999.0         0.33         19.6 
      2000.0         0.30         12.1 
      2001.0         0.33         11.7 
      2002.0         0.33         12.1 
      2003.0         0.33         15.1 
      2004.0         0.35         24.6 
      2005.0         0.33         26.0 
      2006.0         0.37         31.7 
      2007.0         0.33         34.4 
      2008.0         0.47         36.9 
      2009.0         0.50         36.6 
      2010.0         0.37         32.8 
      2011.0         0.37         32.8 
      2012.0         0.47         28.8 
      2013.0         0.57         21.8 
      2014.0         0.62         18.6 
      2015.0         0.53         19.3 
      2016.0         0.37         17.8 
      2017.0         0.47         17.5 
      2018.0         0.40         18.4 
      2019.0         0.40         18.7 
      2020.0         0.40         18.0 
      2021.0         0.38         17.3 
      2022.0         0.40         17.6 
      2023.0         0.43         18.9 
      2024.0         0.37         18.9 
      2025.0         0.30         19.7 
      2026.0         0.30         18.7 
      2027.0         0.27         22.4 
      2028.0         0.27         13.2 
      2029.0         0.27         14.0 
      2030.0         0.23         16.4 
      2031.0         0.27         20.0 
      2032.0         0.25         24.4 
      2033.0         0.27         31.6 
      2034.0         0.27         35.9 
      2035.0         0.23         39.6 
      2036.0         0.30         44.2 
      2037.0         0.33         44.5 
      2038.0         0.37         44.8 
      2039.0         0.37         40.8 
      2040.0         0.37         35.4 
      2041.0         0.40         29.6 
      2042.0         0.37         23.9 
      2043.0         0.43         21.1 
      2044.0         0.33         20.2 
      2045.0         0.38         21.5 
      2046.0         0.37         21.8 
      2047.0         0.43         21.0 
      2048.0         0.43         21.5 
      2049.0         0.40         24.0 
      2050.0         0.40         24.7 
      2051.0         0.43         24.5 
      2052.0         0.47         25.2 
      2053.0         0.48         23.3 
      2054.0         0.50         21.4 
      2055.0         0.50         20.9 
      2056.0         0.47         20.6 
      2057.0         0.53         19.1 
      2058.0         0.50         18.9 
      2059.0         0.52         18.1 
      2060.0         0.50         17.4 
      2061.0         0.47         20.2 
      2062.0         0.43         19.0 
      2063.0         0.47         17.2 
      2064.0         0.50         14.8 
      2065.0         0.30         13.7 
      2066.0         0.57         19.6 
      2067.0         0.97         33.2 
      2068.0         0.47         38.2 
      2069.0         0.30         40.5 
      2070.0         0.33         42.2 
      2071.0         0.27         42.0 
      2072.0         0.27         54.7 
      2073.0         0.25         48.6 
      2074.0         0.17         37.0 
      2075.0         0.23         27.1 
      2076.0         0.20         21.6 
      2077.0         0.27         18.7 
      2078.0         0.23         17.7 
      2079.0         0.27         16.8 
      2080.0         0.33         16.1 
