~Version Information
VERS.                      2.0: CWLS Log ASCII Standard - VERSION 2.0
WRAP.                       NO: One line per depth step
~Well Information Block
STRT.FT               -11.7500: 
STOP.FT              2025.5000: 
STEP.FT                 0.2500: 
NULL.                -999.2500: 
COMP.          Evergreen Operating Corp.: COMPANY
WELL.            Sumatra 34-22: WELL
FLD.           Purgatorie River: FIELD
LOC.           542 FSL & 2438 FEL--: LOCATION
PROV.                       CO: PROVINCE
CNTY.               Las Animas: COUNTRY
SRVC.          Patterson Wireline, Inc.: SERVICE COMPANY
DATE.          Wed Apr 02 10:17:21 2003: LOG DATE
UWI.           05 071 07804 00: UNIQUE WELL ID
~Curve Information Block
DEPT.FT            0 000 00 00: Depth
CCL.                          : Casing Collar Locator
TT3.usec                      : CBL 3' Travel Time
AMP3.mV                       : CBL 3' Amplitude
GR.GAPI                       : Gamma Ray
~Parameter Information Block
~A  Depth       CCL         TT3         AMP3         GR     
# ...
  1328.2500      0.0000    783.0784      2.6935    167.0567
  1328.5000      0.0000    782.7558      2.6394    168.8067
  1328.7500      0.0000    777.6208      2.6877    168.9859
  1329.0000      0.0000    763.4525      2.7634    168.4081
  1329.2500      0.0000    748.0748      2.7666    167.0296
  1329.5000      0.0000    747.9587      2.6990    164.3081
  1329.7500      0.0000    764.4326      2.6580    159.6365
  1330.0000      0.0000    780.3721      2.7113    152.8962
  1330.2500      0.0000    782.8412      2.8089    144.8104
  1330.5000      0.0000    771.5256      2.8624    136.4374
  1330.7500      0.0000    751.9210      2.8506    128.3479
  1331.0000      0.0000    735.3299      2.8005    120.7168
  1331.2500      0.0000    734.5229      2.7478    114.1734
  1331.5000      0.0000    748.9984      2.7396    109.9706
  1331.7500      0.0000    765.5090      2.7935    109.0670
  1332.0000      0.0000    774.9156      2.8704    111.2608
  1332.2500      0.0000    778.1022      2.9366    115.1426
  1332.5000      0.0000    778.9649      2.9889    118.6022
  1332.7500      0.0000    779.6873      3.0121    119.6349
  1333.0000      0.0000    781.0624      2.9818    117.3494
  1333.2500      0.0000    783.6767      2.9160    112.5019
  1333.5000      0.0000    787.6196      2.8672    106.9048
  1333.7500      0.0000    791.5974      2.8534    102.2595
  1334.0000      0.0000    794.0761      2.8496     99.5787
  1334.2500      0.0000    794.7908      2.8415     99.1332
  1334.5000      0.0000    793.9341      2.8549    100.2190
  1334.7500      0.0000    790.8913      2.8974    101.2471
  1335.0000      0.0000    784.1189      2.9080    100.9731
  1335.2500      0.0000    772.0164      2.8426    100.0142
  1335.5000      0.0000    756.1748      2.7643    100.8694
  1335.7500      0.0000    745.2016      2.7542    106.0904
  1336.0000      0.0000    748.2050      2.7984    116.2224
  1336.2500      0.0000    762.7597      2.8438    129.2926
  1336.5000      0.0000    777.7623      2.8625    142.1855
  1336.7500      0.0000    785.6885      2.8446    152.7464
  1337.0000      0.0000    787.0130      2.8049    160.9896
  1337.2500      0.0000    786.6296      2.7726    168.6278
  1337.5000      0.0000    787.8056      2.7564    177.3833
  1337.7500      0.0000    789.5782      2.7346    187.3503
  1338.0000      0.0000    790.4892      2.7010    196.7653
  1338.2500      0.0000    791.4448      2.6808    203.4081
  1338.5000      0.0000    793.0031      2.6732    206.2555
  1338.7500      0.0000    793.9149      2.6737    205.6070
  1339.0000      0.0000    793.1681      2.7159    201.8468
  1339.2500      0.0000    791.0634      2.8028    195.1680
  1339.5000      0.0000    787.5767      2.8754    186.9417
  1339.7500      0.0000    780.3811      2.9075    180.1925
  1340.0000      0.0000    769.9095      2.9469    177.5465
  1340.2500      0.0000    763.7765      3.0154    178.7381
  1340.5000      0.0000    764.7997      3.0464    180.4924
  1340.7500      0.0000    761.9415      2.9587    179.0307
  1341.0000      0.0000    745.5148      2.7546    173.2889
  1341.2500      0.0000    723.2982      2.5565    166.1668
  1341.5000      0.0000    714.9559      2.4955    162.4093
  1341.7500      0.0000    733.8467      2.5480    164.7987
  1342.0000      0.0000    774.9897      2.6174    171.9772
  1342.2500      0.0000    820.0513      2.6911    179.4641
  1342.5000      0.0000    853.3573      2.7403    182.9095
  1342.7500      0.0000    869.8008      2.6947    181.1916
  1343.0000     -5.0000    871.3021      2.5964    176.7603
  1343.2500     -5.0000    863.6883      2.5343    172.9888
  1343.5000      0.0000    852.8506      2.4903    171.4419
  1343.7500      0.0000    839.4968      2.4365    171.8587
  1344.0000      0.0000    823.0651      2.4705    173.8486
  1344.2500      0.0000    809.8520      2.6834    177.3969
  1344.5000      0.0000    807.2115      2.9425    181.7433
  1344.7500      0.0000    811.4396      3.0077    184.9798
  1345.0000      0.0000    813.1860      2.8478    185.5470
  1345.2500      0.0000    810.0047      2.6406    183.5750
  1345.5000      0.0000    803.5098      2.5216    180.2345
  1345.7500      0.0000    791.9956      2.4688    176.3659
  1346.0000      0.0000    775.3476      2.4193    172.3354
  1346.2500      0.0000    762.4864      2.3908    168.6409
  1346.5000      0.0000    762.5624      2.4285    165.8678
  1346.7500      0.0000    772.3013      2.5209    164.1489
  1347.0000      0.0000    783.3213      2.6255    163.1064
  1347.2500      0.0000    792.6925      2.6895    162.4742
  1347.5000      0.0000    799.8126      2.6661    162.5056
  1347.7500      0.0000    803.7703      2.5725    163.3812
  1348.0000      0.0000    804.6406      2.4736    164.1963
  1348.2500      0.0000    801.7507      2.4362    163.1918
  1348.5000      0.0000    792.7208      2.4891    159.4251
  1348.7500      0.0000    778.8257      2.5687    153.9907
  1349.0000      0.0000    769.0038      2.5953    149.3598
  1349.2500      0.0000    770.1491      2.5854    147.5799
  1349.5000      0.0000    777.0611      2.6005    148.9470
  1349.7500      0.0000    779.5021      2.6445    152.0246
  1350.0000      0.0000    775.1223      2.6827    154.8520
  1350.2500      0.0000    773.0540      2.7091    156.3682
  1350.5000      0.0000    781.1895      2.7331    156.9783
  1350.7500      0.0000    794.1810      2.7415    157.9479
  1351.0000      0.0000    802.9724      2.7118    160.2353
  1351.2500      0.0000    806.1431      2.6441    163.6321
  1351.5000      0.0000    806.7244      2.5751    166.8036
  1351.7500      0.0000    806.7715      2.5383    168.5237
  1352.0000      0.0000    806.7598      2.5155    169.1134
  1352.2500      0.0000    806.6721      2.4759    170.2307
  1352.5000      0.0000    806.5935      2.4285    173.1232
  1352.7500      0.0000    806.6521      2.4001    177.5792
  1353.0000      0.0000    806.8040      2.3983    182.4144
  1353.2500      0.0000    806.9053      2.4079    186.2745
  1353.5000      0.0000    806.9058      2.4107    188.1266
  1353.7500      0.0000    806.8651      2.4284    187.8114
  1354.0000      0.0000    806.8669      2.5056    186.2827
  1354.2500      0.0000    806.9211      2.6308    184.7903
  1354.5000      0.0000    806.9782      2.7491    183.7124
  1354.7500      0.0000    807.0294      2.8165    182.5803
  1355.0000      0.0000    807.1085      2.8176    181.2244
  1355.2500      0.0000    807.2117      2.7617    180.3676
  1355.5000      0.0000    807.2369      2.6628    180.7223
  1355.7500      0.0000    806.9303      2.5667    181.6108
  1356.0000      0.0000    805.3555      2.5169    180.7940
  1356.2500      0.0000    799.8636      2.4712    175.9911
  1356.5000      0.0000    787.3522      2.3906    166.8449
  1356.7500      0.0000    770.4301      2.3182    155.5594
  1357.0000      0.0000    759.7195      2.2987    145.3836
  1357.2500      0.0000    762.0037      2.3424    138.2383
  1357.5000      0.0000    771.1010      2.4236    133.8012
  1357.7500      0.0000    777.9619      2.4930    130.8305
  1358.0000      0.0000    780.6706      2.5372    129.1770
  1358.2500      0.0000    781.2969      2.5529    130.1302
  1358.5000      0.0000    780.9450      2.5246    134.5961
  1358.7500      0.0000    778.8416      2.4928    141.3910
  1359.0000      0.0000    773.4728      2.5161    147.8906
  1359.2500      0.0000    765.9721      2.5752    152.1929
  1359.5000      0.0000    762.2205      2.6300    154.2882
  1359.7500      0.0000    766.8350      2.6848    155.2565
  1360.0000      0.0000    777.2702      2.7340    155.7056
  1360.2500      0.0000    788.5259      2.7399    155.1358
  1360.5000      0.0000    797.9303      2.6894    152.6718
  1360.7500      0.0000    804.1995      2.6438    148.1416
  1361.0000      0.0000    807.2803      2.6757    142.5942
  1361.2500      0.0000    808.3741      2.7554    138.1334
  1361.5000      0.0000    808.4810      2.7964    136.9925
