~Version Information
VERS.                      2.0: CWLS Log ASCII Standard - VERSION 2.0
WRAP.                       NO: One line per depth step
~Well Information Block
STRT.FT               898.0000: 
STOP.FT              2360.0000: 
STEP.FT                 0.2500: 
NULL.                -999.2500: 
COMP.          Pioneer Natural Resources: COMPANY
WELL.             Trimax 44-23: WELL
FLD.           Purgatoire River: FIELD
LOC.           527' FSL & 1064' FEL: LOCATION
PROV.                 Colorado: PROVINCE
CNTY.               Las Animas: COUNTRY
SRVC.                Patterson: SERVICE COMPANY
DATE.          Sun Mar 13 04:57:04 2005: LOG DATE
UWI.           05 071 08326 00: UNIQUE WELL ID
~Curve Information Block
DEPT.FT            0 000 00 00: Depth
SN.Ohm-m                      : IEL Short Normal
SP.mV                         : IEL Spontaneous Potential
DIR.Ohm-m                     : IEL Induction Resistivity
GR.GAPI                       : Gamma Ray
~Parameter Information Block
~A  Depth        SN          SP         DIR          GR     
# ...
  1467.5000     25.1265   -111.4665     24.0363     74.4347
  1467.7500     25.5815   -111.5291     24.0269     71.4867
  1468.0000     26.0975   -111.6364     24.0937     67.4536
  1468.2500     26.5613   -111.7470     24.2477     65.6044
  1468.5000     26.8711   -111.8198     24.4515     64.3277
  1468.7500     27.0080   -111.8391     24.6416     64.1149
  1469.0000     27.0131   -111.8219     24.7714     63.8005
  1469.2500     26.9411   -111.8050     24.8435     63.2268
  1469.5000     26.8514   -111.8218     24.9088     61.8414
  1469.7500     26.8095   -111.8814     25.0314     60.8318
  1470.0000     26.8718   -111.9633     25.2473     59.6012
  1470.2500     27.0519   -112.0311     25.5448     59.1019
  1470.5000     27.2956   -112.0507     25.8719     59.0673
  1470.7500     27.5086   -112.0025     26.1694     59.6441
  1471.0000     27.6431   -111.8830     26.4031     61.1244
  1471.2500     27.7356   -111.7027     26.5756     61.9293
  1471.5000     27.8338   -111.4822     26.7113     61.7488
  1471.7500     27.9483   -111.2485     26.8354     60.5277
  1472.0000     28.0832   -111.0254     26.9637     57.6845
  1472.2500     28.2387   -110.8255     27.1076     55.5464
  1472.5000     28.3943   -110.6490     27.2803     52.1038
  1472.7500     28.5309   -110.4923     27.4975     49.5506
  1473.0000     28.6493   -110.3537     27.7675     45.6005
  1473.2500     28.7640   -110.2310     28.0779     43.3832
  1473.5000     28.8887   -110.1193     28.3875     41.5612
  1473.7500     29.0313   -110.0124     28.6337     41.5156
  1474.0000     29.2016   -109.9056     28.7545     42.7244
  1474.2500     29.4140   -109.7980     28.7181     43.9028
  1474.5000     29.6537   -109.6958     28.5384     45.6136
  1474.7500     29.8338   -109.6127     28.2613     46.5570
  1475.0000     29.8498   -109.5657     27.9360     47.5767
  1475.2500     29.7148   -109.5651     27.6000     47.9464
  1475.5000     29.5658   -109.6067     27.2914     47.9419
  1475.7500     29.5030   -109.6717     27.0640     47.5504
  1476.0000     29.4949   -109.7343     26.9741     46.5374
  1476.2500     29.4712   -109.7689     27.0442     45.7578
  1476.5000     29.4199   -109.7564     27.2373     44.7689
  1476.7500     29.3574   -109.6914     27.4659     44.4110
  1477.0000     29.2851   -109.5902     27.6304     44.5643
  1477.2500     29.2107   -109.4942     27.6631     45.1684
  1477.5000     29.1619   -109.4542     27.5521     46.7541
  1477.7500     29.1561   -109.5007     27.3323     48.2323
  1478.0000     29.1766   -109.6243     27.0524     51.1714
  1478.2500     29.1721   -109.7802     26.7431     53.6937
  1478.5000     29.0800   -109.9129     26.4137     58.1082
  1478.7500     28.8809   -109.9797     26.0751     60.9645
  1479.0000     28.6150   -109.9643     25.7595     63.9376
  1479.2500     28.3409   -109.8798     25.5087     64.6910
  1479.5000     28.0718   -109.7635     25.3436     64.4482
  1479.7500     27.7534   -109.6626     25.2492     63.9755
  1480.0000     27.3668   -109.6135     25.1945     63.4641
  1480.2500     27.0205   -109.6242     25.1665     63.2599
  1480.5000     26.8369   -109.6712     25.1870     62.9309
  1480.7500     26.8012   -109.7144     25.2931     62.6705
  1481.0000     26.8203   -109.7210     25.5021     62.3305
  1481.2500     26.8617   -109.6793     25.7936     62.1274
  1481.5000     26.9511   -109.5958     26.1188     61.6701
  1481.7500     27.1096   -109.4831     26.4293     61.1885
  1482.0000     27.3808   -109.3551     26.7006     60.2410
  1482.2500     27.8400   -109.2292     26.9361     59.4849
  1482.5000     28.4830   -109.1272     27.1539     58.1445
  1482.7500     29.1749   -109.0702     27.3684     57.1950
  1483.0000     29.7724   -109.0726     27.5854     56.1017
  1483.2500     30.2576   -109.1389     27.8085     55.8038
  1483.5000     30.7366   -109.2601     28.0436     56.0094
  1483.7500     31.2898   -109.4131     28.2879     56.4854
  1484.0000     31.8456   -109.5676     28.5124     57.6474
  1484.2500     32.2558   -109.6952     28.6659     58.6296
  1484.5000     32.4506   -109.7737     28.7053     59.8426
  1484.7500     32.4678   -109.7911     28.6239     60.0175
  1485.0000     32.3317   -109.7510     28.4452     58.9315
  1485.2500     31.9711   -109.6712     28.1904     57.5424
  1485.5000     31.3125   -109.5731     27.8572     55.5415
  1485.7500     30.3996   -109.4716     27.4309     54.9304
  1486.0000     29.3878   -109.3723     26.9106     55.4997
  1486.2500     28.4414   -109.2717     26.3227     56.5368
  1486.5000     27.6415   -109.1623     25.7059     58.2144
  1486.7500     26.9737   -109.0400     25.0884     59.2314
  1487.0000     26.3553   -108.9105     24.4798     60.9317
  1487.2500     25.6868   -108.7876     23.8840     62.3482
  1487.5000     24.9427   -108.6875     23.3163     64.5920
  1487.7500     24.2067   -108.6244     22.8044     65.7640
  1488.0000     23.6004   -108.6068     22.3771     66.5633
  1488.2500     23.1964   -108.6348     22.0517     66.4989
  1488.5000     22.9745   -108.7003     21.8313     65.9496
  1488.7500     22.8417   -108.7930     21.7069     65.5010
  1489.0000     22.7253   -108.9072     21.6609     64.8157
  1489.2500     22.6439   -109.0421     21.6663     64.4013
  1489.5000     22.6577   -109.1930     21.6874     64.1729
  1489.7500     22.7691   -109.3425     21.6863     64.5214
  1490.0000     22.9109   -109.4625     21.6394     65.8842
  1490.2500     23.0252   -109.5290     21.5544     67.1268
  1490.5000     23.1131   -109.5382     21.4719     68.7881
  1490.7500     23.2009   -109.5064     21.4437     69.3540
  1491.0000     23.2998   -109.4554     21.5012     69.0531
  1491.2500     23.4295   -109.4003     21.6347     68.2164
  1491.5000     23.6191   -109.3503     21.7977     66.7356
  1491.7500     23.8694   -109.3168     21.9308     66.0854
  1492.0000     24.1806   -109.3144     21.9868     66.1325
  1492.2500     24.5544   -109.3476     21.9390     66.9831
  1492.5000     24.9064   -109.4022     21.7719     69.8143
  1492.7500     25.0659   -109.4527     21.4703     73.0354
  1493.0000     24.9165   -109.4808     21.0232     80.2314
  1493.2500     24.4731   -109.4829     20.4372     86.5974
  1493.5000     23.8055   -109.4621     19.7431     98.2205
  1493.7500     22.9752   -109.4193     18.9868    107.1168
  1494.0000     22.0452   -109.3514     18.2127    121.4236
  1494.2500     21.0816   -109.2487     17.4530    130.7888
  1494.5000     20.1367   -109.0965     16.7297    142.8575
  1494.7500     19.2130   -108.8824     16.0612    148.8223
  1495.0000     18.2524   -108.6028     15.4629    154.2943
  1495.2500     17.2045   -108.2622     14.9412    155.9860
  1495.5000     16.1057   -107.8745     14.4879    156.8839
  1495.7500     15.0866   -107.4673     14.0844    157.1689
  1496.0000     14.3126   -107.0766     13.7121    157.7621
  1496.2500     13.9034   -106.7308     13.3631    158.2244
  1496.5000     13.9000   -106.4387     13.0401    158.8825
  1496.7500     14.2786   -106.1932     12.7488    159.2959
  1497.0000     14.9280   -105.9843     12.4902    159.6589
  1497.2500     15.6272   -105.8073     12.2594    159.5040
  1497.5000     16.1416   -105.6617     12.0502    158.5853
  1497.7500     16.3618   -105.5452     11.8601    157.5777
  1498.0000     16.3256   -105.4539     11.6929    155.3143
  1498.2500     16.1644   -105.3863     11.5572    153.0548
  1498.5000     16.0296   -105.3472     11.4647    148.0965
  1498.7500     16.0003   -105.3470     11.4290    143.5932
  1499.0000     16.0454   -105.3986     11.4636    135.5290
  1499.2500     16.0734   -105.5063     11.5774    130.3233
  1499.5000     16.0107   -105.6492     11.7674    125.1267
  1499.7500     15.8557   -105.7769     12.0139    124.0599
  1500.0000     15.6796   -105.8284     12.2842    124.8003
  1500.2500     15.5655   -105.7602     12.5450    125.1843
  1500.5000     15.5451   -105.5641     12.7781    123.0714
  1500.7500     15.6133   -105.2657     12.9870    119.4540
