~Version Information
VERS.                      2.0: CWLS Log ASCII Standard - VERSION 2.0
WRAP.                       NO: One line per depth step
~Well Information Block
STRT.FT                -8.2500: 
STOP.FT              2239.2500: 
STEP.FT                 0.2500: 
NULL.                -999.2500: 
COMP.          Pioneer Natural Resources: COMPANY
WELL.            Moo Moo 31-36: WELL
FLD.           Purgatorie River: FIELD
LOC.           612' FNL & 2326' FEL--: LOCATION
PROV.                       CO: PROVINCE
CNTY.               Las Animas: COUNTRY
SRVC.          Patterson Wireline: SERVICE COMPANY
DATE.          Thu Jun 23 10:04:07 2005: LOG DATE
UWI.           05 071 08395 00: UNIQUE WELL ID
~Curve Information Block
DEPT.FT            0 000 00 00: Depth
CCL.                          : Casing Collar Locator
TT3.usec                      : CBL 3' Travel Time
AMP3.mV                       : CBL 3' Amplitude
GR.GAPI                       : Gamma Ray
~Parameter Information Block
~A  Depth       CCL         TT3         AMP3         GR     
# ...
   728.7500      0.0000    808.4108      5.8476     64.0050
   729.0000      0.0000    808.2634      5.8591     69.8787
   729.2500      0.0000    808.1600      5.8924     73.4420
   729.5000      0.0000    808.1116      5.9260     74.4047
   729.7500      0.0000    808.1282      5.9505     74.3714
   730.0000      0.0000    808.2039      5.9713     75.4057
   730.2500      0.0000    808.3250      5.9976     78.2746
   730.5000      0.0000    808.4797      6.0319     82.0947
   730.7500      0.0000    808.6594      6.0669     85.2604
   731.0000      0.0000    808.8567      6.0902     86.3216
   731.2500      0.0000    809.0693      6.0915     84.3686
   731.5000      0.0000    809.2653      6.0684     79.3299
   731.7500      0.0000    809.2999      6.0247     72.1925
   732.0000      0.0000    808.8442      5.9696     64.8335
   732.2500      0.0000    807.5105      5.9193     59.3251
   732.5000      0.0000    805.2912      5.8909     56.9886
   732.7500      0.0000    802.9619      5.8860     57.8302
   733.0000      0.0000    801.7472      5.8790     60.7993
   733.2500      0.0000    802.2703      5.8321     64.5572
   733.5000      0.0000    803.9556      5.7287     68.0557
   733.7500      0.0000    805.6491      5.5944     70.6565
   734.0000      0.0000    806.6321      5.4802     72.0872
   734.2500      0.0000    806.9102      5.4182     72.4126
   734.5000      0.0000    806.8203      5.3978     71.9757
   734.7500      0.0000    806.6300      5.3900     71.1663
   735.0000      0.0000    806.4041      5.3914     70.0490
   735.2500      0.0000    805.9907      5.4313     68.3430
   735.5000      0.0000    804.9877      5.5322     66.1116
   735.7500      0.0000    802.8171      5.6744     64.2874
   736.0000      0.0000    799.2046      5.8043     63.9623
   736.2500      0.0000    794.9536      5.8731     65.1447
   736.5000      0.0000    792.0878      5.8652     66.7138
   736.7500      0.0000    792.6862      5.7976     67.5811
   737.0000      0.0000    797.4769      5.7034     67.3867
   737.2500      0.0000    805.8505      5.6151     66.1752
   737.5000      0.0000    816.9059      5.5546     64.2221
   737.7500      0.0000    829.6959      5.5242     62.4698
   738.0000      0.0000    842.5937      5.5065     62.4813
   738.2500      0.0000    853.4507      5.4776     65.2680
   738.5000      0.0000    860.8555      5.4311     70.2587
   738.7500      0.0000    864.9197      5.3817     75.8051
   739.0000      0.0000    866.7509      5.3458     80.4298
   739.2500      0.0000    867.4811      5.3278     83.1219
   739.5000      0.0000    867.8085      5.3309     83.0495
   739.7500      0.0000    868.0571      5.3680     80.1192
   740.0000      0.0000    868.3561      5.4550     75.7301
   740.2500      0.0000    868.7419      5.5941     72.0294
   740.5000      0.0000    869.1912      5.7602     70.2639
   740.7500      0.0000    869.6094      5.9030     70.2275
   741.0000      0.0000    869.7944      5.9763     71.0169
   741.2500      0.0000    869.4218      5.9823     71.7528
   741.5000      0.0000    868.0686      5.9856     71.8388
   741.7500      0.0000    865.3944      6.0680     71.2067
   742.0000      0.0000    861.6351      6.2603     70.3823
   742.2500      0.0000    858.0648      6.5193     70.1051
   742.5000      0.0000    856.5026      6.7620     70.9028
   742.7500      0.0000    857.8122      6.9137     73.0305
   743.0000      0.0000    861.0242      6.9298     76.7251
   743.2500      0.0000    864.2468      6.7999     82.5499
   743.5000      0.0000    866.2043      6.5568     91.2966
   743.7500      0.0000    866.7369      6.2795    103.0525
   744.0000      0.0000    866.2549      6.0664    116.3888
   744.2500      0.0000    865.0587      5.9799    128.9001
   744.5000      0.0000    862.9724      6.0044    138.5462
   744.7500      0.0000    859.3540      6.0555    144.2110
   745.0000      0.0000    853.7116      6.0427    145.3264
   745.2500      0.0000    846.7361      5.9410    141.8058
   745.5000      0.0000    840.6100      5.8091    134.7539
   745.7500      0.0000    837.7701      5.7399    126.8227
   746.0000      0.0000    839.2122      5.7893    121.1136
   746.2500      0.0000    844.0917      5.9348    119.3043
   746.5000      0.0000    850.5765      6.0869    120.9844
   746.7500      0.0000    856.8033      6.1519    124.9664
   747.0000      0.0000    861.5251      6.1052    130.6091
   747.2500      0.0000    864.4147      6.0086    137.2052
   747.5000      0.0000    865.8517      5.9493    142.7847
   747.7500      0.0000    866.4114      5.9614    144.9884
   748.0000      0.0000    866.5298      6.0029    143.3211
   748.2500      0.0000    866.4209      6.0010    139.6716
   748.5000      0.0000    865.9917      5.9206    136.5744
   748.7500      0.0000    864.6567      5.8011    135.5527
   749.0000      0.0000    861.3320      5.7318    136.7840
   749.2500      0.0000    854.9913      5.7866    139.3112
   749.5000      0.0000    845.6860      5.9724    141.4087
   749.7500      0.0000    835.0748      6.2276    141.4403
   750.0000      0.0000    825.6240      6.4580    138.9677
   750.2500      0.0000    819.2227      6.5761    135.1239
   750.5000      0.0000    816.7656      6.5360    131.7326
   750.7500      0.0000    818.6178      6.3641    129.8664
   751.0000      0.0000    824.5030      6.1575    128.9762
   751.2500      0.0000    832.8840      6.0234    127.0642
   751.5000      0.0000    841.5106      6.0059    121.7549
   751.7500      0.0000    848.9833      6.0733    111.7982
   752.0000      0.0000    855.1901      6.1600     98.0144
   752.2500      0.0000    860.2956      6.2040     82.8206
   752.5000      0.0000    864.1107      6.1724     68.8411
   752.7500      0.0000    866.4313      6.0952     57.9636
   753.0000      0.0000    867.3435      6.0636     51.1878
   753.2500      0.0000    867.0626      6.1558     48.6624
   753.5000      0.0000    865.6494      6.3573     49.9060
   753.7500      0.0000    862.9363      6.5705     54.4745
   754.0000      0.0000    858.7385      6.7000     62.3639
   754.2500      0.0000    853.2482      6.7193     73.3473
   754.5000      0.0000    847.0562      6.6734     86.2238
   754.7500      0.0000    840.5809      6.6366     99.3065
   755.0000      0.0000    833.7133      6.6484    111.3984
   755.2500      0.0000    826.3308      6.6735    121.7514
   755.5000      0.0000    818.9924      6.6364    129.4846
   755.7500      0.0000    812.7791      6.5092    133.8050
   756.0000      0.0000    808.5145      6.3478    134.7648
   756.2500      0.0000    806.1937      6.2213    133.4186
   756.5000      0.0000    804.7868      6.1317    131.3017
   756.7500      0.0000    802.5969      6.0339    129.7407
   757.0000      0.0000    798.3080      5.9188    129.3086
   757.2500      0.0000    791.7669      5.8294    129.7715
   757.5000      0.0000    783.7017      5.7942    130.6658
   757.7500      0.0000    775.4928      5.7801    131.7889
   758.0000      0.0000    769.7258      5.7311    132.9401
   758.2500      0.0000    769.6458      5.6407    133.3826
   758.5000      0.0000    776.4049      5.5705    132.1133
   758.7500      0.0000    787.3214      5.5878    128.6929
   759.0000      0.0000    798.2249      5.6850    123.2821
   759.2500      0.0000    807.0828      5.7774    115.9366
   759.5000      0.0000    814.1097      5.7931    106.7434
   759.7500      0.0000    819.3164      5.7501     96.8146
   760.0000      0.0000    821.9749      5.7281     88.4857
   760.2500      0.0000    822.1261      5.7712     84.2426
   760.5000      0.0000    820.9586      5.8424     85.4236
   760.7500      0.0000    819.6010      5.8771     91.5064
   761.0000      0.0000    818.2520      5.8528    100.3066
   761.2500      0.0000    816.2437      5.7922    109.0906
   761.5000      0.0000    812.5068      5.7208    115.8693
   761.7500      0.0000    806.4243      5.6496    119.8341
   762.0000      0.0000    798.9417      5.5905    120.9879
