~Version Information
VERS.                      2.0: CWLS Log ASCII Standard - VERSION 2.0
WRAP.                       NO: One line per depth step
~Well Information Block
STRT.FT               390.0000: 
STOP.FT              2768.7000: 
STEP.FT                 0.1000: 
NULL.                -999.2500: 
COMP.          Pioneer Natural Resources: COMPANY
WELL.              Lynch 43-30: WELL
FLD.           Purgatoire River: FIELD
LOC.           1438' FSL & 429' FEL: LOCATION
PROV.                 Colorado: PROVINCE
CNTY.               Las Animas: COUNTRY
SRVC.                Patterson: SERVICE COMPANY
DATE.          Wed Oct 27 08:22:00 2004: LOG DATE
UWI.           05 071 08170 00: UNIQUE WELL ID
~Curve Information Block
DEPT.FT            0 000 00 00: Depth
DCAL.in                       : CDL Caliper
DPOR.pu                       : CDL Density Porosity
NPOR.pu                       : Neutron Porosity
RHOB.g/cc                     : CDL Bulk Density
RHOC.g/cc                     : CDL Density Correction
GR.GAPI                       : Gamma Ray
~Parameter Information Block
~A  Depth       DCAL        DPOR        NPOR        RHOB        RHOC         GR     
# ...
  2118.0000      0.0000      0.0000     37.7446      0.0000      0.0000     68.6183
  2118.1000      0.0000      0.0000     37.7795      0.0000      0.0000     71.8288
  2118.2000      0.0000      0.0000     37.4391      0.0000      0.0000     79.2922
  2118.3000      0.0000      0.0000     36.8853      0.0000      0.0000     88.3708
  2118.4000      0.0000      0.0000     36.6278      0.0000      0.0000     95.2304
  2118.5000      0.0000      0.0000     36.7972      0.0000      0.0000     97.1654
  2118.6000      0.0000      0.0000     37.5189      0.0000      0.0000    100.5922
  2118.7000      0.0000      0.0000     38.2909      0.0000      0.0000    108.1417
  2118.8000      0.0000      0.0000     37.9831      0.0000      0.0000    112.8699
  2118.9000      0.0000      0.0000     36.7417      0.0000      0.0000    106.8367
  2119.0000      0.0000      0.0000     35.8143      0.0000      0.0000     91.9762
  2119.1000      0.0000      0.0000     35.6721      0.0000      0.0000     83.1997
  2119.2000      0.0000      0.0000     35.8850      0.0000      0.0000     83.1268
  2119.3000      0.0000      0.0000     35.8094      0.0000      0.0000     82.9047
  2119.4000      0.0000      0.0000     35.4285      0.0000      0.0000     79.7812
  2119.5000      0.0000      0.0000     35.3450      0.0000      0.0000     74.5480
  2119.6000      0.0000      0.0000     35.8267      0.0000      0.0000     71.9104
  2119.7000      0.0000      0.0000     36.3576      0.0000      0.0000     81.6318
  2119.8000      0.0000      0.0000     36.3799      0.0000      0.0000    100.1941
  2119.9000      0.0000      0.0000     36.1030      0.0000      0.0000    109.8531
  2120.0000      0.0000      0.0000     35.8899      0.0000      0.0000    102.3826
  2120.1000      0.0000      0.0000     35.7884      0.0000      0.0000     82.1025
  2120.2000      0.0000      0.0000     35.8390      0.0000      0.0000     65.7992
  2120.3000      0.0000      0.0000     36.1332      0.0000      0.0000     67.6231
  2120.4000      0.0000      0.0000     36.4754      0.0000      0.0000     78.0657
  2120.5000      0.0000      0.0000     36.5372      0.0000      0.0000     84.3581
  2120.6000      0.0000      0.0000     36.3310      0.0000      0.0000     87.8924
  2120.7000      0.0000      0.0000     36.2887      0.0000      0.0000     91.4802
  2120.8000      0.0000      0.0000     36.5646      0.0000      0.0000     89.9844
  2120.9000      0.0000      0.0000     36.8649      0.0000      0.0000     85.0670
  2121.0000      0.0000      0.0000     37.1599      0.0000      0.0000     82.5908
  2121.1000      0.0000      0.0000     37.3397      0.0000      0.0000     83.1774
  2121.2000      0.0000      0.0000     37.1090      0.0000      0.0000     86.3596
  2121.3000      0.0000      0.0000     36.7412      0.0000      0.0000     87.1709
  2121.4000      0.0000      0.0000     36.7319      0.0000      0.0000     82.7781
  2121.5000      0.0000      0.0000     37.0557      0.0000      0.0000     76.1892
  2121.6000      0.0000      0.0000     37.3185      0.0000      0.0000     72.6294
  2121.7000      0.0000      0.0000     37.3067      0.0000      0.0290     74.6708
  2121.8000      0.0000      0.0000     37.2196      0.0000      0.0496     75.6476
  2121.9000      0.0000      0.0000     37.4174      0.0000      0.0544     72.0942
  2122.0000      0.0000      0.0000     37.8965      0.0000      0.0448     68.6397
  2122.1000      0.0000      0.0000     38.1885      0.0000      0.0325     67.2972
  2122.2000      0.0000     41.1351     38.0266      1.9713      0.0546     65.9500
  2122.3000      2.1168     41.1560     37.4977      1.9709      0.0747     67.0494
  2122.4000      2.1168     41.5632     36.7135      1.9642      0.0307     74.8829
  2122.5000      2.1156     42.0598     36.0180      1.9560      0.0625     84.6241
  2122.6000      2.1156     42.2502     35.7822      1.9529      0.0576     89.9883
  2122.7000      2.1156     42.0754     35.7819      1.9558      0.0350     94.2610
  2122.8000      2.1162     41.8094     35.5507      1.9601      0.0599    102.5065
  2122.9000      2.1162     41.7077     34.8374      1.9618      0.0480    108.7457
  2123.0000      2.1186     41.4038     33.8459      1.9668      0.0200    104.0090
  2123.1000      2.1186     40.3155     33.0300      1.9848      0.0280     92.8275
  2123.2000      2.1186     38.5110     32.3091      2.0146      0.0488     81.8301
  2123.3000      2.1221     36.6953     31.5523      2.0445      0.0784     73.8204
  2123.4000      2.1221     35.3487     30.8581      2.0667      0.0659     68.7398
  2123.5000      2.1219     34.4001     30.3740      2.0824      0.0818     61.8007
  2123.6000      2.1219     33.7983     30.1979      2.0923      0.0776     56.6559
  2123.7000      2.1219     33.7348     30.3533      2.0934      0.0696     59.8183
  2123.8000      2.1200     34.2822     30.8505      2.0843      0.0916     68.6378
  2123.9000      2.1200     35.2328     31.5517      2.0687      0.0935     73.9866
  2124.0000      2.1178     36.0676     32.4307      2.0549      0.0518     71.1805
  2124.1000      2.1178     36.1857     33.6982      2.0529      0.0539     68.9726
  2124.2000      2.1178     35.5845     35.3363      2.0629      0.0580     68.4767
  2124.3000      2.1152     34.7924     36.7481      2.0759      0.0881     62.9820
  2124.4000      2.1152     34.5640     37.4962      2.0797      0.1183     57.1425
  2124.5000      2.1160     35.7394     37.7084      2.0603      0.1090     58.5668
  2124.6000      2.1160     38.6740     37.7177      2.0119      0.0646     66.6585
  2124.7000      2.1160     42.8216     37.8074      1.9434      0.0361     73.8788
  2124.8000      2.1171     46.9392     37.6439      1.8755     -0.0149     73.2607
  2124.9000      2.1171     50.0008     37.0066      1.8250     -0.0062     70.1805
  2125.0000      2.1120     51.6337     36.5526      1.7980     -0.0203     70.4089
  2125.1000      2.1120     51.5643     36.3590      1.7992     -0.0323     67.7940
  2125.2000      2.1120     50.0259     35.7030      1.8246      0.0135     62.0803
  2125.3000      2.1073     47.9817     34.3317      1.8583      0.0376     60.4485
  2125.4000      2.1073     45.9525     32.8987      1.8918      0.0495     63.5798
  2125.5000      2.1086     43.7238     32.0983      1.9286      0.0574     68.1080
  2125.6000      2.1086     41.3108     32.0421      1.9684      0.0882     74.3153
  2125.7000      2.1086     39.1909     32.3248      2.0034      0.0979     82.0324
  2125.8000      2.1099     37.6509     32.4709      2.0288      0.1107     86.0789
  2125.9000      2.1099     36.5678     32.4518      2.0466      0.1221     88.1767
  2126.0000      2.1094     35.7621     32.3654      2.0599      0.1451     92.5069
  2126.1000      2.1094     35.1648     32.1381      2.0698      0.1207     93.4038
  2126.2000      2.1094     34.6263     31.8985      2.0787      0.1195     87.7205
  2126.3000      2.1092     34.2100     31.6354      2.0855      0.1605     79.4558
  2126.4000      2.1092     34.3495     31.2023      2.0832      0.1754     73.1474
  2126.5000      2.1082     34.8825     30.9194      2.0744      0.1360     70.4884
  2126.6000      2.1082     35.2187     31.2528      2.0689      0.1477     70.0541
  2126.7000      2.1082     35.3903     31.9008      2.0661      0.1350     68.6388
  2126.8000      2.1065     35.5635     32.0334      2.0632      0.1466     65.0710
  2126.9000      2.1065     35.5140     31.5377      2.0640      0.1262     63.2296
  2127.0000      2.1063     35.0530     31.1417      2.0716      0.1754     64.9059
  2127.1000      2.1063     34.5286     31.0466      2.0803      0.1675     68.2774
  2127.2000      2.1063     34.1657     30.9656      2.0863      0.1662     71.8258
  2127.3000      2.1076     33.7307     30.9141      2.0934      0.1831     68.3548
  2127.4000      2.1076     33.2300     31.0415      2.1017      0.1916     60.5436
  2127.5000      2.1094     33.0709     31.3410      2.1043      0.1805     62.2869
