~Version Information
VERS.                      2.0: CWLS Log ASCII Standard - VERSION 2.0
WRAP.                       NO: One line per depth step
~Well Information Block
STRT.FT               520.0000: 
STOP.FT              2183.5000: 
STEP.FT                 0.1000: 
NULL.                -999.2500: 
COMP.          Pioneer Natural Resources: COMPANY
WELL.             Enzo 43-8 Tr: WELL
FLD.           Purgatoire River: FIELD
LOC.           2303' FSL & 604' FEL: LOCATION
PROV.                 Colorado: PROVINCE
CNTY.               Las Animas: COUNTRY
SRVC.                Patterson: SERVICE COMPANY
DATE.          Sun Oct 31 15:10:54 2004: LOG DATE
UWI.           05 071 08213 00: UNIQUE WELL ID
~Curve Information Block
DEPT.FT            0 000 00 00: Depth
DCAL.in                       : CDL Caliper
RHOB.g/cc                     : CDL Bulk Density
RHOC.g/cc                     : CDL Density Correction
DPOR.pu                       : CDL Density Porosity
NPOR.pu                       : Neutron Porosity
GR.GAPI                       : Gamma Ray
~Parameter Information Block
~A  Depth       DCAL        RHOB        RHOC        DPOR        NPOR         GR     
# ...
  2152.0000      7.8222      2.5330      0.0682      7.0934     21.4050   -999.2500
  2152.1000      7.8222      2.5399      0.0826      6.6743     21.9881   -999.2500
  2152.2000      7.8222      2.5460      0.0245      6.3032     22.6015   -999.2500
  2152.3000      7.8251      2.5577      0.0890      5.5934     22.9765   -999.2500
  2152.4000      7.8251      2.5686      0.1015      4.9334     23.1550   -999.2500
  2152.5000      7.8448      2.5642      0.0936      5.2019     22.9702   -999.2500
  2152.6000      7.8448      2.5533      0.0252      5.8629     22.4841   -999.2500
  2152.7000      7.8448      2.5575      0.0733      5.6081     22.2752   -999.2500
  2152.8000      7.8545      2.5760      0.0783      4.4850     22.4715   -999.2500
  2152.9000      7.8545      2.5885      0.0899      3.7251     22.7885   -999.2500
  2153.0000      7.8573      2.5791      0.0518      4.2953     23.1353   -999.2500
  2153.1000      7.8573      2.5539      0.0286      5.8250     23.3736   -999.2500
  2153.2000      7.8573      2.5364      0.0085      6.8875     23.3834   -999.2500
  2153.3000      7.8586      2.5392      0.0257      6.7145     23.3300   -999.2500
  2153.4000      7.8586      2.5494      0.0571      6.0970     23.4591   -999.2500
  2153.5000      7.8481      2.5520      0.0074      5.9422     23.5676   -999.2500
  2153.6000      7.8481      2.5507      0.0282      6.0177     23.0166   -999.2500
  2153.7000      7.8481      2.5546      0.0447      5.7827     22.0254   -999.2500
  2153.8000      7.8253      2.5635      0.0696      5.2417     21.5146   -999.2500
  2153.9000      7.8253      2.5685      0.0632      4.9390     21.4816   -999.2500
  2154.0000      7.8028      2.5653      0.0762      5.1321     21.2117   -999.2500
  2154.1000      7.8028      2.5649      0.0320      5.1568     20.6556   -999.2500
  2154.2000      7.8028      2.5749      0.0659      4.5514     20.2760   -999.2500
  2154.3000      7.7969      2.5801      0.0837      4.2362     20.2814   -999.2500
  2154.4000      7.7969      2.5707      0.0770      4.8064     20.6605   -999.2500
  2154.5000      7.8129      2.5612      0.0448      5.3833     21.2398   -999.2500
  2154.6000      7.8129      2.5595      0.0844      5.4839     21.9518   -999.2500
  2154.7000      7.8129      2.5542      0.0727      5.8046     24.4249   -999.2500
  2154.8000      7.8379      2.5433      0.0119      6.4682     31.7182   -999.2500
  2154.9000      7.8379      2.5388      0.0305      6.7400     42.3831   -999.2500
  2155.0000      7.8594      2.5405      0.0411      6.6394     49.7838   -999.2500
  2155.1000      7.8594      2.5320      0.0704      7.1490     52.4129   -999.2500
  2155.2000      7.8594      2.5151     -0.0141      8.1780     52.9254   -999.2500
  2155.3000      7.8721      2.5109      0.0513      8.4277     52.9795   -999.2500
  2155.4000      7.8721      2.5178      0.0501      8.0100     52.9826   -999.2500
  2155.5000      7.8808      2.5190      0.0559      7.9365   -999.2500   -999.2500
  2155.6000      7.8808      2.5113      0.0295      8.4074   -999.2500   -999.2500
  2155.7000      7.8808      2.5018      0.0382      8.9800   -999.2500   -999.2500
  2155.8000      7.8832      2.4956      0.0356      9.3601   -999.2500   -999.2500
  2155.9000      7.8832      2.4935      0.0813      9.4834   -999.2500   -999.2500
  2156.0000      7.8770      2.5035      0.0123      8.8773   -999.2500   -999.2500
  2156.1000      7.8770      2.5242      0.0770      7.6239   -999.2500   -999.2500
  2156.2000      7.8770      2.5293      0.0907      7.3129   -999.2500   -999.2500
  2156.3000      7.8736      2.5091      0.0362      8.5413   -999.2500   -999.2500
  2156.4000      7.8736      2.4829      0.0065     10.1246   -999.2500   -999.2500
  2156.5000      7.8737      2.4653      0.0289     11.1929   -999.2500   -999.2500
  2156.6000      7.8737      2.4602      0.0054     11.5020   -999.2500   -999.2500
  2156.7000      7.8737      2.4670      0.0215     11.0924   -999.2500   -999.2500
  2156.8000      7.8765      2.4740      0.0473     10.6690   -999.2500   -999.2500
  2156.9000      7.8765      2.4708      0.0460     10.8631   -999.2500   -999.2500
  2157.0000      7.8849      2.4605      0.0489     11.4852   -999.2500   -999.2500
  2157.1000      7.8849      2.4462      0.0808     12.3488   -999.2500   -999.2500
  2157.2000      7.8849      2.4262      0.0464     13.5643   -999.2500   -999.2500
  2157.3000      7.8929      2.4027      0.0365     14.9907   -999.2500   -999.2500
  2157.4000      7.8929      2.3789      0.0317     16.4289   -999.2500   -999.2500
  2157.5000      7.8980      2.3591      0.0389     17.6290   -999.2500   -999.2500
  2157.6000      7.8980      2.3524      0.0231     18.0380   -999.2500   -999.2500
  2157.7000      7.8980      2.3640      0.0293     17.3324   -999.2500   -999.2500
  2157.8000      7.9003      2.3844      0.0732     16.0961   -999.2500   -999.2500
  2157.9000      7.9003      2.4020      0.0554     15.0327   -999.2500   -999.2500
  2158.0000      7.8995      2.4118      0.0838     14.4358   -999.2500   -999.2500
  2158.1000      7.8995      2.4092      0.0667     14.5933   -999.2500   -999.2500
  2158.2000      7.8995      2.3991      0.0481     15.2053   -999.2500   -999.2500
  2158.3000      7.8991      2.3937      0.0700     15.5312   -999.2500   -999.2500
  2158.4000      7.8991      2.3941      0.0575     15.5112   -999.2500   -999.2500
  2158.5000      7.9001      2.3988      0.0360     15.2241   -999.2500   -999.2500
  2158.6000      7.9001      2.4115      0.0627     14.4558   -999.2500   -999.2500
  2158.7000      7.9001      2.4249      0.0868     13.6453   -999.2500   -999.2500
  2158.8000      7.9009      2.4268      0.0789     13.5285   -999.2500   -999.2500
  2158.9000      7.9009      2.4195      0.0857     13.9676   -999.2500   -999.2500
  2159.0000      7.9023      2.4134      0.0400     14.3396   -999.2500   -999.2500
  2159.1000      7.9023      2.4119      0.0791     14.4305   -999.2500   -999.2500
  2159.2000      7.9023      2.4074      0.0500     14.7028   -999.2500   -999.2500
  2159.3000      7.9067      2.3979      0.0635     15.2798   -999.2500   -999.2500
  2159.4000      7.9067      2.3971      0.0478     15.3294   -999.2500   -999.2500
  2159.5000      7.9148      2.4109      0.0933     14.4910   -999.2500   -999.2500
  2159.6000      7.9148      2.4192      0.1092     13.9853   -999.2500   -999.2500
  2159.7000      7.9148      2.4068      0.0807     14.7397   -999.2500   -999.2500
  2159.8000      7.9216      2.3909      0.0412     15.7058   -999.2500   -999.2500
  2159.9000      7.9216      2.3882      0.0699     15.8663   -999.2500   -999.2500
  2160.0000      7.9274      2.3899      0.0477     15.7629   -999.2500   -999.2500
  2160.1000      7.9274      2.3890      0.0494     15.8172   -999.2500   -999.2500
  2160.2000      7.9274      2.3870      0.0646     15.9422   -999.2500   -999.2500
  2160.3000      7.9339      2.3846      0.0348     16.0844   -999.2500   -999.2500
  2160.4000      7.9339      2.3846      0.0317     16.0836   -999.2500   -999.2500
  2160.5000      7.9375      2.3859      0.0393     16.0080   -999.2500   -999.2500
  2160.6000      7.9375      2.3900      0.0137     15.7567   -999.2500   -999.2500
  2160.7000      7.9375      2.3990      0.0350     15.2126   -999.2500   -999.2500
  2160.8000      7.9338      2.4016      0.0352     15.0562   -999.2500   -999.2500
  2160.9000      7.9338      2.3898      0.0797     15.7699   -999.2500   -999.2500
  2161.0000      7.9300      2.3743      0.0264     16.7075   -999.2500   -999.2500
  2161.1000      7.9300      2.3690      0.0472     17.0324   -999.2500   -999.2500
  2161.2000      7.9300      2.3708      0.0761     16.9193   -999.2500   -999.2500
  2161.3000      7.9269      2.3735      0.0232     16.7599   -999.2500   -999.2500
  2161.4000      7.9269      2.3810      0.0474     16.3011   -999.2500   -999.2500
  2161.5000      7.9196      2.3971      0.0485     15.3248   -999.2500   -999.2500
