~Version Information
VERS.                      2.0: CWLS Log ASCII Standard - VERSION 2.0
WRAP.                       NO: One line per depth step
~Well Information Block
STRT.FT               675.0000: 
STOP.FT              2371.5000: 
STEP.FT                 0.1000: 
NULL.                -999.2500: 
COMP.          Pioneer Natural Resources: COMPANY
WELL.            Harrier 44-33: WELL
FLD.           Purgatoire River: FIELD
LOC.           456' FSL & 930' FEL: LOCATION
PROV.                 Colorado: PROVINCE
CNTY.               Las Animas: COUNTRY
SRVC.                Patterson: SERVICE COMPANY
DATE.          Mon Jun 20 10:36:59 2005: LOG DATE
UWI.           05 071 08398 00: UNIQUE WELL ID
~Curve Information Block
DEPT.FT            0 000 00 00: Depth
DCAL.in                       : CDL Caliper
RHOB.g/cc                     : CDL Bulk Density
RHOC.g/cc                     : CDL Density Correction
DPOR.pu                       : CDL Density Porosity
GR.GAPI                       : Gamma Ray
NPOR.pu                       : Neutron Porosity
~Parameter Information Block
~A  Depth       DCAL        RHOB        RHOC        DPOR         GR         NPOR    
# ...
  2134.2000      7.9530      2.5462      0.0412      6.2910     65.5466     20.0114
  2134.3000      7.9505      2.5823      0.0714      4.1035     64.1795     20.4810
  2134.4000      7.9505      2.6105      0.0651      2.3935     69.5011     21.1626
  2134.5000      7.9454      2.6214      0.0476      1.7359     77.2502     21.2976
  2134.6000      7.9454      2.6193      0.0799      1.8579     79.5113     21.3565
  2134.7000      7.9454      2.6098      0.0261      2.4380     75.5420     21.4397
  2134.8000      7.9431      2.6012      0.0518      2.9577     72.3689     21.0340
  2134.9000      7.9431      2.5966      0.0690      3.2357     72.5042     20.7897
  2135.0000      7.9367      2.5932      0.0698      3.4452     71.5429     21.0788
  2135.1000      7.9367      2.5928      0.0352      3.4647     69.7025     20.7252
  2135.2000      7.9367      2.5988      0.0745      3.1004     69.7942     19.6582
  2135.3000      7.9285      2.6049      0.1038      2.7312     70.3047     19.2613
  2135.4000      7.9285      2.6019      0.0706      2.9170     71.1650     19.5926
  2135.5000      7.9304      2.5911      0.0760      3.5675     73.5150     20.1319
  2135.6000      7.9304      2.5754      0.0898      4.5205     77.2263     21.0617
  2135.7000      7.9304      2.5502      0.0186      6.0456     83.5563     21.7144
  2135.8000      7.9287      2.5314     -0.0162      7.1897     89.4710     21.1782
  2135.9000      7.9287      2.5425      0.0304      6.5123     86.8686     20.2981
  2136.0000      7.9305      2.5660      0.1374      5.0938     77.3551     20.6860
  2136.1000      7.9305      2.5678      0.0612      4.9809     71.4531     22.2028
  2136.2000      7.9305      2.5521      0.0325      5.9357     72.2702     23.6656
  2136.3000      7.9315      2.5351      0.0342      6.9655     76.3529     24.5702
  2136.4000      7.9315      2.5203      0.0159      7.8611     81.5264     24.5067
  2136.5000      7.9265      2.5167      0.0048      8.0796     85.4627     23.2989
  2136.6000      7.9265      2.5365      0.0305      6.8801     84.9575     22.2524
  2136.7000      7.9265      2.5671      0.0839      5.0264     81.2163     22.3843
  2136.8000      7.9504      2.5806      0.0933      4.2057     80.8916     22.5929
  2136.9000      7.9504      2.5734      0.0300      4.6451     84.4262     21.8648
  2137.0000      7.9642      2.5614      0.0513      5.3673     82.1408     20.9603
  2137.1000      7.9642      2.5563      0.0163      5.6817     72.9653     21.0214
  2137.2000      7.9642      2.5625      0.0086      5.3045     65.2225     21.8417
  2137.3000      7.9611      2.5757      0.0518      4.5043     61.9150     22.4069
  2137.4000      7.9611      2.5872      0.0350      3.8050     59.6993     22.4764
  2137.5000      7.9570      2.5900      0.0914      3.6355     55.2554     22.1282
  2137.6000      7.9570      2.5848      0.0498      3.9513     51.9532     21.3542
  2137.7000      7.9570      2.5858      0.0852      3.8924     53.1002     20.9124
  2137.8000      7.9539      2.5945      0.0814      3.3654     56.1221     21.4152
  2137.9000      7.9539      2.5886      0.0879      3.7200     57.7330     22.2287
  2138.0000      7.9481      2.5529      0.0607      5.8837     57.9496     22.6094
  2138.1000      7.9481      2.5017      0.0263      8.9901     60.4297     23.0313
  2138.2000      7.9481      2.4533      0.0345     11.9212     65.6238     23.5511
  2138.3000      7.9494      2.3952      0.0154     15.4426     70.2014     23.5593
  2138.4000      7.9494      2.2929      0.0326     21.6433     71.3099     23.8240
  2138.5000      7.9584      2.1357     -0.0321     31.1700     66.9676     25.1670
  2138.6000      7.9584      1.9671     -0.0959     41.3905     62.4704     27.1047
  2138.7000      7.9584      1.8381     -0.0650     49.2086     65.5930     28.9630
  2138.8000      7.9639      1.7621     -0.0833     53.8110     73.5410     30.2322
  2138.9000      7.9639      1.7362     -0.1007     55.3820     78.4544     30.6612
  2139.0000      7.9626      1.7665     -0.1238     53.5442     78.4455     31.0931
  2139.1000      7.9626      1.8486      0.0025     48.5669     79.1221     32.0996
  2139.2000      7.9626      1.9421      0.1862     42.9027     85.2419     32.9901
  2139.3000      8.0643      2.0091      0.0822     38.8404     91.5490     33.2629
  2139.4000      8.0643      2.0531      0.0471     36.1729     91.8298     32.9939
  2139.5000      8.0982      2.0932      0.0778     33.7471     91.7549     32.1435
  2139.6000      8.0982      2.1324      0.0611     31.3698     96.8449     30.9089
  2139.7000      8.0982      2.1544      0.1012     30.0380    104.4616     30.2355
  2139.8000      8.1425      2.1434      0.0454     30.7002    111.8511     30.7552
  2139.9000      8.1425      2.1065      0.0968     32.9419    118.3956     31.6591
  2140.0000      8.1364      2.0568      0.1280     35.9496    120.5362     31.6767
  2140.1000      8.1364      1.9969      0.1059     39.5842    117.3133     30.9861
  2140.2000      8.1364      1.9195      0.0792     44.2735    113.3752     31.0173
  2140.3000      8.0258      1.8231      0.0444     50.1145    111.0031     32.1881
  2140.4000      8.0258      1.7255     -0.0208     56.0275    109.1896     33.1731
  2140.5000      8.0322      1.6443     -0.0091     60.9529    105.8028     33.1063
  2140.6000      8.0322      1.5809     -0.0385     64.7932    101.2499     32.9699
  2140.7000      8.0322      1.5353      0.0155     67.5602     97.9644     33.7761
  2140.8000      8.0274      1.5022      0.0181     69.5652     93.1554     34.7935
  2140.9000      8.0274      1.4719      0.0403     71.3990     84.3258     34.9578
  2141.0000      8.1326      1.4427      0.0241     73.1691     76.8008     34.5964
  2141.1000      8.1326      1.4279     -0.0046     74.0667     74.4105     34.4283
  2141.2000      8.1326      1.4376      0.0467     73.4775     73.9563     34.2721
  2141.3000      8.1796      1.4575      0.0576     72.2706     74.2318     33.3679
  2141.4000      8.1796      1.4711      0.0705     71.4468     74.0916     31.4118
  2141.5000      8.1205      1.4848      0.0139     70.6162     70.4746     29.3931
  2141.6000      8.1205      1.5096      0.0397     69.1155     67.2629     29.0044
  2141.7000      8.1205      1.5397      0.0584     67.2929     70.1798     30.7069
  2141.8000      8.0434      1.5646      0.0931     65.7806     77.8566     33.0130
  2141.9000      8.0434      1.5782      0.1260     64.9556     87.0452     34.1039
  2142.0000      8.1083      1.5802      0.1268     64.8348     97.6167     33.5033
  2142.1000      8.1083      1.5772      0.1069     65.0190    108.6714     32.4390
  2142.2000      8.1083      1.5694      0.0704     65.4928    116.6574     32.0367
  2142.3000      8.2075      1.5456      0.0503     66.9353    119.8170     31.8129
  2142.4000      8.2075      1.5081     -0.0584     69.2056    117.4459     31.5261
  2142.5000      8.1942      1.4862     -0.0921     70.5351    112.7094     31.6303
  2142.6000      8.1942      1.5106     -0.0489     69.0552    110.9068     31.7521
  2142.7000      8.1942      1.6013     -0.0030     63.5569    113.8463     31.6411
  2142.8000      8.1414      1.7542      0.1225     54.2916    119.3810     31.2872
  2142.9000      8.1414      1.9216      0.1951     44.1461    122.5553     30.8841
  2143.0000      8.1007      2.0545      0.2165     36.0891    119.9411     30.9126
  2143.1000      8.1007      2.1578      0.2215     29.8306    113.7409     31.2073
  2143.2000      8.1007      2.2644      0.2653     23.3709    109.4857     31.5935
  2143.3000      8.0798      2.3724      0.2896     16.8226    110.5156     32.0467
  2143.4000      8.0798      2.4466      0.2169     12.3266    112.9825     32.1641
  2143.5000      8.1839      2.4682      0.1358     11.0195    113.1023     31.8856
  2143.6000      8.1839      2.4614      0.0723     11.4285    114.0844     31.2402
  2143.7000      8.1839      2.4673      0.0549     11.0711    117.1467     30.5100
