~Version Information
VERS.                      2.0: CWLS Log ASCII Standard - VERSION 2.0
WRAP.                       NO: One line per depth step
~Well Information Block
STRT.FT               481.5000: 
STOP.FT              2033.5000: 
STEP.FT                 0.2500: 
NULL.                -999.2500: 
COMP.          Petrogulf Corporation: COMPANY
WELL.            Montoya 7-12R: WELL
FLD.           Purgatorie River: FIELD
LOC.           1769' FNL & 658' FWL: LOCATION
CNTY.               Las Animas: COUNTY
SRVC.                         : SERVICE COMPANY
DATE.          Sat Nov 20 02:31:05 2004: LOG DATE
UWI.           05 071 08240 00: UNIQUE WELL ID
STAT.                 Colorado: STATE
~Curve Information Block
DEPT.FT            0 000 00 00: Depth
SP.mV                         : DIL Spontaneous Potential
RILD.Ohm-m                    : DIL Deep Resistivity
RILM.Ohm-m                    : DIL Medium Resistivity
RLL3.Ohm-m                    : DIL Shallow Resistivity
GR.GAPI                       : Gamma Ray
~Parameter Information Block
~A  Depth        SP         RILD        RILM        RLL3         GR     
# ...
  1601.5000    -22.7481     30.4096     33.5066     39.3464     75.8842
  1601.7500    -23.6939     30.4402     34.0398     39.9601     74.9456
  1602.0000    -24.3127     30.4736     34.5138     40.5407     74.1819
  1602.2500    -24.5696     30.5145     34.8772     41.0065     74.0767
  1602.5000    -24.4596     30.5645     35.0905     41.3029     74.3970
  1602.7500    -23.9873     30.6206     35.1358     41.4168     75.0676
  1603.0000    -23.1672     30.6758     35.0243     41.3745     77.2788
  1603.2500    -22.0307     30.7219     34.7933     41.2239     79.6405
  1603.5000    -20.6425     30.7527     34.4976     41.0112     83.7738
  1603.7500    -19.1079     30.7665     34.1964     40.7670     86.1554
  1604.0000    -17.5708     30.7652     33.9421     40.5077     88.3442
  1604.2500    -16.1985     30.7531     33.7725     40.2496     89.1807
  1604.5000    -15.1681     30.7334     33.7074     40.0239     91.0447
  1604.7500    -14.6374     30.7063     33.7500     39.8810     93.3973
  1605.0000    -14.7243     30.6698     33.8887     39.8801     98.3423
  1605.2500    -15.4846     30.6218     34.1047     40.0722    101.7690
  1605.5000    -16.8994     30.5634     34.3760     40.4797    105.7558
  1605.7500    -18.8725     30.5008     34.6834     41.0786    107.2448
  1606.0000    -21.2398     30.4456     35.0133     41.7864    107.4498
  1606.2500    -23.7913     30.4121     35.3607     42.4611    106.0764
  1606.5000    -26.2976     30.4122     35.7285     42.9183    101.7310
  1606.7500    -28.5484     30.4522     36.1259     42.9777     97.8741
  1607.0000    -30.3789     30.5295     36.5634     42.5328     92.6857
  1607.2500    -31.6994     30.6330     37.0514     41.6247     90.7711
  1607.5000    -32.5062     30.7426     37.5921     40.4796     90.9240
  1607.7500    -32.8748     30.8332     38.1742     39.4817     92.7962
  1608.0000    -32.9453     30.8751     38.7655     39.0748     97.3311
  1608.2500    -32.8794     30.8373     39.3074     39.6180    100.6077
  1608.5000    -32.8232     30.6907     39.7142     41.2471    103.5364
  1608.7500    -32.8655     30.4109     39.8793     43.7958    102.7767
  1609.0000    -33.0159     29.9824     39.6944     46.8060     96.7471
  1609.2500    -33.2065     29.4007     39.0756     49.6323     90.3088
  1609.5000    -33.3155     28.6739     37.9878     51.6041     79.9666
  1609.7500    -33.2090     27.8206     36.4616     52.1977     74.3962
  1610.0000    -32.7838     26.8659     34.5858     51.1624     70.1267
  1610.2500    -31.9961     25.8371     32.4844     48.5664     70.4919
  1610.5000    -30.8691     24.7611     30.2883     44.7524     75.4549
  1610.7500    -29.4750     23.6628     28.1131     40.2262     80.8963
  1611.0000    -27.9075     22.5651     26.0462     35.5190     90.5176
  1611.2500    -26.2533     21.4897     24.1437     31.0705     97.0977
  1611.5000    -24.5815     20.4574     22.4361     27.1642    106.4875
  1611.7500    -22.9497     19.4874     20.9331     23.9212    112.2228
  1612.0000    -21.4237     18.5958     19.6316     21.3379    119.6779
  1612.2500    -20.0922     17.7945     18.5208     19.3385    123.6526
  1612.5000    -19.0645     17.0900     17.5861     17.8254    127.9498
  1612.7500    -18.4481     16.4832     16.8125     16.7139    129.8508
  1613.0000    -18.3222     15.9697     16.1856     15.9503    131.8673
  1613.2500    -18.7040     15.5402     15.6917     15.5200    133.0107
  1613.5000    -19.5365     15.1827     15.3176     15.4466    134.6235
  1613.7500    -20.6944     14.8828     15.0490     15.7841    135.4575
  1614.0000    -22.0059     14.6262     14.8693     16.5919    135.8284
  1614.2500    -23.2740     14.3994     14.7586     17.8952    135.2492
  1614.5000    -24.3108     14.1918     14.6928     19.6341    132.8351
  1614.7500    -24.9593     13.9953     14.6445     21.6289    129.9163
  1615.0000    -25.1207     13.8047     14.5857     23.5811    123.1010
  1615.2500    -24.7744     13.6167     14.4906     25.1270    117.1680
  1615.5000    -23.9889     13.4292     14.3407     25.9353    108.0738
  1615.7500    -22.9131     13.2400     14.1274     25.8103    103.4979
  1616.0000    -21.7482     13.0463     13.8530     24.7547    101.0216
  1616.2500    -20.6979     12.8449     13.5282     22.9636    102.6026
  1616.5000    -19.9214     12.6327     13.1682     20.7533    108.7303
  1616.7500    -19.4981     12.4075     12.7886     18.4603    114.1629
  1617.0000    -19.4219     12.1688     12.4028     16.3560    122.2320
  1617.2500    -19.6225     11.9187     12.0200     14.6041    126.5343
  1617.5000    -20.0055     11.6617     11.6469     13.2629    130.3619
  1617.7500    -20.4824     11.4044     11.2882     12.3150    131.1813
  1618.0000    -20.9887     11.1544     10.9484     11.7016    130.8569
  1618.2500    -21.4724     10.9202     10.6328     11.3489    130.5140
  1618.5000    -21.8791     10.7098     10.3478     11.1832    131.1378
  1618.7500    -22.1334     10.5301     10.1005     11.1386    132.6534
  1619.0000    -22.1376     10.3869      9.8979     11.1610    136.1956
  1619.2500    -21.7948     10.2843      9.7462     11.2112    138.7059
  1619.5000    -21.0311     10.2246      9.6509     11.2692    141.3833
  1619.7500    -19.8248     10.2085      9.6160     11.3330    142.1238
  1620.0000    -18.2127     10.2351      9.6444     11.4197    142.1376
  1620.2500    -16.2824     10.3023      9.7382     11.5640    141.8879
  1620.5000    -14.1455     10.4074      9.8994     11.8132    141.4000
  1620.7500    -11.9131     10.5480     10.1299     12.2205    140.7484
  1621.0000     -9.6694     10.7227     10.4321     12.8352    138.6812
  1621.2500     -7.4679     10.9318     10.8094     13.6936    136.5249
  1621.5000     -5.3452     11.1784     11.2660     14.8127    132.8113
  1621.7500     -3.3484     11.4678     11.8067     16.1871    130.6047
  1622.0000     -1.5593     11.8072     12.4370     17.7888    128.2018
  1622.2500     -0.1052     12.2048     13.1616     19.5711    127.0089
  1622.5000      0.8501     12.6683     13.9842     21.4727    124.9417
  1622.7500      1.1557     13.2035     14.9061     23.4250    122.8437
  1623.0000      0.7113     13.8127     15.9258     25.3600    118.1533
  1623.2500     -0.4853     14.4940     17.0376     27.2185    114.1381
  1623.5000     -2.3279     15.2396     18.2313     28.9550    107.7847
  1623.7500     -4.6147     16.0364     19.4924     30.5362    104.2097
  1624.0000     -7.0930     16.8665     20.8015     31.9355    101.1492
  1624.2500     -9.5122     17.7086     22.1356     33.1247    100.7659
  1624.5000    -11.6659     18.5406     23.4676     34.0709    101.5319
  1624.7500    -13.4210     19.3416     24.7681     34.7416    102.0414
  1625.0000    -14.7254     20.0934     26.0063     35.1159    102.2038
  1625.2500    -15.5993     20.7804     27.1495     35.1970    102.1078
  1625.5000    -16.1156     21.3886     28.1663     35.0176    101.7876
  1625.7500    -16.3793     21.9044     29.0263     34.6350    101.0902
  1626.0000    -16.5056     22.3134     29.7032     34.1181     98.7253
  1626.2500    -16.5927     22.6021     30.1774     33.5374     96.4518
  1626.5000    -16.7140     22.7592     30.4383     32.9614     92.9917
  1626.7500    -16.9075     22.7794     30.4858     32.4577     91.1220
  1627.0000    -17.1784     22.6651     30.3288     32.0897     89.2445
  1627.2500    -17.5076     22.4283     29.9843     31.9005     88.6391
  1627.5000    -17.8591     22.0872     29.4735     31.8856     88.6304
  1627.7500    -18.1830     21.6648     28.8191     31.9716     88.9614
  1628.0000    -18.4130     21.1834     28.0436     32.0196     89.2642
  1628.2500    -18.4639     20.6629     27.1691     31.8651     89.1780
  1628.5000    -18.2370     20.1185     26.2165     31.3804     89.1907
  1628.7500    -17.6338     19.5594     25.2050     30.5266     89.8357
  1629.0000    -16.5750     18.9919     24.1522     29.3655     92.1214
  1629.2500    -15.0289     18.4190     23.0734     28.0214     94.2087
