~Version Information
VERS.                      2.0: CWLS Log ASCII Standard - VERSION 2.0
WRAP.                       NO: One line per depth step
~Well Information Block
STRT.FT               250.0000: 
STOP.FT              1017.5000: 
STEP.FT                 0.1000: 
NULL.                -999.2500: 
COMP.          Pioneer Natural Resources: COMPANY
WELL.              Oscar 41-31: WELL
FLD.           Purgatoire River: FIELD
LOC.           412' FNL & 1216' FEL: LOCATION
PROV.                 Colorado: PROVINCE
CNTY.               Las Animas: COUNTRY
SRVC.                Patterson: SERVICE COMPANY
DATE.          Thu Feb 24 15:11:09 2005: LOG DATE
UWI.           05 071 08290 00: UNIQUE WELL ID
~Curve Information Block
DEPT.FT            0 000 00 00: Depth
DCAL.in                       : CDL Caliper
RHOB.g/cc                     : CDL Bulk Density
RHOC.g/cc                     : CDL Density Correction
DPOR.pu                       : CDL Density Porosity
GR.GAPI                       : Gamma Ray
NPOR.pu                       : Neutron Porosity
~Parameter Information Block
~A  Depth       DCAL        RHOB        RHOC        DPOR         GR         NPOR    
# ...
   605.2000      7.8796      2.5772     -0.0036      4.4127    137.0056     28.1177
   605.3000      7.8797      2.5597     -0.0325      5.4740    139.1852     28.1729
   605.4000      7.8797      2.5450     -0.0185      6.3655    137.3186     28.9667
   605.5000      7.8803      2.5401     -0.0331      6.6603    135.2533     29.2957
   605.6000      7.8803      2.5513      0.0044      5.9817    137.9763     28.2494
   605.7000      7.8803      2.5766     -0.0077      4.4461    142.6858     26.5227
   605.8000      7.8801      2.5980      0.0559      3.1513    147.0061     25.2857
   605.9000      7.8801      2.5933      0.0208      3.4391    150.9893     24.9142
   606.0000      7.8796      2.5659     -0.0150      5.0966    154.0847     25.4985
   606.1000      7.8796      2.5418     -0.0337      6.5575    154.1168     26.6262
   606.2000      7.8796      2.5369     -0.0135      6.8564    152.2110     27.2449
   606.3000      7.8795      2.5433     -0.0116      6.4663    150.8783     26.7912
   606.4000      7.8795      2.5487      0.0451      6.1371    150.8150     25.6136
   606.5000      7.8795      2.5543      0.0290      5.7984    155.6390     24.7105
   606.6000      7.8795      2.5664      0.0230      5.0640    165.5106     24.4792
   606.7000      7.8795      2.5774      0.0610      4.4009    173.4828     24.2575
   606.8000      7.8795      2.5742      0.0329      4.5948    175.5990     23.6927
   606.9000      7.8795      2.5624      0.0424      5.3078    175.7988     23.2898
   607.0000      7.8793      2.5520      0.0503      5.9370    178.2622     23.6316
   607.1000      7.8793      2.5406      0.0726      6.6287    181.3765     24.6149
   607.2000      7.8793      2.5293      0.0704      7.3141    184.6522     25.5438
   607.3000      7.8786      2.5310      0.0257      7.2122    188.2979     25.9557
   607.4000      7.8786      2.5475      0.1073      6.2129    189.4172     25.8559
   607.5000      7.8781      2.5595      0.0965      5.4846    183.8611     25.4111
   607.6000      7.8781      2.5601      0.0587      5.4467    172.3727     25.0506
   607.7000      7.8781      2.5648      0.1075      5.1645    162.5843     25.1924
   607.8000      7.8785      2.5820      0.0739      4.1212    156.9856     25.6941
   607.9000      7.8785      2.6016      0.0946      2.9346    148.5627     26.0152
   608.0000      7.8793      2.6092      0.1023      2.4705    135.1017     26.0107
   608.1000      7.8793      2.5977      0.1171      3.1678    122.7698     25.9624
   608.2000      7.8793      2.5703      0.0419      4.8288    114.5936     25.7216
   608.3000      7.8794      2.5430      0.0239      6.4865    108.0622     24.7632
   608.4000      7.8794      2.5285     -0.0042      7.3637    103.3929     23.1735
   608.5000      7.8791      2.5271     -0.0085      7.4503    101.4236     21.6016
   608.6000      7.8791      2.5310      0.0153      7.2125     99.0614     20.6551
   608.7000      7.8791      2.5315      0.0163      7.1820     94.6731     20.4766
   608.8000      7.8788      2.5262      0.0029      7.5021     91.6726     20.5872
   608.9000      7.8788      2.5188      0.0169      7.9526     92.2341     20.2892
   609.0000      7.8783      2.5120      0.0189      8.3627     94.0329     19.4690
   609.1000      7.8783      2.5060     -0.0044      8.7250     95.3356     18.5113
   609.2000      7.8783      2.4988      0.0266      9.1648     94.0800     17.8491
   609.3000      7.8776      2.4931     -0.0162      9.5074     90.7078     17.4336
   609.4000      7.8776      2.4902      0.0236      9.6867     87.2195     16.9810
   609.5000      7.8761      2.4778     -0.0033     10.4336     83.3587     16.7174
   609.6000      7.8761      2.4515      0.0333     12.0277     81.2420     16.7341
   609.7000      7.8761      2.4222     -0.0018     13.8035     82.6966     16.7727
   609.8000      7.8758      2.4010     -0.0175     15.0934     85.9108     17.0044
   609.9000      7.8758      2.3897     -0.0067     15.7768     87.9531     17.6469
   610.0000      7.8787      2.3888      0.0002     15.8331     88.0779     18.4537
   610.1000      7.8787      2.3994      0.0154     15.1874     87.8499     18.8088
   610.2000      7.8787      2.4170      0.0435     14.1188     87.2232     18.6271
   610.3000      7.8791      2.4392      0.0142     12.7757     85.5710     18.5972
   610.4000      7.8791      2.4683      0.0542     11.0148     84.6414     18.7860
   610.5000      7.8757      2.4971      0.0800      9.2639     86.6302     18.6273
   610.6000      7.8757      2.5090      0.1102      8.5434     91.6558     18.1838
   610.7000      7.8757      2.4903      0.1212      9.6812     96.8280     18.0269
   610.8000      7.8733      2.4505      0.0121     12.0923     98.7054     18.7039
   610.9000      7.8733      2.4203      0.0149     13.9197     99.0628     20.0973
   611.0000      7.8754      2.4205      0.0000     13.9079    101.2527     21.7127
   611.1000      7.8754      2.4523      0.0179     11.9813    104.7968     23.5695
   611.2000      7.8754      2.4920      0.0887      9.5727    108.6243     25.3410
   611.3000      7.8781      2.5081      0.0597      8.6016    113.5019     26.3343
   611.4000      7.8781      2.5023      0.0623      8.9487    119.7119     26.3772
   611.5000      7.8790      2.5011      0.0331      9.0234    128.6369     25.8323
   611.6000      7.8790      2.5156      0.0677      8.1440    140.7050     25.3291
   611.7000      7.8790      2.5381      0.0575      6.7830    150.3580     25.2785
   611.8000      7.8784      2.5624      0.0750      5.3119    153.3776     25.3967
   611.9000      7.8784      2.5843      0.0801      3.9802    152.9290     25.5270
   612.0000      7.8773      2.5951      0.0812      3.3300    153.5819     26.0881
   612.1000      7.8773      2.5902      0.0609      3.6224    156.8418     27.1605
   612.2000      7.8773      2.5756      0.0829      4.5072    161.6407     27.8740
   612.3000      7.8768      2.5584      0.0602      5.5532    165.0226     27.5336
   612.4000      7.8768      2.5424      0.0801      6.5238    165.9542     26.4593
   612.5000      7.8765      2.5221      0.0421      7.7541    165.2593     25.6253
   612.6000      7.8765      2.4919      0.0192      9.5815    165.6371     25.6946
   612.7000      7.8765      2.4653     -0.0241     11.1938    168.7032     26.4531
   612.8000      7.8756      2.4521      0.0423     11.9939    170.1138     27.6200
   612.9000      7.8756      2.4423      0.0390     12.5894    169.4546     28.6952
   613.0000      7.8700      2.4384      0.0080     12.8246    169.2348     28.8665
   613.1000      7.8700      2.4556      0.0511     11.7798    167.2429     28.3957
   613.2000      7.8700      2.4937      0.0685      9.4705    163.5473     28.1185
   613.3000      7.8622      2.5369      0.1826      6.8529    163.2858     27.8471
   613.4000      7.8622      2.5795      0.1397      4.2755    167.5655     27.4074
   613.5000      7.8720      2.6311      0.1705      1.1430    169.9567     27.3698
   613.6000      7.8720      2.6752      0.2374     -1.5269    168.1692     27.5895
   613.7000      7.8720      2.6791      0.1970     -1.7652    167.6518     27.5519
   613.8000      7.8988      2.6477      0.1611      0.1389    169.9435     27.6001
   613.9000      7.8988      2.6091      0.1112      2.4799    169.3416     28.3355
   614.0000      7.9171      2.5750      0.1296      4.5430    163.0911     29.4009
   614.1000      7.9171      2.5471      0.0335      6.2358    158.0351     29.6829
   614.2000      7.9171      2.5346      0.0138      6.9929    158.6386     28.6879
   614.3000      7.9221      2.5318      0.0533      7.1609    161.6159     26.9307
   614.4000      7.9221      2.5214      0.0218      7.7942    164.6596     25.4109
   614.5000      7.9222      2.5068      0.0042      8.6773    164.2188     25.0265
   614.6000      7.9222      2.5053      0.0250      8.7676    160.5106     25.8134
   614.7000      7.9222      2.5194      0.0868      7.9121    162.1978     27.1609
