~Version Information
VERS.                      2.0: CWLS Log ASCII Standard - VERSION 2.0
WRAP.                       NO: One line per depth step
~Well Information Block
STRT.FT               -11.2500: 
STOP.FT              1767.0000: 
STEP.FT                 0.2500: 
NULL.                -999.2500: 
COMP.          Petrogulf Corporation: COMPANY
WELL.             McLeod 9-42R: WELL
FLD.           Purgatoire River: FIELD
LOC.           1748' FNL & 372' FEL--: LOCATION
PROV.                 Colorado: PROVINCE
CNTY.               Las Animas: COUNTRY
SRVC.                         : SERVICE COMPANY
DATE.          Thu Sep 29 13:28:07 2005: LOG DATE
UWI.                          : UNIQUE WELL ID
~Curve Information Block
DEPT.FT            0 000 00 00: Depth
GR.GAPI                       : Gamma Ray
CCL.                          : Casing Collar Locator
AMP3.mV                       : CBL 3' Amplitude
AMP5.mV                       : CBL 5' Amplitude
~Parameter Information Block
~A  Depth        GR         CCL         AMP3        AMP5    
# ...
   692.2500    138.6473      0.0000      4.5145      0.3811
   692.5000    135.7493     -1.3702      4.5775      0.3784
   692.7500    134.7854      0.0000      4.6479      0.3825
   693.0000    135.4964      0.0000      4.7710      0.4007
   693.2500    136.1962      0.0000      5.0182      0.4321
   693.5000    135.7797      0.0000      5.4040      0.4667
   693.7500    134.7359      0.0000      5.8170      0.4931
   694.0000    134.0655      0.0000      6.0755      0.5067
   694.2500    133.8677      0.0000      6.0848      0.5151
   694.5000    133.4389      0.0000      5.9066      0.5315
   694.7500    132.2162      0.0000      5.6671      0.5599
   695.0000    130.0323      0.0000      5.4439      0.5883
   695.2500    126.7015      0.0000      5.2558      0.6032
   695.5000    122.0334      0.0000      5.1068      0.6064
   695.7500    116.2560      0.0000      4.9983      0.6106
   696.0000    109.9984      0.0000      4.9187      0.6223
   696.2500    104.0283      0.0000      4.8499      0.6353
   696.5000     99.3601      0.0000      4.7895      0.6407
   696.7500     97.3179      0.0000      4.7571      0.6385
   697.0000     98.9539      0.0000      4.7710      0.6379
   697.2500    104.2968      0.0000      4.8233      0.6468
   697.5000    112.2585      0.0000      4.8876      0.6637
   697.7500    121.3135      0.0000      4.9495      0.6822
   698.0000    130.3489      0.0000      5.0220      0.6987
   698.2500    138.9431      0.0000      5.1280      0.7120
   698.5000    146.9665      0.0000      5.2715      0.7184
   698.7500    154.0762      0.0000      5.4316      0.7143
   699.0000    159.5348      0.0000      5.5817      0.7013
   699.2500    162.2375      0.0000      5.7110      0.6863
   699.5000    160.9386      0.0000      5.8285      0.6763
   699.7500    154.7762      0.0000      5.9527      0.6760
   700.0000    143.8019      0.0000      6.0934      0.6872
   700.2500    129.2050      0.0000      6.2392      0.7088
   700.5000    113.2350      0.0000      6.3615      0.7376
   700.7500     98.6040      0.0000      6.4315      0.7704
   701.0000     87.1990      0.0000      6.4284      0.8046
   701.2500     79.0508      0.0000      6.3329      0.8349
   701.5000     72.8285      0.0000      6.1268      0.8510
   701.7500     67.4247      0.0000      5.8095      0.8403
   702.0000     62.8506      0.0000      5.4162      0.7983
   702.2500     59.7213      0.0000      5.0113      0.7359
   702.5000     58.4059      0.0000      4.6633      0.6724
   702.7500     58.9079      0.0000      4.4151      0.6230
   703.0000     61.0728      0.0000      4.2706      0.5912
   703.2500     64.4116      0.0000      4.2046      0.5715
   703.5000     67.9775      0.0000      4.1849      0.5557
   703.7500     70.9449      0.0000      4.1875      0.5385
   704.0000     73.3064      0.0000      4.2028      0.5209
   704.2500     75.7389      0.0000      4.2363      0.5083
   704.5000     78.7989      0.0000      4.2971      0.5031
   704.7500     82.5097      0.0000      4.3795      0.4984
   705.0000     86.8953      0.0000      4.4610      0.4805
   705.2500     92.5454      0.0000      4.5206      0.4434
   705.5000     99.8190      0.0000      4.5534      0.3996
   705.7500    107.2259      0.0000      4.5635      0.3715
   706.0000    111.3816      0.0000      4.5519      0.3709
   706.2500    109.2533      0.0000      4.5151      0.3912
   706.5000    100.5582      0.0000      4.4526      0.4184
   706.7500     88.1069      0.0000      4.3671      0.4450
   707.0000     76.0327      0.0000      4.2621      0.4688
   707.2500     67.4355      0.0000      4.1471      0.4871
   707.5000     63.0406      0.0000      4.0457      0.4971
   707.7500     61.5482      0.0000      3.9917      0.5017
   708.0000     61.0560      0.0000      4.0078      0.5099
   708.2500     60.2484      0.0000      4.0868      0.5291
   708.5000     58.6720      0.0000      4.1993      0.5567
   708.7500     56.5466      0.0000      4.3158      0.5857
   709.0000     54.5752      0.0000      4.4171      0.6127
   709.2500     53.4472      0.0000      4.4918      0.6370
   709.5000     53.0413      0.0000      4.5382      0.6551
   709.7500     52.2855      0.0000      4.5705      0.6616
   710.0000     50.1375      0.0000      4.6097      0.6569
   710.2500     46.6990      0.0000      4.6654      0.6480
   710.5000     43.3123      0.0000      4.7347      0.6428
   710.7500     41.6467      0.0000      4.8200      0.6448
   711.0000     42.6278      0.0000      4.9364      0.6551
   711.2500     45.9133      0.0000      5.0942      0.6761
   711.5000     50.1975      0.0000      5.2855      0.7109
   711.7500     54.2007      0.0000      5.4987      0.7566
   712.0000     57.5545      0.0000      5.7410      0.8045
   712.2500     60.7296      0.0000      6.0298      0.8491
   712.5000     64.2439      0.0000      6.3592      0.8932
   712.7500     68.1633      0.0000      6.6858      0.9418
   713.0000     72.2426      0.0000      6.9565      0.9965
   713.2500     76.2698      0.0000      7.1508      1.0578
   713.5000     80.2169      0.0000      7.2888      1.1247
   713.7500     84.1010      0.0000      7.4012      1.1904
   714.0000     87.7290      0.0000      7.5066      1.2422
   714.2500     90.7347      0.0000      7.6138      1.2728
   714.5000     92.9898      0.0000      7.7279      1.2880
   714.7500     94.9249      0.0000      7.8452      1.3004
   715.0000     97.4278      0.0000      7.9590      1.3166
   715.2500    101.3916      0.0000      8.0752      1.3329
   715.5000    107.0074      0.0000      8.2101      1.3446
   715.7500    113.3408      0.0000      8.3620      1.3545
   716.0000    118.9838      0.0000      8.4996      1.3668
   716.2500    123.2791      0.0000      8.5873      1.3790
   716.5000    126.5467      0.0000      8.6177      1.3844
   716.7500    129.2268      0.0000      8.6105      1.3813
   717.0000    131.4832      0.0000      8.5848      1.3726
   717.2500    133.8104      0.0000      8.5397      1.3579
   717.5000    137.2183      0.0000      8.4640      1.3349
   717.7500    142.0259      0.0000      8.3588      1.3057
   718.0000    146.7287      0.0000      8.2383      1.2789
   718.2500    148.9831      0.0000      8.1138      1.2617
   718.5000    147.9885      0.0000      7.9916      1.2537
   718.7500    145.5019      0.0000      7.8873      1.2484
   719.0000    144.2808      0.0000      7.8225      1.2409
   719.2500    145.7000      0.0000      7.8112      1.2315
   719.5000    148.8079      0.0000      7.8548      1.2236
   719.7500    151.3694      0.0000      7.9471      1.2185
   720.0000    151.6197      0.0000      8.0690      1.2166
   720.2500    149.2265      0.0000      8.1870      1.2202
   720.5000    145.0356      0.0000      8.2702      1.2312
   720.7500    140.2587      0.0000      8.3123      1.2483
   721.0000    135.9510      0.0000      8.3347      1.2690
   721.2500    133.0257      0.0000      8.3708      1.2928
   721.5000    132.1852      0.0000      8.4449      1.3190
   721.7500    133.2418      0.0000      8.5535      1.3428
   722.0000    134.5516      0.0000      8.6622      1.3548
   722.2500    133.7724      0.0000      8.7268      1.3470
   722.5000    129.5847      0.0000      8.7224      1.3178
   722.7500    122.6847      0.0000      8.6558      1.2737
   723.0000    115.3203      0.0000      8.5543      1.2273
   723.2500    110.0655      0.0000      8.4438      1.1940
   723.5000    108.4757      0.0000      8.3423      1.1860
   723.7500    110.2042      0.0000      8.2734      1.2036
   724.0000    113.3029      0.0000      8.2663      1.2354
   724.2500    115.6135      0.0000      8.3302      1.2683
   724.5000    116.0334      0.0000      8.4291      1.2947
   724.7500    114.8714      0.0000      8.4947      1.3100
   725.0000    113.5002      0.0000      8.4719      1.3088
   725.2500    113.5805      0.0000      8.3538      1.2865
   725.5000    116.0228      0.0000      8.1752      1.2439
