~Version Information
VERS.                      2.0: CWLS Log ASCII Standard - VERSION 2.0
WRAP.                       NO: One line per depth step
~Well Information Block
STRT.FT               898.0000: 
STOP.FT              2360.0000: 
STEP.FT                 0.2500: 
NULL.                -999.2500: 
COMP.          Pioneer Natural Resources: COMPANY
WELL.             Trimax 44-23: WELL
FLD.           Purgatoire River: FIELD
LOC.           527' FSL & 1064' FEL: LOCATION
PROV.                 Colorado: PROVINCE
CNTY.               Las Animas: COUNTRY
SRVC.                Patterson: SERVICE COMPANY
DATE.          Sun Mar 13 04:57:04 2005: LOG DATE
UWI.           05 071 08326 00: UNIQUE WELL ID
~Curve Information Block
DEPT.FT            0 000 00 00: Depth
SN.Ohm-m                      : IEL Short Normal
SP.mV                         : IEL Spontaneous Potential
DIR.Ohm-m                     : IEL Induction Resistivity
GR.GAPI                       : Gamma Ray
~Parameter Information Block
~A  Depth        SN          SP         DIR          GR     
# ...
  1668.5000     23.8126    -83.9297     19.3320    106.1972
  1668.7500     23.0914    -84.1759     19.7190    111.4635
  1669.0000     22.5876    -84.2997     20.0524    113.7823
  1669.2500     22.3186    -84.2677     20.3073    111.1868
  1669.5000     22.2449    -84.1061     20.4885    102.9474
  1669.7500     22.4062    -83.8868     20.6304     96.4985
  1670.0000     22.9101    -83.6934     20.7857     88.0161
  1670.2500     23.7946    -83.5847     21.0061     83.5601
  1670.5000     24.9378    -83.5714     21.3217     77.7652
  1670.7500     26.1261    -83.6156     21.7311     73.7499
  1671.0000     27.1984    -83.6557     22.2051     67.1155
  1671.2500     28.1259    -83.6445     22.7107     62.7833
  1671.5000     28.9779    -83.5782     23.2424     57.8478
  1671.7500     29.8131    -83.4945     23.8332     56.1691
  1672.0000     30.6047    -83.4406     24.5282     55.9694
  1672.2500     31.2629    -83.4419     25.3300     56.8077
  1672.5000     31.7021    -83.4930     26.1604     58.3650
  1672.7500     31.8951    -83.5736     26.8768     59.1705
  1673.0000     31.8955    -83.6678     27.3542     59.8615
  1673.2500     31.8114    -83.7724     27.5746     60.0620
  1673.5000     31.7199    -83.8969     27.6344     60.1066
  1673.7500     31.6115    -84.0612     27.6584     59.9734
  1674.0000     31.4545    -84.2824     27.7017     59.3696
  1674.2500     31.2639    -84.5532     27.7169     58.4604
  1674.5000     31.0797    -84.8318     27.6054     55.8615
  1674.7500     30.9286    -85.0614     27.3094     53.2887
  1675.0000     30.8207    -85.2100     26.8683     49.0475
  1675.2500     30.7625    -85.2979     26.3934     46.8929
  1675.5000     30.7587    -85.3860     25.9946     46.0237
  1675.7500     30.7925    -85.5361     25.7278     47.1655
  1676.0000     30.8173    -85.7780     25.5880     50.6221
  1676.2500     30.7936    -86.1008     25.5349     53.4168
  1676.5000     30.7377    -86.4654     25.5271     57.4659
  1676.7500     30.7095    -86.8253     25.5465     59.6587
  1677.0000     30.7446    -87.1464     25.6040     61.5726
  1677.2500     30.8221    -87.4177     25.7257     61.8292
  1677.5000     30.8940    -87.6490     25.9286     61.2052
  1677.7500     30.9314    -87.8637     26.2038     60.6079
  1678.0000     30.9541    -88.0879     26.5219     59.9540
  1678.2500     31.0166    -88.3365     26.8555     59.6752
  1678.5000     31.1761    -88.5997     27.1935     59.3225
  1678.7500     31.4788    -88.8466     27.5299     59.1655
  1679.0000     31.9422    -89.0454     27.8352     59.2803
  1679.2500     32.5276    -89.1782     28.0476     59.6198
  1679.5000     33.1640    -89.2371     28.1076     60.2316
  1679.7500     33.8152    -89.2151     28.0159     60.4437
  1680.0000     34.4981    -89.1111     27.8633     60.0635
  1680.2500     35.2324    -88.9397     27.7973     59.2275
  1680.5000     35.9959    -88.7302     27.9499     57.2969
  1680.7500     36.7446    -88.5149     28.3762     55.8970
  1681.0000     37.4614    -88.3228     29.0353     54.2894
  1681.2500     38.1583    -88.1786     29.8159     53.8264
  1681.5000     38.8340    -88.0997     30.5922     54.0836
  1681.7500     39.4566    -88.0889     31.2791     54.5593
  1682.0000     39.9945    -88.1325     31.8483     54.8927
  1682.2500     40.4311    -88.2086     32.2998     54.6488
  1682.5000     40.7389    -88.2972     32.6231     54.0367
  1682.7500     40.8747    -88.3802     32.7926     53.9204
  1683.0000     40.8240    -88.4380     32.8000     54.5337
  1683.2500     40.6291    -88.4547     32.6853     55.2677
  1683.5000     40.3541    -88.4314     32.5194     56.2445
  1683.7500     40.0377    -88.3900     32.3467     56.7087
  1684.0000     39.6950    -88.3545     32.1444     57.7494
  1684.2500     39.3304    -88.3262     31.8497     59.2477
  1684.5000     38.9222    -88.2746     31.4343     63.1543
  1684.7500     38.4264    -88.1540     30.9484     66.5898
  1685.0000     37.8520    -87.9317     30.4793     72.1211
  1685.2500     37.2969    -87.6073     30.0782     75.7946
  1685.5000     36.8462    -87.2147     29.7368     81.2899
  1685.7500     36.4819    -86.8071     29.4341     84.7363
  1686.0000     36.1224    -86.4366     29.1829     88.4227
  1686.2500     35.7047    -86.1323     29.0169     89.2399
  1686.5000     35.2184    -85.8898     28.9395     88.1381
  1686.7500     34.6871    -85.6800     28.8948     86.6362
  1687.0000     34.1414    -85.4720     28.7940     84.5608
  1687.2500     33.6081    -85.2542     28.5740     83.5317
  1687.5000     33.1049    -85.0353     28.2401     82.1075
  1687.7500     32.6380    -84.8308     27.8625     80.9098
  1688.0000     32.2079    -84.6502     27.5340     78.6104
  1688.2500     31.8187    -84.4948     27.3229     76.9705
  1688.5000     31.4803    -84.3646     27.2445     74.9155
  1688.7500     31.2062    -84.2649     27.2609     73.9661
  1689.0000     31.0021    -84.2071     27.3000     72.9148
  1689.2500     30.8540    -84.2039     27.2886     72.1515
  1689.5000     30.7432    -84.2615     27.1847     70.5890
  1689.7500     30.6687    -84.3695     27.0000     69.3127
  1690.0000     30.6424    -84.4958     26.7960     67.2383
  1690.2500     30.6693    -84.5966     26.6529     65.7221
  1690.5000     30.7491    -84.6384     26.6294     63.0699
  1690.7500     30.8890    -84.6134     26.7366     61.1281
  1691.0000     31.1058    -84.5333     26.9376     58.5842
  1691.2500     31.4137    -84.4166     27.1709     57.5580
  1691.5000     31.8078    -84.2832     27.3845     57.2150
  1691.7500     32.2572    -84.1521     27.5593     57.4620
  1692.0000     32.7129    -84.0331     27.7056     57.7583
  1692.2500     33.1248    -83.9209     27.8381     57.7694
  1692.5000     33.4689    -83.8000     27.9545     58.0758
  1692.7500     33.7600    -83.6579     28.0387     58.8478
  1693.0000     34.0216    -83.4922     28.0827     60.5768
  1693.2500     34.2547    -83.3081     28.1025     61.4511
  1693.5000     34.4448    -83.1134     28.1294     61.5453
  1693.7500     34.5887    -82.9161     28.1871     61.0020
  1694.0000     34.7059    -82.7269     28.2768     60.3086
  1694.2500     34.8091    -82.5584     28.3819     60.2605
  1694.5000     34.8902    -82.4170     28.4810     60.3736
  1694.7500     34.9646    -82.2934     28.5565     60.0850
  1695.0000     35.0844    -82.1675     28.5928     58.8646
  1695.2500     35.2805    -82.0244     28.5777     57.8777
  1695.5000     35.5284    -81.8646     28.5109     56.9839
  1695.7500     35.7767    -81.6988     28.4097     57.0019
  1696.0000     35.9901    -81.5386     28.2998     57.5536
  1696.2500     36.1598    -81.3908     28.1964     57.7671
  1696.5000     36.2779    -81.2590     28.0912     57.3171
  1696.7500     36.3174    -81.1474     27.9530     56.6848
  1697.0000     36.2435    -81.0666     27.7399     56.1541
  1697.2500     36.0386    -81.0342     27.4213     56.5221
  1697.5000     35.7130    -81.0663     26.9959     58.1893
  1697.7500     35.2933    -81.1623     26.4929     59.6927
  1698.0000     34.8011    -81.2973     25.9508     61.7542
  1698.2500     34.2420    -81.4317     25.3960     62.6335
  1698.5000     33.6122    -81.5303     24.8407     62.8752
  1698.7500     32.9138    -81.5793     24.2986     62.3754
  1699.0000     32.1736    -81.5915     23.7958     61.3812
  1699.2500     31.4451    -81.5954     23.3657     61.2640
  1699.5000     30.7702    -81.6139     23.0314     62.7845
  1699.7500     30.1546    -81.6501     22.7915     64.8597
  1700.0000     29.5920    -81.6893     22.6185     68.6270
  1700.2500     29.0835    -81.7086     22.4689     70.9467
  1700.5000     28.6316    -81.6844     22.3004     73.5297
  1700.7500     28.2368    -81.5984     22.0877     74.7371
  1701.0000     27.9136    -81.4470     21.8309     76.5657
  1701.2500     27.6958    -81.2432     21.5487     78.2506
  1701.5000     27.5966    -81.0130     21.2618     81.4302
  1701.7500     27.5603    -80.7894     20.9756     83.3993
