~Version Information
VERS.                      2.0: CWLS Log ASCII Standard - VERSION 2.0
WRAP.                       NO: One line per depth step
~Well Information Block
STRT.FT                 1.5000: 
STOP.FT              1895.2500: 
STEP.FT                 0.2500: 
NULL.                -999.2500: 
COMP.          Petrogulf Corporation: COMPANY
WELL.             State 16-32R: WELL
FLD.           Purgatorie River: FIELD
LOC.           1849' FNL & 1677' FEL: LOCATION
CNTY.               Las Animas: COUNTY
SRVC.                         : SERVICE COMPANY
DATE.          Thu May 20 08:40:19 2004: LOG DATE
UWI.           05 071 08033 00: UNIQUE WELL ID
STAT.                 Colorado: STATE
~Curve Information Block
DEPT.FT            0 000 00 00: Depth
GR.GAPI                       : Gamma Ray
CCL.                          : Casing Collar Locator
TT3.usec                      : CBL 3' Travel Time
AMP3.mV                       : CBL 3' Amplitude
~Parameter Information Block
~A  Depth        GR         CCL         TT3         AMP3    
# ...
  1877.5000    112.0324      0.0000    630.5613      3.0969
  1877.7500    108.9942      0.0000    631.4743      3.0996
  1878.0000    106.8449      0.0000    624.9009      3.2838
  1878.2500    106.6396      0.0000    617.9151      3.5364
  1878.5000    108.4709      0.0000    617.8878      3.7275
  1878.7500    111.9186      0.0000    629.4726      3.8080
  1879.0000    116.3989      0.0000    650.9065      3.8778
  1879.2500    120.9132      0.0000    670.8544      4.0668
  1879.5000    123.6112      0.0000    684.5615      4.3536
  1879.7500    122.3899      0.0000    711.1107      4.6008
  1880.0000    116.6185      0.0000    770.4314      4.7567
  1880.2500    108.2109      0.0000    845.3704      4.8960
  1880.5000    100.6033      0.0000    893.8578      5.0779
  1880.7500     96.5025      0.0000    903.0713      5.2721
  1881.0000     96.4090      0.0000    904.4181      5.3941
  1881.2500     98.8302      0.0000    927.9071      5.3955
  1881.5000    101.5642      0.0000    967.5322      5.3459
  1881.7500    102.9573      0.0000    994.0311      5.3382
  1882.0000    102.4762      0.0000    979.5475      5.2906
  1882.2500    100.5142      0.0000    915.0460      5.0140
  1882.5000     97.8475      0.0000    810.3148      4.4604
  1882.7500     95.1442      0.0000    667.2236      3.6901
  1883.0000     92.5895      0.0000    477.8489      2.7339
  1883.2500     89.8668      0.0000    271.3945      1.7337
  1883.5000     86.7967      0.0000    112.9468      0.9759
  1883.7500     83.8222      0.0000     32.6709      0.5925
  1884.0000     81.4300      0.0000      6.3596      0.4667
  1884.2500     79.5095      0.0000      0.8149      0.4402
  1884.5000     77.9883      0.0000      0.0651      0.4366
  1884.7500     77.7831      0.0000   -999.2500   -999.2500
  1885.0000     80.4066      0.0000   -999.2500   -999.2500
  1885.2500     86.6155      0.0000   -999.2500   -999.2500
  1885.5000     95.6816      0.0000   -999.2500   -999.2500
  1885.7500    105.7669      0.0000   -999.2500   -999.2500
  1886.0000    114.8292      0.0000   -999.2500   -999.2500
  1886.2500    121.3923      0.0000   -999.2500   -999.2500
  1886.5000    124.9116      0.0000   -999.2500   -999.2500
  1886.7500    125.8486      0.0000   -999.2500   -999.2500
  1887.0000    125.4220      0.0000   -999.2500   -999.2500
  1887.2500    124.7429      0.0000   -999.2500   -999.2500
  1887.5000    123.8805      0.0000   -999.2500   -999.2500
  1887.7500    122.1117      0.0000   -999.2500   -999.2500
  1888.0000    119.1245      0.0000   -999.2500   -999.2500
  1888.2500    115.5104      0.0000   -999.2500   -999.2500
  1888.5000    112.1427      0.0000   -999.2500   -999.2500
  1888.7500    109.5564      0.0000   -999.2500   -999.2500
  1889.0000    107.8810      0.0000   -999.2500   -999.2500
  1889.2500    106.9834      0.0000   -999.2500   -999.2500
  1889.5000    106.6879      0.0000   -999.2500   -999.2500
  1889.7500    107.0780      0.0000   -999.2500   -999.2500
  1890.0000    108.4943      0.0000   -999.2500   -999.2500
  1890.2500    111.1395      0.0000   -999.2500   -999.2500
  1890.5000    114.8417   -999.2500   -999.2500   -999.2500
  1890.7500    119.1759   -999.2500   -999.2500   -999.2500
  1891.0000    123.4252   -999.2500   -999.2500   -999.2500
  1891.2500    126.6459   -999.2500   -999.2500   -999.2500
  1891.5000    128.4684   -999.2500   -999.2500   -999.2500
  1891.7500    129.5861   -999.2500   -999.2500   -999.2500
  1892.0000    130.3542   -999.2500   -999.2500   -999.2500
  1892.2500    128.8086   -999.2500   -999.2500   -999.2500
  1892.5000    121.0817   -999.2500   -999.2500   -999.2500
  1892.7500    104.3807   -999.2500   -999.2500   -999.2500
  1893.0000     79.8040   -999.2500   -999.2500   -999.2500
  1893.2500     52.5546   -999.2500   -999.2500   -999.2500
  1893.5000     29.0789   -999.2500   -999.2500   -999.2500
  1893.7500     13.2501   -999.2500   -999.2500   -999.2500
  1894.0000      4.8966   -999.2500   -999.2500   -999.2500
  1894.2500      1.4513   -999.2500   -999.2500   -999.2500
  1894.5000      0.3409   -999.2500   -999.2500   -999.2500
  1894.7500      0.0630   -999.2500   -999.2500   -999.2500
  1895.0000      0.0082   -999.2500   -999.2500   -999.2500
  1895.2500      0.0000   -999.2500   -999.2500   -999.2500
