~Version Information
VERS.                      2.0: CWLS Log ASCII Standard - VERSION 2.0
WRAP.                       NO: One line per depth step
~Well Information Block
STRT.FT               -12.2500: 
STOP.FT              1948.2500: 
STEP.FT                 0.2500: 
NULL.                -999.2500: 
COMP.          Petrogulf Corporation: COMPANY
WELL.            Torcom 17-33R: WELL
FLD.           Purgatorie River: FIELD
LOC.           1483' FSL & 1804' FEL--: LOCATION
PROV.                       CO: PROVINCE
CNTY.               Las Animas: COUNTRY
SRVC.          Patterson Wireline: SERVICE COMPANY
DATE.          Fri Sep 30 10:11:43 2005: LOG DATE
UWI.           05 071 08096 00: UNIQUE WELL ID
~Curve Information Block
DEPT.FT            0 000 00 00: Depth
CCL.                          : Casing Collar Locator
TT3.usec                      : CBL 3' Travel Time
AMP3.mV                       : CBL 3' Amplitude
GR.GAPI                       : Gamma Ray
~Parameter Information Block
~A  Depth       CCL         TT3         AMP3         GR     
# ...
  1294.2500      0.0000    480.7917     11.0127     93.1985
  1294.5000      0.0000    485.4454     11.3433     90.1192
  1294.7500      0.0000    492.0163     11.5549     83.6846
  1295.0000      0.0000    492.2081     11.6571     76.3436
  1295.2500      0.0000    484.3424     11.6835     71.1334
  1295.5000      0.0000    476.7231     11.6733     70.0804
  1295.7500      0.0000    481.8096     11.6490     73.4466
  1296.0000      0.0000    506.8552     11.6014     79.8886
  1296.2500      0.0000    548.7854     11.5014     87.2153
  1296.5000      0.0000    595.7884     11.3302     93.5121
  1296.7500      0.0000    634.2883     11.0989     98.0925
  1297.0000      0.0000    656.6367     10.8393    101.4082
  1297.2500      0.0000    663.5871     10.5812    103.7740
  1297.5000      0.0000    661.0392     10.3405    104.2480
  1297.7500      0.0000    655.3436     10.1215    101.2560
  1298.0000      0.0000    650.0983      9.9281     94.4731
  1298.2500      0.0000    644.8239      9.7739     85.7259
  1298.5000      0.0000    635.9363      9.6800     77.9192
  1298.7500      0.0000    620.5173      9.6570     73.3022
  1299.0000      0.0000    601.5107      9.6864     72.4987
  1299.2500      0.0000    589.1170      9.7262     74.5151
  1299.5000      0.0000    593.9072      9.7450     77.5859
  1299.7500      0.0000    616.8096      9.7531     80.4276
  1300.0000      0.0000    647.3810      9.7920     82.9008
  1300.2500      0.0000    672.4338      9.8909     85.5410
  1300.5000      0.0000    685.2392     10.0370     88.7064
  1300.7500      0.0000    687.0937     10.1843     92.3737
  1301.0000      0.0000    683.3199     10.2811     96.4812
  1301.2500      0.0000    679.7213     10.2823    100.9448
  1301.5000      0.0000    680.9159     10.1584    105.3068
  1301.7500      0.0000    688.0665      9.9272    108.9661
  1302.0000      0.0000    697.2717      9.6770    111.9230
  1302.2500      0.0000    702.8661      9.5059    114.7493
  1302.5000      0.0000    702.9252      9.4175    117.5972
  1302.7500      0.0000    699.3387      9.3233    119.7150
  1303.0000      0.0000    693.0692      9.1651    120.3561
  1303.2500      0.0000    682.6335      8.9806    119.9895
  1303.5000      0.0000    667.5052      8.8353    120.1818
  1303.7500     -2.0000    650.6339      8.7436    122.1674
  1304.0000      2.0000    636.6947      8.6759    125.6973
  1304.2500      0.0000    628.5463      8.6136    129.1678
  1304.5000      0.0000    625.8197      8.5733    130.7113
  1304.7500      0.0000    626.1627      8.5737    129.6272
  1305.0000      0.0000    626.6367      8.5838    127.3684
  1305.2500      0.0000    624.2383      8.5312    126.7838
  1305.5000      0.0000    617.1517      8.3819    129.5649
  1305.7500      0.0000    606.0536      8.1880    134.4010
  1306.0000      0.0000    593.3234      8.0303    138.2917
  1306.2500      0.0000    581.3560      7.9398    139.7710
  1306.5000      0.0000    572.3290      7.8911    140.0867
  1306.7500      0.0000    568.8439      7.8460    140.9911
  1307.0000      0.0000    573.3478      7.7805    142.5735
  1307.2500      0.0000    586.5679      7.6824    144.0790
  1307.5000      0.0000    606.5601      7.5428    145.7396
  1307.7500      0.0000    629.2418      7.3602    148.4383
  1308.0000      0.0000    649.8961      7.1493    151.9368
  1308.2500      0.0000    664.9950      6.9369    154.4109
  1308.5000      0.0000    673.7963      6.7452    153.8704
  1308.7500      0.0000    678.3633      6.5837    149.7562
  1309.0000      0.0000    681.4850      6.4536    143.1823
  1309.2500      0.0000    684.8140      6.3550    135.9359
  1309.5000      0.0000    689.2618      6.2898    129.5465
  1309.7500      0.0000    696.1921      6.2629    125.0904
  1310.0000      0.0000    707.0372      6.2812    122.9998
  1310.2500      0.0000    721.2112      6.3504    122.5607
  1310.5000      0.0000    734.5941      6.4704    122.1866
  1310.7500      0.0000    741.1454      6.6321    120.9185
  1311.0000      0.0000    737.2250      6.8195    119.6549
  1311.2500      0.0000    724.7052      7.0150    120.4127
  1311.5000      0.0000    709.2278      7.2021    124.1239
  1311.7500      0.0000    695.1363      7.3648    129.4148
  1312.0000      0.0000    682.2415      7.4905    133.8075
  1312.2500      0.0000    667.2689      7.5796    135.9650
  1312.5000      0.0000    647.9471      7.6496    136.5194
  1312.7500      0.0000    625.8992      7.7250    136.7928
  1313.0000      0.0000    606.2722      7.8242    137.1600
  1313.2500      0.0000    594.9171      7.9534    137.0082
  1313.5000      0.0000    595.4236      8.1073    135.8534
  1313.7500      0.0000    607.5632      8.2737    133.7144
  1314.0000      0.0000    627.4517      8.4387    130.6442
  1314.2500      0.0000    649.2337      8.5967    127.0372
  1314.5000      0.0000    667.8007      8.7635    124.4266
  1314.7500      0.0000    681.1120      8.9768    124.7437
  1315.0000      0.0000    690.3005      9.2781    128.3194
  1315.2500      0.0000    697.4701      9.6829    133.2479
  1315.5000      0.0000    703.4066     10.1618    136.9929
  1315.7500      0.0000    707.6351     10.6484    138.2437
  1316.0000      0.0000    710.3977     11.0728    137.1651
  1316.2500      0.0000    713.4050     11.3911    134.4636
  1316.5000      0.0000    717.8318     11.5989    130.7606
  1316.7500      0.0000    722.2881     11.7302    126.7267
  1317.0000      0.0000    723.7057     11.8437    123.2124
  1317.2500      0.0000    720.1545     11.9876    120.8988
  1317.5000      0.0000    712.5585     12.1569    119.8956
  1317.7500      0.0000    703.9937     12.2796    119.8362
  1318.0000      0.0000    697.5538     12.2537    120.3731
  1318.2500      0.0000    694.8102     12.0118    121.3382
  1318.5000      0.0000    695.7482     11.5612    122.0888
  1318.7500      0.0000    699.2102     10.9823    121.0624
  1319.0000      0.0000    703.0314     10.3944    117.0069
  1319.2500      0.0000    704.7256      9.9111    110.9237
  1319.5000      0.0000    703.1243      9.6167    105.9283
  1319.7500      0.0000    699.3058      9.5788    104.6161
  1320.0000      0.0000    695.4302      9.8542    106.9092
  1320.2500      0.0000    692.8990     10.4484    110.6873
  1320.5000      0.0000    691.7916     11.2544    114.0058
  1320.7500      0.0000    691.5246     12.0503    116.2776
  1321.0000      0.0000    691.5449     12.5947    117.6757
  1321.2500      0.0000    691.5471     12.7565    118.1953
  1321.5000      0.0000    691.4182     12.5763    117.6269
  1321.7500      0.0000    691.1578     12.2214    115.9429
  1322.0000      0.0000    690.8385     11.8938    113.2800
  1322.2500      0.0000    690.6207     11.7510    109.8109
  1322.5000      0.0000    690.7612     11.8445    105.8994
  1322.7500      0.0000    691.6072     12.0843    102.1614
  1323.0000      0.0000    693.4737     12.2673     99.3147
  1323.2500      0.0000    696.3524     12.1790     98.1419
  1323.5000      0.0000    699.9316     11.7168     99.4042
  1323.7500      0.0000    704.7400     10.9508    103.3239
  1324.0000      0.0000    714.0851     10.0802    109.1185
  1324.2500      0.0000    733.9587      9.3191    115.2454
  1324.5000      0.0000    768.4865      8.7995    120.1385
  1324.7500      0.0000    813.1474      8.5527    122.7903
  1325.0000      0.0000    852.6711      8.5436    123.0660
  1325.2500      0.0000    868.6470      8.6916    121.8817
  1325.5000      0.0000    852.9671      8.8725    120.9902
  1325.7500      0.0000    815.1631      8.9520    122.0800
  1326.0000      0.0000    774.9876      8.8590    125.7144
  1326.2500      0.0000    746.5841      8.6309    130.9736
  1326.5000      0.0000    730.4007      8.3811    135.9620
  1326.7500      0.0000    719.4685      8.2160    138.6671
  1327.0000      0.0000    709.9259      8.1744    137.7521
  1327.2500      0.0000    703.5787      8.2267    133.1669
  1327.5000      0.0000    702.7392      8.3156    126.4297
