~Version Information
 VERS.                      2.0: CWLS Log ASCII Standard - VERSION 2.0
 WRAP.                       NO: One line per depth step
 ~Well Information Block
 STRT.FT               886.1000: 
 STOP.FT              2599.0000: 
 STEP.FT                 0.1000: 
 NULL.                -999.2500: 
 COMP.          Petrogulf Corporation: COMPANY
 WELL.               YWAM 7-23V: WELL
 FLD.           Purgatorie River: FIELD
 LOC.           230' FSL & 225' FWL: LOCATION
 CNTY.               Las Animas: COUNTY
 SRVC.                         : SERVICE COMPANY
 DATE.          Sat Oct 30 10:42:52 2004: LOG DATE
 UWI.           05 071 08227 00: UNIQUE WELL ID
 STAT.                 Colorado: STATE
 PROV.                         :Province
 ~Curve Information Block
 DEPT.FT            0 000 00 00: Depth
 DCAL.in                       : CDL Caliper
 RHOB.g/cc                     : CDL Bulk Density
 RHOC.g/cc                     : CDL Density Correction
 DPOR.pu                       : CDL Density Porosity
 GR.GAPI                       : Gamma Ray
 NPOR.pu                       : Neutron Porosity
 ~Parameter Information Block
 ~A  Depth       DCAL        RHOB        RHOC        DPOR         GR         NPOR    
# ...
  2249.3000      8.1900      1.6473      0.1095     60.7696     42.3389     32.9701
  2249.4000      8.1900      1.7156      0.1285     56.6333     43.7608     33.7329
  2249.5000      8.2170      1.7701      0.1221     53.3244     43.1619     33.4971
  2249.6000      8.2170      1.8163      0.1632     50.5282     43.0092     32.2023
  2249.7000      8.2170      1.8639      0.1407     47.6437     45.7027     31.2706
  2249.8000      8.1995      1.9205      0.1871     44.2121     51.1058     31.1576
  2249.9000      8.1995      1.9892      0.1680     40.0513     56.1475     31.1660
  2250.0000      8.2401      2.0651      0.2283     35.4514     58.4886     30.8639
  2250.1000      8.2401      2.1353      0.2401     31.1935     60.2301     30.6304
  2250.2000      8.2401      2.2021      0.2221     27.1449     62.3668     30.8970
  2250.3000      8.2237      2.2822      0.2256     22.2892     62.7103     30.9873
  2250.4000      8.2237      2.3725      0.2150     16.8202     62.1748     30.3009
  2250.5000      8.0908      2.4500      0.1382     12.1236     62.4645     29.6769
  2250.6000      8.0908      2.4970      0.1274      9.2743     63.9812     29.2549
  2250.7000      8.0908      2.5030      0.1415      8.9072     67.5579     28.1370
  2250.8000      7.9866      2.4768      0.0725     10.4950     72.1524     26.6872
  2250.9000      7.9866      2.4562     -0.0199     11.7479     74.2273     25.5757
  2251.0000      7.9557      2.4729      0.0277     10.7353     71.2814     24.9934
  2251.1000      7.9557      2.5199      0.1000      7.8876     67.3843     25.2571
  2251.2000      7.9557      2.5631      0.1088      5.2650     68.8967     25.6952
  2251.3000      7.9451      2.5827      0.1012      4.0795     74.5278     25.5266
  2251.4000      7.9451      2.5894      0.0886      3.6717     76.4508     25.0793
  2251.5000      7.9440      2.5918      0.1094      3.5259     74.2825     24.7146
  2251.6000      7.9440      2.5823      0.1483      4.1043     74.0134     24.3952
  2251.7000      7.9440      2.5644      0.0659      5.1880     75.4635     23.9688
  2251.8000      7.9412      2.5543      0.0804      5.7983     75.3667     23.6466
  2251.9000      7.9412      2.5522      0.0901      5.9275     75.3417     23.4388
  2252.0000      7.9443      2.5489      0.0460      6.1298     76.0180     22.7751
  2252.1000      7.9443      2.5448      0.0410      6.3731     74.4905     22.2664
  2252.2000      7.9443      2.5417      0.0502      6.5630     72.9463     23.0078
  2252.3000      7.9428      2.5325      0.0427      7.1190     73.3645     24.4980
  2252.4000      7.9428      2.5039      0.0512      8.8569     72.8743     25.4806
  2252.5000      7.9454      2.4530      0.0112     11.9402     70.7989     25.8118
  2252.6000      7.9454      2.4028     -0.0345     14.9830     69.4835     26.0089
  2252.7000      7.9454      2.3725      0.0007     16.8195     71.3309     26.0580
  2252.8000      7.9476      2.3601     -0.0194     17.5709     77.8560     25.6294
  2252.9000      7.9476      2.3640      0.0191     17.3351     88.1497     25.0405
  2253.0000      7.9573      2.3806      0.0479     16.3266     95.7246     24.9063
  2253.1000      7.9573      2.4001      0.0707     15.1441     94.6198     25.2126
  2253.2000      7.9573      2.4175      0.0868     14.0902     89.5050     25.6819
  2253.3000      7.9577      2.4358      0.1121     12.9794     87.0232     25.9793
  2253.4000      7.9577      2.4577      0.1195     11.6532     87.0765     26.0209
  2253.5000      7.9500      2.4768      0.1526     10.4981     85.9231     26.2352
  2253.6000      7.9500      2.4873      0.1049      9.8594     83.6451     26.4022
  2253.7000      7.9500      2.4938      0.1076      9.4691     84.8069     25.7856
  2253.8000      7.9382      2.4971      0.1291      9.2646     89.2134     24.6811
  2253.9000      7.9382      2.4970      0.0825      9.2723     92.2602     24.0120
  2254.0000      7.9379      2.5012      0.0920      9.0185     92.3279     24.1619
  2254.1000      7.9379      2.5132      0.0723      8.2902     91.0782     24.4236
  2254.2000      7.9379      2.5243      0.0997      7.6184     88.0080     23.9801
  2254.3000      7.9395      2.5217      0.1108      7.7733     81.1171     23.1238
  2254.4000      7.9395      2.5096      0.0344      8.5106     75.5378     22.7800
  2254.5000      7.9395      2.5076      0.0470      8.6325     73.7467     23.0111
  2254.6000      7.9395      2.5187      0.0804      7.9554     70.8206     23.0533
  2254.7000      7.9395      2.5310      0.1006      7.2107     67.3993     22.8884
  2254.8000      7.9385      2.5362      0.0589      6.8950     66.6757     23.0835
  2254.9000      7.9385      2.5333      0.0753      7.0740     67.4727     23.8286
  2255.0000      7.9415      2.5274      0.0419      7.4299     66.2093     24.4884
  2255.1000      7.9415      2.5221      0.0850      7.7519     61.1784     24.2990
  2255.2000      7.9415      2.5142      0.0378      8.2313     55.5836     23.5518
  2255.3000      7.9405      2.5097      0.0628      8.5024     53.3096     22.8238
  2255.4000      7.9405      2.5181      0.1105      7.9962     54.8645     22.2004
  2255.5000      7.9407      2.5303      0.0868      7.2547     59.0465     21.7096
  2255.6000      7.9407      2.5309      0.0760      7.2197     62.8320     21.6415
  2255.7000      7.9407      2.5208      0.0766      7.8288     62.5192     22.3875
  2255.8000      7.9390      2.5168      0.0542      8.0698     58.2346     23.6048
  2255.9000      7.9390      2.5289      0.0805      7.3393     54.2622     24.0431
  2256.0000      7.9334      2.5484      0.1114      6.1591     54.7252     22.8039
  2256.1000      7.9334      2.5683      0.0654      4.9491     60.0083     20.7639
  2256.2000      7.9334      2.5879      0.1229      3.7616     65.0257     19.6115
  2256.3000      7.9346      2.5977      0.1246      3.1705     64.5986     19.7098
  2256.4000      7.9346      2.5953      0.1059      3.3129     60.4455     20.5698
  2256.5000      7.9307      2.5822      0.1111      4.1089     57.4247     21.4139
  2256.6000      7.9307      2.5558      0.0862      5.7064     59.1465     21.5752
  2256.7000      7.9307      2.5254      0.0498      7.5511     67.0551     21.7417
  2256.8000      7.9233      2.5046      0.0110      8.8106     76.4036     22.3935
  2256.9000      7.9233      2.5007     -0.0008      9.0497     80.5083     22.5893
  2257.0000      7.9180      2.5146      0.0373      8.2059     79.0971     21.7698
  2257.1000      7.9180      2.5320      0.0655      7.1530     77.7254     21.0502
  2257.2000      7.9180      2.5309      0.0711      7.2176     80.4649     21.9679
  2257.3000      7.9238      2.5022      0.0241      8.9601     83.6767     24.2733
  2257.4000      7.9238      2.4595      0.0377     11.5436     84.8627     26.0915
  2257.5000      7.9282      2.4359     -0.0404     12.9742     88.2219     26.6371
  2257.6000      7.9282      2.4485      0.0721     12.2103     94.4186     26.6255
  2257.7000      7.9282      2.4745      0.0710     10.6370     99.0170     26.8727
  2257.8000      7.9532      2.4865      0.1250      9.9121    101.5786     27.6425
  2257.9000      7.9532      2.4808      0.1011     10.2525    105.8459     28.2772
  2258.0000      8.0497      2.4736      0.0264     10.6927    111.1975     28.5014
  2258.1000      8.0497      2.4768      0.0965     10.4996    111.5361     28.8009
  2258.2000      8.0497      2.4850      0.0988     10.0027    105.9525     28.8500
  2258.3000      8.0306      2.4952      0.1048      9.3813    103.2524     28.1698
  2258.4000      8.0306      2.5074      0.1006      8.6447    107.5567     27.3634
  2258.5000      7.9483      2.5129      0.1156      8.3067    112.0713     27.0768
  2258.6000      7.9483      2.5054      0.0897      8.7662    111.7328     27.4121
  2258.7000      7.9483      2.4853      0.1140      9.9803    109.1134     27.9006
  2258.8000      7.9382      2.4595      0.0687     11.5453    107.2888     27.7142
