~Version Information
VERS.                      2.0: CWLS Log ASCII Standard - VERSION 2.0
WRAP.                       NO: One line per depth step
~Well Information Block
STRT.FT                 0.5000: 
STOP.FT              1575.0000: 
STEP.FT                 0.2500: 
NULL.                -999.2500: 
COMP.          Evergreen Operating Corporation: COMPANY
WELL.                Eric 42-9: WELL
FLD.           Purgatorie River: FIELD
LOC.           2050' FNL & 850' FEL: LOCATION
PROV.                 Colorado: PROVINCE
CNTY.               Las Animas: COUNTRY
SRVC.                         : SERVICE COMPANY
DATE.          Tue Nov 09 16:28:59 2004: LOG DATE
UWI.           05 071 07999 00: UNIQUE WELL ID
~Curve Information Block
DEPT.FT            0 000 00 00: Depth
LTEN.lb                       : Surface Line Tension
TT3.usec                      : CBL 3' Travel Time
AMP3.mV                       : CBL 3' Amplitude
ATT3.db/ft                    : CBL 3' Attenuation
GR.GAPI                       : Gamma Ray
CCL.                          : Casing Collar Locator
~Parameter Information Block
~A  Depth       LTEN        TT3         AMP3        ATT3         GR         CCL     
# ...
    96.5000    384.7386    929.5774      7.0270     -7.5339     81.5270      0.0000
    96.7500    388.8954    950.0554      7.1809     -7.4712     82.1743      0.0000
    97.0000    391.7474    980.2415      7.3702     -7.3958     83.4673      0.0000
    97.2500    392.7289   1022.5526      7.4978     -7.3461     85.4893      0.0000
    97.5000    391.7096   1069.6512      7.5407     -7.3296     88.2832      0.0000
    97.7500    389.2717   1104.4685      7.5664     -7.3198     91.6319      0.0000
    98.0000    386.4164   1113.6685      7.6630     -7.2831     94.5898      0.0000
    98.2500    384.2010   1099.0143      7.8506     -7.2130     95.8859      0.0000
    98.5000    383.8078   1072.7828      8.0528     -7.1394     95.1489      0.0000
    98.7500    386.4661   1045.1384      8.1578     -7.1019     93.3949      0.0000
    99.0000    392.3750   1019.1707      8.1208     -7.1150     92.1119      0.0000
    99.2500    399.4644    995.9408      8.0107     -7.1546     92.1049      0.0000
    99.5000    404.1030    979.5854      7.9540     -7.1751     93.2023      0.0000
    99.7500    403.9043    975.5386      8.0355     -7.1456     94.6275      0.0000
   100.0000    399.7425    985.5377      8.2399     -7.0729     95.3596      0.0000
   100.2500    394.5817   1006.2318      8.4644     -6.9951     94.3965      0.0000
   100.5000    390.4962   1031.3071      8.5829     -6.9548     91.2224      0.0000
   100.7500    387.3433   1052.9229      8.5178     -6.9768     86.3849      0.0000
   101.0000    384.1471   1062.5048      8.2791     -7.0592     81.4682      0.0000
   101.2500    380.8310   1054.2267      7.9566     -7.1742     78.1420      0.0000
   101.5000    378.3401   1029.5349      7.6772     -7.2777     77.1218      0.0000
   101.7500    377.8242    997.1373      7.5384     -7.3305     77.9962      0.0000
   102.0000    379.9888    967.4434      7.5483     -7.3267     79.8354      0.0000
   102.2500    384.6345    946.3984      7.6222     -7.2985     81.8288      0.0000
   102.5000    390.3927    933.7919      7.6478     -7.2888     83.4708      0.0000
   102.7500    395.0251    926.0366      7.5709     -7.3180     84.4057      0.0000
   103.0000    396.3107    919.7060      7.4329     -7.3713     84.3999      0.0000
   103.2500    393.3057    913.0891      7.3308     -7.4114     83.5829      0.0000
   103.5000    387.3600    906.0690      7.3358     -7.4094     82.4667      0.0000
   103.7500    381.6547    899.9385      7.4388     -7.3690     81.4753      0.0000
   104.0000    379.0453    897.1351      7.5682     -7.3191     80.5398      0.0000
   104.2500    380.1855    899.6387      7.6579     -7.2850     79.3817      0.0000
   104.5000    383.7550    906.7766      7.7039     -7.2676     78.1399      0.0000
   104.7500    387.9881    915.0932      7.7571     -7.2477     77.5164      0.0000
   105.0000    391.4753    920.9258      7.8625     -7.2086     78.2273      0.0000
   105.2500    393.0373    923.0014      8.0055     -7.1564     80.3332      0.0000
   105.5000    392.1598    922.6828      8.1145     -7.1173     83.0713      0.0000
   105.7500    389.8560    922.1967      8.1134     -7.1177     85.3308      0.0000
   106.0000    388.1002    922.5997      7.9793     -7.1660     86.4075      0.0000
   106.2500    387.9806    923.1075      7.7578     -7.2474     86.3370      0.0000
   106.5000    389.0134    922.1904      7.5277     -7.3346     85.5006      0.0000
   106.7500    390.2271    919.0784      7.3535     -7.4024     84.1504      0.0000
   107.0000    391.0430    914.1362      7.2690     -7.4359     82.5095      0.0000
   107.2500    391.0132    908.1992      7.2821     -7.4307     81.0852      0.0000
   107.5000    389.7802    902.0499      7.3783     -7.3927     80.5031      0.0000
   107.7500    387.8196    896.2776      7.5235     -7.3363     80.8730      0.0000
   108.0000    386.4335    890.9758      7.6791     -7.2770     81.3451      0.0000
   108.2500    386.2635    885.4518      7.8253     -7.2224     80.4730      0.0000
   108.5000    386.1700    878.6647      7.9782     -7.1663     77.3942      0.0000
   108.7500    384.1363    870.2625      8.1721     -7.0968     72.8441      0.0000
   109.0000    379.3340    861.1998      8.4154     -7.0119     68.7891      0.0000
   109.2500    373.2118    853.1694      8.6697     -6.9257     66.9338      0.0000
   109.5000    368.4224    847.3574      8.8771     -6.8572     67.6752      0.0000
   109.7500    366.6528    843.8020      8.9995     -6.8176     70.4214      0.0000
   110.0000    367.6535    841.7988      9.0379     -6.8053     74.4994      0.0000
   110.2500    370.2314    840.6369      9.0338     -6.8066     79.3303      0.0000
   110.5000    373.6265    839.8835      9.0564     -6.7993     83.8352      0.0000
   110.7500    377.7979    839.1953      9.1723     -6.7625     86.4595      0.0000
   111.0000    382.8006    837.9884      9.4143     -6.6871     86.3308      0.0000
   111.2500    388.0737    835.3018      9.7667     -6.5807     84.1424      0.0000
   111.5000    392.2102    830.1755     10.1632     -6.4655     81.5772      0.0000
   111.7500    393.5849    822.5367     10.4983     -6.3716     80.0502      0.0000
   112.0000    391.7791    813.7367     10.6738     -6.3236     80.0490      0.0000
   112.2500    388.6055    805.8580     10.6663     -6.3256     81.3458      0.0000
   112.5000    387.3527    800.3170     10.5464     -6.3583     83.5379      0.0000
   112.7500    390.3069    797.2111     10.4153     -6.3946     86.3254      0.0000
   113.0000    396.6069    795.8148     10.3341     -6.4172     89.3922      0.0000
   113.2500    402.7542    795.3389     10.3214     -6.4208     92.2353      0.0000
   113.5000    405.5723    795.2421     10.3845     -6.4031     94.2163      0.0000
   113.7500    404.7037    795.2095     10.5132     -6.3675     94.7646      0.0000
   114.0000    402.3683    795.0995     10.6560     -6.3284     93.6820      0.0000
   114.2500    401.0056    794.9126     10.7367     -6.3066     91.4324      0.0000
   114.5000    400.9841    794.7145     10.6987     -6.3168     89.0591      0.0000
   114.7500    400.3022    794.5569     10.5287     -6.3632     87.6338      0.0000
   115.0000    396.6985    794.4656     10.2567     -6.4390     87.5597      0.0000
   115.2500    390.2688    794.7118      9.9556     -6.5253     88.1829      0.0000
   115.5000    383.7658    796.3719      9.7094     -6.5977     88.1950      0.0000
   115.7500    380.3440    801.8776      9.5429     -6.6478     86.8394      0.0000
   116.0000    381.2558    814.4399      9.3924     -6.6939     84.7181      0.0000
   116.2500    385.3391    835.3155      9.1898     -6.7570     82.9492      0.0000
   116.5000    389.9842    860.3905      8.9621     -6.8296     81.4985      0.0000
   116.7500    392.6525    880.7533      8.8070     -6.8802     79.0906      0.0000
   117.0000    392.4550    889.5229      8.7791     -6.8894     75.0923      0.0000
   117.2500    390.8259    889.2621      8.8410     -6.8690     70.8309      0.0000
   117.5000    390.2422    891.1937      8.9083     -6.8471     68.6228     -3.0000
   117.7500    391.8295    905.2976      8.9013     -6.8494     69.8344      0.0000
   118.0000    394.4657    930.4371      8.7711     -6.8920     74.0057      0.0000
   118.2500    396.2695    954.3623      8.5261     -6.9740     79.3517      0.0000
   118.5000    396.3282    963.3320      8.2370     -7.0739     83.8354      0.0000
   118.7500    394.6854    951.6329      7.9896     -7.1622     86.0562      0.0000
   119.0000    391.4615    923.6740      7.8302     -7.2206     85.6787      0.0000
   119.2500    386.8532    890.4783      7.7749     -7.2411     83.5375      0.0000
   119.5000    381.7835    864.9691      7.8394     -7.2171     81.4254      0.0000
   119.7500    377.8467    856.8669      8.0142     -7.1533     81.1785      0.0000
   120.0000    376.4060    867.2642      8.2333     -7.0752     83.2339      0.0000
   120.2500    377.8508    886.8224      8.4127     -7.0128     86.0394      0.0000
