~Version Information
VERS.                      2.0: CWLS Log ASCII Standard - VERSION 2.0
WRAP.                       NO: One line per depth step
~Well Information Block
STRT.FT               -16.5000: 
STOP.FT              1695.5000: 
STEP.FT                 0.2500: 
NULL.                -999.2500: 
COMP.          Pioneer Natural Resources: COMPANY
WELL.          Rancher 12-35 Tr: WELL
FLD.           Purgatorie River: FIELD
LOC.           2242' FNL & 308' FWL SWNW 35 32S 67W: LOCATION
PROV.                       CO: PROVINCE
CNTY.               Las Animas: COUNTRY
SRVC.                         : SERVICE COMPANY
DATE.         Fri Jul 08 09:39:00 2005: LOG DATE
UWI.                071 08430 : UNIQUE WELL ID
~Curve Information Block
DEPT.FT            0 000 00 00: Depth
CCL.                          : Casing Collar Locator
TT3.usec                      : CBL 3' Travel Time
AMP3.mV                       : CBL 3' Amplitude
GR.GAPI                       : Gamma Ray
~Parameter Information Block
~A  Depth       CCL         TT3         AMP3         GR     
   -16.5000   -999.2500   -999.2500   -999.2500     80.7032
   -16.2500   -999.2500   -999.2500   -999.2500     78.4979
   -16.0000   -999.2500   -999.2500   -999.2500     76.8684
   -15.7500   -999.2500   -999.2500   -999.2500     76.2616
   -15.5000   -999.2500   -999.2500   -999.2500     76.5491
   -15.2500   -999.2500   -999.2500   -999.2500     77.5128
   -15.0000   -999.2500   -999.2500   -999.2500     78.9412
   -14.7500   -999.2500   -999.2500   -999.2500     80.3293
   -14.5000   -999.2500   -999.2500   -999.2500     81.0861
   -14.2500   -999.2500   -999.2500   -999.2500     81.1141
   -14.0000   -999.2500   -999.2500   -999.2500     80.7347
   -13.7500   -999.2500   -999.2500   -999.2500     79.9966
   -13.5000   -999.2500   -999.2500   -999.2500     78.5190
   -13.2500   -999.2500   -999.2500   -999.2500     76.1562
   -13.0000   -999.2500   -999.2500   -999.2500     73.4206
   -12.7500   -999.2500   -999.2500   -999.2500     71.1204
   -12.5000   -999.2500   -999.2500   -999.2500     69.8606
   -12.2500   -999.2500   -999.2500   -999.2500     69.9014
   -12.0000   -999.2500   -999.2500   -999.2500     71.0576
   -11.7500   -999.2500   -999.2500   -999.2500     72.5525
   -11.5000   -999.2500    876.0000      0.7518     73.2658
   -11.2500   -999.2500    876.0000      0.7488     72.4179
   -11.0000   -999.2500    876.0000      0.7491     69.9227
   -10.7500   -999.2500    876.0000      0.7527     66.1204
   -10.5000   -999.2500    876.0000      0.7573     61.6156
   -10.2500   -999.2500    876.0000      0.7575     57.5710
   -10.0000   -999.2500    876.0000      0.7503     55.6618
    -9.7500   -999.2500    876.0000      0.7396     57.1340
    -9.5000   -999.2500    876.0000      0.7312     61.7357
    -9.2500   -999.2500    876.0000      0.7267     67.6380
    -9.0000   -999.2500    876.0000      0.7250     72.5815
    -8.7500   -999.2500    876.0000      0.7255     75.4247
    -8.5000   -999.2500    876.0000      0.7273     76.6977
    -8.2500   -999.2500    876.0000      0.7314     77.5416
    -8.0000   -999.2500    876.0000      0.7447     78.2972
    -7.7500   -999.2500    876.0000      0.7751     78.4361
    -7.5000   -999.2500    876.0000      0.8175     77.6020
    -7.2500   -999.2500    876.0000      0.8512     76.2042
    -7.0000   -999.2500    876.0000      0.8571     75.0510
    -6.7500   -999.2500    876.0000      0.8362     74.6582
    -6.5000   -999.2500    876.0000      0.8070     74.7221
    -6.2500   -999.2500    876.0000      0.7843     74.1149
    -6.0000      0.0000    876.0000      0.7651     71.7557
    -5.7500      0.0000    876.0000      0.7394     67.8466
    -5.5000      0.0000    876.0000      0.7089     64.0901
    -5.2500      0.0000    876.0000      0.6889     62.3967
    -5.0000      0.0000    876.0000      0.6928     63.2988
    -4.7500      0.0000    876.0000      0.7207     65.7131
    -4.5000      0.0000    876.0000      0.7607     68.1504
    -4.2500      0.0000    876.0000      0.7958     69.8597
    -4.0000      0.0000    876.0000      0.8116     70.7944
    -3.7500      0.0000    876.0000      0.8060     71.0039
    -3.5000      0.0000    876.0000      0.7932     70.5433
    -3.2500      0.0000    876.0000      0.7897     69.8009
    -3.0000      0.0000    876.0000      0.7969     69.4593
    -2.7500      0.0000    876.0000      0.8044     70.0129
    -2.5000      0.0000    876.0000      0.8050     71.4668
    -2.2500      0.0000    876.0000      0.7996     73.3652
    -2.0000      0.0000    876.0000      0.7888     74.7976
    -1.7500      0.0000    876.0000      0.7715     74.5808
    -1.5000      0.0000    876.0000      0.7536     72.0949
    -1.2500      0.0000    876.0000      0.7448     68.2027
    -1.0000      0.0000    876.0000      0.7460     64.9179
    -0.7500      0.0000    876.0000      0.7468     63.7387
    -0.5000      0.0000    876.0000      0.7402     64.3576
    -0.2500      0.0000    876.0000      0.7323     65.2953
     0.0000      0.0000    876.0000      0.7345     65.5816
     0.2500      0.0000    876.0000      0.7481     65.2345
     0.5000      0.0000    876.0000      0.7633     64.1598
     0.7500     -3.0000    876.0000      0.7716     61.5344
     1.0000      3.0000    876.0000      0.7723     56.7905
     1.2500      3.0000    876.0000      0.7553     44.3087
     1.5000      3.0000    876.0000      0.7387     38.7285
     1.7500      3.0000    876.0000      0.7271     33.9411
     2.0000      0.0000    876.0000      0.7283     30.0688
     2.2500      2.5854    876.0000      0.7379     27.7287
     2.5000      0.0000    876.0000      0.7475     27.5783
     2.7500      0.0000    876.0000      0.7545     29.6121
     3.0000      0.0000    876.0000      0.7594     33.1070
     3.2500      0.0000    876.0000      0.7608     37.2667
     3.5000      0.0000    876.0000      0.7592     41.7458
     3.7500      0.0000    876.0000      0.7600     46.3697
     4.0000      0.0000    876.0000      0.7657     50.5113
     4.2500      0.0000    876.0000      0.7707     53.1185
     4.5000      0.0000    876.0000      0.7665     53.5183
     4.7500      0.0000    876.0000      0.7500     52.0708
     5.0000      0.0000    876.0000      0.7263     49.9560
     5.2500      0.0000    876.0000      0.7041     48.3647
     5.5000      0.0000    876.0000      0.6904     47.8027
     5.7500      0.0000    876.0000      0.6894     47.9670
     6.0000      0.0000    876.0000      0.7021     48.2081
     6.2500      0.0000    876.0000      0.7232     48.2494
     6.5000      0.0000    876.0000      0.7429     48.5475
     6.7500      0.0000    876.0000      0.7558     49.8993
     7.0000      0.0000    876.0000      0.7646     52.5669
     7.2500      0.0000    876.0000      0.7716     55.9147
     7.5000      0.0000    876.0000      0.7732     59.1378
     7.7500      0.0000    876.0000      0.7641     62.1870
     8.0000      0.0000    876.0000      0.7442     65.5920
     8.2500      0.0000    875.9594      0.7220     69.5140
     8.5000      0.0000    875.6946      0.7252     73.4998
     8.7500      0.0000    874.3500      0.8537     77.1288
     9.0000      0.0000    869.0323      1.4136     80.3010
     9.2500      0.0000    852.6541      3.1247     82.8328
     9.5000      0.0000    813.3692      7.1564     84.3943
     9.7500      0.0000    739.9855     14.5598     85.1988
    10.0000      0.0000    633.2307     25.1522     86.3002
    10.2500      0.0000    512.2857     36.9519     88.6247
    10.5000      0.0000    405.5752     47.1922     91.8146
    10.7500      0.0000    332.2475     54.1400     94.6049
    11.0000      0.0000    292.9962     57.8626     96.4403
    11.2500      0.0000    276.6192     59.4745     98.2588
    11.5000      0.0000    271.2905     60.0586    101.4141
    11.7500      0.0000    269.9976     60.2070    106.0037
    12.0000      0.0000    270.0652     60.0590    110.4450
    12.2500      0.0000    271.1851     59.4199    112.8310
    12.5000      0.0000    274.1850     57.8729    112.8240
    12.7500      0.0000    280.5924     55.0031    112.1004
    13.0000      0.0000    292.9588     50.7061    112.6718
    13.2500      0.0000    316.2972     45.3464    114.7823
    13.5000      0.0000    359.3086     39.5781    116.5882
    13.7500      0.0000    430.9601     33.9797    115.8744
    14.0000      0.0000    530.9888     28.8371    111.9450
    14.2500      0.0000    643.1328     24.1925    106.0239
    14.5000      0.0000    742.1254     19.9975    100.3433
    14.7500      0.0000    810.2734     16.2063     96.7750
    15.0000      0.0000    846.7867     12.8143     95.5773
    15.2500      0.0000    862.4440      9.8986     95.1851
    15.5000      0.0000    868.6876      7.6117     93.6446
    15.7500      0.0000    871.8638      6.0647     90.2893
    16.0000      0.0000    873.9239      5.1939     85.8989
    16.2500      0.0000    875.1539      4.7728     81.7751
    16.5000      3.0000    875.7260      4.5524     79.2007
    16.7500      3.0000    875.9307      4.3692     79.1849
