~Version Information
VERS.                      2.0: CWLS Log ASCII Standard - VERSION 2.0
WRAP.                       NO: One line per depth step
~Well Information Block
STRT.FT               780.0000: 
STOP.FT              3152.2500: 
STEP.FT                 0.2500: 
NULL.                -999.2500: 
COMP.          Pioneer Natural Resources: COMPANY
WELL.            Paradise 13-8: WELL
FLD.           Purgatoire River: FIELD
LOC.           1896' FSL & 1120' FWL: LOCATION
PROV.                 Colorado: PROVINCE
CNTY.               Las Animas: COUNTRY
SRVC.                Patterson: SERVICE COMPANY
DATE.          Sat Jan 22 20:39:47 2005: LOG DATE
UWI.           05 071 07946 00: UNIQUE WELL ID
~Curve Information Block
DEPT.FT            0 000 00 00: Depth
SN.Ohm-m                      : IEL Short Normal
SP.mV                         : IEL Spontaneous Potential
DIR.Ohm-m                     : IEL Induction Resistivity
GR.GAPI                       : Gamma Ray
~Parameter Information Block
~A  Depth        SN          SP         DIR          GR     
# ...
  1081.5000   2000.0000   2000.0000     29.0075     56.4699
  1081.7500   2000.0000   2000.0000     29.5815     54.8057
  1082.0000   2000.0000   2000.0000     30.0538     52.2909
  1082.2500   2000.0000   2000.0000     30.3951     50.7715
  1082.5000   2000.0000   2000.0000     30.6073     48.9057
  1082.7500   2000.0000   2000.0000     30.7084     48.0315
  1083.0000   2000.0000   2000.0000     30.7226     47.3471
  1083.2500   2000.0000   2000.0000     30.6804     47.2383
  1083.5000   2000.0000   2000.0000     30.6115     47.3041
  1083.7500   2000.0000   2000.0000     30.5210     47.3458
  1084.0000   2000.0000   2000.0000     30.3704     47.3970
  1084.2500   2000.0000   2000.0000     30.0862     47.6181
  1084.5000   2000.0000   2000.0000     29.5996     48.7596
  1084.7500   2000.0000   2000.0000     28.8790     50.3256
  1085.0000   2000.0000   2000.0000     27.9339     54.1250
  1085.2500   2000.0000   2000.0000     26.7995     57.7852
  1085.5000   2000.0000   2000.0000     25.5269     65.5483
  1085.7500   2000.0000   2000.0000     24.1845     72.5750
  1086.0000   2000.0000   2000.0000     22.8567     85.6375
  1086.2500   2000.0000   2000.0000     21.6337     95.1766
  1086.5000   2000.0000   2000.0000     20.5912    108.6742
  1086.7500   2000.0000   2000.0000     19.7688    116.1409
  1087.0000   2000.0000   2000.0000     19.1577    124.1358
  1087.2500   2000.0000   2000.0000     18.7096    127.1581
  1087.5000   2000.0000   2000.0000     18.3649    128.5099
  1087.7500   2000.0000   2000.0000     18.0813    127.8446
  1088.0000   2000.0000   2000.0000     17.8437    125.7175
  1088.2500   2000.0000   2000.0000     17.6556    124.0398
  1088.5000   2000.0000   2000.0000     17.5237    121.5046
  1088.7500   2000.0000   2000.0000     17.4493    120.0340
  1089.0000   2000.0000   2000.0000     17.4263    118.9060
  1089.2500   2000.0000   2000.0000     17.4439    119.3679
  1089.5000   2000.0000   2000.0000     17.4909    122.2815
  1089.7500   2000.0000   2000.0000     17.5559    125.4511
  1090.0000   2000.0000   2000.0000     17.6268    130.6961
  1090.2500   2000.0000   2000.0000     17.6937    133.4107
  1090.5000   2000.0000   2000.0000     17.7599    134.6325
  1090.7500   2000.0000   2000.0000     17.8479    133.1405
  1091.0000   2000.0000   2000.0000     17.9893    128.0161
  1091.2500   2000.0000   2000.0000     18.2024    123.4634
  1091.5000   2000.0000   2000.0000     18.4797    116.2370
  1091.7500   2000.0000   2000.0000     18.7974    111.7974
  1092.0000   2000.0000   2000.0000     19.1372    106.9672
  1092.2500   2000.0000   2000.0000     19.4978    105.7101
  1092.5000   2000.0000   2000.0000     19.8864    107.0273
  1092.7500   2000.0000   2000.0000     20.2997    109.1665
  1093.0000   2000.0000   2000.0000     20.7108    111.6598
  1093.2500   2000.0000   2000.0000     21.0709    111.6013
  1093.5000   2000.0000   2000.0000     21.3280    108.4830
  1093.7500   2000.0000   2000.0000     21.4562    105.0339
  1094.0000   2000.0000   2000.0000     21.4721     99.5898
  1094.2500   2000.0000   2000.0000     21.4249     96.6780
  1094.5000   2000.0000   2000.0000     21.3632     93.9214
  1094.7500   2000.0000   2000.0000     21.3063     92.8467
  1095.0000   2000.0000   2000.0000     21.2425     91.5659
  1095.2500   2000.0000   2000.0000     21.1530     90.7891
  1095.5000   2000.0000   2000.0000     21.0431     90.2161
  1095.7500   2000.0000   2000.0000     20.9481     90.6411
  1096.0000   2000.0000   2000.0000     20.9081     92.7868
  1096.2500   2000.0000   2000.0000     20.9351     94.9838
  1096.5000   2000.0000   2000.0000     21.0012     98.5516
  1096.7500   2000.0000   2000.0000     21.0522    100.7166
  1097.0000   2000.0000   2000.0000     21.0264    103.6577
  1097.2500   2000.0000   2000.0000     20.8684    105.6298
  1097.5000   2000.0000   2000.0000     20.5466    108.6126
  1097.7500   2000.0000   2000.0000     20.0787    110.3407
  1098.0000   2000.0000   2000.0000     19.5369    112.1155
  1098.2500   2000.0000   2000.0000     19.0136    112.7730
  1098.5000   2000.0000   2000.0000     18.5742    113.3396
  1098.7500   2000.0000   2000.0000     18.2342    113.6076
  1099.0000   2000.0000   2000.0000     17.9693    113.8246
  1099.2500   2000.0000   2000.0000     17.7439    113.7680
  1099.5000   2000.0000   2000.0000     17.5366    113.4570
  1099.7500   2000.0000   2000.0000     17.3511    113.2552
  1100.0000   2000.0000   2000.0000     17.2100    113.0937
  1100.2500   2000.0000   2000.0000     17.1405    112.9767
  1100.5000   2000.0000   2000.0000     17.1614    112.4455
  1100.7500   2000.0000   2000.0000     17.2797    111.6519
  1101.0000   2000.0000   2000.0000     17.4931    109.5766
  1101.2500   2000.0000   2000.0000     17.7904    107.6082
  1101.5000   2000.0000   2000.0000     18.1495    103.9375
  1101.7500   2000.0000   2000.0000     18.5370    101.0145
  1102.0000   2000.0000   2000.0000     18.9180     95.6791
  1102.2500   2000.0000   2000.0000     19.2736     91.4504
  1102.5000   2000.0000   2000.0000     19.6082     84.6323
  1102.7500   2000.0000   2000.0000     19.9394     80.3299
  1103.0000   2000.0000   2000.0000     20.2808     75.0382
  1103.2500   2000.0000   2000.0000     20.6365     72.4274
  1103.5000   2000.0000   2000.0000     21.0086     69.6794
  1103.7500   2000.0000   2000.0000     21.4032     68.4730
  1104.0000   2000.0000   2000.0000     21.8235     67.5213
  1104.2500   2000.0000   2000.0000     22.2566     67.4304
  1104.5000   2000.0000   2000.0000     22.6693     68.0160
  1104.7500   2000.0000   2000.0000     23.0195     68.9409
  1105.0000   2000.0000   2000.0000     23.2758     71.3793
  1105.2500   2000.0000   2000.0000     23.4288     73.6203
  1105.5000   2000.0000   2000.0000     23.4901     77.0419
  1105.7500   2000.0000   2000.0000     23.4850     78.7713
  1106.0000   2000.0000   2000.0000     23.4406     80.2762
  1106.2500   2000.0000   2000.0000     23.3755     80.9707
  1106.5000   2000.0000   2000.0000     23.2916     82.5249
  1106.7500   2000.0000   2000.0000     23.1742     84.0668
  1107.0000   2000.0000   2000.0000     23.0057     86.4375
  1107.2500   2000.0000   2000.0000     22.7875     87.5098
  1107.5000   2000.0000   2000.0000     22.5571     88.1725
  1107.7500   2000.0000   2000.0000     22.3824     88.3921
  1108.0000   2000.0000   2000.0000     22.3292     89.2430
  1108.2500   2000.0000   2000.0000     22.4211     90.3253
  1108.5000   2000.0000   2000.0000     22.6202     92.3523
  1108.7500   2000.0000   2000.0000     22.8444     93.7202
  1109.0000   2000.0000   2000.0000     23.0141     95.9492
  1109.2500   2000.0000   2000.0000     23.0959     97.8979
  1109.5000   2000.0000   2000.0000     23.1103    101.6178
  1109.7500   2000.0000   2000.0000     23.1006    104.0330
  1110.0000   2000.0000   2000.0000     23.0973    105.8563
  1110.2500   2000.0000   2000.0000     23.1060    105.1307
  1110.5000   2000.0000   2000.0000     23.1232    101.1230
  1110.7500   2000.0000   2000.0000     23.1574     97.1454
  1111.0000   2000.0000   2000.0000     23.2336     90.5995
  1111.2500   2000.0000   2000.0000     23.3785     86.3466
  1111.5000   2000.0000   2000.0000     23.5989     80.1504
  1111.7500   2000.0000   2000.0000     23.8693     75.9259
  1112.0000   2000.0000   2000.0000     24.1356     69.4860
  1112.2500   2000.0000   2000.0000     24.3338     65.4694
  1112.5000   2000.0000   2000.0000     24.4179     60.4763
  1112.7500   2000.0000   2000.0000     24.3808     57.9945
  1113.0000   2000.0000   2000.0000     24.2561     55.5616
  1113.2500   2000.0000   2000.0000     24.0977     54.7323
  1113.5000   2000.0000   2000.0000     23.9524     54.4606
  1113.7500   2000.0000   2000.0000     23.8415     54.8416
  1114.0000   2000.0000   2000.0000     23.7590     56.3223
  1114.2500   2000.0000   2000.0000     23.6848     58.0005
  1114.5000   2000.0000   2000.0000     23.6019     61.5692
  1114.7500   2000.0000   2000.0000     23.5079     64.5765
