~Version Information
VERS.                      2.0: CWLS Log ASCII Standard - VERSION 2.0
WRAP.                       NO: One line per depth step
~Well Information Block
STRT.FT               390.0000: 
STOP.FT              2768.7000: 
STEP.FT                 0.1000: 
NULL.                -999.2500: 
COMP.          Pioneer Natural Resources: COMPANY
WELL.              Lynch 43-30: WELL
FLD.           Purgatoire River: FIELD
LOC.           1438' FSL & 429' FEL: LOCATION
PROV.                 Colorado: PROVINCE
CNTY.               Las Animas: COUNTRY
SRVC.                Patterson: SERVICE COMPANY
DATE.          Wed Oct 27 08:22:00 2004: LOG DATE
UWI.           05 071 08170 00: UNIQUE WELL ID
~Curve Information Block
DEPT.FT            0 000 00 00: Depth
DCAL.in                       : CDL Caliper
DPOR.pu                       : CDL Density Porosity
NPOR.pu                       : Neutron Porosity
RHOB.g/cc                     : CDL Bulk Density
RHOC.g/cc                     : CDL Density Correction
GR.GAPI                       : Gamma Ray
~Parameter Information Block
~A  Depth       DCAL        DPOR        NPOR        RHOB        RHOC         GR     
# ...
   543.6000      8.1895      5.5041     26.3520      2.5592     -0.0004    139.7224
   543.7000      8.1895      5.4516     26.2989      2.5600     -0.0174    142.9501
   543.8000      8.1922      5.2571     26.1826      2.5633      0.0068    142.4442
   543.9000      8.1922      5.7789     26.0213      2.5546      0.0143    137.9247
   544.0000      8.1801      6.4236     25.6023      2.5440     -0.0516    130.2180
   544.1000      8.1801      6.2198     25.0425      2.5474      0.0234    119.9594
   544.2000      8.1801      5.5459     25.1425      2.5585      0.0090    110.9457
   544.3000      8.1866      5.2493     25.9434      2.5634      0.0245    108.4597
   544.4000      8.1866      5.6796     26.6374      2.5563      0.0100    115.1539
   544.5000      8.1962      6.5296     26.9985      2.5423      0.0121    124.3453
   544.6000      8.1962      7.2692     27.2124      2.5301     -0.0078    126.3443
   544.7000      8.1962      7.2636     27.3307      2.5302     -0.0634    121.3472
   544.8000      8.2218      6.4359     27.2916      2.5438     -0.0088    114.6835
   544.9000      8.2218      5.8601     27.1757      2.5533     -0.0017    110.5345
   545.0000      8.2030      6.3534     27.2477      2.5452     -0.0052    112.2270
   545.1000      8.2030      7.5642     27.3677      2.5252     -0.0189    115.8570
   545.2000      8.2030      8.2739     27.2378      2.5135     -0.0738    116.4187
   545.3000      8.1894      8.1720     27.0618      2.5152     -0.0126    115.4768
   545.4000      8.1894      8.3427     27.3461      2.5123     -0.0212    113.6976
   545.5000      8.1809      8.7797     28.2071      2.5051     -0.0189    112.0064
   545.6000      8.1809      8.7378     29.0701      2.5058     -0.0019    112.3139
   545.7000      8.1809      8.4407     29.6453      2.5107     -0.0358    114.4267
   545.8000      8.1425      8.5324     30.3624      2.5092     -0.0103    117.3829
   545.9000      8.1425      9.2847     30.9976      2.4968     -0.0243    120.0856
   546.0000      8.1382     10.3934     30.9700      2.4785     -0.0349    122.8622
   546.1000      8.1382     11.6970     30.5992      2.4570     -0.0163    126.9821
   546.2000      8.1382     13.1807     30.2727      2.4325     -0.0078    130.9714
   546.3000      8.1316     14.2775     29.8591      2.4144     -0.0141    132.0334
   546.4000      8.1316     14.4243     29.2035      2.4120     -0.0076    129.8130
   546.5000      8.1362     13.7079     28.2321      2.4238     -0.0135    131.3924
   546.6000      8.1362     12.7729     27.1400      2.4392      0.0628    140.3473
   546.7000      8.1362     12.1383     26.2127      2.4497      0.0185    146.3634
   546.8000      8.1357     11.5181     25.3172      2.4600      0.0457    143.0448
   546.9000      8.1357     10.7837     24.3519      2.4721      0.0665    137.3917
   547.0000      8.1342      9.7034     23.6538      2.4899      0.0221    133.1051
   547.1000      8.1342      8.1800     23.5759      2.5150      0.1316    127.7281
   547.2000      8.1342      7.0863     23.8142      2.5331      0.0842    123.1404
   547.3000      8.1376      6.5619     23.8859      2.5417      0.0550    121.2481
   547.4000      8.1376      6.2917     23.9465      2.5462      0.0720    119.1124
   547.5000      8.1375      6.4047     24.2112      2.5443      0.0087    115.3335
   547.6000      8.1375      6.2840     24.6984      2.5463     -0.0018    113.9936
   547.7000      8.1375      5.1560     25.2930      2.5649     -0.0119    116.9777
   547.8000      8.1394      3.6032     25.3529      2.5905      0.0260    121.2597
   547.9000      8.1394      2.8966     24.6479      2.6022      0.0797    124.4756
   548.0000      8.1398      3.5181     23.9956      2.5920      0.0411    127.1267
   548.1000      8.1398      4.9485     24.0220      2.5684      0.0148    129.9371
   548.2000      8.1398      6.7039     24.5150      2.5394      0.0357    130.6270
   548.3000      8.1345      8.3829     24.7684      2.5117     -0.0400    127.0406
   548.4000      8.1345      9.2379     24.4021      2.4976     -0.0528    120.5258
   548.5000      8.1360      9.0269     24.1083      2.5011     -0.0218    115.5957
   548.6000      8.1360      8.1556     24.4642      2.5154     -0.0189    115.5797
   548.7000      8.1360      6.8361     24.8575      2.5372     -0.0250    118.5635
   548.8000      8.1390      5.8707     24.7501      2.5531      0.0572    119.8471
   548.9000      8.1390      6.1431     24.6226      2.5486     -0.0261    118.5959
   549.0000      8.1385      6.7122     24.9274      2.5392     -0.0402    117.2438
   549.1000      8.1385      6.5193     25.3662      2.5424      0.0270    117.1663
   549.2000      8.1385      5.9613     25.4671      2.5516     -0.0146    118.1363
   549.3000      8.1394      5.6209     25.0351      2.5573      0.0247    118.7987
   549.4000      8.1394      5.6791     24.5227      2.5563     -0.0095    119.7543
   549.5000      8.1394      5.9743     24.7141      2.5514      0.0000    122.3230
   549.6000      8.1394      6.3710     25.5210      2.5449     -0.0039    124.1380
   549.7000      8.1394      6.6341     26.1842      2.5405     -0.0548    123.3907
   549.8000      8.1387      6.6290     26.4808      2.5406      0.0278    122.3910
   549.9000      8.1387      6.9997     26.5777      2.5345     -0.0006    122.3174
   550.0000      8.1392      7.8931     26.5714      2.5198     -0.0371    121.6588
   550.1000      8.1392      8.5097     26.4427      2.5096     -0.0432    120.6133
   550.2000      8.1392      8.9017     26.4130      2.5031      0.0278    119.3584
   550.3000      8.1311      9.3989     26.9103      2.4949     -0.0305    118.3673
   550.4000      8.1311      9.0991     27.7275      2.4999     -0.0276    119.0435
   550.5000      8.1393      7.6765     28.3692      2.5233      0.0260    122.1280
   550.6000      8.1393      6.2953     28.8045      2.5461      0.0334    127.3949
   550.7000      8.1393      5.4966     29.2110      2.5593      0.0092    133.0747
   550.8000      8.1355      4.8980     29.5843      2.5692      0.0050    136.3252
   550.9000      8.1355      4.7389     29.6274      2.5718      0.0355    135.7778
   551.0000      8.1078      5.2684     29.2397      2.5631     -0.0221    130.8551
   551.1000      8.1078      6.0775     28.5223      2.5497      0.0350    123.4214
   551.2000      8.1078      7.0670     27.4771      2.5334      0.0278    119.8363
   551.3000      8.1277      7.6526     26.5594      2.5237     -0.0336    122.1154
   551.4000      8.1277      7.3081     26.2087      2.5294      0.0499    126.0869
   551.5000      8.1381      7.0202     26.1125      2.5342      0.0344    128.2826
   551.6000      8.1381      7.4241     25.8946      2.5275     -0.0021    129.8736
   551.7000      8.1381      7.9211     25.7526      2.5193      0.0019    131.2610
   551.8000      8.1362      7.8197     25.7633      2.5210     -0.0259    130.4809
   551.9000      8.1362      7.3981     25.6293      2.5279      0.0279    129.2025
   552.0000      8.1362      7.5629     25.2499      2.5252      0.0171    130.2155
   552.1000      8.1362      7.8907     25.0031      2.5198      0.0116    131.4259
   552.2000      8.1362      6.9036     25.1258      2.5361     -0.0046    133.0866
   552.3000      8.1390      4.5208     25.2780      2.5754      0.0491    137.9121
   552.4000      8.1390      2.5243     25.3784      2.6083      0.0938    141.8414
   552.5000      8.1385      2.3483     25.6232      2.6113      0.0766    138.0648
   552.6000      8.1385      3.5778     25.8379      2.5910      0.0217    127.4588
   552.7000      8.1385      4.7989     25.9447      2.5708      0.0130    119.3659
   552.8000      8.1390      5.0490     26.1669      2.5667      0.0064    117.5760
   552.9000      8.1390      4.4456     26.6489      2.5766      0.0258    115.4478
   553.0000      8.1357      3.8705     27.4013      2.5861      0.0222    110.2426
   553.1000      8.1357      3.4122     28.1025      2.5937      0.0181    107.3710
