~Version Information
VERS.                      2.0: CWLS Log ASCII Standard - VERSION 2.0
WRAP.                       NO: One line per depth step
~Well Information Block
STRT.FT                -4.0000: 
STOP.FT              2638.2500: 
STEP.FT                 0.2500: 
NULL.                -999.2500: 
COMP.          Petrogulf Corporation: COMPANY
WELL.            Montoya 6-14V: WELL
FLD.           Purgatorie River: FIELD
LOC.           318' FSL & 882' FWL--: LOCATION
PROV.                       CO: PROVINCE
CNTY.               Las Animas: COUNTRY
SRVC.                         : SERVICE COMPANY
DATE.          Mon May 02 08:32:04 2005: LOG DATE
UWI.      005 071 08020: UNIQUE WELL ID
~Curve Information Block
DEPT.FT            0 000 00 00: Depth
AMP3.mV                       : CBL 3' Amplitude
CCL.                          : Casing Collar Locator
GR.GAPI                       : Gamma Ray
TT3.usec                      : CBL 3' Travel Time
~Parameter Information Block
~A  Depth       AMP3        CCL          GR         TT3     
# ...
   163.5000     65.2379      0.0000     47.7878    258.6888
   163.7500     66.8735      0.0000     49.1434    257.7198
   164.0000     69.7766      0.0000     50.5546    256.7081
   164.2500     73.4965      0.0000     51.4799    255.8352
   164.5000     77.0392      0.0000     51.4279    255.1912
   164.7500     79.5588      0.0000     50.3204    254.7692
   165.0000     80.8691      0.0000     48.7766    254.5195
   165.2500     81.3095      0.0000     47.8006    254.3869
   165.5000     81.3159      0.0000     47.9984    254.3231
   165.7500     81.1730      0.0000     49.0732    254.2952
   166.0000     81.0074      0.0000     50.0324    254.2862
   166.2500     80.8619      0.0000     49.8557    254.2890
   166.5000     80.7495      0.0000     48.2423    254.2997
   166.7500     80.6788      0.0000     45.9201    254.3164
   167.0000     80.6533      0.0000     44.1121    254.3382
   167.2500     80.6649      0.0000     43.6439    254.3619
   167.5000     80.6888      0.0000     44.6169    254.3814
   167.7500     80.6867      0.0000     46.7562    254.3901
   168.0000     80.6209      0.0000     49.7414    254.3852
   168.2500     80.4728      0.0000     53.0792    254.3698
   168.5000     80.2536      0.0000     55.8898    254.3513
   168.7500     79.9992      0.0000     57.1446    254.3388
   169.0000     79.7518      0.0000     56.2611    254.3387
   169.2500     79.5429      0.0000     53.3791    254.3517
   169.5000     79.3877      0.0000     49.1841    254.3720
   169.7500     79.2887      0.0000     44.6960    254.3909
   170.0000     79.2387      0.0000     41.0270    254.4003
   170.2500     79.2189      0.0000     38.8466    254.3962
   170.5000     79.1960      0.0000     38.0274    254.3784
   170.7500     79.1325      0.0000     37.9002    254.3510
   171.0000     79.0064      0.0000     37.7636    254.3204
   171.2500     78.8245      0.0000     37.2604    254.2946
   171.5000     78.6174      0.0000     36.4946    254.2795
   171.7500     78.4223      0.0000     35.7351    254.2770
   172.0000     78.2669      0.0000     34.9090    254.2844
   172.2500     78.1637      0.0000     33.6211    254.2956
   172.5000     78.1068      0.0000     31.7805    254.3041
   172.7500     78.0696      0.0000     29.9150    254.3056
   173.0000     78.0121      0.0000     28.8629    254.3016
   173.2500     77.9008      0.0000     29.3772    254.2988
   173.5000     77.7265      0.0000     31.7412    254.3037
   173.7500     77.5036      0.0000     35.3234    254.3160
   174.0000     77.2594      0.0000     38.8174    254.3294
   174.2500     77.0303      0.0000     41.5508    254.3384
   174.5000     76.8598      0.0000     44.3739    254.3438
   174.7500     76.7823      0.0000     48.6514    254.3495
   175.0000     76.7944      0.0000     54.5391    254.3582
   175.2500     76.8441      0.0000     60.9017    254.3695
   175.5000     76.8592      0.0000     66.7713    254.3816
   175.7500     76.7957      0.0000     72.1371    254.3933
   176.0000     76.6615      0.0000     77.1293    254.4031
   176.2500     76.5017      0.0000     80.9674    254.4091
   176.5000     76.3641      0.0000     82.2303    254.4108
   176.7500     76.2758      0.0000     80.2670    254.4122
   177.0000     76.2414      0.0000     76.2067    254.4189
   177.2500     76.2553      0.0000     72.5052    254.4323
   177.5000     76.3082      0.0000     71.4348    254.4462
   177.7500     76.3787      0.0000     73.6886    254.4524
   178.0000     76.4286      0.0000     78.0739    254.4488
   178.2500     76.4210      0.0000     82.4408    254.4423
   178.5000     76.3538      0.0000     85.0036    254.4423
   178.7500     76.2728      0.0000     85.1420    254.4520
   179.0000     76.2469      0.0000     83.5283    254.4664
   179.2500     76.3199      0.0000     81.7277    254.4787
   179.5000     76.4795      0.0000     81.2528    254.4861
   179.7500     76.6651      0.0000     82.5192    254.4885
   180.0000     76.8088      0.0000     84.7573    254.4858
   180.2500     76.8757      0.0000     87.0529    254.4776
   180.5000     76.8760      0.0000     89.1253    254.4655
   180.7500     76.8452      0.0000     90.9672    254.4530
   181.0000     76.8138      0.0000     92.3140    254.4446
   181.2500     76.7972      0.0000     92.8579    254.4430
   181.5000     76.8077      0.0000     92.5713    254.4497
   181.7500     76.8622      0.0000     91.6499    254.4639
   182.0000     76.9704      0.0000     90.6065    254.4812
   182.2500     77.1201      0.0000     90.4601    254.4951
   182.5000     77.2805      0.0000     92.1871    254.5008
   182.7500     77.4181      0.0000     95.6783    254.4972
   183.0000     77.5116      0.0000     99.6238    254.4871
   183.2500     77.5645      0.0000    102.6200    254.4746
   183.5000     77.6065      0.0000    104.1366    254.4646
   183.7500     77.6743      0.0000    104.4722    254.4617
   184.0000     77.7829      0.0000    104.3236    254.4682
   184.2500     77.9185      0.0000    104.4453    254.4823
   184.5000     78.0635      0.0000    105.1921    254.4988
   184.7500     78.2226      0.0000    106.1109    254.5134
   185.0000     78.4140      0.0000    106.1845    254.5256
   185.2500     78.6367      0.0000    104.6955    254.5366
   185.5000     78.8570      0.0000    101.8475    254.5451
   185.7500     79.0316      0.0000     98.6057    254.5460
   186.0000     79.1408      0.0000     96.0541    254.5345
   186.2500     79.2026      0.0000     94.6799    254.5128
   186.5000     79.2607      0.0000     93.8385    254.4926
   186.7500     79.3542      0.0000     92.1107    254.4870
   187.0000     79.4934      0.0000     88.8260    254.5001
   187.2500     79.6624      0.0000     85.1807    254.5254
   187.5000     79.8418      0.0000     83.3687    254.5526
   187.7500     80.0233      0.0000     84.6773    254.5723
   188.0000     80.2056      0.0000     88.4862    254.5780
   188.2500     80.3841      0.0000     92.6783    254.5686
   188.5000     80.5530      0.0000     95.0636    254.5501
   188.7500     80.7140      0.0000     95.0159    254.5337
   189.0000     80.8700      0.0000     93.9029    254.5273
   189.2500     81.0106      0.0000     93.5856    254.5304
   189.5000     81.1183      0.0000     94.4133    254.5369
   189.7500     81.1903      0.0000     94.8383    254.5423
   190.0000     81.2424      0.0000     92.9776    254.5457
   190.2500     81.2916      0.0000     88.4443    254.5480
   190.5000     81.3462      0.0000     82.6633    254.5499
   190.7500     81.4131      0.0000     77.5897    254.5527
   191.0000     81.5012      0.0000     74.3047    254.5585
   191.2500     81.6132      0.0000     72.8776    254.5682
   191.5000     81.7419      0.0000     73.2504    254.5809
   191.7500     81.8768      0.0000     75.7822    254.5931
   192.0000     82.0100      0.0000     80.6269    254.6004
   192.2500     82.1318      0.0000     86.6613    254.5992
   192.5000     82.2288      0.0000     91.3507    254.5885
   192.7500     82.2950      0.0000     92.0494    254.5718
   193.0000     82.3435      0.0000     87.9094    254.5558
   193.2500     82.4016      0.0000     80.8378    254.5471
   193.5000     82.4896      0.0000     74.3343    254.5486
   193.7500     82.6067      0.0000     70.9906    254.5593
   194.0000     82.7388      0.0000     71.0666    254.5770
   194.2500     82.8745      0.0000     73.1648    254.5999
   194.5000     83.0056      0.0000     75.6287    254.6250
   194.7500     83.1175      0.0000     77.5119    254.6467
   195.0000     83.1915      0.0000     79.0618    254.6594
   195.2500     83.2194      0.0000     81.3507    254.6623
   195.5000     83.2129      0.0000     85.0023    254.6595
   195.7500     83.1984      0.0000     89.3814    254.6555
   196.0000     83.2048      0.0000     93.1906    254.6534
   196.2500     83.2523      0.0000     95.5669    254.6546
   196.5000     83.3437      0.0000     96.4397    254.6602
   196.7500     83.4648      0.0000     96.1184    254.6709
