~Version Information
 VERS.                                  2.0 : CWLS LAS VERSION
 WRAP.                                   NO : WRAPING MODE
 SWARE .                 MController 2.5.0J : SOFTWARE VERSION
~Well Information
 WELL.                      Oink Oink 14-36 : WELL
 COMP.    Pioneer Natural Resources USA Ink : COMPANY
 FLD.                      Purgatoire River : FIELD
 LOC.                SW/SW Sec 36 T32S R37W : LOCATION
 DATE.                         6/07-08/2005 : DATE(S) LOGGED
 SRVC.       Blanco Geological Services LLC : SERVICE COMPANY
 STAT.                                   CO : STATE
 CNTY.                           Las Animas : COUNTY
 CTRY.                                  USA : COUNTRY
 API.                       05-071-08394-00 : API NUMBER
 STRT.FT                             514.00 : START DEPTH
 STOP.FT                            2457.00 : STOP DEPTH
 STEP.FT                               1.00 : DEPTH INCREMENT
 NULL.                                -9999 : NULL VALUE
~Curve information
 DEPTH.FT                                   :
 ROP.MIN/FT                                 :
 GAS.UNITS                                  :
~ASCII Log data
# ...
      2114.0         0.37       1062.4 
      2115.0         0.43       1180.2 
      2116.0         0.37       1245.9 
      2117.0         0.37       1315.0 
      2118.0         0.33       1377.8 
      2119.0         0.62       1384.0 
      2120.0         0.37       1246.6 
      2121.0         0.37       1112.5 
      2122.0         0.50       1024.1 
      2123.0         0.33        874.3 
      2124.0         0.23        790.5 
      2125.0         0.27        763.1 
      2126.0         2.08        768.0 
      2127.0         0.47        815.7 
      2128.0         0.43       1151.1 
      2129.0         0.40       1548.6 
      2130.0         0.37       1802.4 
      2131.0         0.33       1914.6 
      2132.0         0.28       1926.4 
      2133.0         0.20       1902.5 
      2134.0         0.13       1838.7 
      2135.0         0.10       1790.3 
      2136.0         0.13       1731.4 
      2137.0         0.37       1679.1 
      2138.0         0.37       1522.1 
      2139.0         0.43       1379.1 
      2140.0         0.40       1348.7 
      2141.0         0.43       1387.3 
      2142.0         0.40       1381.7 
      2143.0         0.42       1351.9 
      2144.0         0.40       1307.8 
      2145.0         0.33       1236.8 
      2146.0         0.33       1178.2 
      2147.0         0.23       1145.2 
      2148.0         0.30       1134.4 
      2149.0         0.30       1124.2 
      2150.0         0.33       1103.0 
      2151.0         0.30       1078.4 
      2152.0         0.30       1046.4 
      2153.0         0.28       1030.7 
      2154.0         0.27       1019.6 
      2155.0         0.27       1013.3 
      2156.0         2.78       1003.2 
      2157.0         0.53       1405.3 
      2158.0         0.43       1845.9 
      2159.0         0.37       2097.8 
      2160.0         0.37       2157.0 
      2161.0         0.37       2138.4 
      2162.0         0.30       1978.8 
      2163.0         0.30       1786.7 
      2164.0         0.37       1659.1 
      2165.0         0.35       1515.5 
      2166.0         0.30       1381.4 
      2167.0         0.80       1273.4 
      2168.0         0.47       1173.6 
      2169.0         0.37       1142.2 
      2170.0         0.30       1132.1 
      2171.0         0.30       1066.0 
      2172.0         0.43       1061.1 
      2173.0         0.32       1078.8 
      2174.0         0.37       1079.1 
      2175.0         0.33       1060.1 
      2176.0         0.27       1034.9 
      2177.0         0.23       1012.0 
      2178.0         0.13        994.4 
      2179.0         0.17        990.4 
      2180.0         0.13        987.5 
      2181.0         0.13        991.1 
      2182.0         0.13        991.4 
      2183.0         0.20        990.8 
      2184.0         0.33        982.6 
      2185.0         0.27        938.1 
      2186.0         2.55       1233.5 
      2187.0         0.63       1982.3 
      2188.0         0.82       2359.6 
      2189.0         0.60       2318.3 
      2190.0         0.23       1904.8 
      2191.0         0.23       1744.5 
      2192.0         0.20       1625.1 
      2193.0         0.20       1515.5 
      2194.0         0.33       1433.7 
      2195.0         0.30       1315.9 
      2196.0         0.33       1230.9 
      2197.0         0.58       1179.9 
      2198.0         0.27       1181.2 
      2199.0         0.27       1172.0 
      2200.0         0.30       1159.2 
      2201.0         0.37       1123.9 
      2202.0         0.30       1099.4 
      2203.0         0.33       1115.7 
      2204.0         0.23       1117.4 
      2205.0         0.23       1108.5 
      2206.0         0.23       1095.8 
      2207.0         0.30       1074.5 
      2208.0         0.20       1045.7 
      2209.0         0.32       1027.1 
      2210.0         0.33       1026.4 
      2211.0         0.27       1032.6 
      2212.0         0.20       1033.0 
      2213.0         0.23       1025.1 
      2214.0         0.23       1010.1 
      2215.0         0.33        999.9 
      2216.0         2.62       1289.1 
      2217.0         0.47       1842.7 
      2218.0         0.37       2235.9 
      2219.0         0.30       2412.9 
      2220.0         0.23       2467.8 
      2221.0         0.27       2444.9 
      2222.0         0.30       2317.7 
      2223.0         0.27       2078.2 
      2224.0         0.22       1878.6 
      2225.0         0.13       1745.2 
      2226.0         0.20       1675.8 
      2227.0         0.40       1586.8 
      2228.0         0.30       1443.5 
      2229.0         0.30       1360.8 
      2230.0         0.40       1259.7 
      2231.0         0.27       1214.2 
      2232.0         0.23       1203.4 
      2233.0         0.17       1178.2 
      2234.0         0.13       1164.8 
      2235.0         0.17       1150.1 
      2236.0         0.20       1131.1 
      2237.0         0.22       1103.0 
      2238.0         0.17       1074.8 
      2239.0         0.23       1045.4 
      2240.0         0.27        997.3 
      2241.0         0.27       1024.1 
      2242.0         0.30       1056.8 
      2243.0         0.30       1088.9 
      2244.0         0.33       1111.5 
      2245.0         0.37       1115.7 
      2246.0         2.62       1279.0 
      2247.0         0.60       1826.3 
      2248.0         0.43       2150.5 
      2249.0         0.47       2194.0 
      2250.0         0.45       2137.1 
      2251.0         0.40       1904.8 
      2252.0         0.47       1698.7 
      2253.0         0.13       1499.2 
      2254.0         0.20       1448.4 
      2255.0         0.33       1373.9 
      2256.0         0.37       1264.6 
      2257.0         0.40       1148.8 
      2258.0         0.37       1026.1 
      2259.0         0.38       1093.2 
      2260.0         0.37       1145.2 
      2261.0         0.33       1184.4 
      2262.0         0.23       1196.2 
      2263.0         0.13       1203.4 
      2264.0         0.17       1209.0 
      2265.0         0.27       1209.6 
      2266.0         0.27       1210.3 
      2267.0         0.27       1194.2 
      2268.0         0.33       1157.0 
      2269.0         0.30       1126.9 
      2270.0         0.33       1128.5 
      2271.0         0.28       1117.4 
      2272.0         0.30       1105.9 
      2273.0         0.33       1083.7 
      2274.0         0.23       1049.3 
      2275.0         0.30       1022.5 
      2276.0         3.02       1017.3 
      2277.0         0.30       1326.1 
      2278.0         0.43       1852.5 
      2279.0         0.37       2241.8 
      2280.0         0.30       2438.7 
      2281.0         0.27       2471.1 
      2282.0         0.23       2441.3 
      2283.0         0.17       2295.4 
      2284.0         0.27       2172.1 
      2285.0         0.35       1968.9 
      2286.0         0.27       1751.4 
      2287.0         0.33       1613.0 
      2288.0         0.43       1465.5 
      2289.0         0.73       1318.9 
      2290.0         0.30       1217.1 
      2291.0         0.33       1184.8 
      2292.0         0.37       1042.8 
      2293.0         0.35        935.1 
      2294.0         0.30       1033.9 
      2295.0         0.30       1139.0 
      2296.0         0.20       1191.3 
      2297.0         0.23       1230.2 
      2298.0         0.20       1255.1 
      2299.0         0.30       1259.7 
      2300.0         0.30       1243.3 
      2301.0         0.30       1178.9 
      2302.0         0.30       1115.7 
      2303.0         0.27       1086.3 
      2304.0         0.20       1080.1 
      2305.0         0.28       1079.7 
      2306.0         3.28       1308.4 
      2307.0         0.40       1735.0 
      2308.0         0.47       2163.3 
      2309.0         0.77       2334.4 
      2310.0         0.83       2186.2 
      2311.0         0.75       1622.5 
      2312.0         0.33       1397.4 
      2313.0         0.27       1310.1 
