~Version Information
VERS.                      2.0: CWLS Log ASCII Standard - VERSION 2.0
WRAP.                       NO: One line per depth step
~Well Information Block
STRT.FT               710.0000: 
STOP.FT              2921.0000: 
STEP.FT                 0.1000: 
NULL.                -999.2500: 
COMP.          Petrogulf Corporation: COMPANY
WELL.            Montoya 1-41V: WELL
FLD.           Purgatorie River: FIELD
LOC.           610' FNL & 1205' FEL: LOCATION
PROV.                 Colorado: PROVINCE
CNTY.               Las Animas: COUNTRY
SRVC.                Patterson: SERVICE COMPANY
DATE.          Mon Aug 22 07:54:27 2005: LOG DATE
UWI.                          : UNIQUE WELL ID
~Curve Information Block
DEPT.FT            0 000 00 00: Depth
DCAL.in                       : CDL Caliper
RHOB.g/cc                     : CDL Bulk Density
RHOC.g/cc                     : CDL Density Correction
DPOR.pu                       : CDL Density Porosity
GR.GAPI                       : Gamma Ray
NPOR.pu                       : Neutron Porosity
~Parameter Information Block
~A  Depth       DCAL        RHOB        RHOC        DPOR         GR         NPOR    
# ...
  2908.4000      7.9077      2.5468      0.0181      6.2536      0.1664   -999.2500
  2908.5000      7.8969      2.5470      0.0415      6.2415      0.0089   -999.2500
  2908.6000      7.8969      2.5538      0.0524      5.8287      0.0000   -999.2500
  2908.7000      7.8969      2.5544      0.0681      5.7915   -999.2500   -999.2500
  2908.8000      7.8848      2.5490      0.0364      6.1242   -999.2500   -999.2500
  2908.9000      7.8848      2.5499      0.0502      6.0683   -999.2500   -999.2500
  2909.0000      7.8849      2.5561      0.1060      5.6886   -999.2500   -999.2500
  2909.1000      7.8849      2.5520      0.0619      5.9415   -999.2500   -999.2500
  2909.2000      7.8849      2.5318      0.0455      7.1625   -999.2500   -999.2500
  2909.3000      7.9038      2.5074      0.0071      8.6419   -999.2500   -999.2500
  2909.4000      7.9038      2.4929      0.0403      9.5210   -999.2500   -999.2500
  2909.5000      7.8954      2.4939      0.0067      9.4595   -999.2500   -999.2500
  2909.6000      7.8954      2.5076      0.0354      8.6309   -999.2500   -999.2500
  2909.7000      7.8954      2.5230      0.0486      7.6995   -999.2500   -999.2500
  2909.8000      7.9156      2.5295      0.0606      7.3017   -999.2500   -999.2500
  2909.9000      7.9156      2.5306      0.0161      7.2344   -999.2500   -999.2500
  2910.0000      7.9090      2.5369      0.0581      6.8570   -999.2500   -999.2500
  2910.1000      7.9090      2.5435      0.0967      6.4546   -999.2500   -999.2500
  2910.2000      7.9090      2.5430      0.0432      6.4871   -999.2500   -999.2500
  2910.3000      7.9116      2.5420      0.0758      6.5462   -999.2500   -999.2500
  2910.4000      7.9116      2.5479      0.0443      6.1886   -999.2500   -999.2500
  2910.5000      7.8987      2.5606      0.0556      5.4183   -999.2500   -999.2500
  2910.6000      7.8987      2.5743      0.0639      4.5867   -999.2500   -999.2500
  2910.7000      7.8987      2.5829      0.0783      4.0696   -999.2500   -999.2500
  2910.8000      7.8663      2.5836      0.0835      4.0224   -999.2500   -999.2500
  2910.9000      7.8663      2.5773      0.0900      4.4046   -999.2500   -999.2500
  2911.0000      7.8715      2.5672      0.0859      5.0166   -999.2500   -999.2500
  2911.1000      7.8715      2.5597      0.0800      5.4727   -999.2500   -999.2500
  2911.2000      7.8715      2.5557      0.0979      5.7150   -999.2500   -999.2500
  2911.3000      7.8531      2.5476      0.0649      6.2069   -999.2500   -999.2500
  2911.4000      7.8531      2.5385      0.0456      6.7604   -999.2500   -999.2500
  2911.5000      7.8182      2.5440      0.0430      6.4253   -999.2500   -999.2500
  2911.6000      7.8182      2.5673      0.0988      5.0116   -999.2500   -999.2500
  2911.7000      7.8182      2.5920      0.1324      3.5129   -999.2500   -999.2500
  2911.8000      7.8062      2.6045      0.1404      2.7585   -999.2500   -999.2500
  2911.9000      7.8062      2.6023      0.1468      2.8936   -999.2500   -999.2500
  2912.0000      7.8135      2.5891      0.1318      3.6924   -999.2500   -999.2500
  2912.1000      7.8135      2.5754      0.1236      4.5184   -999.2500   -999.2500
  2912.2000      7.8135      2.5678      0.1270      4.9799   -999.2500   -999.2500
  2912.3000      7.8060      2.5579      0.1382      5.5805   -999.2500   -999.2500
  2912.4000      7.8060      2.5388      0.0911      6.7412   -999.2500   -999.2500
  2912.5000      7.8552      2.5216      0.0658      7.7844   -999.2500   -999.2500
  2912.6000      7.8552      2.5220      0.0473      7.7580   -999.2500   -999.2500
  2912.7000      7.8552      2.5338      0.0910      7.0422   -999.2500   -999.2500
  2912.8000      7.9368      2.5359      0.0942      6.9125   -999.2500   -999.2500
  2912.9000      7.9368      2.5286      0.0285      7.3567   -999.2500   -999.2500
  2913.0000      7.9280      2.5265      0.0973      7.4870   -999.2500   -999.2500
  2913.1000      7.9280      2.5320      0.0859      7.1538   -999.2500   -999.2500
  2913.2000      7.9280      2.5408      0.0870      6.6182   -999.2500   -999.2500
  2913.3000      7.8581      2.5491      0.1196      6.1176   -999.2500   -999.2500
  2913.4000      7.8581      2.5551      0.0896      5.7540   -999.2500   -999.2500
  2913.5000      7.8897      2.5625      0.1226      5.3040   -999.2500   -999.2500
  2913.6000      7.8897      2.5736      0.1238      4.6279   -999.2500   -999.2500
  2913.7000      7.8897      2.5824      0.1380      4.0975   -999.2500   -999.2500
  2913.8000      7.8697      2.5764      0.1399      4.4618   -999.2500   -999.2500
  2913.9000      7.8697      2.5529      0.0978      5.8863   -999.2500   -999.2500
  2914.0000      7.8265      2.5262      0.0768      7.5009   -999.2500   -999.2500
  2914.1000      7.8265      2.5136      0.0585      8.2684   -999.2500   -999.2500
  2914.2000      7.8265      2.5210      0.0543      7.8198   -999.2500   -999.2500
  2914.3000      7.8025      2.5389      0.1037      6.7358   -999.2500   -999.2500
  2914.4000      7.8025      2.5530      0.1203      5.8811   -999.2500   -999.2500
  2914.5000      7.8590      2.5606      0.1196      5.4184   -999.2500   -999.2500
  2914.6000      7.8590      2.5638      0.1324      5.2244   -999.2500   -999.2500
  2914.7000      7.8590      2.5642      0.0929      5.1990   -999.2500   -999.2500
  2914.8000      7.8507      2.5614      0.1579      5.3704   -999.2500   -999.2500
  2914.9000      7.8507      2.5504      0.1061      6.0378   -999.2500   -999.2500
  2915.0000      7.8712      2.5359      0.0728      6.9176   -999.2500   -999.2500
  2915.1000      7.8712      2.5308      0.0464      7.2258   -999.2500   -999.2500
  2915.2000      7.8712      2.5421      0.1084      6.5417   -999.2500   -999.2500
  2915.3000      7.8856      2.5634      0.1036      5.2463   -999.2500   -999.2500
  2915.4000      7.8856      2.5785      0.1690      4.3362   -999.2500   -999.2500
  2915.5000      7.8532      2.5794      0.0945      4.2781   -999.2500   -999.2500
  2915.6000      7.8532      2.5768      0.0863      4.4363   -999.2500   -999.2500
  2915.7000      7.8532      2.5790      0.0877      4.3031   -999.2500   -999.2500
  2915.8000      7.8209      2.5778      0.1285      4.3762   -999.2500   -999.2500
  2915.9000      7.8209      2.5528      0.1460      5.8890   -999.2500   -999.2500
  2916.0000      7.8229      2.4982      0.0777      9.2029   -999.2500   -999.2500
  2916.1000      7.8229      2.4365      0.0470     12.9422   -999.2500   -999.2500
  2916.2000      7.8229      2.3903      0.0696     15.7375   -999.2500   -999.2500
  2916.3000      7.5740      2.3763      0.0179     16.5870   -999.2500   -999.2500
  2916.4000      7.5740      2.4425      0.0343     12.5734   -999.2500   -999.2500
  2916.5000      7.1763      2.7341      0.1203     -5.0953   -999.2500   -999.2500
  2916.6000      7.1763      3.4705      0.2071    -49.7247   -999.2500   -999.2500
  2916.7000      7.1763      4.3666      0.6478   -104.0361   -999.2500   -999.2500
  2916.8000      7.1287      4.1977      1.9657    -93.7981   -999.2500   -999.2500
  2916.9000      7.1287      2.5527      0.0000      5.8971   -999.2500   -999.2500
  2917.0000      6.0649      0.8936   -999.2500    106.4515   -999.2500   -999.2500
  2917.1000      6.0649      0.1723   -999.2500    150.1666   -999.2500   -999.2500
  2917.2000      6.0649      0.0179   -999.2500    159.5216   -999.2500   -999.2500
  2917.3000     -1.7347      0.0010   -999.2500    160.5468   -999.2500   -999.2500
  2917.4000     -1.7347      0.0000   -999.2500    160.6061   -999.2500   -999.2500
  2917.5000     -2.7901   -999.2500   -999.2500   -999.2500   -999.2500   -999.2500
  2917.6000     -2.7901   -999.2500   -999.2500   -999.2500   -999.2500   -999.2500
  2917.7000     -2.7901   -999.2500   -999.2500   -999.2500   -999.2500   -999.2500
  2917.8000   -999.2500   -999.2500   -999.2500   -999.2500   -999.2500   -999.2500
  2917.9000   -999.2500   -999.2500   -999.2500   -999.2500   -999.2500   -999.2500
