~Version Information
VERS.                      2.0: CWLS Log ASCII Standard - VERSION 2.0
WRAP.                       NO: One line per depth step
~Well Information Block
STRT.FT                -9.5000: 
STOP.FT              2893.0000: 
STEP.FT                 0.2500: 
NULL.                -999.2500: 
COMP.          Pioneer Natural Resources: COMPANY
WELL.          Old Yeller 31-32: WELL
FLD.           Purgatoire River: FIELD
LOC.           1832' FEL & 793' FNL----: LOCATION
STAT.                 Colorado: State
CNTY.               Las Animas: COUNTY
CTRY. USA : Country
SECT. 32 : Section
TOWN. 32S : Township
RANG. 67W : Range
SRVC.                         : SERVICE COMPANY
DATE.          Fri Sep 02 16:45:38 2005: LOG DATE
API. 05-071-08356                         : UNIQUE WELL ID
~Curve Information Block
DEPT.FT            0 000 00 00: Depth
CCL.                          : Casing Collar Locator
TT3.usec                      : CBL 3' Travel Time
AMP5.mV                       : CBL 5' Amplitude
GR.GAPI                       : Gamma Ray
~Parameter Information Block
~A  Depth       CCL         TT3         AMP5         GR     
# ...
  1129.5000      0.0000    632.8209      2.1280    130.7572
  1129.7500      2.0000    638.7528      2.3891    127.1966
  1130.0000      0.0000    629.1305      2.6503    126.4169
  1130.2500     -2.0000    606.3492      2.2150    127.8493
  1130.5000      0.0000    578.9681      2.3021    130.0741
  1130.7500      0.0000    552.2909      2.3021    132.1741
  1131.0000      0.0000    524.3375      2.0409    134.0363
  1131.2500      0.0000    493.3856      2.6503    135.7141
  1131.5000      0.0000    465.4780      2.3891    136.8421
  1131.7500      0.0000    449.6620      2.2150    136.7974
  1132.0000      0.0000    448.0302      1.8668    135.4362
  1132.2500      0.0000    454.6870      2.6503    133.4730
  1132.5000      0.0000    463.1158      3.8689    131.9948
  1132.7500      0.0000    471.3413      3.8689    131.8036
  1133.0000      0.0000    481.4980      3.1725    133.2707
  1133.2500      0.0000    497.5099      4.0430    136.3698
  1133.5000      0.0000    522.2419      3.0855    140.5537
  1133.7500      0.0000    553.4243      3.3466    144.8113
  1134.0000      0.0000    581.8028      3.6948    148.1874
  1134.2500      0.0000    596.6627      3.1725    150.4728
  1134.5000      0.0000    596.1126      3.3466    152.4379
  1134.7500      0.0000    590.8432      3.6078    155.0943
  1135.0000      0.0000    594.9792      3.1725    158.3611
  1135.2500      0.0000    613.1380      3.3466    160.5627
  1135.5000      0.0000    637.9996      3.3466    159.7207
  1135.7500      0.0000    659.3017      2.9114    155.4742
  1136.0000      0.0000    672.3370      3.3466    149.6600
  1136.2500      0.0000    678.4111      3.2596    145.0332
  1136.5000      0.0000    680.7708      3.7819    143.3078
  1136.7500      0.0000    681.5671      3.2596    144.1797
  1137.0000      0.0000    680.8674      3.9559    146.0009
  1137.2500      0.0000    676.0098      3.6948    147.1427
  1137.5000      0.0000    660.9404      3.9559    146.6085
  1137.7500      0.0000    627.7066      3.9559    143.7781
  1138.0000      0.0000    572.0692      4.7394    138.3056
  1138.2500      0.0000    499.9205      4.6523    130.5011
  1138.5000      0.0000    426.7926      4.6523    121.5101
  1138.7500      0.0000    368.5544      5.0876    112.8672
  1139.0000      0.0000    331.9696      4.5653    105.9203
  1139.2500      0.0000    313.7695      4.5653    101.6391
  1139.5000      0.0000    306.5700      4.6523    100.6137
  1139.7500      0.0000    304.3251      4.5653    102.8341
  1140.0000      0.0000    303.8813      4.6523    107.5222
  1140.2500      0.0000    304.1339      4.3912    113.4154
  1140.5000      0.0000    305.2261      5.1746    119.2424
  1140.7500      0.0000    308.8060      4.3912    124.0645
  1141.0000      0.0000    319.1919      4.4782    127.5125
  1141.2500      0.0000    343.6910      4.1300    129.8915
  1141.5000      0.0000    389.2413      4.8264    131.9853
  1141.7500      0.0000    455.4321      4.3041    134.5950
  1142.0000      0.0000    530.4435      4.2171    138.0754
  1142.2500      0.0000    596.7180      4.3912    142.1235
  1142.5000      0.0000    642.3988      4.4782    145.9695
  1142.7500      0.0000    667.0036      3.6078    148.8636
  1143.0000      0.0000    677.3763      2.9114    150.5290
  1143.2500      0.0000    680.7611      3.6948    151.2122
  1143.5000      0.0000    681.5283      3.1725    151.3291
  1143.7500      0.0000    681.5485      2.9114    151.0832
  1144.0000      0.0000    681.4624      3.3466    150.3794
  1144.2500      0.0000    681.4421      2.9114    148.9193
  1144.5000      0.0000    681.5089      2.9984    146.3717
  1144.7500      0.0000    681.6792      2.9984    142.6915
  1145.0000      0.0000    682.0820      2.9984    138.3425
  1145.2500      0.0000    682.9919      2.6503    134.0916
  1145.5000      0.0000    684.6992      3.3466    130.5828
  1145.7500      0.0000    687.1273      2.7373    128.0871
  1146.0000      0.0000    689.4595      2.2150    126.4459
  1146.2500      0.0000    690.4181      2.6503    125.2524
  1146.5000      0.0000    689.2814      2.7373    124.4467
  1146.7500      0.0000    686.5759      2.4762    124.7047
  1147.0000      0.0000    683.5898      2.6503    126.7312
  1147.2500      0.0000    681.3408      2.5632    130.0208
  1147.5000      0.0000    680.1168      3.0855    132.8791
  1147.7500      0.0000    679.6041      2.8243    134.0517
  1148.0000      0.0000    678.9887      2.5632    133.9164
  1148.2500      0.0000    676.7023      3.4337    133.7651
  1148.5000      0.0000    670.3639      2.7373    134.3170
  1148.7500      0.0000    657.5829      2.9114    135.1143
  1149.0000      0.0000    637.4174      2.6503    135.0283
  1149.2500      0.0000    611.3271      2.3891    133.2202
  1149.5000      0.0000    583.4531      3.0855    129.7861
  1149.7500      0.0000    560.4219      2.9984    125.5874
  1150.0000      0.0000    549.3579      2.6503    121.5863
  1150.2500      0.0000    553.8651      3.2596    118.5077
  1150.5000      0.0000    571.8367      2.6503    116.8901
  1150.7500      0.0000    597.5299      3.0855    117.0402
  1151.0000      0.0000    624.6639      2.8243    118.8111
  1151.2500      0.0000    647.6855      2.8243    121.4671
  1151.5000      0.0000    662.3760      3.0855    123.8361
  1151.7500      0.0000    666.0969      2.8243    124.8042
  1152.0000      0.0000    656.7372      2.3021    123.8106
  1152.2500      0.0000    632.1910      3.3466    120.9305
  1152.5000      0.0000    592.7889      2.9114    116.7034
  1152.7500      0.0000    544.0876      2.9114    112.0337
  1153.0000      0.0000    495.2319      2.9114    108.0684
  1153.2500      0.0000    453.7267      2.5632    105.7285
  1153.5000      0.0000    422.5369      3.4337    104.9344
  1153.7500      0.0000    401.3427      2.7373    104.3628
  1154.0000      0.0000    388.2061      2.8243    102.4774
  1154.2500      0.0000    379.8324      2.6503     98.9612
  1154.5000      0.0000    372.7076      2.9984     94.8408
  1154.7500      0.0000    365.8642      2.6503     91.3674
  1155.0000      0.0000    362.4753      2.3021     89.2187
  1155.2500      0.0000    367.8737      3.0855     88.7664
  1155.5000      0.0000    385.0506      2.3891     90.7394
  1155.7500      0.0000    412.2762      2.8243     96.2832
  1156.0000      0.0000    446.0903      2.8243    106.0109
  1156.2500      0.0000    485.4345      2.3891    118.8469
  1156.5000      0.0000    530.0787      3.1725    132.0854
  1156.7500      0.0000    575.0910      2.3021    142.8486
  1157.0000      0.0000    610.6899      2.5632    149.5624
  1157.2500      0.0000    630.0797      2.5632    152.3054
  1157.5000      0.0000    636.2024      2.9114    152.2423
  1157.7500      0.0000    638.7921      2.5632    150.8308
  1158.0000      0.0000    644.8187      2.4762    149.2458
  1158.2500      0.0000    652.8540      2.8243    148.2101
  1158.5000      0.0000    656.6384      2.5632    148.1741
  1158.7500      0.0000    652.8845      2.3891    149.3573
  1159.0000      0.0000    645.0676      2.8243    151.3295
  1159.2500      0.0000    639.8011      2.8243    152.7090
  1159.5000      0.0000    639.1627      2.4762    151.6994
  1159.7500      0.0000    637.0173      2.7373    147.2201
  1160.0000      0.0000    624.2401      2.9114    139.7180
  1160.2500      0.0000    598.2417      2.8243    131.0301
  1160.5000      0.0000    567.4795      2.7373    123.4473
  1160.7500      0.0000    546.7037      2.3021    118.7618
  1161.0000      0.0000    547.1383      2.7373    117.8793
  1161.2500      0.0000    569.2806      3.1725    120.7708
  1161.5000      0.0000    603.2767      3.0855    126.4286
  1161.7500      0.0000    635.9957      3.1725    133.1664
  1162.0000      0.0000    658.9579      2.5632    139.4142
  1162.2500      0.0000    670.8959      3.1725    144.1601
  1162.5000      0.0000    674.5612      3.0855    146.5943
  1162.7500      0.0000    672.4055      2.4762    145.8951
