~Version Information
VERS.                      2.0: CWLS Log ASCII Standard - VERSION 2.0
WRAP.                       NO: One line per depth step
~Well Information Block
STRT.FT               460.0000: 
STOP.FT               961.2000: 
STEP.FT                 0.1000: 
NULL.                -999.2500: 
COMP.          Pioneer Natural Resources: COMPANY
WELL.                Pug 33-19: WELL
FLD.           Purgatoire River: FIELD
LOC.           1381' FSL & 2140' FEL: LOCATION
PROV.                 Colorado: PROVINCE
CNTY.               Las Animas: COUNTRY
SRVC.                Patterson: SERVICE COMPANY
DATE.          Wed Dec 15 07:19:20 2004: LOG DATE
UWI.           05 071 08193 00: UNIQUE WELL ID
~Curve Information Block
DEPT.FT            0 000 00 00: Depth
DCAL.in                       : CDL Caliper
RHOB.g/cc                     : CDL Bulk Density
RHOC.g/cc                     : CDL Density Correction
DPOR.pu                       : CDL Density Porosity
NPOR.pu                       : Neutron Porosity
GR.GAPI                       : Gamma Ray
~Parameter Information Block
~A  Depth       DCAL        RHOB        RHOC        DPOR        NPOR         GR     
# ...
   738.4000      7.9188      2.4420      0.0517     12.6083     20.3478     78.1761
   738.5000      7.9222      2.4456      0.0365     12.3896     19.9442     73.9033
   738.6000      7.9222      2.4668      0.0502     11.1046     19.4985     70.5631
   738.7000      7.9222      2.4983      0.0917      9.1958     18.8630     69.8843
   738.8000      7.9246      2.5180      0.1240      7.9989     18.3146     68.1189
   738.9000      7.9246      2.5225      0.0852      7.7284     17.9949     64.4932
   739.0000      7.9190      2.5303      0.0737      7.2533     18.0548     60.3487
   739.1000      7.9190      2.5457      0.0859      6.3183     18.5898     57.1276
   739.2000      7.9190      2.5569      0.1178      5.6439     19.0685     54.8394
   739.3000      7.9136      2.5586      0.0719      5.5380     18.7995     53.2203
   739.4000      7.9136      2.5522      0.0915      5.9253     18.3203     55.5899
   739.5000      7.9151      2.5373      0.0689      6.8311     18.6387     62.6265
   739.6000      7.9151      2.5176      0.0508      8.0236     19.4832     67.1011
   739.7000      7.9151      2.5095      0.0144      8.5180     19.8471     63.6830
   739.8000      7.9180      2.5318      0.0378      7.1663     19.3010     59.6148
   739.9000      7.9180      2.5762      0.1004      4.4697     18.2420     63.3689
   740.0000      7.9171      2.6104      0.1137      2.4014     17.5059     71.2984
   740.1000      7.9171      2.6159      0.1079      2.0657     17.4603     75.4732
   740.2000      7.9171      2.5978      0.0673      3.1623     17.7843     72.8556
   740.3000      7.9137      2.5692      0.0829      4.8968     17.9763     66.8686
   740.4000      7.9137      2.5464      0.0157      6.2783     17.7631     62.6260
   740.5000      7.9122      2.5462      0.0512      6.2899     17.5512     60.7154
   740.6000      7.9122      2.5695      0.0754      4.8790     17.8186     62.0286
   740.7000      7.9122      2.5922      0.1217      3.5048     18.0986     69.6099
   740.8000      7.9129      2.5885      0.0862      3.7243     17.8122     78.8175
   740.9000      7.9129      2.5686      0.0320      4.9345     17.0678     81.5329
   741.0000      7.9140      2.5563      0.0457      5.6786     16.5044     79.8870
   741.1000      7.9140      2.5519      0.0360      5.9438     16.4886     80.8587
   741.2000      7.9140      2.5442      0.0633      6.4141     16.5696     83.2452
   741.3000      7.9153      2.5349      0.0253      6.9737     16.2777     80.4895
   741.4000      7.9153      2.5387      0.0432      6.7425     16.0720     73.7084
   741.5000      7.9180      2.5610      0.0785      5.3956     16.6963     70.8212
   741.6000      7.9180      2.5864      0.0947      3.8573     17.5976     73.3851
   741.7000      7.9180      2.5908      0.1171      3.5901     17.9195     75.3424
   741.8000      7.9194      2.5719      0.0531      4.7356     18.0853     74.9177
   741.9000      7.9194      2.5556      0.0396      5.7239     18.3080     75.7418
   742.0000      7.9179      2.5537      0.0584      5.8358     18.2803     79.2267
   742.1000      7.9179      2.5569      0.0443      5.6449     18.4216     85.3562
   742.2000      7.9179      2.5597      0.0800      5.4720     18.9407     92.3297
   742.3000      7.9164      2.5617      0.0636      5.3504     19.2222     96.7981
   742.4000      7.9164      2.5653      0.0427      5.1328     19.1589     93.4352
   742.5000      7.9163      2.5722      0.0475      4.7143     19.0996     81.8937
   742.6000      7.9163      2.5800      0.0332      4.2430     18.9974     75.1351
   742.7000      7.9163      2.5807      0.0946      4.2014     18.8092     80.8950
   742.8000      7.9188      2.5738      0.0553      4.6160     18.5440     91.0655
   742.9000      7.9188      2.5783      0.0444      4.3438     17.9022     97.6442
   743.0000      7.9203      2.5983      0.0954      3.1314     17.0263     99.5223
   743.1000      7.9203      2.6134      0.1282      2.2155     16.5000     93.7248
   743.2000      7.9203      2.6149      0.0801      2.1261     16.3477     80.1474
   743.3000      7.9173      2.6096      0.0850      2.4461     16.1605     67.6226
   743.4000      7.9173      2.6024      0.0502      2.8821     16.1015     63.9633
   743.5000      7.9146      2.5964      0.0429      3.2498     16.4691     69.8771
   743.6000      7.9146      2.5928      0.0557      3.4649     16.9536     81.1323
   743.7000      7.9146      2.5936      0.0334      3.4205     17.0819     90.4243
   743.8000      7.9136      2.5951      0.0761      3.3244     16.5841     91.0517
   743.9000      7.9136      2.5904      0.0697      3.6116     15.9428     85.3004
   744.0000      7.9133      2.5857      0.0216      3.8972     15.8965     80.0602
   744.1000      7.9133      2.5830      0.0930      4.0627     16.4934     76.7042
   744.2000      7.9133      2.5704      0.0621      4.8249     17.3375     75.9332
   744.3000      7.9129      2.5555      0.0323      5.7281     17.8815     81.1786
   744.4000      7.9129      2.5548      0.0504      5.7685     17.8413     88.5890
   744.5000      7.9136      2.5640      0.0675      5.2101     17.5946     89.0259
   744.6000      7.9136      2.5690      0.0691      4.9085     17.7390     81.8454
   744.7000      7.9136      2.5631      0.0575      5.2658     18.1902     74.9673
   744.8000      7.9167      2.5517      0.0236      5.9603     18.4578     71.4958
   744.9000      7.9167      2.5431      0.0641      6.4782     18.4908     68.3685
   745.0000      7.9199      2.5405      0.0433      6.6391     18.1816     65.7147
   745.1000      7.9199      2.5418      0.0675      6.5564     17.4128     67.3842
   745.2000      7.9199      2.5428      0.0370      6.4994     16.5622     74.1001
   745.3000      7.9196      2.5498      0.0307      6.0749     16.1016     81.6136
   745.4000      7.9196      2.5657      0.0848      5.1104     15.9392     85.2820
   745.5000      7.9187      2.5809      0.0504      4.1905     15.7374     87.1561
   745.6000      7.9187      2.5946      0.0636      3.3597     15.5550     91.7389
   745.7000      7.9187      2.6067      0.0709      2.6233     15.5314     94.5493
   745.8000      7.9182      2.6090      0.0976      2.4873     15.4040     89.2909
   745.9000      7.9182      2.5950      0.0979      3.3334     15.3369     79.9169
   746.0000      7.9163      2.5703      0.0493      4.8316     15.7913     75.1536
   746.1000      7.9163      2.5541      0.0332      5.8098     16.6673     78.5258
   746.2000      7.9163      2.5554      0.0561      5.7340     17.3480     87.3509
   746.3000      7.9152      2.5582      0.0787      5.5651     17.3268     95.7660
   746.4000      7.9152      2.5460      0.0350      6.3010     16.8570     97.5176
   746.5000      7.9140      2.5235      0.0246      7.6665     16.2989     93.7584
   746.6000      7.9140      2.5064      0.0134      8.7040     15.6684     92.5720
   746.7000      7.9140      2.5019      0.0241      8.9779     15.3451     94.5693
   746.8000      7.9129      2.5128     -0.0356      8.3170     15.6887     93.5043
   746.9000      7.9129      2.5430      0.0371      6.4847     16.2136     88.1918
   747.0000      7.9131      2.5775      0.0510      4.3956     16.5210     82.4298
   747.1000      7.9131      2.5887      0.0889      3.7144     17.0272     80.0413
   747.2000      7.9131      2.5715      0.0344      4.7586     17.9696     80.4262
   747.3000      7.9125      2.5462      0.0345      6.2890     18.5291     79.2429
   747.4000      7.9125      2.5272      0.0446      7.4447     18.0946     77.4144
   747.5000      7.9056      2.5242     -0.0175      7.6229     17.3860     81.2862
   747.6000      7.9056      2.5427      0.0568      6.5049     17.0171     89.4276
   747.7000      7.9056      2.5657      0.0555      5.1112     16.9649     92.4714
   747.8000      7.8927      2.5722      0.0679      4.7180     17.0979     88.2630
   747.9000      7.8927      2.5594      0.0449      5.4908     17.2840     83.7765
