~Version Information
VERS.                      2.0: CWLS Log ASCII Standard - VERSION 2.0
WRAP.                       NO: One line per depth step
~Well Information Block
STRT.FT               475.0000: 
STOP.FT              2336.7000: 
STEP.FT                 0.1000: 
NULL.                -999.2500: 
COMP.          Pioneer Natural Resources: COMPANY
WELL.              Bobsy 34-11: WELL
FLD.           Purgatoire River: FIELD
LOC.           1937' FEL & 451' FSL----: LOCATION
PROV.                 Colorado: PROVINCE
CNTY.               Las Animas: COUNTRY
SRVC.                Patterson: SERVICE COMPANY
DATE.          Fri Apr 08 11:07:54 2005: LOG DATE
UWI.           05 071 08330 00: UNIQUE WELL ID
~Curve Information Block
DEPT.FT            0 000 00 00: Depth
DCAL.in                       : CDL Caliper
RHOB.g/cc                     : CDL Bulk Density
RHOC.g/cc                     : CDL Density Correction
DPOR.pu                       : CDL Density Porosity
NPOR.pu                       : Neutron Porosity
GR.GAPI                       : Gamma Ray
~Parameter Information Block
~A  Depth       DCAL        RHOB        RHOC        DPOR        NPOR         GR     
# ...
  1694.2000      7.9796      2.2544     -0.0155     23.9759     32.1816    141.0538
  1694.3000      7.9797      2.2620     -0.0369     23.5156     30.8480    135.0364
  1694.4000      7.9797      2.2942      0.0475     21.5629     29.5024    132.4672
  1694.5000      7.9797      2.3337      0.1264     19.1687     28.3232    136.5747
  1694.6000      7.9797      2.3687      0.1091     17.0462     27.4109    138.8142
  1694.7000      7.9797      2.4061      0.1854     14.7829     26.6569    130.6267
  1694.8000      7.9791      2.4507      0.2122     12.0764     25.4127    117.1973
  1694.9000      7.9791      2.5049      0.2337      8.7915     23.4727    110.6170
  1695.0000      7.9761      2.5659      0.2382      5.0994     21.5314    112.4157
  1695.1000      7.9761      2.6099      0.2345      2.4290     20.0529    115.2634
  1695.2000      7.9761      2.6187      0.0985      1.8997     19.2048    114.8349
  1695.3000      7.9738      2.6116      0.0475      2.3284     18.9590    112.5583
  1695.4000      7.9738      2.6102      0.0507      2.4149     18.8650    111.2507
  1695.5000      7.9730      2.6054      0.0794      2.7011     18.7600    108.5464
  1695.6000      7.9730      2.5926      0.0000      3.4784     18.9220    100.7034
  1695.7000      7.9730      2.5968      0.0071      3.2215     19.6435     91.7773
  1695.8000      7.9739      2.6253      0.0806      1.4955     20.9046     89.4400
  1695.9000      7.9739      2.6421      0.0735      0.4770     22.1242     93.2001
  1696.0000      7.9746      2.6230      0.0907      1.6357     22.7809     98.2008
  1696.1000      7.9746      2.5860     -0.0032      3.8784     23.0611    101.9893
  1696.2000      7.9746      2.5565      0.0510      5.6694     23.0905    102.3438
  1696.3000      7.9731      2.5346      0.0482      6.9969     23.0789    100.3097
  1696.4000      7.9731      2.5169      0.0093      8.0654     23.4010    100.7146
  1696.5000      7.9716      2.5094      0.0142      8.5191     23.9104    109.2372
  1696.6000      7.9716      2.5138     -0.0074      8.2558     24.3471    123.9138
  1696.7000      7.9716      2.5287      0.0495      7.3534     24.7640    134.5462
  1696.8000      7.9716      2.5487      0.0617      6.1388     25.1093    136.6094
  1696.9000      7.9716      2.5661      0.1130      5.0825     25.2606    137.3783
  1697.0000      7.9722      2.5782      0.0847      4.3532     25.3071    140.5816
  1697.1000      7.9722      2.5894      0.1003      3.6713     25.3492    140.9665
  1697.2000      7.9722      2.6060      0.1306      2.6684     25.3878    140.1540
  1697.3000      7.9729      2.6247      0.1402      1.5310     25.3242    143.0688
  1697.4000      7.9729      2.6323      0.1416      1.0715     25.3027    146.1175
  1697.5000      7.9748      2.6231      0.1076      1.6286     25.5297    146.6116
  1697.6000      7.9748      2.6105      0.1034      2.3936     25.7558    146.1598
  1697.7000      7.9748      2.6043      0.0848      2.7717     25.8144    144.9413
  1697.8000      7.9761      2.5942      0.0839      3.3817     25.7335    147.7361
  1697.9000      7.9761      2.5743      0.0201      4.5899     25.1351    153.2523
  1698.0000      7.9760      2.5558      0.0548      5.7106     24.2344    152.1990
  1698.1000      7.9760      2.5476      0.0272      6.2040     23.6413    146.3085
  1698.2000      7.9760      2.5534      0.0300      5.8532     23.3096    140.7497
  1698.3000      7.9751      2.5668      0.0666      5.0435     23.1501    136.2224
  1698.4000      7.9751      2.5793      0.0435      4.2878     23.0879    134.4923
  1698.5000      7.9728      2.5980      0.0410      3.1537     22.7532    135.0904
  1698.6000      7.9728      2.6277      0.0796      1.3530     21.9642    134.2072
  1698.7000      7.9728      2.6602      0.1058     -0.6178     21.3712    126.7776
  1698.8000      7.9715      2.6835      0.1285     -2.0323     21.7441    113.3576
  1698.9000      7.9715      2.6915      0.1107     -2.5169     22.4348    103.8162
  1699.0000      7.9725      2.6860      0.1250     -2.1814     22.1439    103.5285
  1699.1000      7.9725      2.6708      0.0788     -1.2628     21.4297    107.7643
  1699.2000      7.9725      2.6492      0.0839      0.0458     21.5073    112.1782
  1699.3000      7.9749      2.6243      0.0427      1.5598     22.0252    115.2571
  1699.4000      7.9749      2.6020      0.0470      2.9096     22.3043    117.0568
  1699.5000      7.9791      2.5931      0.0103      3.4468     22.4334    120.9485
  1699.6000      7.9791      2.6015      0.0713      2.9375     22.3168    122.8160
  1699.7000      7.9791      2.6112      0.0424      2.3527     21.9260    117.9535
  1699.8000      7.9850      2.6089      0.0411      2.4905     21.8188    116.4055
  1699.9000      7.9850      2.5998      0.0401      3.0426     22.0889    123.4597
  1700.0000      7.9896      2.5962      0.0068      3.2614     22.4358    130.8581
  1700.1000      7.9896      2.6029      0.0390      2.8559     22.9021    130.6183
  1700.2000      7.9896      2.6130      0.0420      2.2425     23.2945    118.7661
  1700.3000      7.9898      2.6241      0.0010      1.5684     22.9918    100.0137
  1700.4000      7.9898      2.6428      0.0227      0.4364     22.2388     85.3305
  1700.5000      7.9888      2.6620      0.0542     -0.7262     21.8925     78.4895
  1700.6000      7.9888      2.6627      0.0281     -0.7703     21.5152     76.0752
  1700.7000      7.9888      2.6477     -0.0174      0.1367     20.2949     73.6590
  1700.8000      7.9902      2.6388      0.0185      0.6802     18.7274     69.8408
  1700.9000      7.9902      2.6472      0.0260      0.1727     17.4963     66.9726
  1701.0000      7.9928      2.6585      0.0683     -0.5176     16.9782     67.5310
  1701.1000      7.9928      2.6432      0.0617      0.4140     17.1769     71.1886
  1701.2000      7.9928      2.5993      0.0250      3.0735     17.6655     73.9997
  1701.3000      7.9936      2.5571      0.0106      5.6303     18.4748     74.6650
  1701.4000      7.9936      2.5328      0.0167      7.1045     19.2557     75.5025
  1701.5000      7.9936      2.5146      0.0337      8.2038     19.3112     75.5432
  1701.6000      7.9936      2.4997     -0.0043      9.1066     19.1554     74.8585
  1701.7000      7.9936      2.5118     -0.0362      8.3778     19.0551     77.1196
  1701.8000      7.9954      2.5556      0.0555      5.7187     18.6667     81.5383
  1701.9000      7.9954      2.5978      0.0886      3.1647     18.3279     84.3524
  1702.0000      7.9974      2.6165      0.0998      2.0305     18.3420     85.9791
  1702.1000      7.9974      2.6226      0.0916      1.6583     18.2643     88.3861
  1702.2000      7.9974      2.6329      0.0850      1.0334     17.8277     91.2549
  1702.3000      7.9992      2.6498      0.1023      0.0137     17.4659     93.6389
  1702.4000      7.9992      2.6612      0.1124     -0.6813     17.3311     92.9708
  1702.5000      8.0006      2.6568      0.1184     -0.4143     17.1731     91.7732
  1702.6000      8.0006      2.6424      0.0814      0.4601     16.8946     93.2797
  1702.7000      8.0006      2.6399      0.0643      0.6124     16.7768     92.9970
  1702.8000      8.0021      2.6529      0.0866     -0.1747     17.3683     90.1883
  1702.9000      8.0021      2.6535      0.0873     -0.2149     18.4869     88.6644
  1703.0000      8.0046      2.6313      0.0424      1.1351     19.3636     88.0688
  1703.1000      8.0046      2.6121      0.0440      2.2960     19.9608     87.8609
  1703.2000      8.0046      2.6143      0.0589      2.1608     20.7920     91.0638
  1703.3000      8.0099      2.6235      0.0936      1.6050     22.0041     99.0664
  1703.4000      8.0099      2.6178      0.0631      1.9494     23.2496    110.4705
  1703.5000      8.0180      2.5961      0.0447      3.2696     24.2492    123.2965
  1703.6000      8.0180      2.5751      0.0283      4.5423     24.7699    131.0522
  1703.7000      8.0180      2.5685      0.0476      4.9423     24.9434    130.9034
