~Version Information
VERS.                      2.0: CWLS Log ASCII Standard - VERSION 2.0
WRAP.                       NO: One line per depth step
~Well Information Block
STRT.FT               954.0000: 
STOP.FT              2517.0000: 
STEP.FT                 0.2500: 
NULL.                -999.2500: 
COMP.          Petrogulf Corporation: COMPANY
WELL.             Royal 8-33 V: WELL
FLD.           Purgatoire River: FIELD
LOC.           2365' FSL & 2336' FEL: LOCATION
PROV.                 Colorado: PROVINCE
CNTY.               Las Animas: COUNTRY
SRVC.                Patterson: SERVICE COMPANY
DATE.          Fri Dec 05 04:39:41 2003: LOG DATE
UWI.                          : UNIQUE WELL ID
~Curve Information Block
DEPT.FT            0 000 00 00: Depth
SP.mV                         : DIL Spontaneous Potential
RILD.Ohm-m                    : DIL Deep Resistivity
RILM.Ohm-m                    : DIL Medium Resistivity
RLL3.Ohm-m                    : DIL Shallow Resistivity
GR.GAPI                       : Gamma Ray
~Parameter Information Block
~A  Depth        SP         RILD        RILM        RLL3         GR     
# ...
   982.0000   2000.0000     10.0651 100000.0000   2000.0000     52.9431
   982.2500   2000.0000     10.1786 100000.0000   2000.0000     56.1383
   982.5000   2000.0000     10.2347 100000.0000   2000.0000     61.3370
   982.7500   2000.0000     10.2301 100000.0000   2000.0000     65.2557
   983.0000   2000.0000     10.1939 100000.0000   2000.0000     71.8245
   983.2500   2000.0000     10.1666 100000.0000   2000.0000     76.3576
   983.5000   2000.0000     10.1764 100000.0000   2000.0000     82.4678
   983.7500   2000.0000     10.2269 100000.0000   2000.0000     85.6564
   984.0000   2000.0000     10.3009 100000.0000   2000.0000     89.1225
   984.2500   2000.0000     10.3712 100000.0000   2000.0000     90.8258
   984.5000   2000.0000     10.4114 100000.0000   2000.0000     92.5549
   984.7500   2000.0000     10.4024 100000.0000   2000.0000     92.9158
   985.0000   2000.0000     10.3370 100000.0000   2000.0000     92.0711
   985.2500   2000.0000     10.2280 100000.0000   2000.0000     90.8582
   985.5000   2000.0000     10.1195 100000.0000   2000.0000     88.9478
   985.7500   2000.0000     10.0943 100000.0000   2000.0000     88.1161
   986.0000   2000.0000     10.2713 100000.0000   2000.0000     88.1131
   986.2500   2000.0000     10.7971 100000.0000   2000.0000     89.0549
   986.5000   2000.0000     11.8333 100000.0000   2000.0000     91.5946
   986.7500   2000.0000     13.5229 100000.0000   2000.0000     93.5919
   987.0000   2000.0000     15.8722 100000.0000   2000.0000     96.2340
   987.2500   2000.0000     18.4986 100000.0000   2000.0000     97.5696
   987.5000   2000.0000     20.4903 100000.0000   2000.0000     98.7528
   987.7500   2000.0000     21.0057 100000.0000   2000.0000     98.4508
   988.0000   2000.0000     20.2019 100000.0000   2000.0000     94.8845
   988.2500   2000.0000     19.0098 100000.0000   2000.0000     90.0469
   988.5000   2000.0000     18.2745 100000.0000   2000.0000     79.9541
   988.7500   2000.0000     18.5064 100000.0000   2000.0000     72.3030
   989.0000   2000.0000     20.0643 100000.0000   2000.0000     61.0367
   989.2500   2000.0000     23.2434 100000.0000   2000.0000     54.3845
   989.5000   2000.0000     27.8523 100000.0000   2000.0000     46.3862
   989.7500   2000.0000     31.9752 100000.0000   2000.0000     42.4078
   990.0000   2000.0000     32.1520 100000.0000   2000.0000     38.1045
   990.2500   2000.0000     28.0381 100000.0000   2000.0000     36.0989
   990.5000   2000.0000     22.9543 100000.0000   2000.0000     34.1882
   990.7500   2000.0000     19.0465 100000.0000   2000.0000     33.6292
   991.0000   2000.0000     16.5954 100000.0000   2000.0000     33.6655
   991.2500   2000.0000     15.3276 100000.0000   2000.0000     33.9712
   991.5000   2000.0000     15.0370 100000.0000   2000.0000     34.4412
   991.7500   2000.0000     15.7320 100000.0000   2000.0000     34.8674
   992.0000   2000.0000     17.6324 100000.0000   2000.0000     36.3638
   992.2500   2000.0000     20.9373 100000.0000   2000.0000     38.3133
   992.5000   2000.0000     24.6852 100000.0000   2000.0000     42.8063
   992.7500   2000.0000     25.0869 100000.0000   2000.0000     46.5908
   993.0000   2000.0000     20.2045 100000.0000   2000.0000     52.7213
   993.2500   2000.0000     14.4266 100000.0000   2000.0000     56.8234
   993.5000   2000.0000     10.5850 100000.0000   2000.0000     63.0557
   993.7500   2000.0000      8.5225 100000.0000   2000.0000     67.4316
   994.0000   2000.0000      7.5976 100000.0000   2000.0000     74.4112
   994.2500   2000.0000      7.3839 100000.0000   2000.0000     79.3603
   994.5000   2000.0000      7.6235 100000.0000   2000.0000     87.4316
   994.7500   2000.0000      8.0977 100000.0000   2000.0000     93.2447
   995.0000   2000.0000      8.5067 100000.0000   2000.0000    102.0016
   995.2500   2000.0000      8.4572 100000.0000   2000.0000    107.2779
   995.5000   2000.0000      7.7641 100000.0000   2000.0000    113.3435
   995.7500   2000.0000      6.7530 100000.0000   2000.0000    115.6380
   996.0000   2000.0000      5.9525 100000.0000   2000.0000    115.9144
   996.2500   2000.0000      5.7238 100000.0000   2000.0000    114.0881
   996.5000   2000.0000      6.4212    327.2979   2000.0000    109.2454
   996.7500   2000.0000      9.1948     33.3694   2000.0000    105.2894
   997.0000   2000.0000     22.5581     21.8971   2000.0000     99.2048
   997.2500   2000.0000 100000.0000     20.5622   2000.0000     95.5352
   997.5000   2000.0000 100000.0000     23.9462   2000.0000     91.7856
   997.7500   2000.0000 100000.0000     32.5671   2000.0000     91.2988
   998.0000   2000.0000 100000.0000     48.6128   2000.0000     94.3335
   998.2500   2000.0000 100000.0000     73.5667   2000.0000     98.2914
   998.5000   2000.0000 100000.0000    108.7857   2000.0000    104.4949
   998.7500   2000.0000 100000.0000    177.8713   2000.0000    107.1336
   999.0000   2000.0000 100000.0000    592.6698   2000.0000    107.3729
   999.2500   2000.0000 100000.0000 100000.0000   2000.0000    105.3612
   999.5000   2000.0000 100000.0000 100000.0000   2000.0000    101.3573
   999.7500   2000.0000 100000.0000 100000.0000   2000.0000     99.8683
  1000.0000   2000.0000    298.2428 100000.0000   2000.0000    101.7138
  1000.2500   2000.0000     79.0846   1370.9108   2000.0000    105.6087
  1000.5000   2000.0000     57.8499    146.9977   2000.0000    112.8876
  1000.7500   2000.0000     50.7606     77.6009   2000.0000    116.8127
  1001.0000   2000.0000     46.3441     54.7184   2000.0000    119.6197
  1001.2500   2000.0000     41.9526     43.7217   2000.0000    119.6703
  1001.5000   2000.0000     37.1228     37.2041   2000.0000    118.3615
  1001.7500   2000.0000     32.1938     32.8236   2000.0000    117.3107
  1002.0000   2000.0000     27.7037     29.7357   2000.0000    116.8139
  1002.2500   2000.0000     24.0262     27.5910   2000.0000    118.1301
  1002.5000   2000.0000     21.2546     26.1904   2000.0000    123.2476
  1002.7500   2000.0000     19.2843     25.3738   2000.0000    127.8241
  1003.0000   2000.0000     17.9388     24.9901   2000.0000    133.3293
  1003.2500   2000.0000     17.0592     24.8941   2000.0000    134.9246
  1003.5000   2000.0000     16.5474     24.9522   2000.0000    134.8881
  1003.7500   2000.0000     16.3767     25.0570   2000.0000    134.4664
  1004.0000   2000.0000     16.5755     25.1420   2000.0000    134.5465
  1004.2500   2000.0000     17.1928     25.1848   2000.0000    135.0692
  1004.5000   2000.0000     18.2529     25.1904   2000.0000    135.9561
  1004.7500   2000.0000     19.6929     25.1561   2000.0000    136.2558
  1005.0000   2000.0000     21.3011     25.0409   2000.0000    135.8325
  1005.2500   2000.0000     22.7226     24.7689   2000.0000    134.8575
  1005.5000   2000.0000     23.6149     24.2770   2000.0000    132.4095
  1005.7500   2000.0000     23.8693     23.5692   2000.0000    130.2435
  1006.0000   2000.0000     23.6459     22.7204   2000.0000    126.5162
  1006.2500   2000.0000     23.1787     21.8297   2000.0000    124.0524
  1006.5000   2000.0000     22.5836     20.9704   2000.0000    121.1988
  1006.7500   2000.0000     21.8227     20.1781   2000.0000    120.1848
  1007.0000   2000.0000     20.8060     19.4758   2000.0000    119.7140
  1007.2500   2000.0000     19.5177     18.9103   2000.0000    119.5224
  1007.5000   2000.0000     18.0600     18.5668   2000.0000    118.7663
  1007.7500   2000.0000     16.5901     18.5463   2000.0000    118.2922
  1008.0000   2000.0000     15.2354     18.9161   2000.0000    119.1143
  1008.2500   2000.0000     14.0625     19.6480   2000.0000    121.2169
  1008.5000   2000.0000     13.0917     20.5587   2000.0000    125.9379
  1008.7500   2000.0000     12.3200     21.3081   2000.0000    129.0976
  1009.0000   2000.0000     11.7339     21.5510   2000.0000    132.8243
  1009.2500   2000.0000     11.3118     21.1896   2000.0000    134.9868
  1009.5000   2000.0000     11.0241     20.4438   2000.0000    139.1886
  1009.7500   2000.0000     10.8364     19.6425   2000.0000    143.0067
