~Version Information
VERS.                      2.0: CWLS Log ASCII Standard - VERSION 2.0
WRAP.                       NO: One line per depth step
~Well Information Block
STRT.FT               230.0000: 
STOP.FT              1527.0000: 
STEP.FT                 0.1000: 
NULL.                -999.2500: 
COMP.          Pioneer Natural Resources: COMPANY
WELL.              Border 21-3: WELL
FLD.           Purgatorie River: FIELD
LOC.           865' FNL & 1415' FWL: LOCATION
PROV.                 Colorado: PROVINCE
CNTY.               Las Animas: COUNTRY
SRVC.                         : SERVICE COMPANY
DATE.          Thu Dec 09 16:57:34 2004: LOG DATE
UWI.           05 071 08169 00: UNIQUE WELL ID
~Curve Information Block
DEPT.FT            0 000 00 00: Depth
LTEN.lb                       : Surface Line Tension
DCAL.in                       : CDL Caliper
RHOB.g/cc                     : CDL Bulk Density
RHOC.g/cc                     : CDL Density Correction
DPOR.pu                       : CDL Density Porosity
GR.GAPI                       : Gamma Ray
NPOR.pu                       : Neutron Porosity
~Parameter Information Block
~A  Depth       LTEN        DCAL        RHOB        RHOC        DPOR         GR         NPOR    
# ...
   826.4000    938.2087      8.2276      2.4934      0.1039      9.4888    173.5961     27.0933
   826.5000    944.7135      8.2412      2.5114      0.1135      8.4008    171.9716     26.8520
   826.6000    944.7135      8.2412      2.5382      0.1162      6.7787    165.7305     26.2139
   826.7000    944.7135      8.2412      2.5650      0.0972      5.1531    158.2306     25.7376
   826.8000    929.7594      8.0405      2.5903      0.0941      3.6176    152.8710     25.9524
   826.9000    929.7594      8.0405      2.6140      0.1693      2.1820    146.8460     26.4226
   827.0000    885.0350      7.9228      2.6284      0.1435      1.3117    138.9029     26.4756
   827.1000    885.0350      7.9228      2.6261      0.1138      1.4510    132.3854     25.9651
   827.2000    885.0350      7.9228      2.6055      0.0854      2.6952    128.3161     25.3084
   827.3000    867.7206      7.9045      2.5789      0.0239      4.3113    124.1952     24.9267
   827.4000    867.7206      7.9045      2.5645      0.0174      5.1808    119.2342     24.6383
   827.5000    930.5260      7.9026      2.5599      0.0623      5.4622    113.3092     24.1460
   827.6000    930.5260      7.9026      2.5526      0.0107      5.9037    105.9760     23.5442
   827.7000    930.5260      7.9026      2.5442      0.0036      6.4124     98.5955     23.1273
   827.8000    964.4822      7.9006      2.5338      0.0335      7.0450     94.5412     23.0237
   827.9000    964.4822      7.9006      2.5146      0.0255      8.2087     96.4438     22.9423
   828.0000    890.3342      7.9012      2.4900      0.0118      9.6970    100.5146     22.6669
   828.1000    890.3342      7.9012      2.4738     -0.0011     10.6767     99.7836     22.3838
   828.2000    890.3342      7.9012      2.4741      0.0346     10.6594     95.8637     22.1408
   828.3000    868.5776      7.9030      2.4782      0.0653     10.4122     96.8301     21.8337
   828.4000    868.5776      7.9030      2.4746      0.0105     10.6309    103.8624     21.5612
   828.5000    934.8539      7.9033      2.4706      0.0446     10.8743    112.0489     21.4993
   828.6000    934.8539      7.9033      2.4727      0.0334     10.7471    119.3136     21.7286
   828.7000    934.8539      7.9033      2.4804      0.0271     10.2758    124.8816     22.0342
   828.8000    898.0662      7.9035      2.4849      0.0804     10.0076    127.3988     22.1177
   828.9000    898.0662      7.9035      2.4802      0.0382     10.2939    129.2476     22.0671
   829.0000    914.8018      7.9048      2.4766      0.0392     10.5096    135.8127     22.0870
   829.1000    914.8018      7.9048      2.4763      0.0603     10.5252    142.8979     22.1154
   829.2000    914.8018      7.9048      2.4704      0.0684     10.8864    140.6702     22.1344
   829.3000    889.3535      7.9044      2.4648      0.0092     11.2233    133.3926     22.1692
   829.4000    889.3535      7.9044      2.4672      0.0787     11.0811    130.2802     22.1382
   829.5000    942.8698      7.9058      2.4647      0.0613     11.2318    129.7157     22.0616
   829.6000    942.8698      7.9058      2.4511      0.0226     12.0559    130.6124     21.9564
   829.7000    942.8698      7.9058      2.4375      0.0207     12.8762    135.9551     21.6672
   829.8000    952.4432      7.9060      2.4362      0.0187     12.9568    140.5655     21.1909
   829.9000    952.4432      7.9060      2.4499      0.0468     12.1272    138.2797     20.8733
   830.0000    955.4651      7.9038      2.4650      0.0658     11.2126    132.1273     20.8702
   830.1000    955.4651      7.9038      2.4646      0.0675     11.2338    125.7455     21.0269
   830.2000    955.4651      7.9038      2.4543      0.0323     11.8596    118.5594     21.1224
   830.3000    948.4342      7.9023      2.4494      0.0493     12.1596    114.4602     21.0655
   830.4000    948.4342      7.9023      2.4534      0.0150     11.9157    117.3466     20.9457
   830.5000    956.9620      7.9035      2.4630      0.0544     11.3348    119.5090     20.9646
   830.6000    956.9620      7.9035      2.4637      0.0855     11.2930    113.9803     21.0904
   830.7000    956.9620      7.9035      2.4468      0.0428     12.3160    105.0257     20.7869
   830.8000    974.7906      7.9033      2.4277      0.0257     13.4742     99.1676     19.9867
   830.9000    974.7906      7.9033      2.4204      0.0337     13.9142     97.6155     19.3925
   831.0000    975.5846      7.9031      2.4232      0.0318     13.7457     98.4902     19.3658
   831.1000    975.5846      7.9031      2.4330      0.0394     13.1512     97.9643     19.6509
   831.2000    975.5846      7.9031      2.4477      0.0708     12.2635     93.8202     19.8992
   831.3000    953.9016      7.9023      2.4622      0.0429     11.3827     89.1427     19.8724
   831.4000    953.9016      7.9023      2.4739      0.0621     10.6728     87.5559     19.6662
   831.5000    961.5563      7.9040      2.4815      0.0533     10.2124     89.7326     19.4838
   831.6000    961.5563      7.9040      2.4824      0.0567     10.1546     92.0571     19.2652
   831.7000    961.5563      7.9040      2.4769      0.0543     10.4932     90.2645     19.0512
   831.8000    959.2930      7.9046      2.4716      0.0408     10.8102     84.9455     19.2395
   831.9000    959.2930      7.9046      2.4683      0.1017     11.0125     80.9588     19.9058
   832.0000    964.3284      7.9049      2.4584      0.0799     11.6104     80.8832     20.5605
   832.1000    964.3284      7.9049      2.4450      0.0418     12.4243     82.3382     20.8052
   832.2000    964.3284      7.9049      2.4430      0.0132     12.5426     84.3459     20.7281
   832.3000    966.3866      7.9040      2.4557      0.0642     11.7785     85.5382     20.5731
   832.4000    966.3866      7.9040      2.4703      0.0570     10.8939     82.6842     20.4407
   832.5000    979.3434      7.9051      2.4777      0.0575     10.4399     77.9723     20.3113
   832.6000    979.3434      7.9051      2.4816      0.0396     10.2074     76.4408     20.0711
   832.7000    979.3434      7.9051      2.4882      0.0393      9.8084     77.6205     19.7094
   832.8000    972.7272      7.9037      2.4932      0.0702      9.5010     77.3818     19.3871
   832.9000    972.7272      7.9037      2.4935      0.0356      9.4853     74.9851     19.3050
   833.0000    950.4401      7.9044      2.4996      0.0412      9.1178     73.6038     19.4671
   833.1000    950.4401      7.9044      2.5139      0.0623      8.2473     74.0159     19.7830
   833.2000    950.4401      7.9044      2.5194      0.1082      7.9125     73.6696     20.1825
   833.3000    968.5760      7.9041      2.5047      0.0807      8.8078     74.3541     20.3204
   833.4000    968.5760      7.9041      2.4845      0.0517     10.0319     76.6503     20.1058
   833.5000    964.0578      7.9029      2.4779      0.0512     10.4286     76.0559     20.0264
   833.6000    964.0578      7.9029      2.4838      0.0603     10.0707     73.1262     20.2955
   833.7000    964.0578      7.9029      2.4871      0.0641      9.8728     72.1712     20.3894
   833.8000    955.9891      7.9027      2.4770      0.0448     10.4850     72.0114     19.9726
   833.9000    955.9891      7.9027      2.4597      0.0286     11.5306     69.3811     19.5171
   834.0000    968.2079      7.9044      2.4516      0.0215     12.0242     65.7984     19.4076
   834.1000    968.2079      7.9044      2.4585      0.0233     11.6080     62.9266     19.3708
   834.2000    968.2079      7.9044      2.4663      0.0611     11.1329     60.5035     19.0983
   834.3000    964.7735      7.9056      2.4601      0.0343     11.5118     59.4455     18.5976
   834.4000    964.7735      7.9056      2.4470      0.0066     12.3007     59.5701     18.1631
   834.5000    970.3292      7.9118      2.4458      0.0258     12.3788     59.5958     18.2558
   834.6000    970.3292      7.9118      2.4617      0.0366     11.4151     61.2863     18.7994
   834.7000    970.3292      7.9118      2.4837      0.0572     10.0814     64.7173     19.1384
