~Version Information
VERS.                      2.0: CWLS Log ASCII Standard - VERSION 2.0
WRAP.                       NO: One line per depth step
~Well Information Block
STRT.FT               250.0000: 
STOP.FT               894.7500: 
STEP.FT                 0.2500: 
NULL.                -999.2500: 
COMP.          Pioneer Natural Resources: COMPANY
WELL.          Santisteven 13-22: WELL
FLD.           Purgatoire River: FIELD
LOC.           1861' FSL & 992' FWL----: LOCATION
PROV.                 Colorado: PROVINCE
CNTY.               Las Animas: COUNTRY
SRVC.                Patterson: SERVICE COMPANY
DATE.          Sat Apr 02 14:49:07 2005: LOG DATE
UWI.           05 071 08337 00: UNIQUE WELL ID
~Curve Information Block
DEPT.FT            0 000 00 00: Depth
SN.Ohm-m                      : IEL Short Normal
SP.mV                         : IEL Spontaneous Potential
DIR.Ohm-m                     : IEL Induction Resistivity
GR.GAPI                       : Gamma Ray
~Parameter Information Block
~A  Depth        SN          SP         DIR          GR     
# ...
   417.5000    652.5464     26.0688     18.9595    122.8891
   417.7500    652.6989     26.0664     18.9455    121.8529
   418.0000    652.7404     26.0650     18.8922    121.9211
   418.2500    652.7489     26.0643     18.7646    122.3912
   418.5000    652.7505     26.0640     18.5270    123.6264
   418.7500    652.7505     26.0637     18.1647    125.5852
   419.0000    652.7505     26.0631     17.6961    131.2033
   419.2500    652.7505     26.0621     17.1642    136.3889
   419.5000    652.7505     26.0609     16.6181    144.9581
   419.7500    652.7505     26.0599     16.0987    150.5700
   420.0000    652.7505     26.0595     15.6359    158.0796
   420.2500    652.7505     26.0601     15.2499    161.9759
   420.5000    652.7505     26.0620     14.9507    165.2199
   420.7500    652.7505     26.0653     14.7383    165.3530
   421.0000    652.7505     26.0698     14.6057    163.0513
   421.2500    652.7505     26.0753     14.5424    160.7742
   421.5000    652.7505     26.0814     14.5392    157.6503
   421.7500    652.7505     26.0876     14.5903    155.8244
   422.0000    652.7505     26.0935     14.6934    152.8097
   422.2500    652.7505     26.0988     14.8496    150.7082
   422.5000    652.7505     26.1029     15.0611    148.8819
   422.7500    652.7505     26.1057     15.3290    149.4195
   423.0000    652.7505     26.1070     15.6494    152.8195
   423.2500    652.7505     26.1067     16.0068    155.7490
   423.5000    652.7505     26.1051     16.3678    158.3478
   423.7500    652.7505     26.1025     16.6785    157.3856
   424.0000    652.7505     26.0995     16.8760    150.9119
   424.2500    652.7505     26.0966     16.9139    144.1096
   424.5000    652.7505     26.0940     16.7880    133.7686
   424.7500    652.7505     26.0918     16.5404    129.1477
   425.0000    652.7505     26.0900     16.2391    128.1456
   425.2500    652.7505     26.0883     15.9479    131.4888
   425.5000    652.7505     26.0865     15.7077    140.5679
   425.7500    652.7505     26.0845     15.5318    147.5522
   426.0000    652.7505     26.0824     15.4130    156.4821
   426.2500    652.7505     26.0804     15.3337    160.2917
   426.5000    652.7505     26.0790     15.2769    162.3727
   426.7500    652.7505     26.0785     15.2334    161.8808
   427.0000    652.7505     26.0791     15.2043    160.1222
   427.2500    652.7505     26.0811     15.1969    159.3316
   427.5000    652.7505     26.0844     15.2141    159.3241
   427.7500    652.7505     26.0886     15.2433    159.5891
   428.0000    652.7505     26.0935     15.2532    159.2056
   428.2500    652.7505     26.0985     15.2032    158.2772
   428.5000    652.7505     26.1033     15.0623    156.7089
   428.7500    652.7505     26.1074     14.8250    156.2791
   429.0000    652.7505     26.1108     14.5117    157.4221
   429.2500    652.7505     26.1134     14.1549    159.3234
   429.5000    652.7505     26.1153     13.7843    162.8083
   429.7500    652.7505     26.1167     13.4225    164.7925
   430.0000    652.7413     26.1178     13.0886    166.9039
   430.2500    652.6906     26.1187     12.8027    168.2326
   430.5000    652.4465     26.1196     12.5841    170.9491
   430.7500    651.5480     26.1206     12.4466    172.9850
   431.0000    649.0468     26.1220     12.3941    174.9712
   431.2500    643.8657     26.1239     12.4217    174.9975
   431.5000    636.1514     26.1266     12.5200    173.1722
   431.7500    628.5990     26.1303     12.6805    171.0832
   432.0000    625.3832     26.1351     12.8995    167.2253
   432.2500    628.5990     26.1412     13.1788    164.4611
   432.5000    636.1514     26.1484     13.5242    160.5199
   432.7500    643.8657     26.1563     13.9427    158.2055
   433.0000    649.0468     26.1645     14.4390    155.0058
   433.2500    651.5480     26.1725     15.0125    152.6911
   433.5000    652.4465     26.1796     15.6549    148.4761
   433.7500    652.6906     26.1856     16.3503    145.2923
   434.0000    652.7413     26.1902     17.0786    140.7693
   434.2500    652.7505     26.1936     17.8190    138.3517
   434.5000    652.7505     26.1961     18.5545    135.5177
   434.7500    652.7505     26.1982     19.2740    133.6974
   435.0000    652.7505     26.2005     19.9730    130.7359
   435.2500    652.7505     26.2035     20.6493    129.0728
   435.5000    652.7505     26.2074     21.2949    128.2013
   435.7500    652.7505     26.2122     21.8895    128.7714
   436.0000    652.7505     26.2176     22.4043    130.0770
   436.2500    652.7505     26.2233     22.8178    130.4171
   436.5000    652.7475     26.2290     23.1266    129.9403
   436.7500    652.7308     26.2342     23.3428    129.3362
   437.0000    652.6508     26.2387     23.4779    128.0301
   437.2500    652.3561     26.2422     23.5329    126.5340
   437.5000    651.5357     26.2446     23.5011    123.4765
   437.7500    649.8363     26.2457     23.3800    121.6483
   438.0000    647.3061     26.2452     23.1795    120.5473
   438.2500    644.8290     26.2429     22.9232    121.1372
   438.5000    643.7742     26.2386     22.6405    123.6019
   438.7500    644.8290     26.2326     22.3575    125.9043
   439.0000    647.3061     26.2249     22.0942    129.5476
   439.2500    649.8363     26.2161     21.8700    131.5222
   439.5000    651.5357     26.2068     21.7127    132.8077
   439.7500    652.3561     26.1976     21.6580    132.1703
   440.0000    652.6508     26.1889     21.7361    128.6200
   440.2500    652.7308     26.1811     21.9531    124.3287
   440.5000    652.7475     26.1745     22.2831    115.1399
   440.7500    652.7505     26.1691     22.6788    108.0628
   441.0000    652.7505     26.1648     23.0967     98.8220
   441.2500    652.7505     26.1615     23.5181     95.0901
   441.5000    652.7505     26.1589     23.9507     94.0528
   441.7500    652.7505     26.1568     24.4129     95.8876
   442.0000    652.7505     26.1550     24.9149    100.2301
   442.2500    652.7505     26.1536     25.4480    102.4779
   442.5000    652.7505     26.1526     25.9847    102.4950
   442.7500    652.7505     26.1520     26.4866     99.9435
   443.0000    652.7505     26.1522     26.9200     93.5770
   443.2500    652.7505     26.1532     27.2746     88.7806
   443.5000    652.7505     26.1553     27.5750     82.2006
   443.7500    652.7505     26.1585     27.8769     78.5513
   444.0000    652.7505     26.1626     28.2482     73.9718
   444.2500    652.7505     26.1674     28.7428     71.2744
   444.5000    652.7505     26.1725     29.3745     68.0635
   444.7500    652.7505     26.1777     30.1032     67.1621
   445.0000    652.7494     26.1828     30.8382     68.6316
   445.2500    652.7435     26.1878     31.4619     71.2856
   445.5000    652.7151     26.1925     31.8626     76.2754
   445.7500    652.6105     26.1971     31.9578     79.5554
   446.0000    652.3195     26.2013     31.7067     84.7474
   446.2500    651.7166     26.2050     31.1213     89.3032
   446.5000    650.8188     26.2078     30.2742     98.8749
   446.7500    649.9399     26.2096     29.2859    106.7513
   447.0000    649.5657     26.2105     28.2882    118.7781
   447.2500    649.9399     26.2107     27.3820    125.4968
   447.5000    650.8188     26.2110     26.6148    131.7325
   447.7500    651.7166     26.2119     25.9838    132.8558
   448.0000    652.3195     26.2140     25.4591    130.3467
   448.2500    652.6105     26.2178     25.0128    126.6432
   448.5000    652.7151     26.2231     24.6395    119.8599
   448.7500    652.7435     26.2295     24.3560    115.5788
   449.0000    652.7494     26.2364     24.1835    110.8256
   449.2500    652.7505     26.2432     24.1301    109.1055
   449.5000    652.7505     26.2491     24.1871    108.6578
   449.7500    652.7505     26.2536     24.3383    109.5483
   450.0000    652.7505     26.2566     24.5715    112.1070
   450.2500    652.7505     26.2581     24.8815    114.2101
   450.5000    652.7505     26.2586     25.2622    117.0354
   450.7500    652.7505     26.2585     25.6968    118.1604
