~Version Information
VERS.                      2.0: CWLS Log ASCII Standard - VERSION 2.0
WRAP.                       NO: One line per depth step
~Well Information Block
STRT.FT               650.0000: 
STOP.FT              2087.0000: 
STEP.FT                 0.2500: 
NULL.                -999.2500: 
COMP.          Pioneer Natural Resources: COMPANY
WELL.           Galloway 32-13: WELL
FLD.           Purgatoire River: FIELD
LOC.           1809' FNL & 2004' FEL: LOCATION
PROV.                 Colorado: PROVINCE
CNTY.               Las Animas: COUNTRY
SRVC.                Patterson: SERVICE COMPANY
DATE.          Fri Jul 08 15:50:04 2005: LOG DATE
UWI.           05 071 08423 00: UNIQUE WELL ID
~Curve Information Block
DEPT.FT            0 000 00 00: Depth
SN.Ohm-m                      : IEL Short Normal
SP.mV                         : IEL Spontaneous Potential
DIR.Ohm-m                     : IEL Induction Resistivity
GR.GAPI                       : Gamma Ray
~Parameter Information Block
~A  Depth        SN          SP         DIR          GR     
# ...
   750.5000   2000.0000   2000.0000     32.2373    113.3090
   750.7500   2000.0000   2000.0000     31.2676    116.3246
   751.0000   2000.0000   2000.0000     30.2543    121.9459
   751.2500   2000.0000   2000.0000     29.2977    125.9798
   751.5000   2000.0000   2000.0000     28.4935    131.8976
   751.7500   2000.0000   2000.0000     27.8987    135.3206
   752.0000   2000.0000   2000.0000     27.5050    138.9411
   752.2500   2000.0000   2000.0000     27.2276    140.3479
   752.5000   2000.0000   2000.0000     26.9162    141.9101
   752.7500   2000.0000   2000.0000     26.4032    143.1881
   753.0000   2000.0000   2000.0000     25.5808    145.3722
   753.2500   2000.0000   2000.0000     24.4616    146.2766
   753.5000   2000.0000   2000.0000     23.1671    145.6829
   753.7500   2000.0000   2000.0000     21.8573    144.1328
   754.0000   2000.0000   2000.0000     20.6622    141.8085
   754.2500   2000.0000   2000.0000     19.6536    141.4926
   754.5000   2000.0000   2000.0000     18.8461    143.9397
   754.7500   2000.0000   2000.0000     18.2117    147.2408
   755.0000   2000.0000   2000.0000     17.6975    153.3532
   755.2500   2000.0000   2000.0000     17.2481    157.5645
   755.5000   2000.0000   2000.0000     16.8249    163.8086
   755.7500   2000.0000   2000.0000     16.4165    167.9997
   756.0000   2000.0000   2000.0000     16.0343    174.1467
   756.2500   2000.0000   2000.0000     15.6979    177.6734
   756.5000   2000.0000   2000.0000     15.4230    181.0580
   756.7500   2000.0000   2000.0000     15.2174    181.8597
   757.0000   2000.0000   2000.0000     15.0837    181.7310
   757.2500   2000.0000   2000.0000     15.0241    181.4513
   757.5000   2000.0000   2000.0000     15.0406    181.1015
   757.7500   2000.0000   2000.0000     15.1324    180.5878
   758.0000   2000.0000   2000.0000     15.2933    178.4445
   758.2500   2000.0000   2000.0000     15.5128    175.4811
   758.5000   2000.0000   2000.0000     15.7774    167.8848
   758.7500   2000.0000   2000.0000     16.0727    160.6941
   759.0000   2000.0000   2000.0000     16.3841    147.7904
   759.2500   2000.0000   2000.0000     16.6968    138.7560
   759.5000   2000.0000   2000.0000     16.9916    126.1351
   759.7500   2000.0000   2000.0000     17.2403    119.1353
   760.0000   2000.0000   2000.0000     17.4071    112.0167
   760.2500   2000.0000   2000.0000     17.4616    109.9831
   760.5000   2000.0000   2000.0000     17.3930    110.6978
   760.7500   2000.0000   2000.0000     17.2115    112.9736
   761.0000   2000.0000   2000.0000     16.9398    118.0606
   761.2500   2000.0000   2000.0000     16.6042    122.5353
   761.5000   2000.0000   2000.0000     16.2315    131.4006
   761.7500   2000.0000   2000.0000     15.8474    138.7310
   762.0000   2000.0000   2000.0000     15.4725    150.4437
   762.2500   2000.0000   2000.0000     15.1187    157.3326
   762.5000   2000.0000   2000.0000     14.7882    164.2516
   762.7500   2000.0000   2000.0000     14.4760    166.1452
   763.0000   2000.0000   2000.0000     14.1764    165.3156
   763.2500   2000.0000   2000.0000     13.8886    162.9296
   763.5000   2000.0000   2000.0000     13.6198    157.9554
   763.7500   2000.0000   2000.0000     13.3817    154.5297
   764.0000   2000.0000   2000.0000     13.1849    150.3279
   764.2500   2000.0000   2000.0000     13.0354    148.5056
   764.5000   2000.0000   2000.0000     12.9327    147.2883
   764.7500   2000.0000   2000.0000     12.8704    147.1539
   765.0000   2000.0000   2000.0000     12.8376    147.0534
   765.2500   2000.0000   2000.0000     12.8210    146.7467
   765.5000   2000.0000   2000.0000     12.8082    146.3461
   765.7500   2000.0000   2000.0000     12.7882    146.7077
   766.0000   2000.0000   2000.0000     12.7505    148.8546
   766.2500   2000.0000   2000.0000     12.6835    151.1997
   766.5000   2000.0000   2000.0000     12.5770    154.8695
   766.7500   2000.0000   2000.0000     12.4289    156.5633
   767.0000   2000.0000   2000.0000     12.2491    157.4355
   767.2500   2000.0000   2000.0000     12.0570    157.3463
   767.5000   2000.0000   2000.0000     11.8730    157.3571
   767.7500   2000.0000   2000.0000     11.7116    157.8076
   768.0000   2000.0000   2000.0000     11.5793    159.0836
   768.2500   2000.0000   2000.0000     11.4766    160.1537
   768.5000   2000.0000   2000.0000     11.4003    161.8189
   768.7500   2000.0000   2000.0000     11.3449    162.8254
   769.0000   2000.0000   2000.0000     11.3039    163.7411
   769.2500   2000.0000   2000.0000     11.2734    163.5497
   769.5000   2000.0000   2000.0000     11.2540    161.6519
   769.7500   2000.0000   2000.0000     11.2513    159.6310
   770.0000   2000.0000   2000.0000     11.2738    156.7446
   770.2500   2000.0000   2000.0000     11.3308    155.3975
   770.5000   2000.0000   2000.0000     11.4291    153.8727
   770.7500   2000.0000   2000.0000     11.5716    152.7289
   771.0000   2000.0000   2000.0000     11.7555    150.9221
   771.2500   2000.0000   2000.0000     11.9729    150.2282
   771.5000   2000.0000   2000.0000     12.2135    150.8464
   771.7500   2000.0000   2000.0000     12.4685    152.4638
   772.0000   2000.0000   2000.0000     12.7336    155.8357
   772.2500   2000.0000   2000.0000     13.0096    157.5374
   772.5000   2000.0000   2000.0000     13.2980    156.9249
   772.7500   2000.0000   2000.0000     13.5953    153.7316
   773.0000   2000.0000   2000.0000     13.8921    145.6512
   773.2500   2000.0000   2000.0000     14.1813    139.4590
   773.5000   2000.0000   2000.0000     14.4666    131.7954
   773.7500   2000.0000   2000.0000     14.7625    129.1679
   774.0000   2000.0000   2000.0000     15.0842    129.8105
   774.2500   2000.0000   2000.0000     15.4394    132.6131
   774.5000   2000.0000   2000.0000     15.8320    138.2007
   774.7500   2000.0000   2000.0000     16.2707    141.8914
   775.0000   2000.0000   2000.0000     16.7663    146.5691
   775.2500   2000.0000   2000.0000     17.3128    148.6256
   775.5000   2000.0000   2000.0000     17.8670    148.9294
   775.7500   2000.0000   2000.0000     18.3520    146.9189
   776.0000   2000.0000   2000.0000     18.6951    141.6269
   776.2500   2000.0000   2000.0000     18.8754    138.0554
   776.5000   2000.0000   2000.0000     18.9381    135.0080
   776.7500   2000.0000   2000.0000     18.9624    134.8389
   777.0000   2000.0000   2000.0000     19.0148    135.8275
   777.2500   2000.0000   2000.0000     19.1227    136.0094
   777.5000   2000.0000   2000.0000     19.2786    134.4967
   777.7500   2000.0000   2000.0000     19.4624    132.6587
   778.0000   2000.0000   2000.0000     19.6610    130.0887
   778.2500   2000.0000   2000.0000     19.8670    129.2088
   778.5000   2000.0000   2000.0000     20.0615    129.6212
   778.7500   2000.0000   2000.0000     20.2019    130.8179
   779.0000   2000.0000   2000.0000     20.2324    132.5956
   779.2500   2000.0000   2000.0000     20.1070    132.5402
   779.5000   2000.0000   2000.0000     19.8007    128.8643
   779.7500   2000.0000   2000.0000     19.3052    123.9027
   780.0000   2000.0000   2000.0000     18.6294    114.3641
   780.2500   2000.0000   2000.0000     17.8160    108.2476
   780.5000   2000.0000   2000.0000     16.9461    102.2455
   780.7500   2000.0000   2000.0000     16.1140    101.5545
   781.0000   2000.0000   2000.0000     15.3907    106.4005
   781.2500   2000.0000   2000.0000     14.8057    113.2707
   781.5000   2000.0000   2000.0000     14.3520    126.9834
   781.7500   2000.0000   2000.0000     14.0039    136.5686
   782.0000   2000.0000   2000.0000     13.7305    148.7943
   782.2500   2000.0000   2000.0000     13.5005    154.7459
   782.5000   2000.0000   2000.0000     13.2817    160.6539
   782.7500   2000.0000   2000.0000     13.0441    163.1135
   783.0000   2000.0000   2000.0000     12.7722    165.1425
   783.2500   2000.0000   2000.0000     12.4795    165.4417
   783.5000   2000.0000   2000.0000     12.2089    164.6005
   783.7500   2000.0000   2000.0000     12.0172    163.7384
