~Version Information
 VERS.                      2.0: CWLS Log ASCII Standard - VERSION 2.0
 WRAP.                       NO: One line per depth step
 ~Well Information Block
 STRT.FT               115.0000: 
 STOP.FT              1768.2500: 
 STEP.FT                 0.2500: 
 NULL.                -999.2500: 
 COMP.          Petrogulf Corporation: COMPANY
 WELL.           Parsons 23-15V: WELL
 FLD.           Purgatorie River: FIELD
 LOC.           2095' FSL & 1817' FWL--API 05 071 07556 00----: LOCATION
 CNTY.               Las Animas: COUNTY
 SRVC.                         : SERVICE COMPANY
 DATE.          Fri Apr 19 16:58:41 2002: LOG DATE
 UWI.                          : UNIQUE WELL ID
 STAT.                       CO: STATE
 PROV.                         :Province
 ~Curve Information Block
 DEPT.FT            0 000 00 00: Depth
 SP.mV                         : DIL Spontaneous Potential
 RILD.Ohm-m                    : DIL Deep Resistivity
 RILM.Ohm-m                    : DIL Medium Resistivity
 RLL3.Ohm-m                    : DIL Shallow Resistivity
 GR.GAPI                       : Gamma Ray
 ~Parameter Information Block
 ~A  Depth        SP         RILD        RILM        RLL3         GR     
# ...
  1627.0000    -91.5864     10.2542      9.9001     12.6291     84.4078
  1627.2500    -91.5994      9.9176      9.5947     12.5119     86.7155
  1627.5000    -91.5472      9.6560      9.3256     12.1810     90.8236
  1627.7500    -91.4431      9.4596      9.0991     11.7590     95.4175
  1628.0000    -91.3007      9.3150      8.9163     11.3663     98.5766
  1628.2500    -91.1285      9.2076      8.7733     11.0828     98.9242
  1628.5000    -90.9323      9.1233      8.6633     10.9391     96.5992
  1628.7500    -90.7190      9.0502      8.5783     10.9241     93.0717
  1629.0000    -90.4911      8.9794      8.5112     10.9908     89.8489
  1629.2500    -90.2416      8.9060      8.4563     11.0668     87.4076
  1629.5000    -89.9593      8.8302      8.4105     11.0834     85.4850
  1629.7500    -89.6434      8.7558      8.3735     11.0178     84.2199
  1630.0000    -89.3103      8.6890      8.3468     10.9145     84.5726
  1630.2500    -88.9855      8.6360      8.3324     10.8510     87.2365
  1630.5000    -88.6892      8.6016      8.3312     10.8717     91.3224
  1630.7500    -88.4287      8.5881      8.3427     10.9484     94.8304
  1631.0000    -88.1962      8.5955      8.3659     11.0034     96.5950
  1631.2500    -87.9673      8.6216      8.4006     10.9649     97.1826
  1631.5000    -87.7049      8.6632      8.4480     10.8093     97.7041
  1631.7500    -87.3716      8.7171      8.5101     10.5712     98.3804
  1632.0000    -86.9465      8.7813      8.5886     10.3283     98.5532
  1632.2500    -86.4335      8.8551      8.6837     10.1670     97.6406
  1632.5000    -85.8605      8.9389      8.7938     10.1407     95.7265
  1632.7500    -85.2693      9.0339      8.9147     10.2466     93.4206
  1633.0000    -84.7019      9.1412      9.0408     10.4361     91.4227
  1633.2500    -84.1883      9.2632      9.1660     10.6477     90.2838
  1633.5000    -83.7429      9.4038      9.2871     10.8368     90.3894
  1633.7500    -83.3695      9.5687      9.4060     10.9891     91.7999
  1634.0000    -83.0644      9.7645      9.5326     11.1181     93.9730
  1634.2500    -82.8127      9.9965      9.6843     11.2554     95.7974
  1634.5000    -82.5851     10.2664      9.8848     11.4482     96.0617
  1634.7500    -82.3448     10.5717     10.1598     11.7772     93.9911
  1635.0000    -82.0600     10.9063     10.5329     12.3823     89.5452
  1635.2500    -81.7117     11.2616     11.0203     13.4514     83.4712
  1635.5000    -81.2922     11.6279     11.6262     15.1277     77.0063
  1635.7500    -80.8033     11.9968     12.3390     17.3573     71.1936
  1636.0000    -80.2558     12.3632     13.1306     19.8136     66.3417
  1636.2500    -79.6682     12.7259     13.9602     22.0512     62.2674
  1636.5000    -79.0608     13.0869     14.7817     23.8306     59.0042
  1636.7500    -78.4517     13.4475     15.5502     25.2643     57.0171
  1637.0000    -77.8551     13.8036     16.2241     26.5442     56.6779
  1637.2500    -77.2832     14.1448     16.7632     27.5623     57.7646
  1637.5000    -76.7485     14.4569     17.1283     27.9458     59.5150
  1637.7500    -76.2666     14.7289     17.2883     27.4742     61.0763
  1638.0000    -75.8583     14.9555     17.2339     26.3014     62.0102
  1638.2500    -75.5445     15.1337     16.9919     24.7160     62.4794
  1638.5000    -75.3347     15.2555     16.6262     22.8513     62.9081
  1638.7500    -75.2192     15.3059     16.2208     20.8359     63.3893
  1639.0000    -75.1755     15.2709     15.8521     19.2635     63.5077
  1639.2500    -75.1826     15.1530     15.5629     19.3659     62.8432
  1639.5000    -75.2322     14.9800     15.3515     22.4030     61.5595
  1639.7500    -75.3284     14.7992     15.1801     28.4175     60.4035
  1640.0000    -75.4798     14.6602     15.0031     35.3251     60.1617
  1640.2500    -75.6943     14.5986     14.8041     39.6294     61.1747
  1640.5000    -75.9776     14.6284     14.6191     38.8495     63.3165
  1640.7500    -76.3368     14.7416     14.5287     33.6595     66.2354
  1641.0000    -76.7829     14.9123     14.6280     27.6543     69.3746
  1641.2500    -77.3293     15.1003     14.9959     25.2963     71.8848
  1641.5000    -77.9871     15.2550     15.6711     30.3232     72.8952
  1641.7500    -78.7578     15.3229     16.6275     45.3111     71.8757
  1642.0000    -79.6282     15.2612     17.7465     70.8972     68.5688
  1642.2500    -80.5719     15.0545     18.8030    103.8207     62.9563
  1642.5000    -81.5522     14.7231     19.5127    135.7362     55.8334
  1642.7500    -82.5263     14.3141     19.6557    155.7303     49.2430
  1643.0000    -83.4506     13.8796     19.1933    156.1983     45.7669
  1643.2500    -84.2927     13.4559     18.2655    137.4734     47.0379
  1643.5000    -85.0394     13.0554     17.0817    107.1077     52.8302
  1643.7500    -85.6913     12.6715     15.8191     74.8689     61.5509
  1644.0000    -86.2495     12.2903     14.5893     47.9428     71.4960
  1644.2500    -86.7066     11.9016     13.4518     29.1975     81.6209
  1644.5000    -87.0523     11.5048     12.4363     18.0908     91.3789
  1644.7500    -87.2846     11.1079     11.5556     12.4855    100.1145
  1645.0000    -87.4131     10.7245     10.8115     10.1360    106.6382
  1645.2500    -87.4553     10.3709     10.1981      9.4144    109.5022
  1645.5000    -87.4304     10.0641      9.7062      9.3850    108.1885
  1645.7500    -87.3570      9.8209      9.3272      9.5799    104.1116
  1646.0000    -87.2510      9.6557      9.0556      9.7778     99.7814
  1646.2500    -87.1271      9.5783      8.8909      9.8920     96.6576
  1646.5000    -87.0018      9.5923      8.8367      9.9321     94.2339
  1646.7500    -86.8916      9.6943      8.9004      9.9840     91.1349
  1647.0000    -86.8032      9.8743      9.0913     10.1930     86.4325
  1647.2500    -86.7257     10.1167      9.4188     10.7412     79.9694
  1647.5000    -86.6333     10.4012      9.8900     11.8024     72.2777
  1647.7500    -86.4956     10.7041     10.5056     13.4740     64.5117
  1648.0000    -86.2893     11.0010     11.2548     15.7210     57.9800
  1648.2500    -86.0061     11.2684     12.1068     18.3481     53.3808
  1648.5000    -85.6553     11.4852     13.0015     20.9975     50.5067
  1648.7500    -85.2609     11.6340     13.8441     23.1954     48.7873
  1649.0000    -84.8492     11.7016     14.5120     24.4940     48.1955
  1649.2500    -84.4389     11.6798     14.8835     24.6486     49.5394
  1649.5000    -84.0410     11.5669     14.8795     23.6856     53.6556
  1649.7500    -83.6660     11.3685     14.4966     21.8225     60.2329
  1650.0000    -83.3253     11.0965     13.8058     19.3627     67.6850
  1650.2500    -83.0264     10.7665     12.9220     16.6589     74.4408
  1650.5000    -82.7716     10.3961     11.9649     14.0878     80.2215
  1650.7500    -82.5612     10.0025     11.0310     11.9646     85.7050
  1651.0000    -82.3918      9.6009     10.1816     10.4379     91.0523
  1651.2500    -82.2523      9.2033      9.4450      9.4656     95.3095
  1651.5000    -82.1221      8.8188      8.8260      8.8930     97.4313
  1651.7500    -81.9780      8.4548      8.3169      8.5596     97.3849
  1652.0000    -81.8028      8.1186      7.9048      8.3574     95.8778
  1652.2500    -81.5876      7.8180      7.5765      8.2317     93.3869
  1652.5000    -81.3295      7.5602      7.3192      8.1567     89.9178
  1652.7500    -81.0277      7.3496      7.1216      8.1149     85.4745
  1653.0000    -80.6824      7.1873      6.9744      8.0915     80.3465
  1653.2500    -80.2929      7.0715      6.8710      8.0902     75.0484
  1653.5000    -79.8580      6.9993      6.8072      8.1572     70.2876
  1653.7500    -79.3790      6.9683      6.7791      8.3812     66.9230
  1654.0000    -78.8591      6.9770      6.7821      8.8338     65.6784
  1654.2500    -78.3008      7.0230      6.8110      9.4642     66.7446
  1654.5000    -77.7058      7.1010      6.8626     10.0481     69.6093
  1654.7500    -77.0827      7.2014      6.9390     10.3095     73.2117
