~Version Information
VERS.                      2.0: CWLS Log ASCII Standard - VERSION 2.0
WRAP.                       NO: One line per depth step
~Well Information Block
STRT.FT               275.0000: 
STOP.FT               811.2000: 
STEP.FT                 0.1000: 
NULL.                -999.2500: 
COMP.          Pioneer Natural Resources: COMPANY
WELL.          Barrelman 41-27: WELL
FLD.           Purgatoire River: FIELD
LOC.           371' FNL & 493' FEL--: LOCATION
PROV.                 Colorado: PROVINCE
CNTY.               Las Animas: COUNTRY
SRVC.                Patterson: SERVICE COMPANY
DATE.          Fri May 20 11:50:01 2005: LOG DATE
UWI.           05 071 08334 00: UNIQUE WELL ID
~Curve Information Block
DEPT.FT            0 000 00 00: Depth
DCAL.in                       : CDL Caliper
RHOB.g/cc                     : CDL Bulk Density
RHOC.g/cc                     : CDL Density Correction
DPOR.pu                       : CDL Density Porosity
NPOR.pu                       : Neutron Porosity
GR.GAPI                       : Gamma Ray
~Parameter Information Block
~A  Depth       DCAL        RHOB        RHOC        DPOR        NPOR         GR     
# ...
   409.4000      8.0359      2.5187      0.1031      7.9571     29.9600    159.3769
   409.5000      8.0511      2.5382      0.1111      6.7778     30.0810    144.8465
   409.6000      8.0511      2.5392      0.1669      6.7138     30.0390    134.8212
   409.7000      8.0511      2.5174      0.1168      8.0369     30.0224    132.5058
   409.8000      8.0725      2.4835      0.0804     10.0927     30.1555    133.8093
   409.9000      8.0725      2.4532      0.0413     11.9301     30.1325    139.4529
   410.0000      8.0899      2.4368      0.0511     12.9240     29.8324    145.4869
   410.1000      8.0899      2.4332      0.0699     13.1411     29.4170    147.8100
   410.2000      8.0899      2.4311      0.0927     13.2662     29.0478    151.0860
   410.3000      8.1080      2.4107      0.0835     14.5049     28.4993    157.5506
   410.4000      8.1080      2.3490      0.0727     18.2411     27.3907    163.3789
   410.5000      8.1288      2.2368      0.0106     25.0424     25.7976    165.2618
   410.6000      8.1288      2.0923     -0.0060     33.7973     24.2083    163.1258
   410.7000      8.1288      1.9628     -0.1061     41.6510     22.8893    154.7535
   410.8000      8.1435      1.8929     -0.0477     45.8868     21.7424    139.7428
   410.9000      8.1435      1.8799      0.0017     46.6717     20.6381    126.1722
   411.0000      8.1505      1.8993      0.0273     45.4994     19.3557    121.5244
   411.1000      8.1505      1.9469      0.0383     42.6110     17.8270    124.2373
   411.2000      8.1505      2.0182      0.1746     38.2883     16.4548    128.9867
   411.3000      8.1514      2.0971      0.2341     33.5117     15.6012    133.2685
   411.4000      8.1514      2.1845      0.3003     28.2142     15.3512    136.3604
   411.5000      8.1446      2.2874      0.3645     21.9754     15.5024    136.9615
   411.6000      8.1446      2.3854      0.3825     16.0356     15.8137    139.8327
   411.7000      8.1446      2.4446      0.3423     12.4458     15.9772    149.0469
   411.8000      8.1340      2.4575      0.2310     11.6681     15.8775    155.1086
   411.9000      8.1340      2.4495      0.1617     12.1490     15.8449    151.2447
   412.0000      8.1303      2.4471      0.1160     12.2964     16.1523    144.3795
   412.1000      8.1303      2.4455      0.1548     12.3933     16.9682    145.1076
   412.2000      8.1303      2.4247      0.0527     13.6550     17.9984    154.3010
   412.3000      8.1332      2.3863      0.0505     15.9817     18.4964    157.7996
   412.4000      8.1332      2.3449      0.0297     18.4937     18.3555    150.7100
   412.5000      8.1371      2.2973      0.0889     21.3784     17.9229    147.6131
   412.6000      8.1371      2.2198      0.0853     26.0749     17.2315    151.9783
   412.7000      8.1371      2.1032     -0.0241     33.1372     16.4907    153.9290
   412.8000      8.1385      1.9670     -0.0662     41.3955     15.8056    151.5864
   412.9000      8.1385      1.8324     -0.1400     49.5502     14.7375    148.0242
   413.0000      8.1359      1.7064     -0.0968     57.1878     13.1601    143.0078
   413.1000      8.1359      1.5858     -0.1250     64.4968     11.4544    137.8054
   413.2000      8.1359      1.4797     -0.1191     70.9284     10.0761    131.4534
   413.3000      8.1310      1.4190     -0.1561     74.6061      9.1112    122.0876
   413.4000      8.1310      1.4336     -0.0620     73.7216      8.4150    117.2639
   413.5000      8.1241      1.5197      0.0998     68.5007      7.9702    120.1865
   413.6000      8.1241      1.6444      0.2326     60.9481      7.8193    122.3940
   413.7000      8.1241      1.7761      0.3103     52.9646      8.0265    118.2781
   413.8000      8.1099      1.9010      0.3215     45.3916      8.5274    114.4217
   413.9000      8.1099      2.0152      0.3636     38.4701      9.0303    119.4601
   414.0000      8.0828      2.1149      0.3554     32.4319      9.3524    129.2136
   414.1000      8.0828      2.1985      0.3500     27.3610      9.7065    135.5826
   414.2000      8.0828      2.2659      0.3075     23.2773     10.3626    138.4408
   414.3000      8.0459      2.3192      0.2805     20.0470     11.2156    137.5289
   414.4000      8.0459      2.3629      0.2530     17.4004     12.0385    135.8721
   414.5000      8.0162      2.3934      0.2024     15.5522     12.6973    141.4754
   414.6000      8.0162      2.4041      0.1581     14.9007     13.1151    149.0169
   414.7000      8.0162      2.3969      0.1582     15.3411     13.3731    149.5600
   414.8000      8.0039      2.3848      0.0629     16.0742     13.7942    147.2834
   414.9000      8.0039      2.3855      0.0603     16.0325     14.4201    147.4294
   415.0000      8.0013      2.3996      0.0547     15.1748     15.0259    148.7716
   415.1000      8.0013      2.4134      0.0943     14.3390     15.5880    147.1650
   415.2000      8.0013      2.4216      0.0976     13.8451     15.8989    141.5114
   415.3000      8.0022      2.4300      0.1200     13.3311     15.8366    137.6129
   415.4000      8.0022      2.4381      0.1284     12.8395     15.9477    139.7945
   415.5000      8.0043      2.4397      0.1096     12.7469     16.4504    144.7085
   415.6000      8.0043      2.4399      0.1043     12.7334     16.7357    146.2564
   415.7000      8.0043      2.4508      0.1201     12.0731     16.5646    143.2509
   415.8000      8.0042      2.4725      0.1043     10.7596     16.4829    140.5371
   415.9000      8.0042      2.4886      0.1077      9.7791     16.7818    140.8952
   416.0000      8.0004      2.4848      0.0769     10.0121     17.1030    142.1844
   416.1000      8.0004      2.4738      0.0502     10.6797     16.9253    142.2954
   416.2000      8.0004      2.4792      0.0586     10.3537     16.3405    140.8965
   416.3000      7.9935      2.4941      0.0757      9.4496     16.0430    142.0139
   416.4000      7.9935      2.4906      0.0612      9.6624     16.3614    150.1651
   416.5000      7.9877      2.4700     -0.0204     10.9113     16.9517    158.2223
   416.6000      7.9877      2.4583      0.0422     11.6169     17.2088    155.4130
   416.7000      7.9877      2.4595      0.0446     11.5468     16.8002    145.3581
   416.8000      7.9857      2.4614      0.0542     11.4312     16.1185    137.0038
   416.9000      7.9857      2.4623      0.0203     11.3739     15.8699    133.8271
   417.0000      7.9856      2.4687      0.0413     10.9866     16.0813    135.6452
   417.1000      7.9856      2.4802      0.0212     10.2915     16.2729    138.5113
   417.2000      7.9856      2.4957      0.0450      9.3529     16.3543    136.4777
   417.3000      7.9842      2.5189      0.0482      7.9480     16.4539    128.3145
   417.4000      7.9842      2.5458      0.0708      6.3170     16.7510    120.3353
   417.5000      7.9831      2.5605      0.0812      5.4225     17.3491    119.2329
   417.6000      7.9831      2.5528      0.0701      5.8913     17.8517    124.4881
   417.7000      7.9831      2.5323      0.0138      7.1348     17.8984    130.7907
   417.8000      7.9849      2.5144      0.0247      8.2190     17.5421    131.6950
   417.9000      7.9849      2.5013      0.0497      9.0092     17.1018    124.6929
   418.0000      7.9882      2.4958      0.0054      9.3447     16.8868    114.3606
   418.1000      7.9882      2.5060      0.0350      8.7291     16.8437    110.0965
   418.2000      7.9882      2.5205      0.0610      7.8499     16.7786    116.0694
   418.3000      7.9900      2.5232      0.0308      7.6825     16.7838    124.6615
   418.4000      7.9900      2.5236      0.0222      7.6588     17.0595    128.7238
   418.5000      7.9897      2.5343      0.0318      7.0110     17.3195    128.9036
   418.6000      7.9897      2.5462      0.0428      6.2930     17.2606    124.7736
   418.7000      7.9897      2.5433      0.0515      6.4643     17.1456    117.4413
   418.8000      7.9883      2.5302      0.0076      7.2632     17.3468    112.6527
   418.9000      7.9883      2.5218      0.0320      7.7711     17.8439    111.1820
