~Version Information
VERS.                      2.0: CWLS Log ASCII Standard - VERSION 2.0
WRAP.                       NO: One line per depth step
~Well Information Block
STRT.FT               392.5000: 
STOP.FT              2252.6000: 
STEP.FT                 0.1000: 
NULL.                -999.2500: 
COMP.          Petrogulf Corporation: COMPANY
WELL.          Alexander 9-43V: WELL
FLD.           Purgatorie River: FIELD
LOC.           1651' FSL & 1081' FEL: LOCATION
CNTY.               Las Animas: COUNTY
SRVC.                         : SERVICE COMPANY
DATE.          Mon Mar 17 08:48:25 2003: LOG DATE
UWI.           05 071 07727 00: UNIQUE WELL ID
STAT.                 Colorado: STATE
~Curve Information Block
DEPT.FT            0 000 00 00: Depth
DCAL.in                       : CDL Caliper
RHOB.g/cc                     : CDL Bulk Density
RHOC.g/cc                     : CDL Density Correction
DPOR.pu                       : CDL Density Porosity
GR.GAPI                       : Gamma Ray
NPOR.pu                       : Neutron Porosity
~Parameter Information Block
~A  Depth       DCAL        RHOB        RHOC        DPOR         GR         NPOR    
# ...
  1755.7000      7.8603      2.5223      0.1632      7.7414    122.6309     28.0477
  1755.8000      7.8872      2.5243      0.1638      7.6170    127.2263     28.1779
  1755.9000      7.8872      2.5261      0.1628      7.5105    127.2263     28.3294
  1756.0000      7.9318      2.5275      0.1605      7.4240    131.4926     28.4940
  1756.1000      7.9318      2.5286      0.1573      7.3591    131.4926     28.6606
  1756.2000      7.9318      2.5293      0.1534      7.3172    131.4926     28.8162
  1756.3000      7.9744      2.5296      0.1490      7.2993    134.9009     28.9480
  1756.4000      7.9744      2.5294      0.1442      7.3069    134.9009     29.0448
  1756.5000      7.9988      2.5289      0.1389      7.3410    137.0676     29.0989
  1756.6000      7.9988      2.5279      0.1330      7.4030    137.0676     29.1069
  1756.7000      7.9988      2.5264      0.1266      7.4935    137.0676     29.0699
  1756.8000      8.0058      2.5244      0.1199      7.6127    137.9267     28.9930
  1756.9000      8.0058      2.5220      0.1130      7.7596    137.9267     28.8844
  1757.0000      8.0051      2.5191      0.1063      7.9321    137.7976     28.7540
  1757.1000      8.0051      2.5159      0.1001      8.1264    137.7976     28.6120
  1757.2000      8.0051      2.5124      0.0946      8.3370    137.7976     28.4674
  1757.3000      8.0058      2.5088      0.0901      8.5569    137.1591     28.3277
  1757.4000      8.0058      2.5052      0.0868      8.7777    137.1591     28.1980
  1757.5000      8.0129      2.5017      0.0848      8.9900    136.3322     28.0810
  1757.6000      8.0129      2.4985      0.0842      9.1838    136.3322     27.9776
  1757.7000      8.0129      2.4957      0.0850      9.3493    136.3322     27.8876
  1757.8000      8.0318      2.4936      0.0875      9.4780    135.3266     27.8096
  1757.9000      8.0318      2.4922      0.0917      9.5628    135.3266     27.7424
  1758.0000      8.0597      2.4916      0.0975      9.5995    133.9867     27.6848
  1758.1000      8.0597      2.4918      0.1049      9.5869    133.9867     27.6352
  1758.2000      8.0597      2.4928      0.1134      9.5272    133.9867     27.5919
  1758.3000      8.0823      2.4945      0.1226      9.4264    132.3365     27.5520
  1758.4000      8.0823      2.4967      0.1317      9.2935    132.3365     27.5115
  1758.5000      8.0894      2.4992      0.1400      9.1400    130.7173     27.4650
  1758.6000      8.0894      2.5018      0.1467      8.9794    130.7173     27.4064
  1758.7000      8.0894      2.5044      0.1510      8.8252    130.7173     27.3290
  1758.8000      8.0863      2.5066      0.1524      8.6910    129.5278     27.2269
  1758.9000      8.0863      2.5083      0.1507      8.5884    129.5278     27.0955
  1759.0000      8.0833      2.5093      0.1457      8.5266    128.9100     26.9329
  1759.1000      8.0833      2.5096      0.1377      8.5117    128.9100     26.7391
  1759.2000      8.0833      2.5090      0.1273      8.5466    128.9100     26.5171
  1759.3000      8.0774      2.5076      0.1153      8.6311    128.6572     26.2714
  1759.4000      8.0774      2.5054      0.1024      8.7622    128.6572     26.0083
  1759.5000      8.0677      2.5026      0.0896      8.9348    128.2598     25.7349
  1759.6000      8.0677      2.4991      0.0779      9.1426    128.2598     25.4579
  1759.7000      8.0677      2.4952      0.0678      9.3790    128.2598     25.1838
  1759.8000      8.0628      2.4910      0.0598      9.6375    127.0787     24.9187
  1759.9000      8.0628      2.4864      0.0539      9.9124    127.0787     24.6682
  1760.0000      8.0623      2.4817      0.0501     10.1989    124.6619     24.4369
  1760.1000      8.0623      2.4769      0.0479     10.4935    124.6619     24.2295
  1760.2000      8.0623      2.4719      0.0467     10.7932    124.6619     24.0496
  1760.3000      8.0632      2.4669      0.0461     11.0959    121.0014     23.9003
  1760.4000      8.0632      2.4619      0.0456     11.3994    121.0014     23.7837
  1760.5000      8.0542      2.4569      0.0447     11.7015    116.5878     23.7006
  1760.6000      8.0542      2.4520      0.0433     11.9992    116.5878     23.6502
  1760.7000      8.0542      2.4472      0.0414     12.2891    116.5878     23.6301
  1760.8000      8.0320      2.4426      0.0389     12.5672    112.2564     23.6366
  1760.9000      8.0320      2.4383      0.0362     12.8288    112.2564     23.6649
  1761.0000      8.0137      2.4344      0.0334     13.0689    108.8681     23.7098
  1761.1000      8.0137      2.4308      0.0308     13.2824    108.8681     23.7669
  1761.2000      8.0137      2.4278      0.0287     13.4646    108.8681     23.8329
  1761.3000      8.0061      2.4254      0.0273     13.6111    106.9830     23.9060
  1761.4000      8.0061      2.4236      0.0266     13.7183    106.9830     23.9868
  1761.5000      8.0042      2.4226      0.0267     13.7831    106.6997     24.0772
  1761.6000      8.0042      2.4222      0.0275     13.8036    106.6997     24.1803
  1761.7000      8.0042      2.4227      0.0291     13.7785    106.6997     24.2994
  1761.8000      8.0053      2.4238      0.0312     13.7076    107.7414     24.4367
  1761.9000      8.0053      2.4257      0.0337     13.5913    107.7414     24.5934
  1762.0000      8.0026      2.4284      0.0365     13.4314    109.7382     24.7683
  1762.1000      8.0026      2.4317      0.0395     13.2305    109.7382     24.9581
  1762.2000      8.0026      2.4356      0.0427     12.9921    109.7382     25.1584
  1762.3000      7.9884      2.4401      0.0457     12.7213    112.4875     25.3634
  1762.4000      7.9884      2.4450      0.0486     12.4237    112.4875     25.5674
  1762.5000      7.9736      2.4502      0.0512     12.1065    115.8357     25.7653
  1762.6000      7.9736      2.4557      0.0533     11.7772    115.8357     25.9527
  1762.7000      7.9736      2.4612      0.0549     11.4440    115.8357     26.1263
  1762.8000      7.9720      2.4666      0.0560     11.1157    119.2235     26.2837
  1762.9000      7.9720      2.4718      0.0565     10.8003    119.2235     26.4228
  1763.0000      7.9788      2.4767      0.0566     10.5058    121.5459     26.5418
  1763.1000      7.9788      2.4811      0.0565     10.2389    121.5459     26.6388
  1763.2000      7.9788      2.4849      0.0563     10.0051    121.5459     26.7123
  1763.3000      7.9785      2.4882      0.0562      9.8083    121.7577     26.7615
  1763.4000      7.9785      2.4908      0.0564      9.6505    121.7577     26.7866
  1763.5000      7.9645      2.4927      0.0571      9.5319    119.7233     26.7894
  1763.6000      7.9645      2.4941      0.0583      9.4504    119.7233     26.7737
  1763.7000      7.9645      2.4949      0.0600      9.4021    119.7233     26.7447
  1763.8000      7.9443      2.4952      0.0624      9.3814    116.4830     26.7085
  1763.9000      7.9443      2.4952      0.0654      9.3809    116.4830     26.6711
  1764.0000      7.9302      2.4950      0.0692      9.3924    113.7302     26.6378
  1764.1000      7.9302      2.4948      0.0739      9.4068    113.7302     26.6122
  1764.2000      7.9302      2.4947      0.0797      9.4146    113.7302     26.5960
  1764.3000      7.9177      2.4948      0.0868      9.4069    112.9271     26.5896
  1764.4000      7.9177      2.4953      0.0953      9.3755    112.9271     26.5921
  1764.5000      7.8933      2.4963      0.1050      9.3135    114.5768     26.6023
  1764.6000      7.8933      2.4979      0.1158      9.2163    114.5768     26.6199
  1764.7000      7.8933      2.5002      0.1273      9.0810    114.5768     26.6450
  1764.8000      7.8609      2.5030      0.1390      8.9074    118.0008     26.6788
  1764.9000      7.8609      2.5065      0.1505      8.6981    118.0008     26.7228
  1765.0000      7.8370      2.5104      0.1611      8.4581    121.8088     26.7782
  1765.1000      7.8370      2.5148      0.1704      8.1948    121.8088     26.8454
  1765.2000      7.8370      2.5194      0.1779      7.9176    121.8088     26.9234
