~Version Information
VERS.                      2.0: CWLS Log ASCII Standard - VERSION 2.0
WRAP.                       NO: One line per depth step
~Well Information Block
STRT.FT               258.0000: 
STOP.FT               998.2000: 
STEP.FT                 0.1000: 
NULL.                -999.2500: 
COMP.          Pioneer Natural Resources: COMPANY
WELL.          Piggyback 33-25: WELL
FLD.           Purgatoire River: FIELD
LOC.           1600' FSL & 1800' FEL: LOCATION
PROV.                 Colorado: PROVINCE
CNTY.               Las Animas: COUNTRY
SRVC.                Patterson: SERVICE COMPANY
DATE.          Fri Apr 29 16:11:48 2005: LOG DATE
UWI.           05 071 08233 00: UNIQUE WELL ID
~Curve Information Block
DEPT.FT            0 000 00 00: Depth
DCAL.in                       : CDL Caliper
RHOB.g/cc                     : CDL Bulk Density
RHOC.g/cc                     : CDL Density Correction
DPOR.pu                       : CDL Density Porosity
GR.GAPI                       : Gamma Ray
NPOR.pu                       : Neutron Porosity
~Parameter Information Block
~A  Depth       DCAL        RHOB        RHOC        DPOR         GR         NPOR    
# ...
   354.0000      8.0225      2.3530      0.0840     17.9991     64.7741     16.2395
   354.1000      8.0225      2.3181      0.0933     20.1173     68.6888     15.7024
   354.2000      8.0225      2.2934      0.0467     21.6134     74.4327     15.5858
   354.3000      8.0076      2.2906      0.0295     21.7809     78.8617     16.0312
   354.4000      8.0076      2.3165      0.0979     20.2096     77.5671     16.4985
   354.5000      7.9852      2.3601      0.0692     17.5719     72.6880     16.7096
   354.6000      7.9852      2.4055      0.1275     14.8194     71.0514     16.8918
   354.7000      7.9852      2.4371      0.2011     12.9033     73.9991     17.2672
   354.8000      7.9564      2.4452      0.1974     12.4109     77.1970     17.8561
   354.9000      7.9564      2.4359      0.1492     12.9741     77.7407     18.3936
   355.0000      7.9580      2.4184      0.1880     14.0358     77.6077     18.6665
   355.1000      7.9580      2.3990      0.0878     15.2122     77.9382     18.7337
   355.2000      7.9580      2.3871      0.1163     15.9353     76.2184     18.6777
   355.3000      7.9548      2.3828      0.0754     16.1932     73.2005     18.5931
   355.4000      7.9548      2.3858      0.0493     16.0132     71.9425     18.5818
   355.5000      7.8948      2.4046      0.0669     14.8742     74.5391     18.6608
   355.6000      7.8948      2.4333      0.1798     13.1355     79.9643     18.7497
   355.7000      7.8948      2.4535      0.1727     11.9117     82.7869     18.7203
   355.8000      7.9040      2.4605      0.1608     11.4867     79.6586     18.6648
   355.9000      7.9040      2.4604      0.1667     11.4930     73.2549     18.7454
   356.0000      7.9161      2.4629      0.0758     11.3424     69.0885     18.7398
   356.1000      7.9161      2.4714      0.1542     10.8250     71.1530     18.4474
   356.2000      7.9161      2.4733      0.1208     10.7110     77.7773     18.1446
   356.3000      7.9260      2.4633      0.1363     11.3170     84.1753     18.1097
   356.4000      7.9260      2.4512      0.1304     12.0490     88.7790     18.2129
   356.5000      7.9668      2.4444      0.0819     12.4606     91.8042     18.0797
   356.6000      7.9668      2.4408      0.1216     12.6770     93.0485     17.5990
   356.7000      7.9668      2.4323      0.1354     13.1918     90.6167     17.0021
   356.8000      8.0028      2.4187      0.0811     14.0171     83.1207     16.5541
   356.9000      8.0028      2.4011      0.1136     15.0828     74.6777     16.4014
   357.0000      8.0117      2.3637      0.1326     17.3522     69.5544     16.5243
   357.1000      8.0117      2.3090     -0.0391     20.6683     69.1685     16.8284
   357.2000      8.0117      2.2692      0.0100     23.0797     72.1443     17.0795
   357.3000      8.0120      2.2591      0.0355     23.6896     74.3629     16.9688
   357.4000      8.0120      2.2787      0.0264     22.5014     75.6339     16.5216
   357.5000      8.0070      2.3229      0.0767     19.8231     76.8533     16.2292
   357.6000      8.0070      2.3689      0.1349     17.0386     75.5090     16.4226
   357.7000      8.0070      2.3950      0.1681     15.4533     72.6503     16.7641
   357.8000      8.0097      2.4017      0.1367     15.0487     71.9705     16.8622
   357.9000      8.0097      2.4028      0.1698     14.9834     72.7960     16.9824
   358.0000      8.0025      2.4107      0.1468     14.5025     74.5561     17.3392
   358.1000      8.0025      2.4306      0.1410     13.2998     77.9801     17.5843
   358.2000      8.0025      2.4475      0.1850     12.2715     80.5002     17.5384
   358.3000      7.9865      2.4409      0.1354     12.6730     79.4416     17.4406
   358.4000      7.9865      2.4187      0.1084     14.0167     76.0583     17.3256
   358.5000      7.9946      2.4010      0.0718     15.0903     74.2060     17.1399
   358.6000      7.9946      2.3855      0.1514     16.0317     75.3853     17.2530
   358.7000      7.9946      2.3696      0.0566     16.9938     77.6852     17.7447
   358.8000      8.0248      2.3677      0.0784     17.1082     79.5562     18.0102
   358.9000      8.0248      2.3754      0.0857     16.6449     80.9254     17.5965
   359.0000      7.9748      2.3728      0.0656     16.7989     81.6770     16.7687
   359.1000      7.9748      2.3589      0.0344     17.6417     79.7325     16.1564
   359.2000      7.9748      2.3524      0.0514     18.0373     74.1441     16.0790
   359.3000      8.0337      2.3693      0.0920     17.0144     69.8509     16.3630
   359.4000      8.0337      2.3994      0.1159     15.1866     70.2365     16.7088
   359.5000      8.0878      2.4161      0.0985     14.1773     73.5826     17.0124
   359.6000      8.0878      2.4103      0.0848     14.5288     78.4897     17.2687
   359.7000      8.0878      2.3954      0.0759     15.4322     82.0470     17.4465
   359.8000      8.0527      2.3866      0.0798     15.9642     81.8115     17.5401
   359.9000      8.0527      2.3874      0.0926     15.9159     79.2686     17.5293
   360.0000      8.0114      2.3987      0.1064     15.2301     78.1190     17.3699
   360.1000      8.0114      2.4284      0.1296     13.4283     79.6011     17.1131
   360.2000      8.0114      2.4671      0.1634     11.0826     81.5385     16.8256
   360.3000      7.9630      2.4837      0.2016     10.0763     82.9176     16.6369
   360.4000      7.9630      2.4700      0.1445     10.9079     82.2116     16.6922
   360.5000      7.9695      2.4500      0.1510     12.1206     77.1531     16.9138
   360.6000      7.9695      2.4359      0.1335     12.9755     71.3040     17.2248
   360.7000      7.9695      2.4206      0.1080     13.9055     73.5738     17.4773
   360.8000      7.9950      2.4053      0.0804     14.8307     83.8850     17.4057
   360.9000      7.9950      2.4000      0.0683     15.1543     90.7652     17.1455
   361.0000      7.9739      2.4023      0.1044     15.0133     88.4926     17.0385
   361.1000      7.9739      2.4020      0.0281     15.0301     83.0004     17.1328
   361.2000      7.9739      2.3953      0.0568     15.4337     80.8406     17.2995
   361.3000      7.9784      2.3758      0.0505     16.6192     81.0477     17.4770
   361.4000      7.9784      2.3505      0.0245     18.1501     79.2271     17.7381
   361.5000      8.0414      2.3433     -0.0153     18.5894     76.0293     18.1838
   361.6000      8.0414      2.3551      0.0688     17.8725     74.2985     18.4994
   361.7000      8.0414      2.3674      0.0329     17.1271     73.7363     18.3335
   361.8000      8.0867      2.3756      0.0724     16.6305     73.4819     17.9355
   361.9000      8.0867      2.3838      0.0682     16.1306     73.5453     17.5977
   362.0000      8.1047      2.3980      0.0660     15.2699     72.7953     17.2578
   362.1000      8.1047      2.4224      0.0691     13.7943     70.0913     16.9594
   362.2000      8.1047      2.4440      0.1520     12.4841     68.5413     16.7571
   362.3000      8.1080      2.4426      0.1027     12.5697     69.8900     16.5402
   362.4000      8.1080      2.4241      0.1165     13.6886     71.8362     16.3506
   362.5000      8.0863      2.4170      0.0406     14.1206     72.6512     16.2886
   362.6000      8.0863      2.4282      0.1154     13.4426     71.6859     16.2926
   362.7000      8.0863      2.4376      0.1189     12.8736     71.4100     16.3916
   362.8000      8.0435      2.4404      0.0873     12.7020     73.8233     16.5495
   362.9000      8.0435      2.4388      0.1258     12.7971     76.4024     16.4951
   363.0000      8.0830      2.4198      0.0877     13.9493     76.7697     16.2616
   363.1000      8.0830      2.3818      0.0770     16.2527     74.5374     16.1727
   363.2000      8.0830      2.3490      0.0131     18.2442     70.4292     16.2300
   363.3000      8.1114      2.3423      0.0480     18.6502     65.9478     16.3162
   363.4000      8.1114      2.3529      0.0895     18.0033     63.6892     16.4483
   363.5000      8.1045      2.3631      0.1048     17.3883     65.6575     16.4029
