~Version Information
VERS.                      2.0: CWLS Log ASCII Standard - VERSION 2.0
WRAP.                       NO: One line per depth step
~Well Information Block
STRT.FT               528.0000: 
STOP.FT              2250.0000: 
STEP.FT                 0.1000: 
NULL.                -999.2500: 
COMP.          Pioneer Natural Resources: COMPANY
WELL.           Parklane 43-34: WELL
FLD.           Purgatorie River: FIELD
LOC.           1704' FSL & 1119' FEL: LOCATION
PROV.                 Colorado: PROVINCE
CNTY.               Las Animas: COUNTRY
SRVC.                         : SERVICE COMPANY
DATE.          Thu Oct 07 08:21:17 2004: LOG DATE
UWI.           05 071 08162 00: UNIQUE WELL ID
~Curve Information Block
DEPT.FT            0 000 00 00: Depth
LTEN.lb                       : Surface Line Tension
DCAL.in                       : CDL Caliper
RHOB.g/cc                     : CDL Bulk Density
RHOC.g/cc                     : CDL Density Correction
DPOR.pu                       : CDL Density Porosity
GR.GAPI                       : Gamma Ray
NPOR.pu                       : Neutron Porosity
~Parameter Information Block
~A  Depth       LTEN        DCAL        RHOB        RHOC        DPOR         GR         NPOR    
# ...
  2241.6000   1252.6954      7.8393      2.5329      0.0061      7.0942   -999.2500   -999.2500
  2241.7000   1252.6954      7.8393      2.5542      0.0561      5.8079   -999.2500   -999.2500
  2241.8000   1267.3440      7.8363      2.5683      0.0377      4.9534   -999.2500   -999.2500
  2241.9000   1267.3440      7.8363      2.5684      0.0517      4.9467   -999.2500   -999.2500
  2242.0000   1267.5084      7.8326      2.5667      0.0408      5.0473   -999.2500   -999.2500
  2242.1000   1267.5084      7.8326      2.5726      0.0519      4.6882   -999.2500   -999.2500
  2242.2000   1267.5084      7.8326      2.5802      0.0793      4.2280   -999.2500   -999.2500
  2242.3000   1239.1735      7.8310      2.5828      0.0450      4.0704   -999.2500   -999.2500
  2242.4000   1239.1735      7.8310      2.5863      0.0757      3.8599   -999.2500   -999.2500
  2242.5000   1295.8442      7.8282      2.5928      0.0774      3.4643   -999.2500   -999.2500
  2242.6000   1295.8442      7.8282      2.5922      0.1045      3.5004   -999.2500   -999.2500
  2242.7000   1295.8442      7.8282      2.5765      0.0708      4.4548   -999.2500   -999.2500
  2242.8000   1266.9349      7.8218      2.5505      0.0754      6.0313   -999.2500   -999.2500
  2242.9000   1266.9349      7.8218      2.5246      0.0471      7.6016   -999.2500   -999.2500
  2243.0000   1266.1704      7.8186      2.5081      0.0420      8.5989   -999.2500   -999.2500
  2243.1000   1266.1704      7.8186      2.5011      0.0147      9.0258   -999.2500   -999.2500
  2243.2000   1266.1704      7.8186      2.5035     -0.0008      8.8778   -999.2500   -999.2500
  2243.3000   1274.7479      7.8235      2.5203      0.0231      7.8618   -999.2500   -999.2500
  2243.4000   1274.7479      7.8235      2.5432      0.0490      6.4701   -999.2500   -999.2500
  2243.5000   1255.6617      7.8156      2.5635      0.0415      5.2432   -999.2500   -999.2500
  2243.6000   1255.6617      7.8156      2.5843      0.1031      3.9807   -999.2500   -999.2500
  2243.7000   1255.6617      7.8156      2.6007      0.1330      2.9878   -999.2500   -999.2500
  2243.8000   1276.0471      7.7904      2.6022      0.1281      2.8962   -999.2500   -999.2500
  2243.9000   1276.0471      7.7904      2.5937      0.0783      3.4141   -999.2500   -999.2500
  2244.0000   1267.3827      7.7719      2.5885      0.0979      3.7257   -999.2500   -999.2500
  2244.1000   1267.3827      7.7719      2.5916      0.0993      3.5420   -999.2500   -999.2500
  2244.2000   1267.3827      7.7719      2.5991      0.1205      3.0877   -999.2500   -999.2500
  2244.3000   1262.4948      7.7702      2.6055      0.1036      2.6975   -999.2500   -999.2500
  2244.4000   1262.4948      7.7702      2.6079      0.0881      2.5522   -999.2500   -999.2500
  2244.5000   1268.1019      7.7869      2.6003      0.1218      3.0092   -999.2500   -999.2500
  2244.6000   1268.1019      7.7869      2.5787      0.0936      4.3222   -999.2500   -999.2500
  2244.7000   1268.1019      7.7869      2.5516      0.0620      5.9630   -999.2500   -999.2500
  2244.8000   1254.0065      7.8097      2.5333      0.0384      7.0735   -999.2500   -999.2500
  2244.9000   1254.0065      7.8097      2.5302      0.0408      7.2625   -999.2500   -999.2500
  2245.0000   1293.9205      7.8228      2.5409      0.0491      6.6142   -999.2500   -999.2500
  2245.1000   1293.9205      7.8228      2.5588      0.0689      5.5271   -999.2500   -999.2500
  2245.2000   1293.9205      7.8228      2.5737      0.0666      4.6231   -999.2500   -999.2500
  2245.3000   1263.0631      7.8203      2.5757      0.0934      4.5059   -999.2500   -999.2500
  2245.4000   1263.0631      7.8203      2.5638      0.0526      5.2255   -999.2500   -999.2500
  2245.5000   1240.0868      7.8080      2.5558      0.0210      5.7096   -999.2500   -999.2500
  2245.6000   1240.0868      7.8080      2.5656      0.0402      5.1173   -999.2500   -999.2500
  2245.7000   1240.0868      7.8080      2.5809      0.1032      4.1896   -999.2500   -999.2500
  2245.8000   1261.8478      7.8054      2.5838      0.0660      4.0098   -999.2500   -999.2500
  2245.9000   1261.8478      7.8054      2.5760      0.0694      4.4870   -999.2500   -999.2500
  2246.0000   1259.8126      7.8139      2.5666      0.0484      5.0552   -999.2500   -999.2500
  2246.1000   1259.8126      7.8139      2.5603      0.0528      5.4344   -999.2500   -999.2500
  2246.2000   1259.8126      7.8139      2.5613      0.0379      5.3750   -999.2500   -999.2500
  2246.3000   1249.3446      7.8129      2.5677      0.0802      4.9872   -999.2500   -999.2500
  2246.4000   1249.3446      7.8129      2.5716      0.0555      4.7493   -999.2500   -999.2500
  2246.5000   1279.6005      7.7926      2.5697      0.0997      4.8690   -999.2500   -999.2500
  2246.6000   1279.6005      7.7926      2.5613      0.0745      5.3734   -999.2500   -999.2500
  2246.7000   1279.6005      7.7926      2.5567      0.0640      5.6533   -999.2500   -999.2500
  2246.8000   1258.5188      7.7666      2.5683      0.0729      4.9509   -999.2500   -999.2500
  2246.9000   1258.5188      7.7666      2.5924      0.0930      3.4913   -999.2500   -999.2500
  2247.0000   1269.9382      7.7191      2.6342      0.0999      0.9596   -999.2500   -999.2500
  2247.1000   1269.9382      7.7191      2.7276      0.0811     -4.7021   -999.2500   -999.2500
  2247.2000   1269.9382      7.7191      2.7578      0.1087     -6.5334   -999.2500   -999.2500
  2247.3000   1262.5083      7.3419      2.3033      0.5464     21.0144   -999.2500   -999.2500
  2247.4000   1262.5083      7.3419      1.3057      0.0000     81.4739   -999.2500   -999.2500
  2247.5000   1216.2177      5.6842      0.4422      0.0000    133.8039   -999.2500   -999.2500
  2247.6000   1216.2177      5.6842      0.0839   -999.2500    155.5201   -999.2500   -999.2500
  2247.7000   1216.2177      5.6842      0.0086   -999.2500    160.0820   -999.2500   -999.2500
  2247.8000   1285.3472      2.9570      0.0005   -999.2500    160.5776   -999.2500   -999.2500
  2247.9000   1285.3472      2.9570      0.0000   -999.2500    160.6061   -999.2500   -999.2500
  2248.0000   1230.1798      1.3039      0.0000   -999.2500    160.6061   -999.2500   -999.2500
  2248.1000   1230.1798      1.3039   -999.2500   -999.2500   -999.2500   -999.2500   -999.2500
  2248.2000   1230.1798      1.3039   -999.2500   -999.2500   -999.2500   -999.2500   -999.2500
  2248.3000   1266.0065      0.9352   -999.2500   -999.2500   -999.2500   -999.2500   -999.2500
  2248.4000   1266.0065      0.9352   -999.2500   -999.2500   -999.2500   -999.2500   -999.2500
  2248.5000   1213.1614      0.9049   -999.2500   -999.2500   -999.2500   -999.2500   -999.2500
  2248.6000   1213.1614      0.9049   -999.2500   -999.2500   -999.2500   -999.2500   -999.2500
  2248.7000   1213.1614      0.9049   -999.2500   -999.2500   -999.2500   -999.2500   -999.2500
  2248.8000   1280.0649   -999.2500   -999.2500   -999.2500   -999.2500   -999.2500   -999.2500
  2248.9000   1280.0649   -999.2500   -999.2500   -999.2500   -999.2500   -999.2500   -999.2500
  2249.0000   1243.2240   -999.2500   -999.2500   -999.2500   -999.2500   -999.2500   -999.2500
  2249.1000   1243.2240   -999.2500   -999.2500   -999.2500   -999.2500   -999.2500   -999.2500
  2249.2000   1243.2240   -999.2500   -999.2500   -999.2500   -999.2500   -999.2500   -999.2500
  2249.3000   1233.5719   -999.2500   -999.2500   -999.2500   -999.2500   -999.2500   -999.2500
  2249.4000   1233.5719   -999.2500   -999.2500   -999.2500   -999.2500   -999.2500   -999.2500
  2249.5000   1108.7686   -999.2500   -999.2500   -999.2500   -999.2500   -999.2500   -999.2500
  2249.6000   1108.7686   -999.2500   -999.2500   -999.2500   -999.2500   -999.2500   -999.2500
  2249.7000   1108.7686   -999.2500   -999.2500   -999.2500   -999.2500   -999.2500   -999.2500
  2249.8000    132.5840   -999.2500   -999.2500   -999.2500   -999.2500   -999.2500   -999.2500
  2249.9000    132.5840   -999.2500   -999.2500   -999.2500   -999.2500   -999.2500   -999.2500
