~Version Information
VERS.                      2.0: CWLS Log ASCII Standard - VERSION 2.0
WRAP.                       NO: One line per depth step
~Well Information Block
STRT.FT                -6.0000: 
STOP.FT              2490.5000: 
STEP.FT                 0.2500: 
NULL.                -999.2500: 
COMP.          Pioneer Natural Resources: COMPANY
WELL.          Aztec Federal 41-15: WELL
FLD.           Purgatorie River: FIELD
LOC.           706' FNL & 1253' FEL--: LOCATION
CNTY.               Las Animas: COUNTY
SRVC.          Superior Well Services: SERVICE COMPANY
DATE.          Wed May 28 14-18-16 2008: LOG DATE
UWI.           05 071 08342 00: UNIQUE WELL ID
STAT.                       CO: STATE
~Curve Information Block
DEPT.FT            0 000 00 00: Depth
GR.GAPI                       : Gamma Ray
CCL.                          : Casing Collar Locator
AMP3FT.mV                     : AMP3FT Amplitude
TT3FT.usec                    : 3FT Travel Time
AMP5FT.mV                     : AMP5FT Amplitude
~Parameter Information Block
~A  Depth        GR         CCL        AMP3FT      TT3FT       AMP5FT   
# ...
  2458.0000    116.1739      0.0000      3.1751    633.6575      2.0978
  2458.2500    114.7669      0.0000      3.1613    637.6050      2.0911
  2458.5000    114.0785      0.0000      3.1349    637.4284      2.0888
  2458.7500    112.7213      0.0000      3.0894    636.0236      2.0848
  2459.0000    109.5845      0.0000      3.0296    635.3262      2.0804
  2459.2500    104.9229      0.0000      2.9717    636.1219      2.0808
  2459.5000    100.1062      0.0000      2.9377    637.9601      2.0883
  2459.7500     96.5546      0.0000      2.9417    639.8376      2.1002
  2460.0000     95.1352      0.0000      2.9762    641.0986      2.1113
  2460.2500     96.3259      0.0000      3.0095    641.7073      2.1156
  2460.5000    100.1884      0.0000      3.0052    641.9260      2.1101
  2460.7500    105.8258      0.0000      2.9545    641.9827      2.0955
  2461.0000    111.2907      0.0000      2.8893    641.9773      2.0739
  2461.2500    114.5429      0.0000      2.8538    641.8922      2.0458
  2461.5000    114.6431      0.0000      2.8679    641.5535      2.0106
  2461.7500    112.0474      0.0000      2.9174    640.5460      1.9712
  2462.0000    108.0961      0.0000      2.9760    638.2698      1.9348
  2462.2500    104.2726      0.0000      3.0288    634.4370      1.9095
  2462.5000    101.3338      0.0000      3.0791    629.8303      1.9027
  2462.7500     98.7678      0.0000      3.1361    626.2059      1.9177
  2463.0000     95.2699      0.0000      3.2007    624.4887      1.9508
  2463.2500     89.9361      0.0000      3.2626    622.4194      1.9895
  2463.5000     83.1254      0.0000      3.3085    614.5350      2.0204
  2463.7500     76.5114      0.0000      3.3307    596.0477      2.0417
  2464.0000     72.3489      0.0000      3.3301    568.6016      2.0635
  2464.2500     72.0592      0.0000      3.3119    542.5468      2.0958
  2464.5000     75.0347      0.0000      3.2771    531.4009      2.1385
  2464.7500     79.0082      0.0000      3.2242    541.6009      2.1851
  2465.0000     81.7969      0.0000      3.1577    567.3068      2.2291
  2465.2500     82.6050      0.0000      3.0905    595.7094      2.2633
  2465.5000     81.8512      0.0000      3.0357    616.8958      2.2750
  2465.7500     80.4075      0.0000      2.9958    628.6032      2.2509
  2466.0000     79.2199      0.0000      2.9635    633.7825      2.1910
  2466.2500     79.0436      0.0000      2.9288    636.1057      2.1159
  2466.5000     80.0570      0.0000      2.8838    637.6907      2.0553
  2466.7500     81.7461      0.0000      2.8248    639.1337      2.0275
  2467.0000     83.1853      0.0000      2.7605    640.3127      2.0305
  2467.2500     83.5776      0.0000      2.7136    640.9812      2.0483
  2467.5000     82.8469      0.0000      2.7030    640.9910      2.0633
  2467.7500     81.6600      0.0000      2.7189    640.2777      2.0656
  2468.0000     80.6776     -1.1450      2.7258    638.8575      2.0586
  2468.2500     80.0017      0.0000      2.6943    636.8844      2.0568
  2468.5000     79.5498      0.0000      2.6222    634.6935      2.0740
  2468.7500     79.5742      0.0000      2.5279    632.7729      2.1132
  2469.0000     80.3619      0.0000      2.4338    631.6741      2.1669
  2469.2500     81.4559      0.0000      2.3572    631.7880      2.2259
  2469.5000     81.5555      0.0000      2.3044    632.9680      2.2838
  2469.7500     79.5627      0.0000      2.2677    634.2653      2.3339
  2470.0000     75.8508      0.0000      2.2368    634.2839      2.3683
  2470.2500     72.3321      0.0000      2.2152    632.2551      2.3832
  2470.5000     71.1001      0.0000      2.2233    628.8973      2.3839
  2470.7500     72.8952      0.0000      2.2800    625.8990      2.3809
  2471.0000     76.6873      0.0000      2.3798    624.3549      2.3778
  2471.2500     80.5006      0.0000      2.4916    623.9198      2.3654
  2471.5000     82.7340      0.0000      2.5851    623.3129      2.3284
  2471.7500     83.1011      0.0000      2.6561    621.1797      2.2599
  2472.0000     82.5100      0.0000      2.7163    616.9786      2.1699
  2472.2500     81.9599      0.0000      2.7579    611.9152      2.0825
  2472.5000     81.6806      0.0000      2.7484    608.5540      2.0239
  2472.7500     81.4121      2.2339      2.6696    608.5644      2.0094
  2473.0000     81.0748      0.0000      2.5490    611.0292      2.0379
  2473.2500     80.7281      1.5088      2.4431    613.2709      2.0930
  2473.5000     80.0855      0.0000      2.3948    612.9055      2.1486
  2473.7500     78.6732      0.0000      2.4105    609.0634      2.1871
  2474.0000     76.7070      0.0000      2.4665    602.5438      2.2142
  2474.2500     75.4290     -4.0000      2.5322    595.4442      2.2524
  2474.5000     76.0015      0.0000      2.5912    590.3895      2.3149
  2474.7500     77.9945      0.0000      2.6366    589.2927      2.3896
  2475.0000     79.5440      3.9746      2.6522    591.8486      2.4488
  2475.2500     79.3281     -4.0000      2.6094    595.2394      2.4680
  2475.5000     77.9176     -3.7549      2.4882    596.4465      2.4403
  2475.7500     76.8824      0.0000      2.3050    595.1917      2.3820
  2476.0000     77.1615      0.0000      2.1229    593.6524      2.3260
  2476.2500     78.6874      0.0000      2.0246    593.5784      2.3048
  2476.5000     81.0397      0.0000      2.0516    595.0695      2.3339
  2476.7500     83.8231      0.0000      2.1686    597.8364      2.4017
  2477.0000     86.4989      0.0000      2.2970    602.0063      2.4700
  2477.2500     88.3131      4.0000      2.3810    607.3537      2.4934
  2477.5000     88.7672      0.0000      2.4131    612.7534      2.4539
  2477.7500     88.2443      0.0000      2.4104    616.8566      2.3740
  2478.0000     87.9311      4.0000      2.3915    618.9553      2.2937
  2478.2500     88.8497      1.4307      2.3723    618.5696      2.2375
  2478.5000     91.0349      0.0000      2.3668    613.5083      2.2063
  2478.7500     93.8063      0.0000      2.3776    597.1204      2.1899
  2479.0000     96.6143      0.0000      2.3895    557.4543      2.1813
  2479.2500     99.2095      0.0000      2.3812    482.8476      2.1809
  2479.5000    101.0362      0.0000      2.3458    373.7415      2.1920
  2479.7500    101.0684      0.0000      2.2955    249.6900      2.2128
  2480.0000     98.6199      0.0000      2.2494    139.9830      2.2329
  2480.2500     94.0931      0.0000      2.2184     64.4856      2.2391
  2480.5000     88.7142      0.0000      2.2025     24.0435      2.2247
  2480.7500     83.7088      0.0000      2.1961      7.1770      2.1945
  2481.0000     79.7407      0.0000      2.1941      1.6997      2.1611
  2481.2500     76.7672     -4.0000      2.1937      0.3146      2.1355
  2481.5000     74.3036      0.0000      2.1936      0.0418      2.1209
  2481.7500     72.0675      0.0000   -999.2500   -999.2500      2.1146
  2482.0000     70.4003      0.0000   -999.2500   -999.2500      2.1125
  2482.2500     69.8613      0.0000   -999.2500   -999.2500      2.1119
  2482.5000     70.5811     -3.3325   -999.2500   -999.2500      2.1118
  2482.7500     72.2782      0.0000   -999.2500   -999.2500   -999.2500
  2483.0000     74.6905      2.1558   -999.2500   -999.2500   -999.2500
  2483.2500     77.5562      0.0000   -999.2500   -999.2500   -999.2500
  2483.5000     80.2314      0.0000   -999.2500   -999.2500   -999.2500
  2483.7500     81.8183      0.0000   -999.2500   -999.2500   -999.2500
  2484.0000     81.8820      0.0000   -999.2500   -999.2500   -999.2500
  2484.2500     80.8883      0.0000   -999.2500   -999.2500   -999.2500
  2484.5000     79.8494      0.0000   -999.2500   -999.2500   -999.2500
  2484.7500     79.6167      0.0000   -999.2500   -999.2500   -999.2500
  2485.0000     80.3964   -999.2500   -999.2500   -999.2500   -999.2500
  2485.2500     81.7037   -999.2500   -999.2500   -999.2500   -999.2500
  2485.5000     82.7538   -999.2500   -999.2500   -999.2500   -999.2500
  2485.7500     83.0545   -999.2500   -999.2500   -999.2500   -999.2500
