~Version Information
VERS.                      2.0: CWLS Log ASCII Standard - VERSION 2.0
WRAP.                       NO: One line per depth step
~Well Information Block
STRT.FT               390.0000: 
STOP.FT              2768.7000: 
STEP.FT                 0.1000: 
NULL.                -999.2500: 
COMP.          Pioneer Natural Resources: COMPANY
WELL.              Lynch 43-30: WELL
FLD.           Purgatoire River: FIELD
LOC.           1438' FSL & 429' FEL: LOCATION
PROV.                 Colorado: PROVINCE
CNTY.               Las Animas: COUNTRY
SRVC.                Patterson: SERVICE COMPANY
DATE.          Wed Oct 27 08:22:00 2004: LOG DATE
UWI.           05 071 08170 00: UNIQUE WELL ID
~Curve Information Block
DEPT.FT            0 000 00 00: Depth
DCAL.in                       : CDL Caliper
DPOR.pu                       : CDL Density Porosity
NPOR.pu                       : Neutron Porosity
RHOB.g/cc                     : CDL Bulk Density
RHOC.g/cc                     : CDL Density Correction
GR.GAPI                       : Gamma Ray
~Parameter Information Block
~A  Depth       DCAL        DPOR        NPOR        RHOB        RHOC         GR     
# ...
  1810.8000      7.8925     11.3065     15.7751      2.4634     -0.0094     62.4513
  1810.9000      7.8925     12.3363     17.0342      2.4465     -0.0073     70.1399
  1811.0000      7.9536     12.4110     17.9578      2.4452     -0.0464     75.5530
  1811.1000      7.9536     11.9347     18.0355      2.4531      0.0413     72.3911
  1811.2000      7.9536     12.0881     17.9002      2.4505     -0.0003     66.5668
  1811.3000      7.9630     13.2419     18.1135      2.4315      0.0186     65.5110
  1811.4000      7.9630     14.8409     18.4167      2.4051     -0.0219     65.7056
  1811.5000      7.9648     16.0110     18.1323      2.3858     -0.0557     61.6586
  1811.6000      7.9648     16.1908     17.2176      2.3829     -0.0404     57.8042
  1811.7000      7.9648     15.6396     16.6464      2.3919     -0.0287     60.5616
  1811.8000      7.9636     14.9330     17.0705      2.4036      0.0035     65.7092
  1811.9000      7.9636     14.5969     18.1410      2.4092      0.0222     65.8303
  1812.0000      7.9668     14.7497     18.8117      2.4066      0.0033     60.8523
  1812.1000      7.9668     15.1299     18.5764      2.4004      0.0271     55.6509
  1812.2000      7.9668     15.5895     17.9257      2.3928      0.0222     53.4478
  1812.3000      7.9703     15.7702     17.4336      2.3898      0.0139     53.6145
  1812.4000      7.9703     15.3781     17.3859      2.3963      0.0337     52.9031
  1812.5000      7.9588     14.7529     17.4703      2.4066      0.0308     50.4666
  1812.6000      7.9588     14.5714     17.4603      2.4096      0.0770     48.8182
  1812.7000      7.9588     14.9559     17.8083      2.4032      0.0498     47.9432
  1812.8000      7.9563     15.0919     18.3300      2.4010      0.0509     47.4745
  1812.9000      7.9563     14.6618     18.0586      2.4081      0.0748     47.9544
  1813.0000      7.9363     13.9972     17.1454      2.4190      0.0510     48.6962
  1813.1000      7.9363     12.9893     16.6081      2.4357      0.0514     49.4094
  1813.2000      7.9363     11.9442     16.5467      2.4529      0.1005     50.3606
  1813.3000      7.9340     11.9873     16.6553      2.4522      0.0731     51.4409
  1813.4000      7.9340     13.5553     16.9099      2.4263      0.1015     52.6334
  1813.5000      7.9425     15.3127     17.0856      2.3973     -0.0003     54.4345
  1813.6000      7.9425     15.5812     17.1514      2.3929      0.0212     55.5541
  1813.7000      7.9425     15.0437     17.2088      2.4018      0.0767     55.3201
  1813.8000      7.9306     15.3046     17.1722      2.3975      0.0389     55.3245
  1813.9000      7.9306     15.9893     16.9581      2.3862     -0.0031     54.9716
  1814.0000      7.9366     15.8977     16.6147      2.3877     -0.0088     53.9292
  1814.1000      7.9366     15.1633     16.3097      2.3998      0.0584     54.6868
  1814.2000      7.9366     14.6886     16.2964      2.4076      0.0407     58.0316
  1814.3000      7.9422     14.5707     16.8165      2.4096      0.0196     62.1470
  1814.4000      7.9422     14.5117     17.5106      2.4106      0.0609     64.6047
  1814.5000      7.9592     14.1973     17.6194      2.4157      0.0409     63.9855
  1814.6000      7.9592     13.2282     17.2171      2.4317      0.0427     64.2327
  1814.7000      7.9592     12.2294     16.8254      2.4482      0.0687     67.5845
  1814.8000      7.9364     12.4077     16.5687      2.4453      0.0508     68.4427
  1814.9000      7.9364     13.6933     16.5240      2.4241      0.0324     64.6981
  1815.0000      7.9294     14.9668     16.7459      2.4030      0.0229     62.6487
  1815.1000      7.9294     15.6240     17.1685      2.3922      0.0296     65.1041
  1815.2000      7.9294     15.7259     17.6487      2.3905      0.0045     67.2298
  1815.3000      7.9391     15.6223     17.6551      2.3922      0.0311     65.6800
  1815.4000      7.9391     15.6346     17.1571      2.3920      0.0235     63.1643
  1815.5000      7.9505     15.3370     16.8326      2.3969      0.0044     61.8158
  1815.6000      7.9505     14.1713     16.6457      2.4162      0.0615     59.7011
  1815.7000      7.9505     12.5753     16.3987      2.4425      0.0476     57.1034
  1815.8000      7.9358     11.3702     16.3977      2.4624      0.0488     57.7135
  1815.9000      7.9358     11.1494     16.8297      2.4660      0.0924     61.9830
  1816.0000      7.9329     11.7960     17.4991      2.4554      0.0529     66.0403
  1816.1000      7.9329     12.1376     18.2604      2.4497      0.0092     66.9830
  1816.2000      7.9329     11.4458     18.7574      2.4611      0.0494     66.4661
  1816.3000      7.9348     10.4378     18.7363      2.4778      0.0586     67.7274
  1816.4000      7.9348     10.1576     18.3825      2.4824      0.0377     71.2852
  1816.5000      7.9359     10.9612     17.9602      2.4691      0.0284     73.3575
  1816.6000      7.9359     12.0580     17.8269      2.4510      0.0015     71.3888
  1816.7000      7.9359     12.2469     17.5057      2.4479      0.0130     68.4474
  1816.8000      7.9349     11.6607     16.7021      2.4576      0.0469     66.8507
  1816.9000      7.9349     11.1916     16.5728      2.4653      0.0388     67.2563
  1817.0000      7.9337     11.0952     17.4910      2.4669      0.0649     70.3227
  1817.1000      7.9337     11.3475     18.3498      2.4628      0.0310     74.5530
  1817.2000      7.9337     12.0098     18.5425      2.4518      0.0396     75.6614
  1817.3000      7.9323     13.0459     18.4251      2.4347      0.0267     73.5609
  1817.4000      7.9323     14.0512     18.0384      2.4182     -0.0103     71.9251
  1817.5000      7.9305     14.5404     17.0527      2.4101      0.0076     69.9670
  1817.6000      7.9305     14.2228     15.8451      2.4153      0.0006     65.5775
  1817.7000      7.9305     13.5688     15.3021      2.4261      0.0687     60.1707
  1817.8000      7.9326     13.6880     15.6185      2.4241      0.0561     58.4062
  1817.9000      7.9326     14.6778     16.0327      2.4078     -0.0009     63.4597
  1818.0000      7.9361     15.4225     15.9999      2.3955     -0.0088     68.9778
  1818.1000      7.9361     15.1248     15.5828      2.4004     -0.0036     67.2760
  1818.2000      7.9361     14.1531     15.4008      2.4165      0.0275     63.8505
  1818.3000      7.9365     13.2537     15.7805      2.4313      0.0153     65.8617
  1818.4000      7.9365     12.7077     16.1532      2.4403      0.0551     68.9436
  1818.5000      7.9183     12.2805     16.3220      2.4474      0.0028     67.2964
  1818.6000      7.9183     11.7608     16.5136      2.4559      0.0261     64.0676
  1818.7000      7.9183     11.7006     16.4947      2.4569      0.0743     63.9042
  1818.8000      7.9331     12.1013     16.3857      2.4503      0.0040     66.3110
  1818.9000      7.9331     12.0783     16.6018      2.4507      0.0394     68.8512
  1819.0000      7.9327     11.7027     16.9056      2.4569      0.0714     68.4143
  1819.1000      7.9327     11.5697     17.1056      2.4591      0.0671     64.6729
  1819.2000      7.9327     11.4709     17.1117      2.4607      0.0419     61.9034
  1819.3000      7.9387     10.8005     17.0429      2.4718      0.0672     62.7796
  1819.4000      7.9387      9.8056     17.3386      2.4882      0.0867     64.8178
  1819.5000      7.9392      9.4591     17.9888      2.4939      0.0887     63.7410
  1819.6000      7.9392      9.8707     18.4711      2.4871      0.0593     60.2243
  1819.7000      7.9392     10.3068     18.5376      2.4799      0.0202     57.9204
  1819.8000      7.9428     11.0009     18.5160      2.4685      0.0951     58.9108
  1819.9000      7.9428     12.7128     18.9669      2.4402      0.0430     63.1413
  1820.0000      7.9414     14.5342     19.8855      2.4102     -0.0092     67.7053
  1820.1000      7.9414     14.9794     20.4880      2.4028     -0.0169     69.4585
  1820.2000      7.9414     14.1015     20.3652      2.4173      0.0011     69.5696
  1820.3000      7.9348     13.1604     20.0154      2.4329      0.0263     71.5767
