~Version Information
 VERS.                                  2.0 : CWLS LAS VERSION
 WRAP.                                   NO : WRAPING MODE
 SWARE .                 MController 2.5.0J : SOFTWARE VERSION
~Well Information
 WELL.                          GETEM 21-21 : WELL
 COMP.    PIONEER NATURAL RESOURCES USA INC : COMPANY
 FLD.                      PURGATOIRE RIVER : FIELD
 LOC.                NE/NW SEC 23 T32S R67W : LOCATION
 DATE.                             06/18/05 : DATE(S) LOGGED
 SRVC.       BLANCO GEOLOGICAL SERVICES LLC : SERVICE COMPANY
 STAT.                             COLORADO : STATE
 CNTY.                           LAS ANIMAS : COUNTY
 CTRY.                                  USA : COUNTRY
 API.                       05-071-08411-00 : API NUMBER
 STRT.FT                             321.00 : START DEPTH
 STOP.FT                            2815.00 : STOP DEPTH
 STEP.FT                               1.00 : DEPTH INCREMENT
 NULL.                                -9999 : NULL VALUE
~Curve information
 DEPTH.FT                                   :
 ROP.MIN/FT                                 :
 GAS.UNITS                                  :
~ASCII Log data
# ...
       721.0         0.20          2.9 
       722.0         0.22          3.9 
       723.0         0.57          3.5 
       724.0         0.23          3.8 
       725.0         0.23          4.4 
       726.0         0.20          3.2 
       727.0         0.23          3.4 
       728.0         0.20          3.1 
       729.0         0.20          4.0 
       730.0         0.20          3.4 
       731.0         0.20          3.4 
       732.0         0.17          3.2 
       733.0         0.20          4.2 
       734.0         0.23          3.3 
       735.0         0.17          3.3 
       736.0         0.20          3.4 
       737.0         0.18          3.6 
       738.0         0.17          2.9 
       739.0         0.17          3.5 
       740.0         0.23          4.0 
       741.0         0.20          2.6 
       742.0         0.20          3.2 
       743.0         0.20          2.9 
       744.0         0.23          3.4 
       745.0         0.17          3.8 
       746.0         1.62          3.4 
       747.0         0.33          3.5 
       748.0         0.27          3.4 
       749.0         0.23          4.3 
       750.0         0.23          3.9 
       751.0         0.17          3.4 
       752.0         0.20          3.4 
       753.0         0.17          3.4 
       754.0         0.20          2.9 
       755.0         0.17          3.5 
       756.0         0.17          3.7 
       757.0         0.20          3.1 
       758.0         0.13          3.5 
       759.0         0.18          3.9 
       760.0         0.17          2.9 
       761.0         0.17          3.1 
       762.0         0.20          3.6 
       763.0         0.17          3.8 
       764.0         0.17          3.5 
       765.0         0.27          4.0 
       766.0         0.27          3.3 
       767.0         0.17          4.0 
       768.0         0.17          4.0 
       769.0         0.17          3.7 
       770.0         0.17          2.8 
       771.0         0.17          3.5 
       772.0         0.17          3.4 
       773.0         0.17          3.9 
       774.0         0.17          4.0 
       775.0         0.17          3.4 
       776.0         1.92          3.7 
       777.0         0.27          3.5 
       778.0         0.23          3.8 
       779.0         0.23          3.2 
       780.0         0.23          3.9 
       781.0         0.20          2.8 
       782.0         0.20          3.1 
       783.0         0.17          3.5 
       784.0         0.20          4.3 
       785.0         0.18          3.6 
       786.0         0.20          3.9 
       787.0         0.17          4.5 
       788.0         0.20          3.7 
       789.0         0.20          3.1 
       790.0         0.17          3.5 
       791.0         0.17          3.8 
       792.0         0.20          3.3 
       793.0         0.23          3.5 
       794.0         0.23          2.9 
       795.0         0.23          4.0 
       796.0         0.17          3.7 
       797.0         0.23          3.6 
       798.0         0.23          3.8 
       799.0         0.17          3.9 
       800.0         0.20          3.8 
       801.0         0.17          3.3 
       802.0         0.18          3.9 
       803.0         0.23          3.6 
       804.0         0.17          3.8 
       805.0         0.23          3.5 
       806.0         1.73          3.6 
       807.0         0.27          3.4 
       808.0         0.23          3.6 
       809.0         0.20          3.0 
       810.0         0.22          3.8 
       811.0         0.20          3.7 
       812.0         0.23          3.8 
       813.0         0.20          3.7 
       814.0         0.27          3.6 
       815.0         0.23          4.3 
       816.0         0.23          3.4 
       817.0         0.27          3.8 
       818.0         0.27          3.8 
       819.0         0.23          3.4 
       820.0         0.20          4.0 
       821.0         0.20          3.5 
       822.0         0.17          4.0 
       823.0         0.20          3.4 
       824.0         0.20          3.3 
       825.0         0.22          3.5 
       826.0         0.17          3.3 
       827.0         0.23          3.2 
       828.0         0.17          3.7 
       829.0         0.20          3.4 
       830.0         0.17          4.3 
       831.0         0.20          3.5 
       832.0         0.30          3.5 
       833.0         0.30          3.8 
       834.0         0.20          4.0 
       835.0         0.17          4.0 
       836.0         2.02          3.6 
       837.0         0.30          4.4 
       838.0         0.27          3.7 
       839.0         0.27          3.8 
       840.0         0.23          4.1 
       841.0         0.23          3.6 
       842.0         0.17          3.2 
       843.0         0.20          3.4 
       844.0         0.17          3.1 
       845.0         0.17          2.6 
       846.0         0.17          3.3 
       847.0         0.17          3.5 
       848.0         0.25          3.1 
       849.0         0.27          3.1 
       850.0         0.17          2.7 
       851.0         0.20          3.4 
       852.0         0.23          3.6 
       853.0         0.20          3.4 
       854.0         0.17          3.4 
       855.0         0.17          3.7 
       856.0         0.20          3.3 
       857.0         0.20          3.6 
       858.0         0.20          3.7 
       859.0         0.17          3.1 
       860.0         0.20          3.6 
       861.0         0.17          4.0 
       862.0         0.20          3.3 
       863.0         0.17          3.3 
       864.0         0.17          3.6 
       865.0         0.17          3.3 
       866.0         5.70          3.5 
       867.0         0.40          3.5 
       868.0         0.27          3.6 
       869.0         0.27          3.2 
       870.0         0.18          3.4 
       871.0         0.10          3.0 
       872.0         0.23          3.6 
       873.0         0.33          3.3 
       874.0         0.27          3.1 
       875.0         0.30          3.5 
       876.0         0.33          3.9 
       877.0         0.37          3.6 
       878.0         0.30          3.4 
       879.0         0.33          3.4 
       880.0         0.27          3.7 
       881.0         0.27          2.9 
       882.0         0.28          3.4 
       883.0         0.30          3.2 
       884.0         0.23          3.9 
       885.0         0.23          3.6 
       886.0         0.17          3.5 
       887.0         0.17          3.6 
       888.0         0.23          2.9 
       889.0         0.33          3.5 
       890.0         0.27          3.4 
       891.0         0.23          2.9 
       892.0         0.20          2.9 
       893.0         0.20          3.5 
       894.0         0.33          2.6 
       895.0         0.38          2.7 
       896.0         2.97          2.9 
       897.0         0.33          3.4 
       898.0         0.35          2.8 
       899.0         0.20          4.4 
       900.0         0.13          2.9 
       901.0         0.23          3.5 
       902.0         0.20          3.2 
       903.0         0.27          3.4 
       904.0         0.37          3.1 
       905.0         0.37          3.6 
       906.0         0.37          2.8 
       907.0         0.33          3.0 
       908.0         0.27          2.8 
       909.0         0.23          3.4 
       910.0         0.25          3.2 
       911.0         0.20          3.6 
       912.0         0.23          3.2 
       913.0         0.20          4.0 
       914.0         0.20          3.5 
       915.0         0.13          3.7 
       916.0         0.20          3.7 
       917.0         0.27          3.2 
       918.0         0.30          3.8 
       919.0         0.30          4.5 
       920.0         0.20          4.7 
