~Version Information
VERS.                      2.0: CWLS Log ASCII Standard - VERSION 2.0
WRAP.                       NO: One line per depth step
~Well Information Block
STRT.FT               780.0000: 
STOP.FT              3152.2000: 
STEP.FT                 0.1000: 
NULL.                -999.2500: 
COMP.          Pioneer Natural Resources: COMPANY
WELL.            Paradise 13-8: WELL
FLD.           Purgatoire River: FIELD
LOC.           1896' FSL & 1120' FWL: LOCATION
PROV.                 Colorado: PROVINCE
CNTY.               Las Animas: COUNTRY
SRVC.                Patterson: SERVICE COMPANY
DATE.          Sat Jan 22 20:51:32 2005: LOG DATE
UWI.           05 071 07946 00: UNIQUE WELL ID
~Curve Information Block
DEPT.FT            0 000 00 00: Depth
DCAL.in                       : CDL Caliper
RHOB.g/cc                     : CDL Bulk Density
RHOC.g/cc                     : CDL Density Correction
DPOR.pu                       : CDL Density Porosity
NPOR.pu                       : Neutron Porosity
GR.GAPI                       : Gamma Ray
~Parameter Information Block
~A  Depth       DCAL        RHOB        RHOC        DPOR        NPOR         GR     
# ...
  1404.0000      8.0008      2.6174      0.0806      1.9753     25.6800    101.7990
  1404.1000      8.0008      2.6159      0.0552      2.0677     25.9284     96.8841
  1404.2000      8.0008      2.5938      0.0818      3.4080     25.8974     96.7568
  1404.3000      8.0019      2.5629     -0.0010      5.2785     25.3753     98.0894
  1404.4000      8.0019      2.5469      0.0065      6.2504     24.5641     99.3827
  1404.5000      8.0023      2.5516      0.0485      5.9661     23.9264     99.9122
  1404.6000      8.0023      2.5638      0.0345      5.2229     23.5116     99.3490
  1404.7000      8.0023      2.5810      0.0479      4.1825     23.2572     99.1597
  1404.8000      8.0022      2.6064      0.0846      2.6400     23.1907     96.5887
  1404.9000      8.0022      2.6293      0.0912      1.2516     22.8590     91.1180
  1405.0000      8.0029      2.6292      0.0934      1.2627     22.2657     88.6334
  1405.1000      8.0029      2.6060      0.0609      2.6694     22.0232     89.3144
  1405.2000      8.0029      2.5866      0.0274      3.8448     22.0578     87.3694
  1405.3000      8.0031      2.5863      0.0593      3.8635     21.9089     84.0461
  1405.4000      8.0031      2.5889      0.1046      3.7008     21.6702     85.1526
  1405.5000      8.0025      2.5856      0.0397      3.9012     21.8801     89.4160
  1405.6000      8.0025      2.5957      0.0660      3.2898     22.3144     92.2866
  1405.7000      8.0025      2.6199      0.0978      1.8218     22.4571     93.3864
  1405.8000      8.0021      2.6301      0.0906      1.2078     22.5720     94.2946
  1405.9000      8.0021      2.6123      0.0771      2.2856     22.8841     96.7669
  1406.0000      8.0021      2.5783      0.0622      4.3430     23.1310    100.1228
  1406.1000      8.0021      2.5482      0.0003      6.1680     22.8983     99.7687
  1406.2000      8.0021      2.5355      0.0265      6.9405     22.4027     94.3316
  1406.3000      8.0033      2.5423      0.0284      6.5284     22.3557     88.7137
  1406.4000      8.0033      2.5680      0.0147      4.9688     22.8730     88.1265
  1406.5000      8.0051      2.6096      0.0614      2.4464     23.6118     91.1242
  1406.6000      8.0051      2.6566      0.0720     -0.4026     24.3557     93.7544
  1406.7000      8.0051      2.6952      0.1119     -2.7365     25.0099     97.1075
  1406.8000      8.0069      2.7169      0.0930     -4.0519     25.6242    100.6096
  1406.9000      8.0069      2.7257      0.1049     -4.5862     26.2341    101.3497
  1407.0000      8.0075      2.7270      0.0600     -4.6638     27.0086    100.8043
  1407.1000      8.0075      2.7154      0.0978     -3.9642     27.9736    101.9541
  1407.2000      8.0075      2.6920      0.0251     -2.5434     28.7931    102.5455
  1407.3000      8.0064      2.6792      0.0240     -1.7688     29.4759     98.2161
  1407.4000      8.0064      2.6888     -0.0000     -2.3519     30.1226     91.1049
  1407.5000      8.0048      2.7011      0.0417     -3.0996     30.6069     85.4128
  1407.6000      8.0048      2.6968      0.0058     -2.8386     30.8810     82.5633
  1407.7000      8.0048      2.6836     -0.0026     -2.0353     30.8589     82.9019
  1407.8000      8.0060      2.6691      0.0028     -1.1572     30.8528     85.9129
  1407.9000      8.0060      2.6467      0.0343      0.2001     31.1642     90.0236
  1408.0000      8.0095      2.6174     -0.0122      1.9785     31.3317     94.3070
  1408.1000      8.0095      2.5976     -0.0265      3.1733     31.1086     99.3310
  1408.2000      8.0095      2.5928      0.0200      3.4646     30.8614    105.0407
  1408.3000      8.0141      2.5858      0.0196      3.8914     30.7282    110.2966
  1408.4000      8.0141      2.5687     -0.0321      4.9278     30.6102    112.2052
  1408.5000      8.0207      2.5577     -0.0344      5.5952     30.4649    110.0037
  1408.6000      8.0207      2.5587      0.0390      5.5310     30.2151    109.7350
  1408.7000      8.0207      2.5555      0.0670      5.7252     29.8428    113.9799
  1408.8000      8.0258      2.5466      0.0009      6.2663     29.4041    116.5647
  1408.9000      8.0258      2.5453      0.0611      6.3456     28.7776    113.9898
  1409.0000      8.0267      2.5546      0.0286      5.7793     27.9980    109.9598
  1409.1000      8.0267      2.5754      0.0178      4.5207     27.4125    110.0295
  1409.2000      8.0267      2.5976      0.1179      3.1758     27.3328    113.8296
  1409.3000      8.0237      2.6060      0.0727      2.6637     27.6654    115.9217
  1409.4000      8.0237      2.6071      0.0530      2.5991     27.9615    115.0345
  1409.5000      8.0238      2.6112      0.0900      2.3504     28.0178    115.8689
  1409.6000      8.0238      2.6157      0.0640      2.0817     27.9086    119.2751
  1409.7000      8.0238      2.6148      0.0729      2.1350     27.9219    120.9660
  1409.8000      8.0304      2.6069      0.0488      2.6148     28.2800    121.3120
  1409.9000      8.0304      2.5997      0.0302      3.0494     28.7652    124.2049
  1410.0000      8.0323      2.5973      0.0488      3.1912     29.0626    128.2610
  1410.1000      8.0323      2.5889      0.0697      3.7047     28.9134    129.0230
  1410.2000      8.0323      2.5719      0.0411      4.7364     28.4751    127.4345
  1410.3000      8.0293      2.5564      0.0744      5.6746     28.1587    126.0723
  1410.4000      8.0293      2.5397      0.0745      6.6821     28.2307    125.4448
  1410.5000      8.0226      2.5202      0.0631      7.8638     28.7437    126.4322
  1410.6000      8.0226      2.5121      0.0349      8.3586     29.0834    129.1183
  1410.7000      8.0226      2.5173      0.0842      8.0440     28.5636    133.7962
  1410.8000      8.0123      2.5204      0.0372      7.8557     27.2942    141.4287
  1410.9000      8.0123      2.5201      0.0556      7.8724     25.7666    147.9180
  1411.0000      8.0057      2.5281      0.0590      7.3880     24.5523    148.2293
  1411.1000      8.0057      2.5453      0.1111      6.3455     23.8701    145.9498
  1411.2000      8.0057      2.5597      0.0873      5.4732     23.3612    147.0692
  1411.3000      8.0050      2.5689      0.1052      4.9176     22.8958    147.2596
  1411.4000      8.0050      2.5819      0.1032      4.1267     22.8849    141.7879
  1411.5000      8.0057      2.6018      0.1001      2.9187     23.4548    134.9836
  1411.6000      8.0057      2.6219      0.1086      1.7012     24.2730    127.5444
  1411.7000      8.0057      2.6387      0.1023      0.6832     25.0952    118.1003
  1411.8000      8.0066      2.6580      0.1087     -0.4848     25.8229    112.1028
  1411.9000      8.0066      2.6804      0.1252     -1.8434     26.5080    112.6393
  1412.0000      8.0062      2.6916      0.1281     -2.5200     27.2751    114.0087
  1412.1000      8.0062      2.6775      0.1403     -1.6694     27.9116    111.9503
  1412.2000      8.0062      2.6432      0.0598      0.4103     28.3217    110.3790
  1412.3000      8.0047      2.6111      0.0026      2.3583     28.6970    114.9546
  1412.4000      8.0047      2.5949      0.0386      3.3384     29.1394    124.0092
  1412.5000      8.0045      2.5882     -0.0139      3.7457     29.6752    128.6706
  1412.6000      8.0045      2.5866     -0.0152      3.8415     30.3824    124.7417
  1412.7000      8.0045      2.5950      0.0068      3.3312     31.0226    115.7412
  1412.8000      8.0056      2.6158      0.0393      2.0736     31.2306    106.7096
  1412.9000      8.0056      2.6417      0.0579      0.5029     31.1600    105.5923
  1413.0000      8.0062      2.6553      0.0764     -0.3199     31.0578    114.7217
  1413.1000      8.0062      2.6404      0.0988      0.5793     30.8876    125.8769
  1413.2000      8.0062      2.6107     -0.0024      2.3823     30.7008    132.0446
  1413.3000      8.0060      2.5924      0.0263      3.4881     30.5415    132.0366
  1413.4000      8.0060      2.5820      0.0205      4.1236     30.3628    127.0272
  1413.5000      8.0066      2.5702      0.0006      4.8359     30.0977    122.4085
