~Version Information
VERS.                      2.0: CWLS Log ASCII Standard - VERSION 2.0
WRAP.                       NO: One line per depth step
~Well Information Block
STRT.FT               545.0000: 
STOP.FT              1922.0000: 
STEP.FT                 0.2500: 
NULL.                -999.2500: 
COMP.          Pioneer Natural Resources: COMPANY
WELL.            Summers 21-19: WELL
FLD.           Purgatoire River: FIELD
LOC.           900' FNL & 1950' FWL: LOCATION
PROV.                 Colorado: PROVINCE
CNTY.               Las Animas: COUNTRY
SRVC.                Patterson: SERVICE COMPANY
DATE.          Sat Oct 15 03:34:13 2005: LOG DATE
UWI.           05 071 08315 00: UNIQUE WELL ID
~Curve Information Block
DEPT.FT            0 000 00 00: Depth
SN.Ohm-m                      : IEL Short Normal
SP.mV                         : IEL Spontaneous Potential
DIR.Ohm-m                     : IEL Induction Resistivity
GR.GAPI                       : Gamma Ray
~Parameter Information Block
~A  Depth        SN          SP         DIR          GR     
# ...
  1784.5000     16.3492    -84.4162     12.0261    112.3665
  1784.7500     16.1137    -85.2933     12.0917    109.7738
  1785.0000     16.1260    -86.0879     12.1639    104.8011
  1785.2500     16.4640    -86.7977     12.2457    101.1483
  1785.5000     17.1296    -87.4235     12.3427     96.3644
  1785.7500     18.2008    -87.9683     12.4625     94.2594
  1786.0000     19.8151    -88.4462     12.6162     92.8817
  1786.2500     21.9046    -88.8857     12.8178     92.7261
  1786.5000     24.0175    -89.3265     13.0798     92.6738
  1786.7500     25.5194    -89.8152     13.4070     92.4592
  1787.0000     26.0216    -90.3968     13.7927     92.3479
  1787.2500     25.5970    -91.1018     14.2201     93.2371
  1787.5000     24.6148    -91.9324     14.6672     97.4292
  1787.7500     23.4645    -92.8495     15.1069    102.2619
  1788.0000     22.4190    -93.7713     15.5019    110.9131
  1788.2500     21.6022    -94.5935     15.8021    115.8378
  1788.5000     21.0109    -95.2300     15.9556    119.0322
  1788.7500     20.5700    -95.6462     15.9318    117.5147
  1789.0000     20.2286    -95.8599     15.7396    110.3440
  1789.2500     20.0201    -95.9128     15.4246    103.6977
  1789.5000     19.9872    -95.8419     15.0502     94.3996
  1789.7500     20.1161    -95.6690     14.6771     90.6099
  1790.0000     20.3286    -95.4059     14.3490     90.4612
  1790.2500     20.4365    -95.0635     14.0840     93.9539
  1790.5000     20.2065    -94.6617     13.8708    102.5265
  1790.7500     19.5592    -94.2358     13.6742    108.7044
  1791.0000     18.6494    -93.8366     13.4495    116.1637
  1791.2500     17.7461    -93.5158     13.1615    119.3788
  1791.5000     17.0141    -93.3007     12.7978    122.0687
  1791.7500     16.3930    -93.1695     12.3691    123.0635
  1792.0000     15.7563    -93.0434     11.8996    124.2886
  1792.2500     15.1443    -92.8120     11.4169    125.3108
  1792.5000     14.6999    -92.3848     10.9451    127.3011
  1792.7500     14.4514    -91.7419     10.5030    128.6230
  1793.0000     14.2943    -90.9447     10.1035    129.9736
  1793.2500     14.0941    -90.0922      9.7540    130.4671
  1793.5000     13.7668    -89.2576      9.4570    131.1544
  1793.7500     13.3239    -88.4545      9.2100    131.7813
  1794.0000     12.8414    -87.6495      9.0070    132.9314
  1794.2500     12.4059    -86.7979      8.8409    133.7832
  1794.5000     12.0737    -85.8773      8.7062    135.0637
  1794.7500     11.8582    -84.9100      8.6000    135.6918
  1795.0000     11.7489    -83.9671      8.5226    135.8471
  1795.2500     11.6972    -83.1530      8.4761    135.3537
  1795.5000     11.6521    -82.5754      8.4625    133.8607
  1795.7500     11.6255    -82.3028      8.4829    132.3707
  1796.0000     11.6357    -82.3295      8.5367    129.3068
  1796.2500     11.6522    -82.5829      8.6229    126.9576
  1796.5000     11.6438    -82.9767      8.7428    124.3731
  1796.7500     11.5992    -83.4665      8.9004    124.3830
  1797.0000     11.5039    -84.0455      9.1005    128.2161
  1797.2500     11.3991    -84.6833      9.3450    133.1842
  1797.5000     11.4356    -85.2686      9.6288    142.6504
  1797.7500     11.7696    -85.6177      9.9388    149.1838
  1798.0000     12.3852    -85.5435     10.2563    158.6719
  1798.2500     13.0577    -84.9391     10.5624    165.3694
  1798.5000     13.5382    -83.8242     10.8435    176.8953
  1798.7500     13.7629    -82.3328     11.0951    184.9456
  1799.0000     13.8653    -80.6541     11.3221    194.5328
  1799.2500     14.0264    -78.9712     11.5360    197.5102
  1799.5000     14.3302    -77.4308     11.7502    196.0895
  1799.7500     14.7305    -76.1412     11.9709    192.3341
  1800.0000     15.1019    -75.1751     12.1889    185.5622
  1800.2500     15.3088    -74.5620     12.3798    181.6371
  1800.5000     15.2464    -74.2811     12.5143    177.0564
  1800.7500     14.9148    -74.2753     12.5747    174.1001
  1801.0000     14.4939    -74.4902     12.5652    167.7455
  1801.2500     14.2030    -74.9055     12.5118    161.3420
  1801.5000     14.1010    -75.5268     12.4534    148.7013
  1801.7500     14.1498    -76.3382     12.4307    139.4980
  1802.0000     14.3365    -77.2608     12.4757    127.4568
  1802.2500     14.6164    -78.1647     12.6052    121.8199
  1802.5000     14.8564    -78.9327     12.8175    117.1185
  1802.7500     14.8901    -79.5163     13.0920    115.7048
  1803.0000     14.6383    -79.9326     13.3925    114.7254
  1803.2500     14.2327    -80.2190     13.6770    114.4346
  1803.5000     13.9714    -80.4077     13.9124    114.2973
  1803.7500     14.1178    -80.5361     14.0873    114.0987
  1804.0000     14.8032    -80.6625     14.2164    112.7935
  1804.2500     15.9788    -80.8539     14.3354    110.9526
  1804.5000     17.3089    -81.1592     14.4888    107.2726
  1804.7500     18.3571    -81.5912     14.7151    105.0551
  1805.0000     18.9652    -82.1328     15.0337    103.2969
  1805.2500     19.2712    -82.7546     15.4386    103.1990
  1805.5000     19.4805    -83.4294     15.9010    104.0693
  1805.7500     19.7709    -84.1363     16.3778    105.2413
  1806.0000     20.2352    -84.8622     16.8214    108.0331
  1806.2500     20.8196    -85.6037     17.1925    110.1559
  1806.5000     21.3692    -86.3641     17.4731    111.9639
  1806.7500     21.7119    -87.1457     17.6706    111.4824
  1807.0000     21.7561    -87.9445     17.8088    108.5714
  1807.2500     21.5901    -88.7514     17.9145    105.9577
  1807.5000     21.4397    -89.5555     18.0134    102.0532
  1807.7500     21.4629    -90.3466     18.1334     99.7407
  1808.0000     21.6279    -91.1197     18.3055     97.0721
  1808.2500     21.8196    -91.8803     18.5581     95.9335
  1808.5000     21.9812    -92.6448     18.9102     94.7641
  1808.7500     22.1422    -93.4314     19.3641     93.8283
  1809.0000     22.4002    -94.2429     19.8981     91.6051
  1809.2500     22.8689    -95.0580     20.4648     89.6616
  1809.5000     23.5553    -95.8419     21.0053     86.5483
  1809.7500     24.3078    -96.5653     21.4756     84.4477
  1810.0000     24.9792    -97.2139     21.8593     80.9657
  1810.2500     25.5648    -97.7850     22.1537     78.2593
  1810.5000     26.1168    -98.2809     22.3478     74.0474
  1810.7500     26.6465    -98.7059     22.4255     71.7903
  1811.0000     27.1316    -99.0669     22.3940     70.1503
  1811.2500     27.5467    -99.3778     22.3041     70.2614
  1811.5000     27.8806    -99.6631     22.2331     71.7289
  1811.7500     28.1165    -99.9539     22.2415     73.2793
  1812.0000     28.2189   -100.2811     22.3379     76.0884
  1812.2500     28.1486   -100.6743     22.4722     78.0264
  1812.5000     27.8512   -101.1618     22.5617     80.4429
  1812.7500     27.3024   -101.7662     22.5325     81.3924
  1813.0000     26.5738   -102.4979     22.3518     81.6604
  1813.2500     25.7801   -103.3549     22.0356     81.3355
  1813.5000     24.9990   -104.3229     21.6320     80.7759
  1813.7500     24.2680   -105.3726     21.1978     80.4419
  1814.0000     23.6343   -106.4625     20.7789     79.2597
  1814.2500     23.1717   -107.5531     20.4028     77.4585
  1814.5000     22.9080   -108.6285     20.0789     73.3088
  1814.7500     22.8162   -109.7121     19.8056     70.4413
  1815.0000     22.8506   -110.8677     19.5758     67.8421
  1815.2500     22.8764   -112.1708     19.3801     67.7300
  1815.5000     22.7109   -113.6470     19.2092     69.2794
  1815.7500     22.3790   -115.2108     19.0562     70.5188
  1816.0000     22.1185   -116.6561     18.9204     71.3283
  1816.2500     22.0141   -117.7193     18.8081     70.9289
  1816.5000     21.8838   -118.1863     18.7298     69.4168
  1816.7500     21.5696   -117.9920     18.6944     68.3022
  1817.0000     21.1154   -117.2550     18.7031     67.1813
  1817.2500     20.6703   -116.2182     18.7456     67.0218
  1817.5000     20.3320   -115.1300     18.7995     67.6372
  1817.7500     20.0969   -114.1457     18.8367     68.3845
