~Version Information
VERS.                      2.0: CWLS Log ASCII Standard - VERSION 2.0
WRAP.                       NO: One line per depth step
~Well Information Block
STRT.FT               650.0000: 
STOP.FT              2087.0000: 
STEP.FT                 0.2500: 
NULL.                -999.2500: 
COMP.          Pioneer Natural Resources: COMPANY
WELL.           Galloway 32-13: WELL
FLD.           Purgatoire River: FIELD
LOC.           1809' FNL & 2004' FEL: LOCATION
PROV.                 Colorado: PROVINCE
CNTY.               Las Animas: COUNTRY
SRVC.                Patterson: SERVICE COMPANY
DATE.          Fri Jul 08 15:50:04 2005: LOG DATE
UWI.           05 071 08423 00: UNIQUE WELL ID
~Curve Information Block
DEPT.FT            0 000 00 00: Depth
SN.Ohm-m                      : IEL Short Normal
SP.mV                         : IEL Spontaneous Potential
DIR.Ohm-m                     : IEL Induction Resistivity
GR.GAPI                       : Gamma Ray
~Parameter Information Block
~A  Depth        SN          SP         DIR          GR     
# ...
  1320.0000     23.3611    -74.0096     20.9493    124.9695
  1320.2500     22.8691    -72.1289     20.6734    124.5398
  1320.5000     22.1355    -71.0047     20.3043    122.3250
  1320.7500     21.0746    -70.2009     19.8547    120.7365
  1321.0000     19.8258    -69.4839     19.3532    120.6610
  1321.2500     18.6663    -68.8074     18.8409    123.1305
  1321.5000     17.8512    -68.2151     18.3521    130.0529
  1321.7500     17.4578    -67.7587     17.8957    135.3006
  1322.0000     17.3600    -67.4627     17.4505    141.1905
  1322.2500     17.3420    -67.3197     16.9752    142.7941
  1322.5000     17.2498    -67.2895     16.4293    141.6577
  1322.7500     17.0699    -67.3086     15.7929    139.1892
  1323.0000     16.8487    -67.3165     15.0796    134.6455
  1323.2500     16.5582    -67.2814     14.3319    132.2465
  1323.5000     16.1330    -67.2038     13.6053    131.4406
  1323.7500     15.6087    -67.1003     12.9495    133.3351
  1324.0000     15.1122    -66.9889     12.3965    139.5057
  1324.2500     14.7286    -66.8832     11.9580    145.0497
  1324.5000     14.4154    -66.7949     11.6283    153.9117
  1324.7500     14.0515    -66.7347     11.3876    159.4788
  1325.0000     13.5731    -66.7059     11.2068    166.6483
  1325.2500     12.9683    -66.6967     11.0542    170.3663
  1325.5000     12.1882    -66.6839     10.9041    173.7370
  1325.7500     11.2527    -66.6532     10.7432    174.1379
  1326.0000     10.4016    -66.6249     10.5718    171.6449
  1326.2500      9.9646    -66.6578     10.4009    168.1009
  1326.5000     10.0761    -66.8117     10.2491    161.1595
  1326.7500     10.6276    -67.0880     10.1389    156.5327
  1327.0000     11.4223    -67.4184     10.0933    151.1786
  1327.2500     12.2645    -67.7273     10.1291    149.0074
  1327.5000     13.0015    -67.9988     10.2535    147.5520
  1327.7500     13.5472    -68.2733     10.4642    147.3679
  1328.0000     13.8826    -68.5976     10.7542    147.5103
  1328.2500     14.0678    -68.9940     11.1170    147.5615
  1328.5000     14.1708    -69.4657     11.5493    147.2491
  1328.7500     14.1984    -70.0099     12.0483    146.5406
  1329.0000     14.2090    -70.6166     12.6094    144.0656
  1329.2500     14.3839    -71.2611     13.2262    141.1389
  1329.5000     14.9132    -71.9057     13.8945    134.6323
  1329.7500     15.8903    -72.5116     14.6149    128.8488
  1330.0000     17.3186    -73.0545     15.3933    117.8803
  1330.2500     19.1594    -73.5333     16.2387    109.1932
  1330.5000     21.3656    -73.9661     17.1618     95.4817
  1330.7500     23.9447    -74.3694     18.1730     87.2483
  1331.0000     27.0441    -74.7327     19.2815     78.2897
  1331.2500     30.8047    -75.0169     20.4960     74.9820
  1331.5000     35.0145    -75.1849     21.8295     73.3587
  1331.7500     39.0800    -75.2314     23.3021     73.7025
  1332.0000     42.3678    -75.1805     24.9206     74.9883
  1332.2500     44.4679    -75.0638     26.6216     75.9026
  1332.5000     45.2633    -74.9050     28.2062     77.5747
  1332.7500     44.8578    -74.7213     29.3473     79.4402
  1333.0000     43.4508    -74.5335     29.7403     84.1042
  1333.2500     41.3439    -74.3686     29.3039     88.3484
  1333.5000     38.9528    -74.2515     28.2203     95.3167
  1333.7500     36.6111    -74.1875     26.7794     99.5851
  1334.0000     34.3852    -74.1519     25.2167    104.7693
  1334.2500     32.1719    -74.0991     23.6670    107.7172
  1334.5000     29.9188    -73.9948     22.1966    112.7861
  1334.7500     27.7021    -73.8502     20.8432    117.4020
  1335.0000     25.6523    -73.7231     19.6340    126.5400
  1335.2500     23.8638    -73.6761     18.5875    133.5215
  1335.5000     22.3944    -73.7336     17.7112    143.2101
  1335.7500     21.2418    -73.8728     17.0019    147.6511
  1336.0000     20.2796    -74.0404     16.4447    149.4243
  1336.2500     19.3555    -74.1685     16.0119    147.2577
  1336.5000     18.4516    -74.1899     15.6661    140.6250
  1336.7500     17.6374    -74.0628     15.3727    135.4117
  1337.0000     16.9539    -73.7883     15.1180    128.6776
  1337.2500     16.4225    -73.3979     14.9181    125.8287
  1337.5000     16.0942    -72.9201     14.8088    124.6939
  1337.7500     16.0883    -72.3630     14.8212    125.7392
  1338.0000     16.5224    -71.7298     14.9589    128.1781
  1338.2500     17.3399    -71.0395     15.1891    128.8459
  1338.5000     18.2860    -70.3281     15.4517    126.1743
  1338.7500     19.0750    -69.6332     15.6822    121.4858
  1339.0000     19.5819    -68.9787     15.8380    111.2563
  1339.2500     19.9130    -68.3772     15.9095    103.9609
  1339.5000     20.2526    -67.8446     15.9106     95.7330
  1339.7500     20.6386    -67.4096     15.8608     93.5574
  1340.0000     20.9718    -67.1035     15.7747     95.7672
  1340.2500     21.1810    -66.9414     15.6632     99.8632
  1340.5000     21.2621    -66.9092     15.5362    106.8522
  1340.7500     21.1995    -66.9654     15.3988    110.5073
  1341.0000     20.9097    -67.0517     15.2444    113.9957
  1341.2500     20.3024    -67.1110     15.0521    116.0750
  1341.5000     19.4238    -67.1050     14.7941    121.0533
  1341.7500     18.4437    -67.0243     14.4497    125.8503
  1342.0000     17.5390    -66.8815     14.0167    133.3479
  1342.2500     16.8765    -66.6943     13.5137    136.7898
  1342.5000     16.5425    -66.4738     12.9725    137.1222
  1342.7500     16.4246    -66.2285     12.4271    133.6435
  1343.0000     16.2932    -65.9750     11.9060    124.6616
  1343.2500     16.0130    -65.7343     11.4303    118.6512
  1343.5000     15.5875    -65.5106     11.0148    114.2896
  1343.7500     15.0166    -65.2806     10.6674    115.9028
  1344.0000     14.2808    -65.0162     10.3876    123.9875
  1344.2500     13.4641    -64.7123     10.1651    131.1153
  1344.5000     12.6648    -64.3885      9.9817    140.9122
  1344.7500     11.8798    -64.0715      9.8164    145.6685
  1345.0000     11.1468    -63.7848      9.6527    149.9459
  1345.2500     10.6328    -63.5473      9.4843    151.5871
  1345.5000     10.5358    -63.3712      9.3176    153.7752
  1345.7500     10.9368    -63.2561      9.1684    155.5164
  1346.0000     11.6474    -63.1912      9.0563    158.1901
  1346.2500     12.2908    -63.1688      8.9984    159.4999
  1346.5000     12.6470    -63.1943      9.0052    160.2992
  1346.7500     12.7450    -63.2778      9.0783    160.1751
  1347.0000     12.6365    -63.3974      9.2105    159.2954
  1347.2500     12.3084    -63.4633      9.3888    158.2221
  1347.5000     11.7427    -63.3392      9.6007    155.8519
  1347.7500     10.9483    -62.9447      9.8403    154.0236
  1348.0000     10.0817    -62.3510     10.1115    151.4258
  1348.2500      9.5462    -61.7492     10.4249    149.6757
  1348.5000      9.7534    -61.3107     10.7924    146.1063
  1348.7500     10.8349    -61.0929     11.2239    142.7267
  1349.0000     12.6395    -61.0652     11.7292    136.7724
  1349.2500     14.7755    -61.1840     12.3226    133.0790
  1349.5000     16.7466    -61.4268     13.0239    128.8167
  1349.7500     18.2704    -61.7779     13.8529    126.6064
  1350.0000     19.4235    -62.2048     14.8198    123.5678
  1350.2500     20.4597    -62.6547     15.9206    121.7011
  1350.5000     21.5215    -63.0727     17.1376    119.4251
  1350.7500     22.5739    -63.4227     18.4410    118.2043
  1351.0000     23.6080    -63.6937     19.7851    116.2085
  1351.2500     24.7433    -63.8937     21.0976    114.2858
  1351.5000     26.0628    -64.0423     22.2749    109.9152
  1351.7500     27.5090    -64.1638     23.2010    106.0634
  1352.0000     28.9457    -64.2796     23.7917     99.8668
  1352.2500     30.1805    -64.4048     24.0342     96.3718
  1352.5000     30.9795    -64.5488     23.9798     93.5878
  1352.7500     31.1485    -64.7162     23.6903     93.8636
  1353.0000     30.5925    -64.9036     23.1906     97.3258
  1353.2500     29.3694    -65.0990     22.4645    101.1290
