~Version Information
 VERS.                                  2.0 : CWLS LAS VERSION
 WRAP.                                   NO : WRAPING MODE
 SWARE .                 MController 2.5.0E : SOFTWARE VERSION
~Well Information
 WELL.                          Chase 21-10 : WELL
 COMP.             Evergreen Operating Corp : COMPANY
 FLD.                      Purgatorie River : FIELD
 LOC.                NE/NW Sec 10 t32S R65W : LOCATION
 DATE.                              5/23/04 : DATE(S) LOGGED
 SRVC.       Blanco Geological Services LLC : SERVICE COMPANY
 STAT.                                   CO : STATE
 CNTY.                           Las Animas : COUNTY
 CTRY.                                  USA : COUNTRY
 API.                        05 071 08006 00: API NUMBER
 UWI.                        05 071 08006 00: UNIQUE WELL ID
 STRT.FT                             481.00 : START DEPTH
 STOP.FT                            1525.00 : STOP DEPTH
 STEP.FT                               1.00 : DEPTH INCREMENT
 NULL.                                -9999 : NULL VALUE
~Curve information
 DEPTH.FT                                   :
 ROP.MIN/FT                                 :
 GAS.UNITS                                  :
~ASCII Log data
      481.00    -9999.000          5.3 
      482.00        0.167          3.0 
      483.00        0.167          0.7 
      484.00        0.167          0.6 
      485.00        0.167          0.3 
      486.00        0.133          0.7 
      487.00        0.167          0.9 
      488.00        0.167          0.4 
      489.00        0.217          0.4 
      490.00        0.100         -0.3 
      491.00        0.133         -0.2 
      492.00        0.133          0.5 
      493.00        0.200          0.4 
      494.00        0.200          1.0 
      495.00        0.100          1.2 
      496.00        0.167          1.5 
      497.00        0.100          1.9 
      498.00        0.100          1.9 
      499.00        0.100          1.9 
      500.00        0.133          2.3 
      501.00        0.100          2.6 
      502.00        0.133          2.6 
      503.00        0.100          2.4 
      504.00        0.100          2.4 
      505.00        0.100          2.4 
      506.00        1.150          3.7 
      507.00        0.467          4.2 
      508.00        0.333          4.2 
      509.00        0.200          4.4 
      510.00        0.200          4.1 
      511.00        0.167          4.5 
      512.00        0.167          4.8 
      513.00        0.167          4.7 
      514.00        0.133          4.9 
      515.00        0.167          4.8 
      516.00        0.133          4.8 
      517.00        0.100          5.0 
      518.00        0.133          4.5 
      519.00        0.100          5.1 
      520.00        0.133          4.9 
      521.00        0.100          4.9 
      522.00        0.150          4.9 
      523.00        0.133          4.8 
      524.00        0.133          4.9 
      525.00        0.067          4.9 
      526.00        0.133          4.9 
      527.00        0.133          5.1 
      528.00        0.167          5.0 
      529.00        0.167          5.0 
      530.00        0.167          5.9 
      531.00        0.133          5.4 
      532.00        0.167          5.4 
      533.00        0.167          4.8 
      534.00        0.167          5.1 
      535.00        0.200          5.1 
      536.00        0.933          5.8 
      537.00        0.233          5.6 
      538.00        0.250          6.0 
      539.00        0.233          5.6 
      540.00        0.167          5.7 
      541.00        0.167          6.1 
      542.00        0.133          6.2 
      543.00        0.133          5.8 
      544.00        0.167          6.1 
      545.00        0.133          5.8 
      546.00        0.133          5.9 
      547.00        0.133          5.9 
      548.00        0.167          6.0 
      549.00        0.133          6.4 
      550.00        0.133          6.2 
      551.00        0.133          6.1 
      552.00        0.133          6.2 
      553.00        0.133          6.4 
      554.00        0.100          6.2 
      555.00        0.133          6.2 
      556.00        0.133          6.4 
      557.00        0.100          6.4 
      558.00        0.067          6.2 
      559.00        0.100          6.2 
      560.00        0.100          6.3 
      561.00        0.100          6.2 
      562.00        0.100          6.2 
      563.00        0.183          6.1 
      564.00        0.133          6.1 
      565.00        0.167          6.3 
      566.00        1.000          6.7 
      567.00        0.400          7.3 
      568.00        0.267          7.0 
      569.00        0.300          6.7 
      570.00        0.233          6.7 
      571.00        0.200          6.9 
      572.00        0.167          6.7 
      573.00        0.200          6.8 
      574.00        0.183          7.1 
      575.00        0.167          6.7 
      576.00        0.167          6.7 
      577.00        0.167          6.7 
      578.00        0.200          6.8 
      579.00        0.167          6.7 
      580.00        0.167          6.8 
      581.00        0.200          6.7 
      582.00        0.067          6.6 
      583.00        0.100          7.0 
      584.00        0.167          7.0 
      585.00        0.167          6.9 
      586.00        0.133          6.9 
      587.00        0.100          7.0 
      588.00        0.100          7.0 
      589.00        0.167          7.0 
      590.00        0.167          6.7 
      591.00        0.133          7.0 
      592.00        0.167          7.0 
      593.00        0.133          6.8 
      594.00        0.167          7.0 
      595.00        0.167          7.0 
      596.00        1.083          7.4 
      597.00        0.533          7.7 
      598.00        0.300          7.6 
      599.00        0.200          7.2 
      600.00        0.200          7.4 
      601.00        0.167          7.4 
      602.00        0.167          7.7 
      603.00        0.100          7.1 
      604.00        0.100          7.1 
      605.00        0.167          7.6 
      606.00        0.167          7.5 
      607.00        0.200          7.8 
      608.00        0.217          7.9 
      609.00        0.167          7.7 
      610.00        0.200          7.7 
      611.00        0.167          7.6 
      612.00        0.200          7.5 
      613.00        0.167          8.1 
      614.00        0.167          7.9 
      615.00        0.133          8.1 
      616.00        0.167          8.0 
      617.00        0.133          7.9 
      618.00        0.167          7.8 
      619.00        0.133          7.8 
      620.00        0.133          7.9 
      621.00        0.133          8.0 
      622.00        0.133          8.0 
      623.00        0.133          8.2 
      624.00        0.167          8.2 
      625.00        0.200          7.8 
      626.00        1.517          8.7 
      627.00        0.267          9.2 
      628.00        0.267          8.7 
      629.00        0.233          8.2 
      630.00        0.200          8.0 
      631.00        0.200          8.1 
      632.00        0.167          8.2 
      633.00        0.167          8.4 
      634.00        0.167          8.0 
      635.00        0.167          8.3 
      636.00        0.167          8.3 
      637.00        0.167          8.1 
      638.00        0.133          8.3 
      639.00        0.183          8.5 
      640.00        0.133          8.4 
      641.00        0.133          8.6 
      642.00        0.167          8.1 
      643.00        0.133          8.5 
      644.00        0.133          8.2 
      645.00        0.133          8.9 
      646.00        0.133          8.6 
      647.00        0.133          8.5 
      648.00        0.133          8.6 
      649.00        0.100          8.6 
      650.00        0.100          8.6 
      651.00        0.100          8.8 
      652.00        0.100          8.8 
      653.00        0.067          8.8 
      654.00        0.100          8.3 
      655.00        0.100          8.3 
      656.00        1.650          9.0 
      657.00        0.267          8.8 
      658.00        0.233          8.5 
      659.00        0.200          8.3 
      660.00        0.167          8.5 
      661.00        0.200          8.7 
      662.00        0.200          8.7 
      663.00        0.167          8.8 
      664.00        0.167          8.4 
      665.00        0.167          8.7 
      666.00        0.167          8.5 
      667.00        0.167          8.8 
      668.00        0.167          8.9 
      669.00        0.167          8.7 
      670.00        0.167          8.6 
      671.00        0.167          8.6 
      672.00        0.167          8.9 
      673.00        0.150          8.8 
      674.00        0.133          8.8 
      675.00        0.167          8.6 
      676.00        0.100          8.6 
      677.00        0.133          8.8 
      678.00        0.167          8.8 
      679.00        0.133          8.6 
      680.00        0.200          8.6 
