~Version Information
VERS.                      2.0: CWLS Log ASCII Standard - VERSION 2.0
WRAP.                       NO: One line per depth step
~Well Information Block
STRT.FT               450.0000: 
STOP.FT              2753.5000: 
STEP.FT                 0.1000: 
NULL.                -999.2500: 
COMP.          Pioneer Natural Resources: COMPANY
WELL.             Squeal 11-26: WELL
FLD.           Purgatoire River: FIELD
LOC.           1186' FNL & 152' FWL: LOCATION
PROV.                 Colorado: PROVINCE
CNTY.               Las Animas: COUNTRY
SRVC.                Patterson: SERVICE COMPANY
DATE.          Wed Jun 15 09:11:52 2005: LOG DATE
UWI.           05 071 08404 00: UNIQUE WELL ID
~Curve Information Block
DEPT.FT            0 000 00 00: Depth
DCAL.in                       : CDL Caliper
RHOB.g/cc                     : CDL Bulk Density
RHOC.g/cc                     : CDL Density Correction
DPOR.pu                       : CDL Density Porosity
GR.GAPI                       : Gamma Ray
NPOR.pu                       : Neutron Porosity
~Parameter Information Block
~A  Depth       DCAL        RHOB        RHOC        DPOR         GR         NPOR    
# ...
  2581.2000      7.9933      2.5712      0.0683      4.7745     50.2665     22.5920
  2581.3000      7.9910      2.5843      0.0902      3.9832     56.1102     22.5221
  2581.4000      7.9910      2.5883      0.0453      3.7406     61.0720     22.2188
  2581.5000      7.9571      2.5850      0.0732      3.9375     63.8752     22.7245
  2581.6000      7.9571      2.5817      0.0830      4.1383     64.6996     24.2351
  2581.7000      7.9571      2.5728      0.0838      4.6811     64.0421     25.1824
  2581.8000      7.9512      2.5634      0.0624      5.2481     64.4340     24.9272
  2581.9000      7.9512      2.5683      0.0890      4.9525     66.4522     24.7931
  2582.0000      7.9460      2.5742      0.1475      4.5931     67.2361     25.2062
  2582.1000      7.9460      2.5643      0.0576      5.1962     67.3784     25.1094
  2582.2000      7.9460      2.5515      0.0739      5.9683     69.1480     24.5693
  2582.3000      7.9564      2.5402      0.0991      6.6566     70.2101     24.5560
  2582.4000      7.9564      2.5150      0.0886      8.1848     69.8713     24.9358
  2582.5000      7.9624      2.4787      0.0303     10.3840     72.9197     25.2222
  2582.6000      7.9624      2.4508      0.0356     12.0721     79.9366     25.2998
  2582.7000      7.9624      2.4421      0.0145     12.6011     83.6246     25.0219
  2582.8000      7.9686      2.4508      0.0568     12.0742     80.1803     24.6506
  2582.9000      7.9686      2.4689      0.0593     10.9741     74.9808     24.9567
  2583.0000      7.9737      2.4838      0.0809     10.0710     74.4143     25.8054
  2583.1000      7.9737      2.4794      0.0678     10.3372     79.9883     26.4562
  2583.2000      7.9737      2.4416      0.0916     12.6323     88.7673     26.7482
  2583.3000      7.9761      2.3747      0.0100     16.6876     94.1044     26.7790
  2583.4000      7.9761      2.3085     -0.0227     20.6969     93.9893     26.7920
  2583.5000      7.9792      2.2625      0.0018     23.4825     94.2144     27.0971
  2583.6000      7.9792      2.2238     -0.0479     25.8316     97.1725     27.7274
  2583.7000      7.9792      2.1565      0.0132     29.9108     98.1381     28.6508
  2583.8000      7.9836      2.0350     -0.0310     37.2741     93.8246     29.8214
  2583.9000      7.9836      1.8846     -0.0523     46.3872     86.6782     30.8125
  2584.0000      8.0064      1.7597     -0.0855     53.9594     81.1312     31.1575
  2584.1000      8.0064      1.6879     -0.1134     58.3068     77.7345     30.9672
  2584.2000      8.0064      1.6633     -0.0573     59.7997     73.3456     30.7375
  2584.3000      8.0120      1.6849     -0.0686     58.4901     66.5103     31.0740
  2584.4000      8.0120      1.7675      0.0389     53.4826     57.6215     31.8354
  2584.5000      8.0244      1.8938      0.1478     45.8314     47.8497     32.3052
  2584.6000      8.0244      2.0105      0.1923     38.7596     41.1320     32.2174
  2584.7000      8.0244      2.0876      0.2079     34.0854     39.5628     31.9997
  2584.8000      8.0586      2.1365      0.2163     31.1188     41.3779     31.8168
  2584.9000      8.0586      2.1792      0.2037     28.5344     44.0699     31.3827
  2585.0000      8.3115      2.2241      0.1692     25.8108     45.0280     30.3043
  2585.1000      8.3115      2.2773      0.0521     22.5870     44.3320     28.8611
  2585.2000      8.3115      2.3560     -0.0495     17.8177     44.2476     28.2530
  2585.3000      8.4044      2.4500      0.0772     12.1193     46.1808     28.5648
  2585.4000      8.4044      2.5161      0.0274      8.1154     52.1115     28.2449
  2585.5000      8.1622      2.5315      0.0739      7.1809     61.7268     26.4438
  2585.6000      8.1622      2.5115      0.0022      8.3943     69.7024     24.5018
  2585.7000      8.1622      2.5015     -0.0356      8.9978     71.5498     24.0697
  2585.8000      8.0958      2.5291      0.0008      7.3254     68.1809     25.1778
  2585.9000      8.0958      2.5719      0.0441      4.7304     63.1725     26.0857
  2586.0000      8.0944      2.5964      0.0616      3.2466     59.2455     25.2771
  2586.1000      8.0944      2.5973      0.0494      3.1938     57.3900     23.7443
  2586.2000      8.0944      2.5960      0.0495      3.2737     56.9421     23.0959
  2586.3000      8.0696      2.6075      0.0493      2.5747     56.5557     23.2677
  2586.4000      8.0696      2.6161      0.0784      2.0541     56.6407     23.1820
  2586.5000      8.0396      2.6063      0.0164      2.6482     55.8906     21.9422
  2586.6000      8.0396      2.5899      0.0279      3.6428     53.5521     19.9474
  2586.7000      8.0396      2.5779      0.0500      4.3698     52.9575     18.7102
  2586.8000      8.0266      2.5721      0.0376      4.7238     54.2186     18.6580
  2586.9000      8.0266      2.5770      0.0315      4.4267     54.0488     18.7435
  2587.0000      8.0245      2.5857      0.0756      3.8940     52.3627     18.3122
  2587.1000      8.0245      2.5830      0.0282      4.0593     51.0876     17.5829
  2587.2000      8.0245      2.5712     -0.0024      4.7739     50.9989     17.2112
  2587.3000      8.0208      2.5614      0.0342      5.3720     51.8913     17.7834
  2587.4000      8.0208      2.5516      0.0356      5.9628     53.1169     18.6049
  2587.5000      8.0143      2.5403      0.0644      6.6475     53.7777     18.5669
  2587.6000      8.0143      2.5358      0.0136      6.9211     53.7160     17.8787
  2587.7000      8.0143      2.5430     -0.0055      6.4838     53.2170     17.5907
  2587.8000      8.0094      2.5482      0.0791      6.1670     51.8648     18.3363
  2587.9000      8.0094      2.5380      0.0364      6.7859     49.5257     19.7117
  2588.0000      8.0055      2.5278      0.0054      7.4052     48.1826     20.6369
  2588.1000      8.0055      2.5384     -0.0165      6.7614     48.6251     20.6990
  2588.2000      8.0055      2.5619      0.0426      5.3392     48.4929     20.2682
  2588.3000      8.0025      2.5783      0.0606      4.3480     47.2380     19.6092
  2588.4000      8.0025      2.5907      0.0141      3.5929     48.2425     18.4971
  2588.5000      8.0150      2.6100      0.0513      2.4251     51.2596     17.3549
  2588.6000      8.0150      2.6317      0.0773      1.1081     52.5047     17.0854
  2588.7000      8.0150      2.6510      0.0559     -0.0631     51.0669     17.7389
  2588.8000      8.0002      2.6579      0.0906     -0.4804     47.7740     18.7024
  2588.9000      8.0002      2.6361      0.1088      0.8396     44.0627     19.3573
  2589.0000      7.9983      2.5998      0.0049      3.0431     41.9359     19.5835
  2589.1000      7.9983      2.5835      0.0088      4.0313     42.5306     19.3585
  2589.2000      7.9983      2.5932      0.0155      3.4439     45.3810     18.7445
  2589.3000      7.9999      2.6071      0.1021      2.6011     47.7232     18.7209
  2589.4000      7.9999      2.6117      0.0639      2.3208     46.3746     19.6329
  2589.5000      7.9928      2.6174      0.0552      1.9776     43.4477     19.9827
  2589.6000      7.9928      2.6286      0.0478      1.2972     42.2334     18.9986
  2589.7000      7.9928      2.6312      0.0623      1.1365     42.4434     18.2393
  2589.8000      8.0005      2.6225      0.0503      1.6647     42.3869     18.8541
  2589.9000      8.0005      2.6140      0.0789      2.1821     40.9069     19.8417
  2590.0000      7.9907      2.6070      0.0786      2.6031     39.7518     20.2623
  2590.1000      7.9907      2.5952      0.0516      3.3229     41.0862     20.0462
  2590.2000      7.9907      2.5813      0.0409      4.1622     42.6921     19.5035
  2590.3000      7.9864      2.5760      0.0638      4.4868     41.9087     19.7377
  2590.4000      7.9864      2.5857      0.0236      3.8987     40.4452     21.0747
  2590.5000      7.9874      2.6032      0.0453      2.8371     40.1550     22.0167
  2590.6000      7.9874      2.6108      0.0303      2.3731     40.3735     21.3152
  2590.7000      7.9874      2.6051      0.0774      2.7228     40.3330     19.5442
