~Version Information
VERS.                      2.0: CWLS Log ASCII Standard - VERSION 2.0
WRAP.                       NO: One line per depth step
~Well Information Block
STRT.FT               770.0000: 
STOP.FT              1718.7000: 
STEP.FT                 0.1000: 
NULL.                -999.2500: 
COMP.          Pioneer Natural Resources: COMPANY
WELL.            Salty 42-6 Tr: WELL
FLD.           Purgatoire River: FIELD
LOC.           2409' FNL & 599' FEL: LOCATION
PROV.                 Colorado: PROVINCE
CNTY.               Las Animas: COUNTRY
SRVC.                Patterson: SERVICE COMPANY
DATE.          Thu Dec 16 09:30:36 2004: LOG DATE
UWI.           05 071 08238 00: UNIQUE WELL ID
~Curve Information Block
DEPT.FT            0 000 00 00: Depth
DCAL.in                       : CDL Caliper
RHOB.g/cc                     : CDL Bulk Density
RHOC.g/cc                     : CDL Density Correction
DPOR.pu                       : CDL Density Porosity
NPOR.pu                       : Neutron Porosity
GR.GAPI                       : Gamma Ray
~Parameter Information Block
~A  Depth       DCAL        RHOB        RHOC        DPOR        NPOR         GR     
   770.0000      8.0680      2.5163     -0.1902      8.1013     40.8905     83.1970
   770.1000      8.0680      2.5332     -0.1762      7.0787     40.9748     83.7100
   770.2000      8.0680      2.5695     -0.2111      4.8758     41.0591     83.0235
   770.3000      8.0679      2.6098     -0.1410      2.4357     40.9358     79.1158
   770.4000      8.0679      2.6229     -0.1409      1.6426     40.6010     74.4117
   770.5000      8.0668      2.6002     -0.1586      3.0193     40.2508     71.8489
   770.6000      8.0668      2.5696     -0.1708      4.8729     40.0868     70.8908
   770.7000      8.0668      2.5548     -0.1858      5.7719     40.1600     70.3388
   770.8000      8.0673      2.5554     -0.1954      5.7327     40.3676     70.1809
   770.9000      8.0673      2.5571     -0.1313      5.6305     40.5666     71.6916
   771.0000      8.0707      2.5533     -0.1990      5.8592     40.5806     74.0138
   771.1000      8.0707      2.5587     -0.1929      5.5334     40.2801     74.9822
   771.2000      8.0707      2.5690     -0.1371      4.9117     39.6693     73.7755
   771.3000      8.0725      2.5573     -0.2094      5.6160     38.9692     70.9002
   771.4000      8.0725      2.5277     -0.2221      7.4121     38.5429     67.7671
   771.5000      8.0715      2.5087     -0.2520      8.5646     38.7129     64.6898
   771.6000      8.0715      2.5058     -0.2020      8.7407     39.5402     63.7151
   771.7000      8.0715      2.5131     -0.2736      8.2961     40.5547     66.6214
   771.8000      8.0711      2.5348     -0.2216      6.9789     41.2087     68.3917
   771.9000      8.0711      2.5595     -0.2094      5.4863     41.4057     64.5552
   772.0000      8.0717      2.5604     -0.1573      5.4328     41.3144     60.6658
   772.1000      8.0717      2.5339     -0.2007      7.0340     41.2243     64.2711
   772.2000      8.0717      2.5142     -0.1858      8.2295     41.4895     73.2118
   772.3000      8.0727      2.5349     -0.1916      6.9745     42.0061     80.1301
   772.4000      8.0727      2.5928     -0.1086      3.4686     42.3451     81.6061
   772.5000      8.0733      2.6472     -0.0581      0.1704     42.4675     78.5863
   772.6000      8.0733      2.6647     -0.1235     -0.8915     42.4915     75.6862
   772.7000      8.0733      2.6597     -0.1477     -0.5870     42.4242     77.9977
   772.8000      8.0715      2.6595     -0.1551     -0.5751     42.2933     83.6335
   772.9000      8.0715      2.6613     -0.1417     -0.6849     42.1568     87.1041
   773.0000      8.0698      2.6497     -0.1103      0.0161     42.0028     87.5896
   773.1000      8.0698      2.6243     -0.1712      1.5577     41.6996     86.3439
   773.2000      8.0698      2.6031     -0.2101      2.8435     41.3176     82.9315
   773.3000      8.0683      2.6042     -0.2098      2.7743     41.2899     76.6254
   773.4000      8.0683      2.6247     -0.1405      1.5314     41.7248     70.3064
   773.5000      8.0681      2.6424     -0.1506      0.4591     42.1186     67.5612
   773.6000      8.0681      2.6374     -0.1281      0.7660     42.3133     67.4886
   773.7000      8.0681      2.6122     -0.2285      2.2910     42.5704     69.6584
   773.8000      8.0706      2.5928     -0.1877      3.4643     42.6568     74.2829
   773.9000      8.0706      2.5863     -0.1612      3.8592     42.1892     76.9625
   774.0000      8.0736      2.5790     -0.1802      4.3036     41.4812     76.0524
   774.1000      8.0736      2.5734     -0.2234      4.6415     41.1264     74.8619
   774.2000      8.0736      2.5684     -0.1704      4.9442     41.1044     74.8430
   774.3000      8.0766      2.5496     -0.2116      6.0842     41.2960     78.4008
   774.4000      8.0766      2.5196     -0.2613      7.9012     41.7594     86.3137
   774.5000      8.0779      2.4902     -0.2163      9.6828     42.2340     92.2142
   774.6000      8.0779      2.4692     -0.2843     10.9597     42.4521     92.1300
   774.7000      8.0779      2.4664     -0.2677     11.1257     42.4154     89.1795
   774.8000      8.0747      2.4860     -0.2433      9.9401     42.1376     87.0572
   774.9000      8.0747      2.5124     -0.1826      8.3406     41.5609     86.3195
   775.0000      8.0727      2.5280     -0.2155      7.3932     41.0139     85.5742
   775.1000      8.0727      2.5318     -0.1857      7.1640     40.9541     83.9225
   775.2000      8.0727      2.5250     -0.2164      7.5752     41.2778     83.1826
   775.3000      8.0726      2.5130     -0.2366      8.3040     41.5714     83.7617
   775.4000      8.0726      2.5134     -0.3032      8.2788     41.6126     83.0105
   775.5000      8.0714      2.5284     -0.2082      7.3719     41.3503     80.2298
   775.6000      8.0714      2.5353     -0.2009      6.9496     40.9035     76.1358
   775.7000      8.0714      2.5267     -0.2542      7.4698     40.4577     72.4119
   775.8000      8.0684      2.5106     -0.2130      8.4500     40.1344     71.2745
   775.9000      8.0684      2.4940     -0.2383      9.4549     39.9375     72.1922
   776.0000      8.0672      2.4958     -0.2890      9.3433     39.7324     73.2031
   776.1000      8.0672      2.5367     -0.2585      6.8685     39.5248     73.0755
   776.2000      8.0672      2.6043     -0.1630      2.7719     39.6073     72.0051
   776.3000      8.0701      2.6527     -0.1019     -0.1607     39.8998     71.7026
   776.4000      8.0701      2.6654     -0.2078     -0.9328     39.8641     73.1707
   776.5000      8.0727      2.6673     -0.1293     -1.0471     39.3512     74.6740
   776.6000      8.0727      2.6588     -0.1891     -0.5338     38.7620     74.4354
   776.7000      8.0727      2.6287     -0.1835      1.2934     38.5523     72.9046
   776.8000      8.0743      2.5943     -0.2129      3.3747     38.5329     69.0642
   776.9000      8.0743      2.5811     -0.2029      4.1733     38.2172     61.3930
   777.0000      8.0745      2.5874     -0.2349      3.7932     37.6874     51.6310
   777.1000      8.0745      2.5959     -0.2105      3.2775     37.3496     44.5985
   777.2000      8.0745      2.6038     -0.1668      2.8015     37.2827     42.5624
   777.3000      8.0735      2.6124     -0.1814      2.2783     37.2803     42.7900
   777.4000      8.0735      2.6059     -0.1835      2.6717     37.3543     42.4187
   777.5000      8.0735      2.5806     -0.2379      4.2053     37.4583     41.8718
   777.6000      8.0735      2.5639     -0.2590      5.2196     37.3310     43.0116
   777.7000      8.0735      2.5704     -0.1999      4.8266     36.9494     46.1258
   777.8000      8.0736      2.5799     -0.1773      4.2469     36.6250     49.2072
   777.9000      8.0736      2.5722     -0.1687      4.7168     36.6188     50.4561
   778.0000      8.0727      2.5460     -0.1781      6.3031     36.6574     48.1259
   778.1000      8.0727      2.5163     -0.2254      8.1040     36.4615     42.1625
   778.2000      8.0727      2.5140     -0.2851      8.2401     36.3322     37.0063
   778.3000      8.0718      2.5491     -0.2249      6.1123     36.5048     35.9952
   778.4000      8.0718      2.5884     -0.1940      3.7327     36.6834     38.5959
   778.5000      8.0724      2.6099     -0.1741      2.4317     36.6806     42.1089
   778.6000      8.0724      2.6278     -0.1941      1.3468     36.6753     43.3998
   778.7000      8.0724      2.6453     -0.1575      0.2872     36.7371     43.1448
   778.8000      8.0741      2.6418     -0.1622      0.4982     36.9422     43.6569
   778.9000      8.0741      2.6145     -0.2097      2.1488     37.1611     44.3372
   779.0000      8.0748      2.5841     -0.2624      3.9910     37.0012     43.3377
   779.1000      8.0748      2.5692     -0.2933      4.8997     36.7226     40.0879
   779.2000      8.0748      2.5832     -0.2827      4.0495     36.8626     37.0614
   779.3000      8.0742      2.6188     -0.2514      1.8894     37.1958     37.3647
   779.4000      8.0742      2.6342     -0.1645      0.9593     37.2810     40.3966
   779.5000      8.0719      2.6114     -0.2432      2.3422     37.3182     43.4783
