~Version Information
 VERS.                                  2.0 : CWLS LAS VERSION
 WRAP.                                   NO : WRAPING MODE
 SWARE .                 MController 2.5.0J : SOFTWARE VERSION
~Well Information
 WELL.                       Vision 31-11Tr : WELL
 COMP.    Pioneer Natural Resources USA Inc : COMPANY
 FLD.                      Purgatoire River : FIELD
 LOC.                 NW/NE SEC11 T32S R66W : LOCATION
 DATE.                             10/07/05 : DATE(S) LOGGED
 SRVC.       Blanco Geological Services LLC : SERVICE COMPANY
 STAT.                             Colorado : STATE
 CNTY.                           Las Animas : COUNTY
 CTRY.                                  USA : COUNTRY
 API.                       05-071-08305-00 : API NUMBER
 STRT.FT                             408.00 : START DEPTH
 STOP.FT                            1824.00 : STOP DEPTH
 STEP.FT                               1.00 : DEPTH INCREMENT
 NULL.                                -9999 : NULL VALUE
~Curve information
 DEPTH.FT                                   :
 ROP.MIN/FT                                 :
 GAS.UNITS                                  :
~ASCII Log data
# ...
      1008.0         0.17         64.0 
      1009.0         0.13         64.0 
      1010.0         0.20         64.0 
      1011.0         0.27         62.6 
      1012.0         0.30         61.6 
      1013.0         0.25         60.5 
      1014.0         0.27         59.0 
      1015.0         0.23         58.8 
      1016.0         3.18        239.0 
      1017.0         0.27        205.7 
      1018.0         0.33        200.1 
      1019.0         0.33        153.9 
      1020.0         0.37        130.8 
      1021.0         0.40        116.8 
      1022.0         0.27        103.1 
      1023.0         0.30         91.8 
      1024.0         0.27         82.3 
      1025.0         0.27         74.1 
      1026.0         0.25         73.9 
      1027.0         0.27         70.8 
      1028.0         0.27         69.7 
      1029.0         0.17         66.5 
      1030.0         0.20         66.5 
      1031.0         0.17         65.2 
      1032.0         0.13         64.2 
      1033.0         0.27         64.0 
      1034.0         0.27         63.6 
      1035.0         0.30         63.9 
      1036.0         0.23         63.4 
      1037.0         0.13         63.6 
      1038.0         0.17         63.5 
      1039.0         0.30         63.5 
      1040.0         0.27         64.0 
      1041.0         0.28         64.2 
      1042.0         0.27         63.2 
      1043.0         0.30         62.5 
      1044.0         0.30         62.5 
      1045.0         0.37         59.5 
      1046.0         2.98        196.2 
      1047.0         0.37        171.2 
      1048.0         0.33        139.6 
      1049.0         0.33        125.1 
      1050.0         0.40        111.8 
      1051.0         0.33         94.9 
      1052.0         0.33         86.7 
      1053.0         0.32         80.6 
      1054.0         0.30         72.4 
      1055.0         0.33         72.1 
      1056.0         0.30         69.2 
      1057.0         0.33         67.1 
      1058.0         0.33         65.1 
      1059.0         0.27         63.7 
      1060.0         0.30         63.0 
      1061.0         0.27         63.2 
      1062.0         0.30         62.8 
      1063.0         0.30         62.7 
      1064.0         0.28         62.5 
      1065.0         0.27         62.8 
      1066.0         0.33         62.7 
      1067.0         0.30         62.3 
      1068.0         0.33         62.0 
      1069.0         0.30         61.7 
      1070.0         0.27         62.3 
      1071.0         0.30         64.1 
      1072.0         0.37         63.6 
      1073.0         0.33         63.7 
      1074.0         0.27         63.4 
      1075.0         0.22         62.0 
      1076.0         2.63        187.7 
      1077.0         0.47        211.1 
      1078.0         0.35        207.9 
      1079.0         0.33        178.8 
      1080.0         0.30        160.0 
      1081.0         0.27        124.5 
      1082.0         0.33        108.9 
      1083.0         0.33         96.5 
      1084.0         0.30         87.4 
      1085.0         0.27         80.6 
      1086.0         0.13         78.4 
      1087.0         0.20         76.4 
      1088.0         0.30         72.9 
      1089.0         0.27         70.1 
      1090.0         0.42         66.6 
      1091.0         0.23         66.0 
      1092.0         0.27         65.7 
      1093.0         0.23         65.3 
      1094.0         0.27         65.4 
      1095.0         0.30         65.1 
      1096.0         0.27         64.7 
      1097.0         0.27         64.7 
      1098.0         0.27         64.6 
      1099.0         0.17         65.6 
      1100.0         0.17         65.4 
      1101.0         0.23         65.0 
      1102.0         0.27         64.3 
      1103.0         0.28         62.9 
      1104.0         0.20         63.0 
      1105.0         0.43         59.5 
      1106.0         0.93         68.9 
      1107.0         0.13         68.9 
      1108.0         0.13         74.4 
      1109.0         0.30         89.9 
      1110.0         0.33        103.3 
      1111.0         0.27         99.6 
      1112.0         0.23         91.9 
      1113.0         0.28         85.9 
      1114.0         0.27         85.2 
      1115.0         0.33         78.2 
      1116.0         0.30         77.2 
      1117.0         0.23         74.8 
      1118.0         0.27         73.4 
      1119.0         0.23         71.9 
      1120.0         0.27         70.2 
      1121.0         0.23         69.1 
      1122.0         0.27         68.7 
      1123.0         0.23         66.7 
      1124.0         0.23         66.1 
      1125.0         0.23         65.6 
      1126.0         0.28         65.4 
      1127.0         0.23         64.9 
      1128.0         0.23         65.7 
      1129.0         0.27         66.7 
      1130.0         0.23         64.7 
      1131.0         0.27         62.2 
      1132.0         0.17         62.2 
      1133.0         0.17         61.8 
      1134.0         0.13         59.2 
      1135.0         0.17         56.1 
      1136.0         1.58         54.9 
      1137.0         0.77         98.8 
      1138.0         0.23        106.2 
      1139.0         0.27        115.3 
      1140.0         0.33        111.0 
      1141.0         0.23        110.3 
      1142.0         0.17         99.2 
      1143.0         0.10         93.2 
      1144.0         0.37         89.0 
      1145.0         0.27         82.7 
      1146.0         0.33         82.7 
      1147.0         0.38         81.1 
      1148.0         0.30         77.0 
      1149.0         0.23         74.8 
      1150.0         0.23         71.6 
      1151.0         0.33         71.4 
      1152.0         0.30         67.8 
      1153.0         0.30         66.4 
      1154.0         0.27         66.6 
      1155.0         0.30         66.7 
      1156.0         0.27         66.9 
      1157.0         0.30         66.6 
      1158.0         0.28         67.1 
      1159.0         0.27         67.4 
      1160.0         0.27         65.1 
      1161.0         0.27         64.7 
      1162.0         0.23         63.2 
      1163.0         0.20         61.6 
      1164.0         0.50         61.4 
      1165.0         0.43         59.6 
      1166.0         0.90        115.2 
      1167.0         0.35        132.2 
      1168.0         0.27        134.4 
      1169.0         0.27        130.0 
      1170.0         0.23        121.2 
      1171.0         0.20        114.1 
      1172.0         0.27        102.7 
      1173.0         0.27        102.4 
      1174.0         0.27         95.1 
      1175.0         0.27         93.1 
      1176.0         0.27         92.2 
      1177.0         0.23         88.5 
      1178.0         0.23         88.5 
      1179.0         0.27         83.9 
      1180.0         0.28         82.8 
      1181.0         0.23         79.5 
      1182.0         0.27         77.7 
      1183.0         0.27         77.5 
      1184.0         0.27         75.1 
      1185.0         0.30         74.3 
      1186.0         0.20         72.8 
      1187.0         0.23         72.8 
      1188.0         0.20         71.5 
      1189.0         0.13         67.8 
      1190.0         0.10         67.8 
      1191.0         0.13         67.1 
      1192.0         0.17         66.4 
      1193.0         0.20         67.2 
      1194.0         0.27         64.8 
      1195.0         0.13         64.8 
      1196.0         1.25         78.5 
      1197.0         0.60        123.8 
      1198.0         0.33        130.4 
      1199.0         0.30        130.4 
      1200.0         0.27        121.6 
      1201.0         0.27        110.9 
      1202.0         0.23         99.4 
      1203.0         0.28         95.4 
      1204.0         0.30         89.2 
      1205.0         0.30         88.6 
      1206.0         0.30         85.8 
      1207.0         0.33         81.4 
