~Version Information
VERS.                      2.0: CWLS Log ASCII Standard - VERSION 2.0
WRAP.                       NO: One line per depth step
~Well Information Block
STRT.FT                -3.0000: 
STOP.FT              1679.2500: 
STEP.FT                 0.2500: 
NULL.                -999.2500: 
COMP.          Evergreen Operating Corp.: COMPANY
WELL.            Rimrock 14-29: WELL
FLD.           Purgatorie River: FIELD
LOC.           945' FSL & 604' FWL--: LOCATION
PROV.                       CO: PROVINCE
CNTY.               Las Animas: COUNTRY
SRVC.                         : SERVICE COMPANY
DATE.          Mon Oct 04 13:02:21 2004: LOG DATE
UWI.           05 071 08136 00: UNIQUE WELL ID
~Curve Information Block
DEPT.FT            0 000 00 00: Depth
GR.GAPI                       : Gamma Ray
CCL.                          : Casing Collar Locator
TT3.usec                      : CBL 3' Travel Time
AMP3.mV                       : CBL 3' Amplitude
~Parameter Information Block
~A  Depth        GR         CCL         TT3         AMP3    
# ...
    97.5000     93.7646      0.0000    758.2435      7.8440
    97.7500     91.8655      0.0000    786.4644      7.9736
    98.0000     89.7044      0.0000    810.4557      8.0846
    98.2500     87.5576      0.0000    826.5782      8.1835
    98.5000     85.2070      0.0000    834.7122      8.2752
    98.7500     82.4883      0.0000    837.8281      8.3611
    99.0000     79.7797      0.0000    840.8263      8.4375
    99.2500     77.5388      0.0000    848.6829      8.4979
    99.5000     75.7134      0.0000    862.7382      8.5405
    99.7500     74.1739      0.0000    878.6193      8.5708
   100.0000     73.5215      0.0000    889.7802      8.5900
   100.2500     74.8367      0.0000    891.8014      8.5902
   100.5000     78.4697      0.0000    881.4183      8.5610
   100.7500     83.4386      0.0000    854.8757      8.4990
   101.0000     88.1328      0.0000    812.2140      8.4117
   101.2500     91.4372      0.0000    762.3328      8.3150
   101.5000     93.1311      0.0000    719.3027      8.2238
   101.7500     93.5478      0.0000    692.6870      8.1484
   102.0000     93.3496      0.0000    683.1387      8.1087
   102.2500     93.5702      0.0000    687.2609      8.1384
   102.5000     95.2193      0.0000    704.1035      8.2588
   102.7500     98.3228      0.0000    735.1672      8.4532
   103.0000    101.3775      0.0000    778.6714      8.6787
   103.2500    102.1185      0.0000    825.7972      8.8970
   103.5000     99.2584      0.0000    864.2997      9.0930
   103.7500     93.7552      0.0000    885.8152      9.2748
   104.0000     88.3025      0.0000    889.5090      9.4589
   104.2500     85.3714      0.0000    880.6405      9.6543
   104.5000     85.6360      0.0000    868.2536      9.8616
   104.7500     88.0155      0.0000    862.3246     10.0826
   105.0000     90.6426      0.0000    867.5759     10.3201
   105.2500     91.7107      0.0000    878.1902     10.5652
   105.5000     90.1276      0.0000    882.4911     10.7925
   105.7500     86.0139      0.0000    874.8914     10.9694
   106.0000     80.5497      0.0000    860.1635     11.0757
   106.2500     75.1198      0.0000    845.3693     11.1203
   106.5000     70.5738      0.0000    832.3585     11.1365
   106.7500     67.2624      0.0000    819.7173     11.1556
   107.0000     65.5207      0.0000    807.4751     11.1896
   107.2500     65.8117      0.0000    797.1024     11.2343
   107.5000     68.4678      0.0000    789.0262     11.2818
   107.7500     73.3612      0.0000    782.3329     11.3283
   108.0000     79.5754      0.0000    776.3842     11.3752
   108.2500     85.2544      0.0000    771.4410     11.4198
   108.5000     88.2375      0.0000    767.7838     11.4474
   108.7500     87.4802      0.0000    764.8784     11.4393
   109.0000     83.8447      0.0000    761.5850     11.3904
   109.2500     79.1676      0.0000    757.0910     11.3162
   109.5000     74.7789      0.0000    751.8356     11.2444
   109.7500     71.2334      0.0000    747.4238     11.1973
   110.0000     68.9284      0.0000    745.1917     11.1797
   110.2500     68.2775      0.0000    744.8967     11.1798
   110.5000     69.5116      0.0000    745.5185     11.1816
   110.7500     72.7085      0.0000    747.3479     11.1717
   111.0000     77.6589      0.0000    752.6445     11.1370
   111.2500     83.4865      0.0000    764.2920     11.0660
   111.5000     88.9546      0.0000    783.4017     10.9565
   111.7500     93.4009      0.0000    806.3102     10.8229
   112.0000     96.8845      0.0000    823.5424     10.6931
   112.2500     99.3086      0.0000    825.2119     10.5949
   112.5000    100.0003      0.0000    809.9800     10.5382
   112.7500     98.4147      0.0000    786.7708     10.5074
   113.0000     94.8919      0.0000    766.5354     10.4679
   113.2500     90.5594      0.0000    754.9395     10.3853
   113.5000     86.6070      0.0000    753.0294     10.2459
   113.7500     83.6239      0.0000    760.1089     10.0616
   114.0000     81.4422      0.0000    772.7318      9.8551
   114.2500     79.5585      0.0000    783.4283      9.6464
   114.5000     77.7019      0.0000    784.1641      9.4509
   114.7500     75.8643      0.0000    771.8523      9.2802
   115.0000     73.9725      0.0000    750.6589      9.1391
   115.2500     72.1166      0.0000    729.7279      9.0196
   115.5000     71.2329      0.0000    718.4089      8.9016
   115.7500     72.8965      0.0000    721.6920      8.7635
   116.0000     77.9918      0.0000    736.9706      8.6028
   116.2500     85.7629      0.0000    753.2769      8.4446
   116.5000     94.2251      0.0000    756.5757      8.3266
   116.7500    101.3161      0.0000    740.5404      8.2705
   117.0000    105.7206      0.0000    712.3802      8.2656
   117.2500    106.9813      0.0000    686.1190      8.2840
   117.5000    105.2276      0.0000    670.9904      8.3075
   117.7500    101.0931      0.0000    667.0859      8.3352
   118.0000     95.8576      0.0000    669.2065      8.3693
   118.2500     91.1609      0.0000    672.2169      8.4017
   118.5000     88.1641      0.0000    673.2051      8.4148
   118.7500     87.0715      0.0000    670.4965      8.3928
   119.0000     87.5131      0.0000    662.1951      8.3339
   119.2500     89.1264      0.0000    646.4477      8.2502
   119.5000     91.6453      0.0000    623.7343      8.1562
   119.7500     94.5887      0.0000    599.3611      8.0583
   120.0000     97.1944      0.0000    582.8245      7.9604
   120.2500     98.9259      0.0000    581.9580      7.8742
   120.5000     99.9275      0.0000    596.4222      7.8140
   120.7500    100.5678      0.0000    618.1655      7.7822
   121.0000    100.6339      0.0000    638.4728      7.7676
   121.2500     99.5157      0.0000    653.3491      7.7569
   121.5000     97.2170      0.0000    662.9229      7.7475
   121.7500     94.5975      0.0000    668.2625      7.7489
   122.0000     92.5708      0.0000    669.7151      7.7737
   122.2500     91.5983      0.0000    667.3929      7.8263
   122.5000     91.9317      0.0000    662.2925      7.8982
   122.7500     93.7098      0.0000    656.4086      7.9732
   123.0000     96.5647      0.0000    651.6006      8.0364
   123.2500     99.4308      0.0000    648.5931      8.0811
   123.5000    101.1768      0.0000    647.1081      8.1110
   123.7500    101.6132      0.0000    646.5736      8.1334
   124.0000    101.6733      0.0000    646.5655      8.1537
   124.2500    102.3146      0.0000    646.8436      8.1772
   124.5000    103.3389      0.0000    647.3999      8.2162
   124.7500    103.5847      0.0000    648.7110      8.2894
   125.0000    102.3227      0.0000    652.0844      8.4165
   125.2500    100.1317      0.0000    659.5376      8.6103
   125.5000     98.1756      0.0000    672.6707      8.8639
   125.7500     96.7756      0.0000    691.5523      9.1396
   126.0000     95.0775      0.0000    715.4740      9.3812
   126.2500     92.1578      0.0000    744.3097      9.5487
   126.5000     88.0577      0.0000    777.2436      9.6442
   126.7500     83.6671      0.0000    810.2464      9.7026
   127.0000     80.1653      0.0000    837.5724      9.7637
   127.2500     78.8182      0.0000    856.6732      9.8503
   127.5000     80.6562      0.0000    870.5106      9.9627
   127.7500     85.6646      0.0000    884.6627     10.0839
   128.0000     92.4152      0.0000    901.8943     10.1904
   128.2500     98.8349      0.0000    918.7007     10.2639
   128.5000    103.3778      0.0000    927.1157     10.2981
   128.7500    105.5557      0.0000    920.3063     10.2996
   129.0000    105.7708      0.0000    897.8848     10.2861
   129.2500    104.9068      0.0000    867.6831     10.2791
   129.5000    103.8909      0.0000    841.8940     10.2946
   129.7500    103.2933      0.0000    828.8064     10.3363
   130.0000    103.1053      0.0000    826.8420     10.4007
   130.2500    102.7284      0.0000    827.9702     10.4850
   130.5000    101.4185      0.0000    827.7142     10.5840
   130.7500     99.1995      0.0000    830.9736     10.6684
