~Version Information
VERS.                      2.0: CWLS Log ASCII Standard - VERSION 2.0
WRAP.                       NO: One line per depth step
~Well Information Block
STRT.FT               510.0000: 
STOP.FT              1848.7500: 
STEP.FT                 0.2500: 
NULL.                -999.2500: 
COMP.          Pioneer Natural Resources: COMPANY
WELL.           Stampede 42-18: WELL
FLD.           Purgatoire River: FIELD
LOC.           2479' FNL & 160' FEL--: LOCATION
CNTY.               Las Animas: COUNTY
SRVC.          Superior Well Services: SERVICE COMPANY
DATE.          Sat Jun 09 02:07:27 2007: LOG DATE
UWI.           05 071 08237 00: UNIQUE WELL ID
STAT.                 Colorado: STATE
~Curve Information Block
DEPT.FT            0 000 00 00: Depth
SN.Ohm-m                      : IEL Short Normal
SP.mV                         : IEL Spontaneous Potential
DIR.Ohm-m                     : IEL Induction Resistivity
GR.GAPI                       : Gamma Ray
~Parameter Information Block
~A  Depth        SN          SP         DIR          GR     
# ...
  1548.5000     21.8431     93.9459     21.7441    141.6372
  1548.7500     22.1340     94.0755     21.8369    135.7990
  1549.0000     22.5152     94.1609     21.9093    125.0727
  1549.2500     23.0914     94.1932     22.0250    117.3615
  1549.5000     23.9828     94.1668     22.2613    106.2475
  1549.7500     25.2465     94.0771     22.6918     99.5506
  1550.0000     26.8465     93.9208     23.3733     90.8781
  1550.2500     28.6812     93.6998     24.3336     86.2019
  1550.5000     30.6018     93.4235     25.5588     81.1118
  1550.7500     32.4083     93.1081     26.9885     78.8814
  1551.0000     33.8980     92.7719     28.5248     76.4520
  1551.2500     34.9990     92.4327     30.0570     74.8202
  1551.5000     35.8322     92.1092     31.4927     71.7823
  1551.7500     36.5982     91.8200     32.7767     69.5488
  1552.0000     37.4312     91.5750     33.8937     66.6313
  1552.2500     38.3627     91.3662     34.8618     65.1400
  1552.5000     39.3606     91.1685     35.7276     63.1027
  1552.7500     40.3676     90.9519     36.5533     61.5320
  1553.0000     41.3076     90.6917     37.3846     58.9070
  1553.2500     42.0892     90.3689     38.2126     57.3515
  1553.5000     42.6295     89.9684     38.9566     55.7645
  1553.7500     42.8714     89.4854     39.4976     55.0666
  1554.0000     42.7812     88.9381     39.7422     54.0310
  1554.2500     42.3523     88.3735     39.6732     53.3312
  1554.5000     41.6309     87.8598     39.3508     53.0039
  1554.7500     40.7177     87.4678     38.8761     53.8259
  1555.0000     39.7114     87.2441     38.3535     57.0930
  1555.2500     38.6670     87.1878     37.8643     60.4441
  1555.5000     37.6168     87.2465     37.4486     66.1533
  1555.7500     36.5911     87.3378     37.0875     69.5403
  1556.0000     35.6125     87.3829     36.7062     72.6912
  1556.2500     34.7032     87.3333     36.2162     73.1727
  1556.5000     33.8914     87.1781     35.5799     71.7926
  1556.7500     33.1937     86.9386     34.8344     70.0611
  1557.0000     32.5941     86.6580     34.0539     67.4315
  1557.2500     32.0564     86.3861     33.2994     66.1264
  1557.5000     31.5717     86.1642     32.6118     65.0682
  1557.7500     31.1716     86.0166     32.0311     64.9652
  1558.0000     30.8872     85.9546     31.5919     65.8341
  1558.2500     30.7173     85.9847     31.2856     67.0999
  1558.5000     30.6281     86.1088     31.0368     69.4809
  1558.7500     30.5551     86.3160     30.7348     70.8113
  1559.0000     30.4090     86.5780     30.3028     71.6902
  1559.2500     30.1125     86.8561     29.7454     71.5778
  1559.5000     29.6452     87.1121     29.1327     71.1653
  1559.7500     29.0432     87.3143     28.5434     71.3603
  1560.0000     28.3541     87.4374     28.0229     73.4999
  1560.2500     27.5907     87.4622     27.5743     76.8206
  1560.5000     26.7265     87.3778     27.1708     85.2687
  1560.7500     25.7430     87.1830     26.7743     92.8860
  1561.0000     24.6787     86.8914     26.3505    105.5297
  1561.2500     23.6155     86.5340     25.8782    113.4813
  1561.5000     22.6328     86.1572     25.3484    122.7760
  1561.7500     21.8049     85.8130     24.7626    126.3613
  1562.0000     21.2117     85.5458     24.1347    126.7773
  1562.2500     20.9011     85.3799     23.4949    123.5743
  1562.5000     20.8512     85.3119     22.8885    114.5939
  1562.7500     20.9898     85.3149     22.3669    107.2357
  1563.0000     21.2311     85.3590     21.9737    106.1809
  1563.2500     21.4933     85.4307     21.7345    100.4591
  1563.5000     21.7204     85.5354     21.6504     95.0412
  1563.7500     21.9049     85.6794     21.6968     93.0653
  1564.0000     22.0748     85.8548     21.8314     99.3374
  1564.2500     22.2571     86.0417     22.0110     98.5278
  1564.5000     22.4550     86.2238     22.2086     97.4959
  1564.7500     22.6581     86.3995     22.4223     96.8335
  1565.0000     22.8642     86.5803     22.6694     95.8420
  1565.2500     23.0820     86.7825     22.9687     95.1580
  1565.5000     23.3154     87.0230     23.3232     93.8012
  1565.7500     23.5598     87.3188     23.7114     92.4805
  1566.0000     23.8057     87.6839     24.0941     90.2154
  1566.2500     24.0314     88.1227     24.4303     89.1493
  1566.5000     24.1981     88.6227     24.6930     89.1501
  1566.7500     24.2690     89.1569     24.8763     90.3074
  1567.0000     24.2447     89.6946     24.9908     93.4084
  1567.2500     24.1703     90.2107     25.0492     96.0363
  1567.5000     24.0927     90.6847     25.0501     99.7144
  1567.7500     24.0137     91.0939     24.9775    101.0372
  1568.0000     23.8983     91.4153     24.8234    100.1527
  1568.2500     23.7183     91.6360     24.6132     97.8797
  1568.5000     23.4734     91.7617     24.4020     93.7513
  1568.7500     23.1801     91.8112     24.2350     91.5712
  1569.0000     22.8663     91.8018     24.1070     89.7018
  1569.2500     22.5745     91.7402     23.9617     89.0518
  1569.5000     22.3498     91.6267     23.7363     88.5249
  1569.7500     22.1986     91.4668     23.4179     88.8803
  1570.0000     22.0697     91.2770     23.0574     91.9913
  1570.2500     21.8971     91.0784     22.7338     96.2479
  1570.5000     21.6354     90.8874     22.5040    104.6820
  1570.7500     21.2734     90.7110     22.3797    110.0735
  1571.0000     20.8583     90.5499     22.3313    115.4585
  1571.2500     20.4767     90.3996     22.3054    116.8895
  1571.5000     20.2007     90.2479     22.2455    116.8069
  1571.7500     20.0757     90.0737     22.1144    116.1200
  1572.0000     20.1150     89.8518     21.9090    114.9827
  1572.2500     20.2651     89.5609     21.6575    114.2187
  1572.5000     20.4187     89.1908     21.3954    113.1045
  1572.7500     20.4945     88.7463     21.1423    112.6491
  1573.0000     20.4803     88.2488     20.8957    112.9592
  1573.2500     20.3927     87.7329     20.6425    113.7953
  1573.5000     20.2391     87.2374     20.3727    115.0943
  1573.7500     20.0259     86.7903     20.0827    115.3410
  1574.0000     19.7732     86.3939     19.7746    114.4142
  1574.2500     19.5194     86.0215     19.4588    113.2843
  1574.5000     19.3099     85.6275     19.1577    111.5768
  1574.7500     19.1679     85.1671     18.8994    110.4018
  1575.0000     19.0988     84.6123     18.7055    107.8587
  1575.2500     19.1182     83.9591     18.5819    105.3466
  1575.5000     19.2374     83.2269     18.5204    100.4161
  1575.7500     19.4247     82.4499     18.5085     96.4839
  1576.0000     19.6165     81.6639     18.5384     89.9288
  1576.2500     19.7690     80.8962     18.6118     85.5676
  1576.5000     19.8812     80.1638     18.7350     80.0441
  1576.7500     19.9749     79.4773     18.9078     77.3495
  1577.0000     20.0712     78.8432     19.1164     74.7129
  1577.2500     20.1887     78.2639     19.3393     73.9191
  1577.5000     20.3411     77.7353     19.5636     74.6491
  1577.7500     20.5312     77.2488     19.7973     76.5094
  1578.0000     20.7505     76.7990     20.0632     80.5040
  1578.2500     20.9827     76.3913     20.3807     83.1076
  1578.5000     21.2033     76.0420     20.7524     85.7115
  1578.7500     21.3933     75.7694     21.1617     86.2031
  1579.0000     21.5722     75.5837     21.5814     84.8302
  1579.2500     21.8072     75.4841     21.9867     82.6499
  1579.5000     22.1751     75.4600     22.3659     78.5442
  1579.7500     22.7052     75.4928     22.7246     76.1601
  1580.0000     23.3514     75.5569     23.0788     73.9412
  1580.2500     24.0219     75.6228     23.4419     73.0211
  1580.5000     24.6335     75.6630     23.8144     71.2839
  1580.7500     25.1372     75.6560     24.1837     69.6145
  1581.0000     25.5176     75.5859     24.5314     67.1793
  1581.2500     25.7906     75.4411     24.8411     66.5768
  1581.5000     25.9893     75.2173     25.1013     68.5493
  1581.7500     26.1458     74.9223     25.3018     71.6603
