~Version Information
VERS.                      2.0: CWLS Log ASCII Standard - VERSION 2.0
WRAP.                       NO: One line per depth step
~Well Information Block
STRT.FT               430.0000: 
STOP.FT              2417.0000: 
STEP.FT                 0.2500: 
NULL.                -999.2500: 
COMP.          Evergreen Operating Corporation: COMPANY
WELL.          McCullough 34-32: WELL
FLD.           Purgatorie River: FIELD
LOC.           261' FSL & 2098' FEL: LOCATION
PROV.                 Colorado: PROVINCE
CNTY.               Las Animas: COUNTRY
SRVC.                Patterson: SERVICE COMPANY
DATE.          Sun May 16 02:33:07 2004: LOG DATE
UWI.           05 071 07953 00: UNIQUE WELL ID
~Curve Information Block
DEPT.FT            0 000 00 00: Depth
SN.Ohm-m                      : IEL Short Normal
SP.mV                         : IEL Spontaneous Potential
DIR.Ohm-m                     : IEL Induction Resistivity
GR.GAPI                       : Gamma Ray
~Parameter Information Block
~A  Depth        SN          SP         DIR          GR     
# ...
  1468.5000     29.1224    124.9432     21.5613    122.5705
  1468.7500     27.1776    125.1492     20.5261    125.5716
  1469.0000     25.3515    125.3511     19.4675    132.6147
  1469.2500     23.6025    125.5492     18.4360    138.4078
  1469.5000     21.8265    125.7425     17.4815    146.1347
  1469.7500     20.0401    125.9297     16.6431    149.3678
  1470.0000     18.4574    126.1068     15.9409    151.3585
  1470.2500     17.3159    126.2626     15.3712    151.7557
  1470.5000     16.6823    126.3771     14.9082    152.3545
  1470.7500     16.4885    126.4263     14.5122    152.9460
  1471.0000     16.6508    126.3985     14.1430    153.9314
  1471.2500     17.0514    126.3037     13.7694    154.4378
  1471.5000     17.4909    126.1659     13.3757    154.1549
  1471.7500     17.7604    126.0068     12.9618    152.6841
  1472.0000     17.7534    125.8406     12.5417    148.3184
  1472.2500     17.4949    125.6842     12.1402    144.5538
  1472.5000     17.0903    125.5634     11.7858    139.3116
  1472.7500     16.6658    125.5074     11.5037    136.9830
  1473.0000     16.3269    125.5341     11.3092    136.2013
  1473.2500     16.1143    125.6368     11.2040    137.7219
  1473.5000     15.9797    125.7804     11.1737    142.7221
  1473.7500     15.8370    125.9081     11.1893    146.9879
  1474.0000     15.6418    125.9613     11.2137    152.4494
  1474.2500     15.3962    125.9048     11.2150    154.4038
  1474.5000     15.0855    125.7430     11.1779    154.4954
  1474.7500     14.6528    125.5171     11.1045    153.1205
  1475.0000     14.0700    125.2829     11.0047    150.0714
  1475.2500     13.4229    125.0824     10.8881    148.2184
  1475.5000     12.8576    124.9238     10.7625    146.8652
  1475.7500     12.4310    124.7875     10.6366    146.6538
  1476.0000     12.0723    124.6573     10.5211    144.9129
  1476.2500     11.6643    124.5555     10.4272    141.2953
  1476.5000     11.1300    124.5538     10.3648    132.1749
  1476.7500     10.5378    124.7463     10.3418    125.2715
  1477.0000     10.1685    125.1961     10.3640    116.8401
  1477.2500     10.3514    125.8868     10.4346    113.3287
  1477.5000     11.1689    126.7197     10.5526    110.8983
  1477.7500     12.3832    127.5625     10.7124    110.5722
  1478.0000     13.6513    128.3087     10.9028    110.8060
  1478.2500     14.7412    128.9019     11.1074    110.6344
  1478.5000     15.5631    129.3236     11.3075    108.8614
  1478.7500     16.0981    129.5730     11.4869    106.7041
  1479.0000     16.3645    129.6598     11.6389    103.0366
  1479.2500     16.4259    129.6030     11.7711    100.9072
  1479.5000     16.3739    129.4327     11.9058     98.5091
  1479.7500     16.3127    129.1880     12.0745     97.3461
  1480.0000     16.3739    128.9113     12.3080     95.9899
  1480.2500     16.6889    128.6398     12.6261     95.1467
  1480.5000     17.3145    128.3999     13.0300     93.6740
  1480.7500     18.1463    128.2019     13.4995     92.5288
  1481.0000     18.9071    128.0384     13.9956     90.7670
  1481.2500     19.3823    127.8905     14.4710     89.7486
  1481.5000     19.6268    127.7417     14.8864     88.8935
  1481.7500     19.7361    127.5846     15.2251     89.1444
  1482.0000     19.6484    127.4190     15.4937     91.5666
  1482.2500     19.3634    127.2484     15.7118     94.9089
  1482.5000     19.0541    127.0753     15.8997    102.1936
  1482.7500     18.8813    126.8953     16.0716    107.6956
  1483.0000     18.8802    126.6984     16.2319    115.1375
  1483.2500     18.9888    126.4795     16.3750    118.9460
  1483.5000     19.1104    126.2467     16.4858    122.6937
  1483.7500     19.2009    126.0151     16.5417    123.8774
  1484.0000     19.3077    125.7918     16.5188    123.6917
  1484.2500     19.4866    125.5684     16.4032    122.4477
  1484.5000     19.7214    125.3302     16.2039    119.4994
  1484.7500     19.9601    125.0755     15.9538    117.0770
  1485.0000     20.1809    124.8247     15.6912    113.1259
  1485.2500     20.3934    124.6115     15.4356    110.7449
  1485.5000     20.5916    124.4650     15.1778    108.6663
  1485.7500     20.7113    124.3983     14.8932    108.6533
  1486.0000     20.6399    124.4060     14.5645    110.5592
  1486.2500     20.2804    124.4689     14.1949    112.8900
  1486.5000     19.6179    124.5607     13.8036    117.9203
  1486.7500     18.7277    124.6548     13.4141    122.4100
  1487.0000     17.7216    124.7291     13.0456    130.7702
  1487.2500     16.7065    124.7685     12.7124    136.9674
  1487.5000     15.7837    124.7682     12.4283    145.7241
  1487.7500     15.0502    124.7335     12.2088    150.2915
  1488.0000     14.5833    124.6731     12.0702    154.4333
  1488.2500     14.4190    124.5887     12.0229    155.4947
  1488.5000     14.5519    124.4728     12.0655    155.1732
  1488.7500     14.9283    124.3182     12.1863    153.9616
  1489.0000     15.4004    124.1263     12.3731    150.6309
  1489.2500     15.7558    123.9079     12.6275    147.1181
  1489.5000     15.8953    123.6766     12.9700    139.4716
  1489.7500     15.9862    123.4434     13.4339    132.8707
  1490.0000     16.4698    123.2156     14.0498    121.4125
  1490.2500     17.9609    122.9949     14.8327    113.2673
  1490.5000     21.0107    122.7667     15.7778    101.3926
  1490.7500     25.7311    122.4868     16.8659     94.5104
  1491.0000     31.5032    122.0900     18.0703     86.9176
  1491.2500     37.1877    121.5281     19.3582     83.7780
  1491.5000     41.8147    120.8075     20.6855     80.7726
  1491.7500     44.9955    119.9940     21.9932     78.8978
  1492.0000     46.7014    119.1870     23.2159     75.5569
  1492.2500     46.9308    118.4877     24.3026     73.5155
  1492.5000     45.7589    117.9784     25.2336     72.4992
  1492.7500     43.6260    117.7141     26.0208     74.0282
  1493.0000     41.2706    117.7153     26.6899     79.9782
  1493.2500     39.2320    117.9604     27.2572     85.8012
  1493.5000     37.6131    118.3831     27.7191     95.3063
  1493.7500     36.2785    118.8875     28.0606    100.9576
  1494.0000     35.0348    119.3794     28.2744    107.2334
  1494.2500     33.7286    119.7961     28.3700    109.8223
  1494.5000     32.3963    120.1167     28.3607    111.7500
  1494.7500     31.2913    120.3554     28.2400    112.3163
  1495.0000     30.7269    120.5451     27.9798    113.3797
  1495.2500     30.9310    120.7171     27.5572    114.7466
  1495.5000     31.9134    120.8844     26.9880    117.7577
  1495.7500     33.2981    121.0412     26.3278    120.0755
  1496.0000     34.4055    121.1759     25.6371    123.5222
  1496.2500     34.7139    121.2779     24.9486    125.5227
  1496.5000     34.2258    121.3385     24.2644    127.3677
  1496.7500     33.2705    121.3573     23.5779    127.5204
  1497.0000     32.0339    121.3500     22.8909    126.4081
  1497.2500     30.4718    121.3399     22.2125    125.3306
  1497.5000     28.5951    121.3415     21.5464    124.3435
  1497.7500     26.6256    121.3571     20.8841    124.7449
  1498.0000     24.8670    121.3916     20.2115    127.7400
  1498.2500     23.5228    121.4606     19.5200    131.3071
  1498.5000     22.5998    121.5699     18.8096    137.7394
  1498.7500     21.9174    121.6891     18.0856    141.5080
  1499.0000     21.2505    121.7560     17.3546    144.3618
  1499.2500     20.4762    121.7166     16.6290    143.8039
  1499.5000     19.6033    121.5623     15.9353    139.8707
  1499.7500     18.7253    121.3367     15.3167    136.4133
  1500.0000     17.9562    121.1169     14.8227    132.4520
  1500.2500     17.3995    120.9833     14.4898    131.4639
  1500.5000     17.1271    120.9822     14.3259    132.3732
  1500.7500     17.1210    121.1021     14.3072    134.1292
  1501.0000     17.2638    121.2824     14.3866    137.9888
  1501.2500     17.4267    121.4464     14.5102    141.1814
  1501.5000     17.5482    121.5331     14.6316    146.1587
  1501.7500     17.6315    121.5132     14.7181    148.9012
