~Version Information
VERS.                      2.0: CWLS Log ASCII Standard - VERSION 2.0
WRAP.                       NO: One line per depth step
~Well Information Block
STRT.FT               954.4000: 
STOP.FT              2380.0000: 
STEP.FT                 0.1000: 
NULL.                -999.2500: 
COMP.          Petrogulf Corporation: COMPANY
WELL.             State 16-24V: WELL
FLD.           Purgatorie River: FIELD
LOC.           481' FSL & 2419' FWL: LOCATION
CNTY.               Las Animas: COUNTY
SRVC.                         : SERVICE COMPANY
DATE.          Tue May 04 07:31:25 2004: LOG DATE
UWI.           05 071 08014 00: UNIQUE WELL ID
STAT.                 Colorado: STATE
~Curve Information Block
DEPT.FT            0 000 00 00: Depth
DCAL.in                       : CDL Caliper
RHOB.g/cc                     : CDL Bulk Density
RHOC.g/cc                     : CDL Density Correction
DPOR.pu                       : CDL Density Porosity
GR.GAPI                       : Gamma Ray
~Parameter Information Block
~A  Depth       DCAL        RHOB        RHOC        DPOR         GR     
# ...
  1996.0000      7.8462      2.2159      0.2610     26.3096     90.3072
  1996.1000      7.8462      2.3001      0.3406     21.2035    115.4327
  1996.2000      7.8462      2.3789      0.2553     16.4304    135.9888
  1996.3000      7.7855      2.4488      0.0978     12.1915    133.4140
  1996.4000      7.7855      2.5178      0.1630      8.0136    123.9211
  1996.5000      7.7768      2.5699      0.1777      4.8555    126.8447
  1996.6000      7.7768      2.5931      0.1638      3.4500    139.4978
  1996.7000      7.7768      2.5881      0.1528      3.7539    156.8060
  1996.8000      7.8352      2.5629      0.1078      5.2807    165.9167
  1996.9000      7.8352      2.5364      0.1339      6.8825    157.1978
  1997.0000      7.8572      2.5070      0.1567      8.6692    140.5409
  1997.1000      7.8572      2.4714      0.0484     10.8261    132.4477
  1997.2000      7.8572      2.4650      0.0148     11.2100    141.3464
  1997.3000      7.8467      2.4951      0.1157      9.3871    152.2795
  1997.4000      7.8467      2.5075      0.0952      8.6364    149.3632
  1997.5000      7.8345      2.4728      0.0845     10.7407    138.5213
  1997.6000      7.8345      2.4276      0.0739     13.4815    126.8497
  1997.7000      7.8345      2.4185      0.0122     14.0317    120.3910
  1997.8000      7.8535      2.4437      0.0846     12.5057    120.3966
  1997.9000      7.8535      2.4706      0.0822     10.8708    125.1630
  1998.0000      7.8439      2.4955      0.0527      9.3628    128.6820
  1998.1000      7.8439      2.5241      0.0562      7.6281    121.4554
  1998.2000      7.8439      2.5290      0.1493      7.3341    111.1391
  1998.3000      7.8437      2.5042      0.0821      8.8335    112.6623
  1998.4000      7.8437      2.4961      0.0172      9.3246    129.2446
  1998.5000      7.8480      2.5120      0.1162      8.3635    147.6885
  1998.6000      7.8480      2.5076      0.0371      8.6317    150.4437
  1998.7000      7.8480      2.4668      0.0554     11.1005    138.9776
  1998.8000      7.8511      2.4174      0.0341     14.0955    131.9593
  1998.9000      7.8511      2.3961      0.0035     15.3862    134.2026
  1999.0000      7.8554      2.4033      0.1169     14.9491    134.0419
  1999.1000      7.8554      2.3990      0.1066     15.2151    126.8830
  1999.2000      7.8554      2.3658      0.1303     17.2263    113.9829
  1999.3000      7.8598      2.3393     -0.0811     18.8323    104.1202
  1999.4000      7.8598      2.3531      0.0318     17.9932    112.8130
  1999.5000      7.8808      2.3862      0.1225     15.9861    133.5899
  1999.6000      7.8808      2.4030      0.1085     14.9670    144.6377
  1999.7000      7.8808      2.4037      0.1048     14.9256    144.9193
  1999.8000      7.8884      2.4133      0.1148     14.3453    140.9151
  1999.9000      7.8884      2.4399      0.1767     12.7352    133.9214
  2000.0000      7.9173      2.4655      0.1214     11.1842    133.3349
  2000.1000      7.9173      2.4716      0.0847     10.8128    143.9522
  2000.2000      7.9173      2.4435      0.1144     12.5173    156.1329
  2000.3000      7.9192      2.3860     -0.0534     15.9980    158.1245
  2000.4000      7.9192      2.3388     -0.0928     18.8590    148.7883
  2000.5000      7.8974      2.3242     -0.0361     19.7474    133.0320
  2000.6000      7.8974      2.3350     -0.0461     19.0924    120.3352
  2000.7000      7.8974      2.3608      0.0132     17.5251    114.2955
  2000.8000      7.8923      2.3899      0.0015     15.7617    112.9321
  2000.9000      7.8923      2.4179      0.0509     14.0673    112.5231
  2001.0000      7.8893      2.4481      0.0336     12.2369    111.3773
  2001.1000      7.8893      2.4836      0.0664     10.0862    114.1226
  2001.2000      7.8893      2.5044      0.1271      8.8265    122.4699
  2001.3000      7.8709      2.4791      0.1373     10.3587    127.8862
  2001.4000      7.8709      2.4202     -0.0309     13.9248    120.3591
  2001.5000      7.8329      2.3845     -0.0167     16.0912    105.8787
  2001.6000      7.8329      2.4051     -0.0142     14.8449     97.0610
  2001.7000      7.8329      2.4624      0.0564     11.3697     96.2271
  2001.8000      7.8588      2.5113      0.1534      8.4042    104.2702
  2001.9000      7.8588      2.5321      0.1002      7.1453    119.0692
  2002.0000      7.8693      2.5447      0.1391      6.3835    133.4659
  2002.1000      7.8693      2.5497      0.1879      6.0768    143.6720
  2002.2000      7.8693      2.5310      0.1054      7.2136    143.6819
  2002.3000      7.8659      2.5070      0.0767      8.6683    135.0536
  2002.4000      7.8659      2.4908      0.1510      9.6491    129.8568
  2002.5000      7.8007      2.4668      0.0754     11.1007    125.0542
  2002.6000      7.8007      2.4352      0.0770     13.0169    115.2952
  2002.7000      7.8007      2.4082      0.0328     14.6566    108.9342
  2002.8000      7.7573      2.4043     -0.0405     14.8890    113.8430
  2002.9000      7.7573      2.4383      0.0379     12.8303    127.2213
  2003.0000      7.8037      2.4890      0.1208      9.7605    133.6361
  2003.1000      7.8037      2.5230      0.1180      7.6989    126.1010
  2003.2000      7.8037      2.5449      0.0322      6.3711    115.4444
  2003.3000      7.8594      2.5721      0.1224      4.7213    109.3756
  2003.4000      7.8594      2.5841      0.1560      3.9933    104.0183
  2003.5000      7.8689      2.5635      0.0515      5.2434    101.0529
  2003.6000      7.8689      2.5402      0.0192      6.6571    104.6299
  2003.7000      7.8689      2.5361      0.0988      6.9059    103.9366
  2003.8000      7.8736      2.5383      0.0993      6.7698     92.2258
  2003.9000      7.8736      2.5410      0.1031      6.6076     78.7452
  2004.0000      7.8603      2.5556      0.1123      5.7188     70.3130
  2004.1000      7.8603      2.5833      0.0962      4.0440     65.8398
  2004.2000      7.8603      2.5958      0.1568      3.2863     65.0087
  2004.3000      7.8267      2.5735      0.1110      4.6384     66.2000
  2004.4000      7.8267      2.5426      0.1297      6.5074     69.1143
  2004.5000      7.7614      2.5417      0.0379      6.5629     80.1332
  2004.6000      7.7614      2.5761      0.1424      4.4761     93.2104
  2004.7000      7.7614      2.6135      0.1120      2.2121     98.8144
  2004.8000      7.7645      2.6245      0.2015      1.5469    102.0668
  2004.9000      7.7645      2.6145      0.0999      2.1545    102.1207
  2005.0000      7.7984      2.6008      0.1172      2.9836     99.9790
  2005.1000      7.7984      2.5858      0.0913      3.8903     99.9871
  2005.2000      7.7984      2.5731      0.0697      4.6636     91.8950
  2005.3000      7.8388      2.5633      0.1335      5.2550     78.2543
  2005.4000      7.8388      2.5449      0.0873      6.3672     73.8507
  2005.5000      7.8323      2.5143      0.0589      8.2228     81.1025
  2005.6000      7.8323      2.4617      0.0726     11.4106     99.4929
  2005.7000      7.8323      2.3885     -0.1365     15.8472    122.2642
  2005.8000      7.8387      2.3440     -0.0906     18.5425    135.4430
  2005.9000      7.8387      2.3677     -0.0984     17.1119    132.5781
  2006.0000      7.8412      2.4507      0.0077     12.0774    122.1575
  2006.1000      7.8412      2.5542      0.0887      5.8087    118.4900
  2006.2000      7.8412      2.6231      0.2011      1.6312    117.0013
  2006.3000      7.8373      2.6195      0.1644      1.8482    108.9205
  2006.4000      7.8373      2.5512      0.1309      5.9859     99.4494
  2006.5000      7.8361      2.4650      0.0212     11.2093     95.9955
  2006.6000      7.8361      2.4079      0.0329     14.6718    107.8540
  2006.7000      7.8361      2.3891      0.0300     15.8104    133.3798
  2006.8000      7.8417      2.3969      0.0347     15.3385    146.7005
  2006.9000      7.8417      2.4324     -0.0407     13.1908    134.5899
  2007.0000      7.8145      2.4863      0.0958      9.9229    115.9600
  2007.1000      7.8145      2.5133      0.1343      8.2852    103.4251
