~Version Information
VERS.                      2.0: CWLS Log ASCII Standard - VERSION 2.0
WRAP.                       NO: One line per depth step
~Well Information Block
STRT.FT               580.0000: 
STOP.FT              2729.7000: 
STEP.FT                 0.1000: 
NULL.                -999.2500: 
COMP.          Pioneer Natural Resources: COMPANY
WELL.          Sand Pebbles 13-33: WELL
FLD.           Purgatoire River: FIELD
LOC.           1883' FSL & 63' FWL----: LOCATION
PROV.                 Colorado: PROVINCE
CNTY.               Las Animas: COUNTRY
SRVC.                Patterson: SERVICE COMPANY
DATE.          Mon Mar 14 07:33:33 2005: LOG DATE
UWI.           05 071 08224 00: UNIQUE WELL ID
~Curve Information Block
DEPT.FT            0 000 00 00: Depth
DCAL.in                       : CDL Caliper
RHOB.g/cc                     : CDL Bulk Density
RHOC.g/cc                     : CDL Density Correction
DPOR.pu                       : CDL Density Porosity
NPOR.pu                       : Neutron Porosity
GR.GAPI                       : Gamma Ray
~Parameter Information Block
~A  Depth       DCAL        RHOB        RHOC        DPOR        NPOR         GR     
# ...
  2135.2000      8.2583      2.5207      0.0295      7.8350     27.1493    131.0526
  2135.3000      8.2596      2.5103      0.0375      8.4645     28.1833    134.3645
  2135.4000      8.2596      2.4985      0.0504      9.1798     28.3519    136.8451
  2135.5000      8.2613      2.4826      0.0288     10.1477     27.7898    136.5226
  2135.6000      8.2613      2.4771     -0.0244     10.4811     27.1161    133.2507
  2135.7000      8.2613      2.4947      0.0524      9.4145     26.7118    128.9347
  2135.8000      8.2691      2.5154      0.0645      8.1596     26.7659    125.4536
  2135.9000      8.2691      2.5130      0.0378      8.3002     27.0987    123.6631
  2136.0000      8.2916      2.4921      0.0255      9.5683     27.2587    125.5844
  2136.1000      8.2916      2.4772     -0.0046     10.4698     27.2620    131.7466
  2136.2000      8.2916      2.4830     -0.0013     10.1236     27.5796    138.4689
  2136.3000      8.3200      2.4983      0.0229      9.1928     27.8557    140.3916
  2136.4000      8.3200      2.5039      0.0713      8.8523     27.1570    133.4334
  2136.5000      8.3131      2.4996      0.0317      9.1146     25.7910    122.4034
  2136.6000      8.3131      2.5039      0.0144      8.8520     24.8353    116.2469
  2136.7000      8.3131      2.5183      0.0778      7.9815     24.7334    114.6223
  2136.8000      8.2704      2.5276      0.0289      7.4202     25.0679    114.0544
  2136.9000      8.2704      2.5337      0.0248      7.0466     25.2997    115.9736
  2137.0000      8.2412      2.5437      0.0389      6.4402     25.2613    118.0456
  2137.1000      8.2412      2.5563      0.0360      5.6815     24.7757    115.0335
  2137.2000      8.2412      2.5696      0.0744      4.8747     24.0178    111.4878
  2137.3000      8.2370      2.5772      0.0791      4.4151     23.7032    112.7749
  2137.4000      8.2370      2.5791      0.0417      4.2957     23.9717    115.9436
  2137.5000      8.2381      2.5862      0.0233      3.8653     24.2239    116.6443
  2137.6000      8.2381      2.5901      0.0658      3.6274     24.1043    114.7114
  2137.7000      8.2381      2.5747      0.0557      4.5659     23.7946    111.6432
  2137.8000      8.2321      2.5521      0.0265      5.9340     23.4217    107.7213
  2137.9000      8.2321      2.5450      0.0196      6.3644     22.7894    103.9035
  2138.0000      8.2208      2.5583      0.0190      5.5602     22.0035     99.7179
  2138.1000      8.2208      2.5855      0.0550      3.9098     21.4347     97.9833
  2138.2000      8.2208      2.6135      0.0441      2.2114     20.9352    102.9349
  2138.3000      8.2131      2.6226      0.1008      1.6630     20.3132    111.2118
  2138.4000      8.2131      2.6099      0.0516      2.4327     20.0094    115.7789
  2138.5000      8.2104      2.5968      0.0631      3.2241     20.4435    115.2023
  2138.6000      8.2104      2.5975      0.0372      3.1825     21.1163    112.4799
  2138.7000      8.2104      2.6076      0.0454      2.5693     21.1845    108.6134
  2138.8000      8.2101      2.6089      0.0891      2.4908     20.5238    104.7552
  2138.9000      8.2101      2.5930      0.0083      3.4541     19.7719    102.5547
  2139.0000      8.2107      2.5801      0.0225      4.2365     19.4403    101.1629
  2139.1000      8.2107      2.5836      0.0403      4.0268     19.6025     99.8419
  2139.2000      8.2107      2.5958      0.0059      3.2830     20.1323     98.1296
  2139.3000      8.2101      2.6079      0.0331      2.5509     20.5003     95.0460
  2139.4000      8.2101      2.6121      0.0809      2.2958     20.3166     94.0855
  2139.5000      8.2092      2.6096      0.0085      2.4512     20.1469     97.1865
  2139.6000      8.2092      2.6034      0.0493      2.8261     20.6018     98.3447
  2139.7000      8.2092      2.5896      0.0431      3.6590     21.2809     94.4237
  2139.8000      8.2080      2.5733      0.0134      4.6463     21.2067     90.8344
  2139.9000      8.2080      2.5565      0.0353      5.6684     20.2991     92.3011
  2140.0000      8.2066      2.5349      0.0151      6.9737     19.4941     98.3674
  2140.1000      8.2066      2.5206     -0.0136      7.8396     19.2735    108.5002
  2140.2000      8.2066      2.5237      0.0207      7.6539     19.3869    119.3131
  2140.3000      8.2063      2.5390     -0.0274      6.7290     19.8319    124.1400
  2140.4000      8.2063      2.5652      0.0333      5.1383     20.8960    124.4179
  2140.5000      8.2064      2.6001      0.0337      3.0264     22.2997    124.0720
  2140.6000      8.2064      2.6296      0.0898      1.2381     23.4250    121.3113
  2140.7000      8.2064      2.6354      0.0582      0.8822     24.1978    117.8112
  2140.8000      8.2086      2.6152      0.0569      2.1075     24.9267    117.7193
  2140.9000      8.2086      2.5788      0.0680      4.3165     25.7870    119.4336
  2141.0000      8.2121      2.5333      0.0367      7.0725     26.5491    119.7636
  2141.1000      8.2121      2.4832      0.0099     10.1064     26.9255    121.0158
  2141.2000      8.2121      2.4326     -0.0244     13.1776     27.4768    123.7460
  2141.3000      8.2120      2.3807     -0.0265     16.3198     28.6670    124.0231
  2141.4000      8.2120      2.3304     -0.0567     19.3717     29.6176    121.6946
  2141.5000      8.2091      2.3006     -0.0578     21.1731     29.6270    120.5885
  2141.6000      8.2091      2.3055     -0.0133     20.8804     29.1920    121.2402
  2141.7000      8.2091      2.3287      0.0396     19.4735     28.8327    119.6953
  2141.8000      8.2069      2.3489      0.0327     18.2492     28.3989    114.7079
  2141.9000      8.2069      2.3627      0.0500     17.4104     27.9384    110.3523
  2142.0000      8.2065      2.3733      0.0763     16.7707     27.7213    110.2444
  2142.1000      8.2065      2.3853      0.0977     16.0443     27.4482    111.3614
  2142.2000      8.2065      2.4072      0.1137     14.7141     26.6584    106.9502
  2142.3000      8.2063      2.4422      0.1248     12.5920     25.3764     98.3398
  2142.4000      8.2063      2.4815      0.1268     10.2127     24.2556     93.8233
  2142.5000      8.2072      2.5093      0.1228      8.5274     23.9912     94.7055
  2142.6000      8.2072      2.5197      0.0627      7.8989     23.9658     96.4629
  2142.7000      8.2072      2.5177      0.0951      8.0163     23.4396     99.3343
  2142.8000      8.2099      2.5101      0.0590      8.4774     23.0950    102.9546
  2142.9000      8.2099      2.5079      0.0484      8.6091     23.0943    101.8367
  2143.0000      8.2116      2.5133      0.0838      8.2836     22.6277     96.1494
  2143.1000      8.2116      2.5224      0.0365      7.7332     21.8920     90.5562
  2143.2000      8.2116      2.5444      0.0143      6.4026     21.7678     85.6560
  2143.3000      8.2120      2.5811      0.0598      4.1759     22.1254     79.9506
  2143.4000      8.2120      2.6109      0.0906      2.3679     22.2309     75.3438
  2143.5000      8.2111      2.6246      0.0517      1.5389     21.9968     72.7809
  2143.6000      8.2111      2.6384      0.0766      0.7026     21.7956     71.0075
  2143.7000      8.2111      2.6572      0.0781     -0.4338     21.7245     70.0932
  2143.8000      8.2101      2.6623      0.0978     -0.7479     21.5296     69.1976
  2143.9000      8.2101      2.6376      0.0974      0.7516     21.2206     66.4919
  2144.0000      8.2095      2.5981      0.0470      3.1441     21.1365     64.3822
  2144.1000      8.2095      2.5776     -0.0187      4.3901     21.4799     65.8924
  2144.2000      8.2095      2.5808      0.0161      4.1927     22.0788     71.1242
  2144.3000      8.2080      2.5878      0.0113      3.7720     22.3507     79.0632
  2144.4000      8.2080      2.5985     -0.0287      3.1234     22.2794     89.1363
  2144.5000      8.2082      2.6129      0.0681      2.2472     22.4134     98.3680
  2144.6000      8.2082      2.6062      0.0375      2.6521     22.5650    101.5857
  2144.7000      8.2082      2.5719      0.0289      4.7341     22.5357     99.7294
