~Version Information
VERS.                      2.0: CWLS Log ASCII Standard - VERSION 2.0
WRAP.                       NO: One line per depth step
~Well Information Block
STRT.FT                -8.7500: 
STOP.FT              1126.7500: 
STEP.FT                 0.2500: 
NULL.                -999.2500: 
COMP.          Evergreen Operating Corp.: COMPANY
WELL.             Bernice 21-3: WELL
FLD.           Purgatorie River: FIELD
LOC.           201' FNL & 2575' FWL--: LOCATION
PROV.                       CO: PROVINCE
CNTY.               Las Animas: COUNTRY
SRVC.          Patterson Wireline: SERVICE COMPANY
DATE.          Mon Feb 02 12:04:59 2004: LOG DATE
UWI.              05 071 07912: UNIQUE WELL ID
~Curve Information Block
DEPT.FT            0 000 00 00: Depth
CCL.                          : Casing Collar Locator
TT3.usec                      : CBL 3' Travel Time
AMP3.mV                       : CBL 3' Amplitude
GR.GAPI                       : Gamma Ray
~Parameter Information Block
~A  Depth       CCL         TT3         AMP3         GR     
# ...
  1096.7500      0.0000    826.2258      6.0204     72.0064
  1097.0000      0.0000    823.9122      5.8952     74.1408
  1097.2500      0.0000    822.9948      5.7575     74.7840
  1097.5000      0.0000    824.2057      5.6455     73.5343
  1097.7500      0.0000    826.8712      5.5749     71.3412
  1098.0000      0.0000    829.5945      5.5478     69.2886
  1098.2500      0.0000    831.4532      5.5666     67.4385
  1098.5000      0.0000    832.3706      5.6328     65.1316
  1098.7500      0.0000    832.6913      5.7286     62.2566
  1099.0000      0.0000    832.7427      5.8078     59.6420
  1099.2500      0.0000    832.7059      5.8241     58.0918
  1099.5000      0.0000    832.6467      5.7780     57.5126
  1099.7500      0.0000    832.5729      5.7253     57.2822
  1100.0000      0.0000    832.4938      5.7215     57.1733
  1100.2500      0.0000    832.4453      5.7622     57.4812
  1100.5000      0.0000    832.4739      5.7957     58.3096
  1100.7500      0.0000    832.5925      5.7895     59.1556
  1101.0000      0.0000    832.7695      5.7674     59.2848
  1101.2500      0.0000    832.9676      5.7787     58.2575
  1101.5000      0.0000    833.1795      5.8444     56.1952
  1101.7500      0.0000    833.4207      5.9375     53.8702
  1102.0000      0.0000    833.6984      6.0056     52.3929
  1102.2500      0.0000    833.9970      6.0105     52.5115
  1102.5000      0.0000    834.2832      5.9512     54.2015
  1102.7500      0.0000    834.4922      5.8545     56.8285
  1103.0000      0.0000    834.4832      5.7513     59.4383
  1103.2500      0.0000    834.0002      5.6630     60.9739
  1103.5000      0.0000    832.6669      5.6025     60.6429
  1103.7500      0.0000    830.1057      5.5632     58.4658
  1104.0000      0.0000    825.9843      5.5104     55.6748
  1104.2500      0.0000    819.9288      5.4075     54.3662
  1104.5000      0.0000    811.7812      5.2613     56.1811
  1104.7500      0.0000    802.5880      5.1274     61.0193
  1105.0000      0.0000    795.1612      5.0655     67.0760
  1105.2500      0.0000    792.5203      5.0873     72.0616
  1105.5000      0.0000    795.1111      5.1485     74.4674
  1105.7500      0.0000    799.5671      5.1921     74.0585
  1106.0000      0.0000    800.7073      5.1953     71.4925
  1106.2500      0.0000    795.5617      5.1709     67.6771
  1106.5000      0.0000    786.0842      5.1385     63.5876
  1106.7500      4.0000    777.7875      5.1114     60.3476
  1107.0000     -4.0000    775.1415      5.1102     58.9420
  1107.2500      0.0000    777.8651      5.1797     59.6335
  1107.5000      0.0000    781.4229      5.3715     61.7642
  1107.7500      0.0000    781.1406      5.6783     64.2877
  1108.0000      0.0000    775.9817      5.9907     66.5340
  1108.2500      0.0000    768.5237      6.1575     68.3471
  1108.5000      0.0000    762.1071      6.1077     69.6532
  1108.7500      0.0000    759.3351      5.8984     70.3226
  1109.0000      0.0000    762.5707      5.6573     70.3972
  1109.2500      0.0000    773.0956      5.5024     69.9485
  1109.5000      0.0000    788.8491      5.4913     68.7215
  1109.7500      0.0000    804.7556      5.5960     66.4563
  1110.0000      0.0000    816.3392      5.7290     63.6661
  1110.2500      0.0000    822.3802      5.8202     61.6954
  1110.5000      0.0000    824.5123      5.8677     61.8735
  1110.7500      0.0000    825.4841      5.9064     64.7009
  1111.0000      0.0000    827.5089      5.9493     69.6537
  1111.2500      0.0000    831.1053      5.9803     75.4341
  1111.5000      0.0000    835.1802      5.9909     80.5532
  1111.7500      0.0000    838.3654      5.9968     84.0820
  1112.0000      0.0000    840.1567      6.0143     85.8000
  1112.2500      0.0000    840.8936      6.0415     85.2702
  1112.5000      0.0000    841.1241      6.0660     80.9417
  1112.7500      0.0000    841.1837      6.0775     70.9095
  1113.0000      0.0000    841.1671      6.0617     55.1542
  1113.2500      0.0000    841.0635      5.9921     36.8109
  1113.5000      0.0000    840.8560      5.8460     20.5329
  1113.7500      0.0000    840.5490      5.6379      9.3903
  1114.0000      0.0000    840.1597      5.4263      3.4733
  1114.2500      0.0000    839.7098      5.2711      1.0287
  1114.5000      0.0000    839.2188      5.1881      0.2419
  1114.7500      0.0000    838.7064      5.1624      0.0445
  1115.0000      0.0000    838.2084      5.1961      0.0058
  1115.2500      0.0000    837.7924      5.3053      0.0000
  1115.5000      0.0000    837.5407      5.4724   -999.2500
  1115.7500      0.0000    837.4934      5.6353   -999.2500
  1116.0000      0.0000    837.6132      5.7367   -999.2500
  1116.2500      0.0000    837.8326      5.7619   -999.2500
  1116.5000      0.0000    838.1465      5.7295   -999.2500
  1116.7500      0.0000    838.6083      5.6696   -999.2500
  1117.0000      0.0000    839.1472      5.6116   -999.2500
  1117.2500      0.0000    838.7521      5.5695   -999.2500
  1117.5000      0.0000    833.4783      5.5229   -999.2500
  1117.7500      0.0000    813.2678      5.4059   -999.2500
  1118.0000      0.0000    760.9608      5.1090   -999.2500
  1118.2500      0.0000    660.0376      4.5226   -999.2500
  1118.5000      0.0000    511.0480      3.6341   -999.2500
  1118.7500      0.0000    341.1893      2.5978   -999.2500
  1119.0000      0.0000    191.0183      1.6648   -999.2500
  1119.2500      0.0000     87.8434      1.0150   -999.2500
  1119.5000      0.0000     32.6924      0.6642   -999.2500
  1119.7500      0.0000      9.7414      0.5173   -999.2500
  1120.0000      0.0000      2.3034      0.4694   -999.2500
  1120.2500      0.0000      0.4258      0.4573   -999.2500
  1120.5000      0.0000      0.0563      0.4549   -999.2500
  1120.7500      0.0000   -999.2500   -999.2500   -999.2500
  1121.0000      0.0000   -999.2500   -999.2500   -999.2500
  1121.2500      0.0000   -999.2500   -999.2500   -999.2500
  1121.5000      0.0000   -999.2500   -999.2500   -999.2500
  1121.7500      0.0000   -999.2500   -999.2500   -999.2500
  1122.0000      0.0000   -999.2500   -999.2500   -999.2500
  1122.2500      0.0000   -999.2500   -999.2500   -999.2500
  1122.5000      0.0000   -999.2500   -999.2500   -999.2500
  1122.7500      0.0000   -999.2500   -999.2500   -999.2500
  1123.0000      0.0000   -999.2500   -999.2500   -999.2500
  1123.2500      0.0000   -999.2500   -999.2500   -999.2500
  1123.5000      0.0000   -999.2500   -999.2500   -999.2500
  1123.7500      0.0000   -999.2500   -999.2500   -999.2500
  1124.0000      0.0000   -999.2500   -999.2500   -999.2500
  1124.2500      0.0000   -999.2500   -999.2500   -999.2500
  1124.5000      0.0000   -999.2500   -999.2500   -999.2500
  1124.7500      0.0000   -999.2500   -999.2500   -999.2500
  1125.0000      0.0000   -999.2500   -999.2500   -999.2500
  1125.2500      0.0000   -999.2500   -999.2500   -999.2500
  1125.5000      0.0000   -999.2500   -999.2500   -999.2500
  1125.7500      0.0000   -999.2500   -999.2500   -999.2500
  1126.0000      0.0000   -999.2500   -999.2500   -999.2500
  1126.2500   -999.2500   -999.2500   -999.2500   -999.2500
  1126.5000   -999.2500   -999.2500   -999.2500   -999.2500
  1126.7500   -999.2500   -999.2500   -999.2500   -999.2500
