~Version Information
VERS.                      2.0: CWLS Log ASCII Standard - VERSION 2.0
WRAP.                       NO: One line per depth step
~Well Information Block
STRT.FT               300.0000: 
STOP.FT               871.2000: 
STEP.FT                 0.1000: 
NULL.                -999.2500: 
COMP.          Pioneer Natural Resources: COMPANY
WELL.            Hustler 12-17: WELL
FLD.           Purgatoire River: FIELD
LOC.           2150' FNL & 450' FWL: LOCATION
PROV.                 Colorado: PROVINCE
CNTY.               Las Animas: COUNTRY
SRVC.                Patterson: SERVICE COMPANY
DATE.          Mon Dec 20 11:14:19 2004: LOG DATE
UWI.           05 071 08236 00: UNIQUE WELL ID
~Curve Information Block
DEPT.FT            0 000 00 00: Depth
DCAL.in                       : CDL Caliper
RHOB.g/cc                     : CDL Bulk Density
RHOC.g/cc                     : CDL Density Correction
DPOR.pu                       : CDL Density Porosity
NPOR.pu                       : Neutron Porosity
GR.GAPI                       : Gamma Ray
~Parameter Information Block
~A  Depth       DCAL        RHOB        RHOC        DPOR        NPOR         GR     
# ...
   837.6000      7.8903      2.5217      0.0226      7.7786     27.4180    138.9360
   837.7000      7.8903      2.4962      0.0102      9.3188     26.7979    141.7749
   837.8000      7.8853      2.4661      0.0243     11.1466     26.6991    144.9727
   837.9000      7.8853      2.4407     -0.0381     12.6829     26.9534    148.4133
   838.0000      7.8817      2.4356     -0.0015     12.9922     26.8876    149.7474
   838.1000      7.8817      2.4452      0.0245     12.4127     26.3920    148.6482
   838.2000      7.8817      2.4576     -0.0444     11.6595     26.0635    149.1147
   838.3000      7.8868      2.4751      0.0269     10.6015     26.1490    153.1257
   838.4000      7.8868      2.4968      0.0290      9.2847     26.1825    157.0845
   838.5000      7.8948      2.5204      0.0171      7.8575     25.8393    157.0929
   838.6000      7.8948      2.5401      0.0507      6.6583     25.4049    157.0195
   838.7000      7.8948      2.5452      0.0489      6.3514     25.2238    163.7336
   838.8000      7.8974      2.5380      0.0298      6.7876     25.1357    170.1255
   838.9000      7.8974      2.5298      0.0403      7.2849     24.9845    154.4013
   839.0000      7.8949      2.5260      0.0240      7.5163     24.9655    106.7718
   839.1000      7.8949      2.5377      0.0136      6.8035     25.2110     50.4157
   839.2000      7.8949      2.5612      0.1127      5.3794     25.6231     14.9346
   839.3000      7.8937      2.5638      0.1043      5.2266     25.9253      2.6037
   839.4000      7.8937      2.5337      0.0250      7.0498     25.9714      0.2550
   839.5000      7.8942      2.4989     -0.0051      9.1600     25.9393      0.0131
   839.6000      7.8942      2.4864      0.0362      9.9146     25.8913      0.0000
   839.7000      7.8942      2.4966      0.0381      9.2951     25.6756   -999.2500
   839.8000      7.8943      2.5136      0.0797      8.2648     25.5281   -999.2500
   839.9000      7.8943      2.5222      0.0614      7.7471     25.7598   -999.2500
   840.0000      7.8927      2.5230      0.0232      7.6942     25.9535   -999.2500
   840.1000      7.8927      2.5285      0.0680      7.3658     25.6049   -999.2500
   840.2000      7.8927      2.5353      0.0768      6.9502     24.6606   -999.2500
   840.3000      7.8923      2.5327      0.0292      7.1078     23.3791   -999.2500
   840.4000      7.8923      2.5226      0.0333      7.7209     22.0547   -999.2500
   840.5000      7.8935      2.5125      0.0180      8.3350     20.5219   -999.2500
   840.6000      7.8935      2.5090      0.0181      8.5445     18.9895   -999.2500
   840.7000      7.8935      2.5176      0.0113      8.0217     19.1454   -999.2500
   840.8000      7.8937      2.5339      0.0338      7.0370     22.7153   -999.2500
   840.9000      7.8937      2.5460      0.0138      6.3010     29.1171   -999.2500
   841.0000      7.8942      2.5528      0.0153      5.8903     36.0428   -999.2500
   841.1000      7.8942      2.5576      0.0373      5.6001     42.1789   -999.2500
   841.2000      7.8942      2.5516      0.0386      5.9611     47.0926   -999.2500
   841.3000      7.8954      2.5303      0.0394      7.2560     50.6555   -999.2500
   841.4000      7.8954      2.5128     -0.0224      8.3167     53.3444   -999.2500
   841.5000      7.8961      2.5169      0.0065      8.0672     55.5330   -999.2500
   841.6000      7.8961      2.5349      0.0248      6.9750     57.0551   -999.2500
   841.7000      7.8961      2.5551      0.0393      5.7529     57.8292   -999.2500
   841.8000      7.8967      2.5703      0.0741      4.8312     58.0992   -999.2500
   841.9000      7.8967      2.5719      0.0353      4.7330     58.1695   -999.2500
   842.0000      7.8974      2.5614      0.0053      5.3704     58.1808   -999.2500
   842.1000      7.8974      2.5535     -0.0147      5.8468     58.0989   -999.2500
   842.2000      7.8974      2.5595      0.0367      5.4865     57.9691   -999.2500
   842.3000      7.8981      2.5718      0.0592      4.7399     57.8844   -999.2500
   842.4000      7.8981      2.5799      0.0349      4.2476     57.8512   -999.2500
   842.5000      7.9031      2.5823      0.0492      4.1024     57.8893   -999.2500
   842.6000      7.9031      2.5850      0.0289      3.9414     58.0125   -999.2500
   842.7000      7.9031      2.5983      0.0530      3.1304     58.1611   -999.2500
   842.8000      7.9082      2.6178      0.0507      1.9521     58.2780   -999.2500
   842.9000      7.9082      2.6281      0.0791      1.3255     58.3500   -999.2500
   843.0000      7.9024      2.6260      0.0520      1.4530     58.3655   -999.2500
   843.1000      7.9024      2.6145      0.0632      2.1523     58.3396   -999.2500
   843.2000      7.9024      2.5948      0.0392      3.3452     58.3473   -999.2500
   843.3000      7.8956      2.5760      0.0107      4.4860     58.3910   -999.2500
   843.4000      7.8956      2.5684     -0.0068      4.9478     58.4022   -999.2500
   843.5000      7.8939      2.5678      0.0321      4.9808     58.3936   -999.2500
   843.6000      7.8939      2.5617      0.0244      5.3515     58.3402   -999.2500
   843.7000      7.8939      2.5507     -0.0013      6.0200     58.2600   -999.2500
   843.8000      7.8973      2.5497      0.0068      6.0785     58.2727   -999.2500
   843.9000      7.8973      2.5645      0.0250      5.1835     58.3254   -999.2500
   844.0000      7.9029      2.5856      0.0340      3.9054     58.3485   -999.2500
   844.1000      7.9029      2.6001      0.0468      3.0259     58.4453   -999.2500
   844.2000      7.9029      2.5973      0.0576      3.1909     58.5652   -999.2500
   844.3000      7.9009      2.5851     -0.0030      3.9319     58.5905   -999.2500
   844.4000      7.9009      2.5856      0.0250      3.9016     58.8947   -999.2500
   844.5000      7.8971      2.6045      0.0524      2.7604     60.0663   -999.2500
   844.6000      7.8971      2.6307      0.0546      1.1722     61.7233   -999.2500
   844.7000      7.8971      2.6462      0.1292      0.2318     62.8441   -999.2500
   844.8000      7.8966      2.6371      0.1030      0.7839     63.2482   -999.2500
   844.9000      7.8966      2.6145      0.0661      2.1543     63.3281   -999.2500
   845.0000      7.8965      2.5940      0.0616      3.3949     63.3366   -999.2500
   845.1000      7.8965      2.5800      0.0203      4.2426     63.3371   -999.2500
   845.2000      7.8965      2.5764      0.0380      4.4613   -999.2500   -999.2500
   845.3000      7.8952      2.5767      0.0392      4.4417   -999.2500   -999.2500
   845.4000      7.8952      2.5710      0.0326      4.7864   -999.2500   -999.2500
   845.5000      7.8924      2.5650     -0.0029      5.1486   -999.2500   -999.2500
   845.6000      7.8924      2.5657      0.0480      5.1114   -999.2500   -999.2500
   845.7000      7.8924      2.5650      0.0418      5.1513   -999.2500   -999.2500
   845.8000      7.8905      2.5574      0.0127      5.6091   -999.2500   -999.2500
   845.9000      7.8905      2.5509     -0.0052      6.0077   -999.2500   -999.2500
   846.0000      7.8904      2.5609     -0.0079      5.4029   -999.2500   -999.2500
   846.1000      7.8904      2.5904      0.0351      3.6147   -999.2500   -999.2500
   846.2000      7.8904      2.6203      0.0637      1.7996   -999.2500   -999.2500
   846.3000      7.8911      2.6259      0.0937      1.4586   -999.2500   -999.2500
   846.4000      7.8911      2.5992      0.0439      3.0762   -999.2500   -999.2500
   846.5000      7.8936      2.5636      0.0302      5.2382   -999.2500   -999.2500
   846.6000      7.8936      2.5482     -0.0055      6.1672   -999.2500   -999.2500
   846.7000      7.8936      2.5540      0.0113      5.8152   -999.2500   -999.2500
   846.8000      7.8969      2.5628      0.0032      5.2821   -999.2500   -999.2500
   846.9000      7.8969      2.5682     -0.0063      4.9564   -999.2500   -999.2500
   847.0000      7.8984      2.5692      0.0025      4.8965   -999.2500   -999.2500
   847.1000      7.8984      2.5545      0.0441      5.7875   -999.2500   -999.2500
