~Version Information
VERS.                      2.0: CWLS Log ASCII Standard - VERSION 2.0
WRAP.                       NO: One line per depth step
~Well Information Block
STRT.FT               528.0000: 
STOP.FT              2250.0000: 
STEP.FT                 0.1000: 
NULL.                -999.2500: 
COMP.          Pioneer Natural Resources: COMPANY
WELL.           Parklane 43-34: WELL
FLD.           Purgatorie River: FIELD
LOC.           1704' FSL & 1119' FEL: LOCATION
PROV.                 Colorado: PROVINCE
CNTY.               Las Animas: COUNTRY
SRVC.                         : SERVICE COMPANY
DATE.          Thu Oct 07 08:21:17 2004: LOG DATE
UWI.           05 071 08162 00: UNIQUE WELL ID
~Curve Information Block
DEPT.FT            0 000 00 00: Depth
LTEN.lb                       : Surface Line Tension
DCAL.in                       : CDL Caliper
RHOB.g/cc                     : CDL Bulk Density
RHOC.g/cc                     : CDL Density Correction
DPOR.pu                       : CDL Density Porosity
GR.GAPI                       : Gamma Ray
NPOR.pu                       : Neutron Porosity
~Parameter Information Block
~A  Depth       LTEN        DCAL        RHOB        RHOC        DPOR         GR         NPOR    
# ...
   872.4000    922.0417      8.1293      2.5320      0.0182      7.1544    133.8226     26.4468
   872.5000    867.1218      8.1466      2.5184      0.0544      7.9768    125.7127     26.5087
   872.6000    867.1218      8.1466      2.5001     -0.0132      9.0865    125.8381     26.3147
   872.7000    867.1218      8.1466      2.4980     -0.0266      9.2143    136.3554     26.2820
   872.8000    902.7479      8.1595      2.5201      0.0355      7.8711    144.7867     26.6877
   872.9000    902.7479      8.1595      2.5403      0.0566      6.6487    143.8730     27.1358
   873.0000    902.2347      8.1551      2.5437      0.0309      6.4405    137.2121     26.9779
   873.1000    902.2347      8.1551      2.5392      0.0712      6.7129    130.1880     26.2569
   873.2000    902.2347      8.1551      2.5311      0.0224      7.2031    126.7063     25.3903
   873.3000    897.1065      8.1415      2.5217      0.0021      7.7753    127.9881     24.9318
   873.4000    897.1065      8.1415      2.5207      0.0089      7.8369    128.3828     25.3749
   873.5000    888.3370      8.1319      2.5339      0.0189      7.0353    122.2517     26.3458
   873.6000    888.3370      8.1319      2.5529      0.0473      5.8850    113.7661     27.1772
   873.7000    888.3370      8.1319      2.5636      0.0214      5.2387    110.6738     27.7906
   873.8000    875.8456      8.1279      2.5619      0.0558      5.3393    114.0320     28.2898
   873.9000    875.8456      8.1279      2.5539      0.0300      5.8223    122.7701     28.5959
   874.0000    894.2332      8.1255      2.5514     -0.0049      5.9747    132.5670     28.7081
   874.1000    894.2332      8.1255      2.5576      0.0419      5.5972    136.5244     28.6514
   874.2000    894.2332      8.1255      2.5595      0.0420      5.4852    135.3425     28.4062
   874.3000    871.9763      8.1257      2.5466      0.0207      6.2693    133.5909     28.1506
   874.4000    871.9763      8.1257      2.5300     -0.0502      7.2727    131.9871     28.1191
   874.5000    880.0405      8.1302      2.5245      0.0219      7.6088    128.0781     28.1701
   874.6000    880.0405      8.1302      2.5255     -0.0047      7.5450    125.4054     28.0980
   874.7000    880.0405      8.1302      2.5237      0.0207      7.6561    128.1402     27.9659
   874.8000    891.4202      8.1385      2.5134      0.0356      8.2805    129.7903     27.6184
   874.9000    891.4202      8.1385      2.5041     -0.0030      8.8431    127.1350     26.8946
   875.0000    890.8356      8.1463      2.5169      0.0102      8.0672    126.9142     26.1397
   875.1000    890.8356      8.1463      2.5498      0.0345      6.0708    130.2321     25.7854
   875.2000    890.8356      8.1463      2.5807      0.0390      4.1986    129.7687     25.9995
   875.3000    891.7454      8.1485      2.5931      0.0488      3.4469    125.2320     26.5124
   875.4000    891.7454      8.1485      2.5813      0.0243      4.1615    123.4748     26.9357
   875.5000    888.5317      8.1447      2.5573     -0.0078      5.6191    126.0739     27.2850
   875.6000    888.5317      8.1447      2.5378      0.0393      6.8006    126.9026     27.5379
   875.7000    888.5317      8.1447      2.5263      0.0303      7.4951    122.3547     27.2725
   875.8000    919.7894      8.1416      2.5275      0.0111      7.4253    118.5477     26.6655
   875.9000    919.7894      8.1416      2.5452      0.0455      6.3488    120.3296     26.5619
   876.0000    915.5125      8.1430      2.5627      0.0909      5.2893    123.7693     27.0160
   876.1000    915.5125      8.1430      2.5646      0.0294      5.1773    125.3114     27.3624
   876.2000    915.5125      8.1430      2.5592      0.0370      5.5033    127.3746     27.3305
   876.3000    899.6005      8.1452      2.5517      0.0405      5.9573    130.0531     26.9668
   876.4000    899.6005      8.1452      2.5395      0.0290      6.6959    129.3263     26.4932
   876.5000    918.1446      8.1468      2.5360     -0.0087      6.9106    125.9385     26.2005
   876.6000    918.1446      8.1468      2.5481      0.0220      6.1753    128.2976     26.0195
   876.7000    918.1446      8.1468      2.5522      0.0535      5.9279    138.4908     25.8767
   876.8000    901.1605      8.1482      2.5376      0.0200      6.8126    145.1087     25.9925
   876.9000    901.1605      8.1482      2.5262     -0.0007      7.5046    141.1400     26.4900
   877.0000    913.9075      8.1488      2.5238      0.0258      7.6512    133.0739     26.9556
   877.1000    913.9075      8.1488      2.5185      0.0158      7.9669    128.0275     26.8711
   877.2000    913.9075      8.1488      2.5114      0.0240      8.3983    127.2029     26.4101
   877.3000    916.3436      8.1487      2.5103     -0.0058      8.4681    131.2101     26.1288
   877.4000    916.3436      8.1487      2.5202      0.0497      7.8637    138.4772     26.2440
   877.5000    901.9589      8.1492      2.5359      0.0633      6.9175    142.7083     26.5563
   877.6000    901.9589      8.1492      2.5425      0.0663      6.5129    141.0426     26.8585
   877.7000    901.9589      8.1492      2.5352      0.0441      6.9577    138.3228     27.1084
   877.8000    896.3161      8.1497      2.5265      0.0148      7.4837    136.5691     27.2758
   877.9000    896.3161      8.1497      2.5280      0.0187      7.3967    132.6120     27.3309
   878.0000    892.5667      8.1502      2.5297      0.0455      7.2892    128.5503     27.2800
   878.1000    892.5667      8.1502      2.5182      0.0050      7.9872    130.3210     26.9748
   878.2000    892.5667      8.1502      2.4973      0.0226      9.2571    137.3132     26.5061
   878.3000    911.6094      8.1503      2.4752      0.0165     10.5944    145.5226     26.2679
   878.4000    911.6094      8.1503      2.4557     -0.0020     11.7731    151.3802     26.3413
   878.5000    902.2072      8.1503      2.4418      0.0055     12.6198    150.6649     26.5348
   878.6000    902.2072      8.1503      2.4369     -0.0074     12.9166    142.7637     26.6398
   878.7000    902.2072      8.1503      2.4455     -0.0002     12.3954    136.9084     26.5167
   878.8000    910.4991      8.1500      2.4566      0.0618     11.7220    138.4063     26.2112
   878.9000    910.4991      8.1500      2.4433      0.0617     12.5289    139.3828     25.9044
   879.0000    908.8851      8.1494      2.4075      0.0191     14.6984    136.5923     25.8457
   879.1000    908.8851      8.1494      2.3871      0.0063     15.9312    137.5667     26.1299
   879.2000    908.8851      8.1494      2.3957      0.1146     15.4119    140.5072     26.5723
   879.3000    895.0788      8.1464      2.4120      0.1012     14.4241    137.7746     26.7724
   879.4000    895.0788      8.1464      2.4303      0.0854     13.3168    134.0566     26.6303
   879.5000    896.0289      8.1389      2.4602      0.1256     11.5020    134.6399     26.7703
   879.6000    896.0289      8.1389      2.4933      0.1655      9.4987    136.7722     27.3957
   879.7000    896.0289      8.1389      2.5212      0.1703      7.8048    137.7727     28.1014
   879.8000    908.9803      8.1340      2.5654      0.1487      5.1277    139.3893     28.8515
   879.9000    908.9803      8.1340      2.6287      0.3470      1.2935    143.8521     29.7543
   880.0000    882.5975      8.1344      2.6756      0.2878     -1.5489    147.7661     30.7683
   880.1000    882.5975      8.1344      2.6962      0.2602     -2.7987    147.6825     31.4484
   880.2000    882.5975      8.1344      2.7064      0.1973     -3.4205    142.3314     31.3415
   880.3000    873.5504      8.1359      2.7142      0.1452     -3.8932    135.0313     30.7626
   880.4000    873.5504      8.1359      2.7189      0.1211     -4.1766    134.0909     30.3232
   880.5000    895.7012      8.1353      2.7101      0.1360     -3.6421    138.1183     30.1560
   880.6000    895.7012      8.1353      2.6778      0.0748     -1.6832    137.5601     29.8311
   880.7000    895.7012      8.1353      2.6270      0.0301      1.3963    129.2033     29.2209
