~Version Information
 VERS.                                  2.0 : CWLS LAS VERSION
 WRAP.                                   NO : WRAPING MODE
 SWARE .                 MController 2.5.0N : SOFTWARE VERSION
~Well Information
 WELL.                     Commander 43-25Tr : WELL
 COMP.    Pioneer Natural Resources USA Inc : COMPANY
 FLD.                      Purgatoire River : FIELD
 LOC.                NE/SE Sec 26 T32S R67W : LOCATION
 DATE.                              4/14/05 : DATE(S) LOGGED
 SRVC.       Blanco Geological Services LLC : SERVICE COMPANY
 STAT.                                   CO : STATE
 CNTY.                           Las Animas : COUNTY
 CTRY.                                  USA : COUNTRY
 API.                       05-071-08341-00 : API NUMBER
 STRT.FT                             275.00 : START DEPTH
 STOP.FT                            1979.00 : STOP DEPTH
 STEP.FT                               1.00 : DEPTH INCREMENT
 NULL.                                -9999 : NULL VALUE
~Curve information
 DEPTH.FT                                   :
 ROP.MIN/FT                                 :
 GAS.UNITS                                  :
~ASCII Log data
# ...
       475.0         0.17          2.4 
       476.0         3.65          3.5 
       477.0         0.27          3.1 
       478.0         0.32          3.2 
       479.0         0.23          3.0 
       480.0         0.20          2.6 
       481.0         0.20          2.6 
       482.0         0.17          2.7 
       483.0         0.13          2.6 
       484.0         0.13          2.3 
       485.0         0.13          1.9 
       486.0         0.23          2.6 
       487.0         0.23          2.6 
       488.0         0.27          2.4 
       489.0         0.23          2.7 
       490.0         0.27          3.0 
       491.0         0.23          2.9 
       492.0         0.23          2.8 
       493.0         0.25          2.5 
       494.0         0.23          2.5 
       495.0         0.23          2.8 
       496.0         0.20          2.8 
       497.0         0.27          3.2 
       498.0         0.23          3.1 
       499.0         0.23          2.9 
       500.0         0.23          2.8 
       501.0         0.20          2.4 
       502.0         0.23          2.8 
       503.0         0.17          3.1 
       504.0         0.20          3.4 
       505.0         0.30          2.7 
       506.0         3.55          3.9 
       507.0         0.18          2.5 
       508.0         0.33          2.7 
       509.0         0.27          3.3 
       510.0         0.23          2.9 
       511.0         0.23          2.8 
       512.0         0.23          2.4 
       513.0         0.20          2.9 
       514.0         0.17          2.6 
       515.0         0.17          2.3 
       516.0         0.17          2.9 
       517.0         0.17          3.0 
       518.0         0.20          3.1 
       519.0         0.23          3.6 
       520.0         0.27          3.5 
       521.0         0.20          3.0 
       522.0         0.20          2.8 
       523.0         0.18          2.6 
       524.0         0.20          2.3 
       525.0         0.23          2.3 
       526.0         0.23          2.6 
       527.0         0.20          2.6 
       528.0         0.23          2.8 
       529.0         0.20          2.9 
       530.0         0.20          2.7 
       531.0         0.17          2.7 
       532.0         0.13          2.3 
       533.0         0.17          2.6 
       534.0         0.17          3.1 
       535.0         0.13          2.6 
       536.0         3.78          3.6 
       537.0         0.20          2.8 
       538.0         0.28          3.5 
       539.0         0.23          3.4 
       540.0         0.23          3.4 
       541.0         0.20          2.7 
       542.0         0.33          2.6 
       543.0         0.23          2.6 
       544.0         0.17          3.9 
       545.0         0.17          4.2 
       546.0         0.13          3.2 
       547.0         0.17          3.1 
       548.0         0.17          2.9 
       549.0         0.17          3.3 
       550.0         0.23          2.9 
       551.0         0.27          3.2 
       552.0         0.20          2.8 
       553.0         0.17          3.1 
       554.0         0.22          2.9 
       555.0         0.20          3.2 
       556.0         0.23          3.2 
       557.0         0.27          2.8 
       558.0         0.30          2.9 
       559.0         0.23          3.1 
       560.0         0.27          3.8 
       561.0         0.17          2.9 
       562.0         0.17          2.7 
       563.0         0.27          3.9 
       564.0         0.27          3.6 
       565.0         0.17          4.1 
       566.0         2.72          4.2 
       567.0         0.23          3.5 
       568.0         0.23          3.1 
       569.0         0.33          3.1 
       570.0         0.23          3.1 
       571.0         0.27          3.9 
       572.0         0.25          3.6 
       573.0         0.20          3.3 
       574.0         0.23          3.6 
       575.0         0.20          3.5 
       576.0         0.20          3.2 
       577.0         0.20          2.8 
       578.0         0.17          3.1 
       579.0         0.20          3.1 
       580.0         0.13          3.1 
       581.0         0.13          3.4 
       582.0         0.17          4.0 
       583.0         0.17          4.2 
       584.0         0.20          4.0 
       585.0         0.20          3.5 
       586.0         0.17          3.6 
       587.0         0.13          4.0 
       588.0         0.13          3.8 
       589.0         0.17          3.7 
       590.0         0.10          3.3 
       591.0         0.15          3.6 
       592.0         0.17          3.5 
       593.0         0.13          2.9 
       594.0         0.17          3.5 
       595.0         0.20          3.1 
       596.0         3.12          4.5 
       597.0         0.17          3.5 
       598.0         0.30          3.9 
       599.0         0.27          3.9 
       600.0         0.27          4.0 
       601.0         0.30          4.2 
       602.0         0.30          3.6 
       603.0         0.27          3.9 
       604.0         0.27          4.2 
       605.0         0.27          3.9 
       606.0         0.23          4.0 
       607.0         0.25          3.6 
       608.0         0.23          3.5 
       609.0         0.27          4.6 
       610.0         0.23          4.3 
       611.0         0.23          3.9 
       612.0         0.20          3.7 
       613.0         0.23          3.8 
       614.0         0.23          3.9 
       615.0         0.20          3.9 
       616.0         0.20          4.0 
       617.0         0.23          4.5 
       618.0         0.23          4.2 
       619.0         0.20          3.6 
       620.0         0.23          4.0 
       621.0         0.20          3.7 
       622.0         0.18          3.1 
       623.0         0.17          3.8 
       624.0         0.20          3.8 
       625.0         0.17          3.4 
       626.0         3.42          5.1 
       627.0         0.27          4.5 
       628.0         0.23          4.6 
       629.0         0.20          4.5 
       630.0         0.20          5.1 
       631.0         0.17          4.4 
       632.0         0.17          4.3 
       633.0         0.23          3.8 
       634.0         0.23          4.3 
       635.0         0.17          4.1 
       636.0         0.10          4.6 
       637.0         0.13          3.7 
       638.0         0.13          3.4 
       639.0         0.13          3.7 
       640.0         0.15          4.1 
       641.0         0.17          4.1 
       642.0         0.13          4.8 
       643.0         0.17          5.0 
       644.0         0.17          4.8 
       645.0         0.20          4.0 
       646.0         0.13          3.6 
       647.0         0.17          3.6 
       648.0         0.17          3.7 
       649.0         0.17          4.5 
       650.0         0.13          5.0 
       651.0         0.13          4.6 
       652.0         0.13          4.5 
       653.0         0.13          4.7 
       654.0         0.13          3.9 
       655.0         0.23          4.1 
       656.0         3.72          5.3 
       657.0         0.33          4.8 
       658.0         0.13          4.8 
       659.0         0.10          4.1 
       660.0         0.28          4.9 
       661.0         0.27          4.5 
       662.0         0.27          5.3 
       663.0         0.23          4.7 
       664.0         0.27          4.8 
       665.0         0.23          4.1 
       666.0         0.27          4.3 
       667.0         0.20          4.4 
       668.0         0.23          4.4 
       669.0         0.20          4.6 
       670.0         0.23          5.2 
       671.0         0.23          5.2 
       672.0         0.20          4.6 
       673.0         0.20          4.6 
       674.0         0.18          4.3 
