~Version Information
VERS.                      2.0: CWLS Log ASCII Standard - VERSION 2.0
WRAP.                       NO: One line per depth step
~Well Information Block
STRT.FT              2246.0000: 
STOP.FT              2472.6000: 
STEP.FT                 0.1000: 
NULL.                -999.2500: 
COMP.          Petrogulf Corporation: COMPANY
WELL.           Schedler 9-23V: WELL
FLD.           Purgatorie River: FIELD
LOC.           2185' FSL & 2328' FWL: LOCATION
CNTY.               Las Animas: COUNTY
SRVC.                         : SERVICE COMPANY
DATE.          Thu Jul 10 10:29:30 2003: LOG DATE
UWI.           05 071 07876 00: UNIQUE WELL ID
STAT.                 Colorado: STATE
~Curve Information Block
DEPT.FT            0 000 00 00: Depth
DCAL.in                       : CDL Caliper
RHOB.g/cc                     : CDL Bulk Density
RHOC.g/cc                     : CDL Density Correction
DPOR.pu                       : CDL Density Porosity
GR.GAPI                       : Gamma Ray
NPOR.pu                       : Neutron Porosity
~Parameter Information Block
~A  Depth       DCAL        RHOB        RHOC        DPOR         GR         NPOR    
# ...
  2370.8000      7.8475      2.4821      0.0884     10.1774    119.0773     27.9888
  2370.9000      7.8475      2.4865      0.0870      9.9066    117.7651     27.8631
  2371.0000      7.8403      2.4906      0.0865      9.6636    116.4278     27.7262
  2371.1000      7.8403      2.4943      0.0868      9.4376    115.0976     27.5773
  2371.2000      7.8403      2.4978      0.0877      9.2218    113.8131     27.4167
  2371.3000      7.8677      2.5013      0.0889      9.0127    112.6139     27.2461
  2371.4000      7.8677      2.5047      0.0902      8.8090    111.5341     27.0668
  2371.5000      7.8910      2.5079      0.0911      8.6106    110.5977     26.8803
  2371.6000      7.8910      2.5111      0.0913      8.4179    109.8177     26.6876
  2371.7000      7.8910      2.5142      0.0907      8.2308    109.1965     26.4890
  2371.8000      7.8977      2.5172      0.0891      8.0485    108.7288     26.2852
  2371.9000      7.8977      2.5202      0.0867      7.8685    108.4045     26.0774
  2372.0000      7.8970      2.5232      0.0836      7.6876    108.2135     25.8676
  2372.1000      7.8970      2.5262      0.0803      7.5015    108.1422     25.6593
  2372.2000      7.8970      2.5295      0.0772      7.3055    108.1726     25.4570
  2372.3000      7.8894      2.5329      0.0747      7.0954    108.2797     25.2658
  2372.4000      7.8894      2.5367      0.0733      6.8677    108.4297     25.0907
  2372.5000      7.8773      2.5408      0.0734      6.6203    108.5765     24.9353
  2372.6000      7.8773      2.5452      0.0749      6.3534    108.6706     24.8021
  2372.7000      7.8773      2.5499      0.0779      6.0692    108.6583     24.6915
  2372.8000      7.8639      2.5548      0.0820      5.7723    108.4889     24.6021
  2372.9000      7.8639      2.5598      0.0870      5.4691    108.1239     24.5314
  2373.0000      7.8529      2.5647      0.0921      5.1676    107.5336     24.4765
  2373.1000      7.8529      2.5695      0.0970      4.8767    106.7036     24.4347
  2373.2000      7.8529      2.5740      0.1011      4.6055    105.6321     24.4036
  2373.3000      7.8447      2.5780      0.1041      4.3625    104.3300     24.3816
  2373.4000      7.8447      2.5814      0.1057      4.1554    102.8181     24.3673
  2373.5000      7.8434      2.5842      0.1058      3.9898    101.1306     24.3586
  2373.6000      7.8434      2.5861      0.1044      3.8697     99.3141     24.3527
  2373.7000      7.8434      2.5874      0.1016      3.7967     97.4279     24.3456
  2373.8000      7.8529      2.5878      0.0978      3.7702     95.5413     24.3317
  2373.9000      7.8529      2.5875      0.0932      3.7875     93.7353     24.3049
  2374.0000      7.8681      2.5866      0.0880      3.8439     92.0889     24.2589
  2374.1000      7.8681      2.5851      0.0827      3.9333     90.6741     24.1891
  2374.2000      7.8681      2.5832      0.0775      4.0486     89.5453     24.0933
  2374.3000      7.8796      2.5810      0.0725      4.1816     88.7296     23.9725
  2374.4000      7.8796      2.5786      0.0680      4.3243     88.2205     23.8306
  2374.5000      7.8828      2.5763      0.0639      4.4689     87.9807     23.6736
  2374.6000      7.8828      2.5740      0.0604      4.6078     87.9421     23.5087
  2374.7000      7.8828      2.5719      0.0573      4.7352     88.0181     23.3423
  2374.8000      7.8822      2.5700      0.0546      4.8461     88.1148     23.1780
  2374.9000      7.8822      2.5685      0.0523      4.9375     88.1435     23.0167
  2375.0000      7.8828      2.5674      0.0503      5.0085     88.0305     22.8554
  2375.1000      7.8828      2.5665      0.0484      5.0604     87.7238     22.6883
  2375.2000      7.8828      2.5659      0.0466      5.0967     87.1996     22.5084
  2375.3000      7.8845      2.5655      0.0450      5.1233     86.4586     22.3091
  2375.4000      7.8845      2.5651      0.0434      5.1481     85.5242     22.0854
  2375.5000      7.8859      2.5645      0.0419      5.1812     84.4389     21.8368
  2375.6000      7.8859      2.5636      0.0404      5.2340     83.2596     21.5674
  2375.7000      7.8859      2.5622      0.0390      5.3192     82.0540     21.2865
  2375.8000      7.8894      2.5601      0.0375      5.4494     80.8975     21.0084
  2375.9000      7.8894      2.5570      0.0360      5.6371     79.8683     20.7505
  2376.0000      7.8931      2.5528      0.0343      5.8934     79.0469     20.5325
  2376.1000      7.8931      2.5472      0.0325      6.2275     78.5102     20.3734
  2376.2000      7.8931      2.5404      0.0305      6.6453     78.3318     20.2911
  2376.3000      7.8921      2.5320      0.0282      7.1496     78.5780     20.2999
  2376.4000      7.8921      2.5223      0.0257      7.7392     79.3062     20.4096
  2376.5000      7.8891      2.5113      0.0231      8.4087     80.5659     20.6260
  2376.6000      7.8891      2.4990      0.0206      9.1488     82.3931     20.9497
  2376.7000      7.8891      2.4859      0.0183      9.9467     84.8091     21.3771
  2376.8000      7.8871      2.4720      0.0166     10.7867     87.8147     21.9012
  2376.9000      7.8871      2.4578      0.0157     11.6510     91.3854     22.5114
  2377.0000      7.8865      2.4434      0.0159     12.5207     95.4681     23.1943
  2377.1000      7.8865      2.4293      0.0175     13.3772     99.9789     23.9340
  2377.2000      7.8865      2.4157      0.0205     14.2028    104.8050     24.7120
  2377.3000      7.8865      2.4028      0.0249     14.9817    109.8114     25.5078
  2377.4000      7.8865      2.3909      0.0306     15.7006    114.8446     26.2995
  2377.5000      7.8865      2.3802      0.0374     16.3491    119.7507     27.0647
  2377.6000      7.8865      2.3708      0.0450     16.9196    124.3799     27.7817
  2377.7000      7.8865      2.3628      0.0530     17.4075    128.5979     28.4308
  2377.8000      7.8884      2.3561      0.0610     17.8107    132.2964     28.9963
  2377.9000      7.8884      2.3509      0.0687     18.1289    135.3974     29.4673
  2378.0000      7.9018      2.3470      0.0758     18.3634    137.8542     29.8387
  2378.1000      7.9018      2.3445      0.0822     18.5161    139.6534     30.1111
  2378.2000      7.9018      2.3433      0.0877     18.5895    140.8134     30.2893
  2378.3000      7.9408      2.3433      0.0922     18.5860    141.3735     30.3819
  2378.4000      7.9408      2.3446      0.0959     18.5075    141.3910     30.3987
  2378.5000      7.9911      2.3471      0.0986     18.3557    140.9307     30.3492
  2378.6000      7.9911      2.3508      0.1005     18.1319    140.0603     30.2408
  2378.7000      7.9911      2.3557      0.1016     17.8373    138.8467     30.0781
  2378.8000      8.0053      2.3617      0.1020     17.4731    137.3519     29.8623
  2378.9000      8.0053      2.3688      0.1019     17.0409    135.6331     29.5921
  2379.0000      7.9726      2.3770      0.1014     16.5430    133.7473     29.2646
  2379.1000      7.9726      2.3863      0.1005     15.9827    131.7454     28.8770
  2379.2000      7.9726      2.3965      0.0994     15.3649    129.6776     28.4283
  2379.3000      7.9249      2.4075      0.0982     14.6955    127.5882     27.9200
  2379.4000      7.9249      2.4193      0.0970     13.9826    125.5193     27.3573
  2379.5000      7.8892      2.4316      0.0958     13.2352    123.5094     26.7488
  2379.6000      7.8892      2.4443      0.0946     12.4644    121.5925     26.1057
  2379.7000      7.8892      2.4572      0.0935     11.6821    119.8026     25.4405
  2379.8000      7.8655      2.4701      0.0922     10.9013    118.1734     24.7663
  2379.9000      7.8655      2.4828      0.0909     10.1350    116.7388     24.0950
  2380.0000      7.8510      2.4950      0.0893      9.3966    115.5295     23.4376
  2380.1000      7.8510      2.5065      0.0875      8.6984    114.5651     22.8033
  2380.2000      7.8510      2.5171      0.0854      8.0518    113.8520     22.1998
  2380.3000      7.8426      2.5268      0.0830      7.4665    113.3736     21.6336
