~Version Information
VERS.                      2.0: CWLS Log ASCII Standard - VERSION 2.0
WRAP.                       NO: One line per depth step
~Well Information Block
STRT.FT                -7.0000: 
STOP.FT              1863.5000: 
STEP.FT                 0.2500: 
NULL.                -999.2500: 
COMP.          Pioneer Natural Resources: COMPANY
WELL.            Formula 23-11: WELL
FLD.           Purgatorie River: FIELD
LOC.           1976' FSL & 1935' FWL--: LOCATION
PROV.                       CO: PROVINCE
CNTY.               Las Animas: COUNTRY
SRVC.          Patterson Wireline: SERVICE COMPANY
DATE.          Wed Jun 15 14:44:40 2005: LOG DATE
UWI.           05 071 08399 00: UNIQUE WELL ID
~Curve Information Block
DEPT.FT            0 000 00 00: Depth
CCL.                          : Casing Collar Locator
TT3.usec                      : CBL 3' Travel Time
AMP3.mV                       : CBL 3' Amplitude
GR.GAPI                       : Gamma Ray
~Parameter Information Block
~A  Depth       CCL         TT3         AMP3         GR     
# ...
   596.0000      0.0000    856.1364      5.8194    107.3857
   596.2500      0.0000    852.6707      5.8762    102.9500
   596.5000      0.0000    849.6729      5.8783    100.6145
   596.7500      0.0000    845.0043      5.8090    100.5177
   597.0000      0.0000    837.3578      5.6504    102.2241
   597.2500      0.0000    827.3500      5.4143    105.0620
   597.5000      0.0000    817.3824      5.1627    107.9310
   597.7500      0.0000    810.6441      4.9902    109.5128
   598.0000      0.0000    808.6319      4.9673    109.1044
   598.2500      0.0000    809.2008      5.0934    107.1652
   598.5000      0.0000    809.0124      5.3039    105.0350
   598.7500      0.0000    808.1672      5.5223    104.1530
   599.0000      0.0000    810.1700      5.7036    105.2758
   599.2500      0.0000    817.2768      5.8315    107.8516
   599.5000      0.0000    828.0723      5.8879    109.8554
   599.7500      0.0000    839.2653      5.8440    108.7609
   600.0000      0.0000    847.7510      5.6896    103.4664
   600.2500      0.0000    851.4955      5.4583     95.4011
   600.5000      0.0000    850.6030      5.2152     87.4961
   600.7500      0.0000    847.5277      5.0261     82.0455
   601.0000      0.0000    844.8319      4.9428     79.4047
   601.2500      0.0000    842.6610      4.9967     78.2015
   601.5000      0.0000    839.3066      5.1805     76.6259
   601.7500      0.0000    833.9617      5.4356     73.9531
   602.0000      0.0000    827.7684      5.6761     71.1029
   602.2500      0.0000    822.1229      5.8331     69.5449
   602.5000      0.0000    816.9440      5.8733     69.5419
   602.7500      0.0000    811.0322      5.7928     69.6114
   603.0000      0.0000    803.7202      5.6166     67.8196
   603.2500      0.0000    795.8262      5.4039     63.6699
   603.5000      0.0000    789.0276      5.2312     58.7838
   603.7500      0.0000    784.4912      5.1541     55.6978
   604.0000      0.0000    782.1982      5.1762     55.8454
   604.2500      0.0000    781.3550      5.2478     58.5917
   604.5000      0.0000    781.1298      5.3052     62.0515
   604.7500      0.0000    781.0247      5.3235     64.8383
   605.0000      0.0000    780.8592      5.3321     67.1564
   605.2500      0.0000    780.6170      5.3705     70.1214
   605.5000      0.0000    780.3282      5.4350     74.0451
   605.7500      0.0000    780.0306      5.4738     77.6562
   606.0000      0.0000    779.7764      5.4331     78.9869
   606.2500      0.0000    779.6124      5.3077     76.8386
   606.5000      0.0000    779.5346      5.1509     71.6807
   606.7500      0.0000    779.4778      5.0396     65.5368
   607.0000      0.0000    779.3678      5.0254     60.8687
   607.2500      0.0000    779.1847      5.1069     59.1128
   607.5000      0.0000    778.9788      5.2343     59.9920
   607.7500      0.0000    778.8367      5.3479     62.1453
   608.0000      0.0000    778.8367      5.4214     64.2677
   608.2500      0.0000    779.0145      5.4699     65.6829
   608.5000      0.0000    779.3422      5.5139     66.2006
   608.7500      0.0000    779.7299      5.5440     65.8619
   609.0000      0.0000    780.0609      5.5261     64.8187
   609.2500      0.0000    780.2542      5.4396     63.2703
   609.5000      0.0000    780.3071      5.3058     61.5495
   609.7500      0.0000    780.2734      5.1762     60.2540
   610.0000      0.0000    780.2021      5.0950     59.9392
   610.2500      0.0000    780.0868      5.0787     60.4769
   610.5000      0.0000    779.9054      5.1181     61.0560
   610.7500      0.0000    779.8007      5.1833     61.2888
   611.0000      0.0000    780.5356      5.2328     62.1038
   611.2500      0.0000    783.9434      5.2347     64.8023
   611.5000      0.0000    792.3275      5.1769     69.0165
   611.7500      0.0000    806.1600      5.0581     72.3095
   612.0000      0.0000    822.1143      4.8912     72.3615
   612.2500      0.0000    834.6984      4.7169     69.1860
   612.5000      0.0000    840.5676      4.5866     64.8322
   612.7500      0.0000    840.3619      4.5144     61.4735
   613.0000      2.0000    836.4521      4.4628     60.1898
   613.2500      2.0000    830.7598      4.3927     61.0527
   613.5000      0.0000    824.8824      4.3201     63.7039
   613.7500      0.0000    819.8788      4.3057     67.8750
   614.0000      0.0000    815.0587      4.3846     73.7185
   614.2500      0.0000    808.7220      4.5247     81.8920
   614.5000      0.0000    800.6844      4.6603     93.1837
   614.7500      0.0000    792.8382      4.7532    107.5118
   615.0000      0.0000    787.1378      4.8063    122.9625
   615.2500      0.0000    783.9714      4.8395    136.3462
   615.5000      0.0000    782.4448      4.8782    145.2170
   615.7500      0.0000    781.3515      4.9510    149.2289
   616.0000      0.0000    779.7866      5.0654    149.5857
   616.2500      0.0000    777.5288      5.1969    147.5566
   616.5000      0.0000    775.2799      5.3218    143.5001
   616.7500      0.0000    774.2328      5.4437    137.0184
   617.0000      0.0000    774.9984      5.5695    128.2002
   617.2500      0.0000    777.0343      5.6857    118.9739
   617.5000      0.0000    779.3444      5.7794    112.8851
   617.7500      0.0000    781.4559      5.8474    112.7420
   618.0000      0.0000    783.3771      5.8680    118.2011
   618.2500      0.0000    784.8352      5.8049    126.0026
   618.5000      0.0000    785.1235      5.6718    132.6799
   618.7500      0.0000    783.8892      5.5565    136.8530
   619.0000      0.0000    781.7087      5.5411    139.1055
   619.2500      0.0000    779.5986      5.6099    140.3239
   619.5000      0.0000    778.1806      5.6624    140.4935
   619.7500      0.0000    777.4871      5.6182    138.9733
   620.0000      0.0000    777.3295      5.4957    135.6112
   620.2500      0.0000    777.5907      5.3808    131.3240
   620.5000      0.0000    778.2095      5.3257    127.6320
   620.7500      0.0000    779.0453      5.2958    125.7742
   621.0000      0.0000    779.8544      5.2245    126.0091
   621.2500      0.0000    780.4324      5.1045    127.4130
   621.5000      0.0000    780.7833      5.0052    128.6453
   621.7500      0.0000    781.1366      5.0051    129.1892
   622.0000      0.0000    781.8953      5.1181    129.5596
   622.2500      0.0000    783.7587      5.2841    130.2630
   622.5000      0.0000    787.9728      5.4285    131.1367
   622.7500      0.0000    796.0715      5.5268    131.8972
   623.0000      0.0000    808.5434      5.6054    132.7597
   623.2500      0.0000    823.0939      5.6850    134.1278
   623.5000      0.0000    834.5242      5.7440    135.8281
   623.7500      0.0000    837.4936      5.7450    136.8527
   624.0000      0.0000    830.4947      5.6819    135.9643
   624.2500      0.0000    817.4703      5.5911    132.7427
   624.5000      0.0000    805.3018      5.5172    128.1346
   624.7500      0.0000    799.2843      5.4682    123.9524
   625.0000      0.0000    800.3675      5.4064    121.7504
   625.2500      0.0000    805.8633      5.2942    121.9113
   625.5000      0.0000    812.2839      5.1456    123.4639
   625.7500      0.0000    817.8705      5.0136    124.6409
   626.0000      0.0000    823.2379      4.9241    123.9107
   626.2500      0.0000    830.1141      4.8507    120.8517
   626.5000      0.0000    839.3499      4.7690    116.2077
   626.7500      0.0000    849.8007      4.6995    111.2186
   627.0000      0.0000    859.0814      4.6748    107.0177
   627.2500      0.0000    865.4161      4.6853    104.4596
   627.5000      0.0000    868.6715      4.6892    104.0069
   627.7500      0.0000    869.8105      4.6662    105.5468
   628.0000      0.0000    869.8870      4.6341    108.5981
   628.2500      0.0000    869.7355      4.6126    112.8171
   628.5000      0.0000    870.0023      4.5997    117.9583
   628.7500      0.0000    870.6046      4.5877    123.1554
   629.0000      0.0000    870.0018      4.5832    126.6693
   629.2500      0.0000    865.8524      4.6030    126.9816
