~Version Information
VERS.                      2.0: CWLS Log ASCII Standard - VERSION 2.0
WRAP.                       NO: One line per depth step
~Well Information Block
STRT.FT               840.0000: 
STOP.FT              2019.0000: 
STEP.FT                 0.2500: 
NULL.                -999.2500: 
COMP.          Petrogulf Corporation: COMPANY
WELL.           Lavedure 7-44R: WELL
FLD.           Purgatorie River: FIELD
LOC.           946' FSL & 521' FEL: LOCATION
PROV.                 Colorado: PROVINCE
CNTY.               Las Animas: COUNTRY
SRVC.                Patterson: SERVICE COMPANY
DATE.          Mon Sep 26 08:35:42 2005: LOG DATE
UWI.                          : UNIQUE WELL ID
~Curve Information Block
DEPT.FT            0 000 00 00: Depth
SP.mV                         : DIL Spontaneous Potential
RILD.Ohm-m                    : DIL Deep Resistivity
RILM.Ohm-m                    : DIL Medium Resistivity
RLL3.Ohm-m                    : DIL Shallow Resistivity
GR.GAPI                       : Gamma Ray
~Parameter Information Block
~A  Depth        SP         RILD        RILM        RLL3         GR     
# ...
  1596.0000    221.0183      6.8369      6.6600      7.9095    167.8854
  1596.2500    218.9958      6.9842      6.6820      7.3374    152.2375
  1596.5000    217.0204      7.1574      6.7883      7.0445    164.0418
  1596.7500    214.9516      7.3929      6.9917      7.0621    177.3640
  1597.0000    212.9341      7.6424      7.3136      7.2014    181.1302
  1597.2500    211.1961      7.8006      7.7432      7.7337    165.8806
  1597.5000    209.5409      7.9515      8.4042      8.7610    169.6263
  1597.7500    208.1767      8.2129      9.1966     11.1744    155.0139
  1598.0000    207.3042      8.4956      9.8510     16.2573    160.9708
  1598.2500    206.7391      8.7350     10.3340     22.7672    136.1214
  1598.5000    206.5268      9.0516     10.5421     22.5961    122.8005
  1598.7500    206.5589      9.4194     10.8529     16.2663    113.9748
  1599.0000    206.5222      9.7975     11.1313     11.9209    144.5696
  1599.2500    206.4012     10.1814     11.6342     10.8005    146.2453
  1599.5000    206.4065     10.4841     12.5545     11.7313    145.4812
  1599.7500    206.7450     10.5672     13.4049     16.1234    135.0507
  1600.0000    207.5106     10.7820     14.0482     24.1406    127.0903
  1600.2500    208.6921     10.8075     13.9872     27.1956    134.3903
  1600.5000    209.8409     10.8656     13.6626     21.4341    162.2062
  1600.7500    210.9641     10.7577     12.6528     16.4265    131.8849
  1601.0000    211.8599     10.8565     11.9327     13.7261    113.0387
  1601.2500    212.5421     10.9281     11.3179     11.2159    113.1985
  1601.5000    212.9419     10.9395     10.9453      9.2072    118.2614
  1601.7500    213.2268     10.8586     11.0127      8.1262    125.2839
  1602.0000    213.4312     10.7053     11.3525      8.3893    142.5207
  1602.2500    213.6169     10.4896     11.8942     10.4593    165.1366
  1602.5000    214.0757     10.1679     12.2546     13.7230    157.4366
  1602.7500    214.8196      9.9114     12.4541     17.0331    156.2513
  1603.0000    215.6114      9.6119     12.3357     18.0426    136.8801
  1603.2500    216.5168      9.4262     11.7486     16.5635    123.3071
  1603.5000    217.5206      9.2207     11.1150     14.3112    126.2462
  1603.7500    218.4577      9.0232     10.5581     11.9360    119.6935
  1604.0000    219.2496      8.9381     10.0562     10.3353    122.7658
  1604.2500    219.7888      8.8817      9.7351      9.6430    132.4393
  1604.5000    220.0779      8.8025      9.5436      9.3953    122.3745
  1604.7500    220.3041      8.6365      9.2952      9.1668    140.7843
  1605.0000    220.5955      8.4185      9.0830      9.0360    124.8731
  1605.2500    220.8806      8.1702      8.8059      9.1334    151.3647
  1605.5000    221.1117      7.8802      8.4348      9.3761    157.5656
  1605.7500    221.4009      7.6742      8.1289      9.1020    143.4439
  1606.0000    221.5479      7.3830      7.8647      8.7116    149.0209
  1606.2500    221.5781      7.1955      7.5632      8.3035    158.8506
  1606.5000    221.4230      7.0085      7.3196      8.0925    161.5756
  1606.7500    221.3486      6.9552      7.0493      7.9791    154.2270
  1607.0000    221.4523      6.9397      6.8325      7.8013    158.6415
  1607.2500    221.7792      6.9213      6.6647      7.3547    144.4668
  1607.5000    222.4388      6.9427      6.5574      6.8893    137.6857
  1607.7500    223.3974      6.9654      6.5556      6.2914    162.3257
  1608.0000    224.7399      6.9953      6.6405      5.9387    149.6288
  1608.2500    226.2668      6.9953      6.8239      6.7567    151.2759
  1608.5000    227.4854      7.0142      6.9918      7.9079    160.3349
  1608.7500    227.9734      7.0310      7.2169      8.1587    161.9899
  1609.0000    227.9239      6.9629      7.4287      8.2040    143.9491
  1609.2500    227.5658      6.9615      7.6054      8.8078    144.4677
  1609.5000    227.0938      6.9300      7.7585      9.8691    144.1932
  1609.7500    226.3926      6.9951      7.7709     11.3812    127.8513
  1610.0000    225.6577      7.1704      7.6585     11.4670    122.7451
  1610.2500    224.8503      7.3311      7.6262      9.4035    129.2687
  1610.5000    224.0461      7.4542      7.5317      7.5835    145.5717
  1610.7500    223.0356      7.4787      7.5913      6.9173    143.5696
  1611.0000    222.0345      7.5617      7.7307      7.1652    125.4217
  1611.2500    221.1141      7.5749      7.9758      7.6564    153.1582
  1611.5000    220.2434      7.6225      8.2481      8.5932    155.5348
  1611.7500    219.4161      7.5920      8.5058      9.4006    147.9961
  1612.0000    218.6530      7.5015      8.6986     10.2809    122.0908
  1612.2500    217.8250      7.3877      8.7122     11.9009    128.5095
  1612.5000    217.0609      7.3368      8.5379     13.5297    107.5578
  1612.7500    216.2058      7.3870      8.2520     13.7576    123.8751
  1613.0000    215.1340      7.4828      7.9847     12.2310    123.9720
  1613.2500    213.7871      7.6311      7.7559      8.8891    121.1451
  1613.5000    212.3204      7.7514      7.6809      6.7623    138.5295
  1613.7500    210.5767      7.8568      7.8032      6.3211    137.1217
  1614.0000    208.7943      7.9715      8.0538      6.7850    157.1514
  1614.2500    207.2151      8.0069      8.4484      7.5691    163.4026
  1614.5000    205.7804      8.0537      8.7738      8.8444    192.5713
  1614.7500    204.5745      8.0852      8.9930      9.6931    184.2785
  1615.0000    203.6926      8.0458      9.0715     10.4275    162.4506
  1615.2500    203.0731      8.0119      9.0334     10.7796    157.9414
  1615.5000    202.3627      8.0393      8.9407     10.7433    136.8154
  1615.7500    201.7333      8.1642      8.9610     10.1796    140.5567
  1616.0000    201.1579      8.2581      8.9705      9.8733    143.3309
  1616.2500    200.5739      8.4695      8.9810      9.5763    123.7375
  1616.5000    200.0007      8.6994      8.9948      9.8034    165.2408
  1616.7500    199.5358      8.9300      8.9515      9.8134    186.8295
  1617.0000    199.2071      9.2336      8.9956      9.5070    157.1035
  1617.2500    199.0083      9.5302      9.0796      8.6000    148.7970
  1617.5000    198.8164      9.8832      9.4590      8.3369    139.3896
  1617.7500    198.5647     10.2638      9.9015      9.4182    152.6491
  1618.0000    198.3636     10.5372     10.7121     11.5576    165.4548
  1618.2500    198.3626     10.6837     11.5675     14.1771    166.4255
  1618.5000    198.5546     10.7290     12.4659     16.4516    127.1437
  1618.7500    198.8085     10.8391     13.2321     18.5002    146.2566
  1619.0000    199.1457     10.7623     13.7014     18.1005    147.3746
  1619.2500    199.5073     10.6637     14.2453     16.9708    123.6038
  1619.5000    200.0030     10.6140     14.1609     17.9261    127.5326
  1619.7500    200.7845     10.6194     14.4591     21.7986    116.1545
  1620.0000    201.8203     10.7069     13.9626     25.0011    129.6525
  1620.2500    203.0265     10.6913     13.0876     22.9856    123.6180
  1620.5000    204.2284     10.6293     12.0245     17.8545    109.8534
  1620.7500    205.2747     10.6845     11.2018     12.3268    115.6050
  1621.0000    206.0483     10.6026     10.4700      8.8150    112.4942
  1621.2500    206.6147     10.4763      9.9429      7.8539    128.4968
  1621.5000    206.8621     10.4354      9.7055      8.3285    160.0469
  1621.7500    206.8942     10.1783      9.6684      8.6659    157.1035
  1622.0000    206.6404     10.0750      9.7189      9.2508    154.0734
  1622.2500    206.1638      9.9893      9.7175      9.5659    152.9743
  1622.5000    205.4264      9.7902      9.7789     10.3438    143.5611
  1622.7500    204.5891      9.7569      9.7980     11.2262    145.1687
  1623.0000    203.7112      9.9034      9.8479     11.4809    135.2437
  1623.2500    202.8107     10.0845      9.9994     11.2103    133.9586
  1623.5000    201.9455     10.3502     10.2557     11.2508    146.8984
  1623.7500    201.2096     10.7562     10.6369     11.3203    125.0219
