~Version Information
VERS.                      2.0: CWLS Log ASCII Standard - VERSION 2.0
WRAP.                       NO: One line per depth step
~Well Information Block
STRT.FT               440.0000: 
STOP.FT              1003.5000: 
STEP.FT                 0.2500: 
NULL.                -999.2500: 
COMP.          Pioneer Natural Resources: COMPANY
WELL.              Dylan 42-25: WELL
FLD.           Purgatoire River: FIELD
LOC.           2160' FNL & 855' FEL: LOCATION
PROV.                 Colorado: PROVINCE
CNTY.               Las Animas: COUNTRY
SRVC.                Patterson: SERVICE COMPANY
DATE.          Sat Apr 23 11:21:51 2005: LOG DATE
UWI.           05 071 08229 00: UNIQUE WELL ID
~Curve Information Block
DEPT.FT            0 000 00 00: Depth
SN.Ohm-m                      : IEL Short Normal
SP.mV                         : IEL Spontaneous Potential
DIR.Ohm-m                     : IEL Induction Resistivity
GR.GAPI                       : Gamma Ray
~Parameter Information Block
~A  Depth        SN          SP         DIR          GR     
# ...
   641.0000      7.4033    -22.9251      7.6616    136.1504
   641.2500      7.3350    -22.8229      7.6197    137.4991
   641.5000      7.2614    -22.7092      7.5934    137.1259
   641.7500      7.1974    -22.5838      7.5838    135.7224
   642.0000      7.1834    -22.4430      7.5883    132.7088
   642.2500      7.2441    -22.2762      7.6011    130.2367
   642.5000      7.3639    -22.0710      7.6154    126.4296
   642.7500      7.5017    -21.8234      7.6252    124.6815
   643.0000      7.6193    -21.5460      7.6277    124.4203
   643.2500      7.6969    -21.2659      7.6236    125.6656
   643.5000      7.7372    -21.0143      7.6165    128.2960
   643.7500      7.7646    -20.8119      7.6122    129.7155
   644.0000      7.8079    -20.6569      7.6185    130.4246
   644.2500      7.8761    -20.5285      7.6439    129.8923
   644.5000      7.9553    -20.4017      7.6962    128.5756
   644.7500      8.0221    -20.2651      7.7804    128.2958
   645.0000      8.0697    -20.1269      7.8987    129.6922
   645.2500      8.1250    -20.0084      8.0503    131.5183
   645.5000      8.2110    -19.9327      8.2329    134.1577
   645.7500      8.3055    -19.9134      8.4434    135.0963
   646.0000      8.3961    -19.9478      8.6792    134.7011
   646.2500      8.5465    -20.0172      8.9394    133.2486
   646.5000      8.8447    -20.0951      9.2256    129.5031
   646.7500      9.3252    -20.1580      9.5396    126.0653
   647.0000      9.9683    -20.1919      9.8801    119.6854
   647.2500     10.7288    -20.1878     10.2374    114.8197
   647.5000     11.5364    -20.1340     10.5921    107.1950
   647.7500     12.2841    -20.0164     10.9189    102.4535
   648.0000     12.8554    -19.8277     11.1960     97.2657
   648.2500     13.2117    -19.5786     11.4154     95.9275
   648.5000     13.4252    -19.2975     11.5870     97.5199
   648.7500     13.5647    -19.0221     11.7313    100.3580
   649.0000     13.6055    -18.7878     11.8640    105.6006
   649.2500     13.4909    -18.6182     11.9831    109.1205
   649.5000     13.2201    -18.5190     12.0671    114.0576
   649.7500     12.8523    -18.4790     12.0836    116.8030
   650.0000     12.4653    -18.4756     12.0045    119.1137
   650.2500     12.1166    -18.4854     11.8194    119.1781
   650.5000     11.8246    -18.4920     11.5427    118.0994
   650.7500     11.5857    -18.4898     11.2111    117.7647
   651.0000     11.3939    -18.4807     10.8717    119.1363
   651.2500     11.2412    -18.4675     10.5669    121.1245
   651.5000     11.1161    -18.4473     10.3239    124.4248
   651.7500     11.0109    -18.4084     10.1516    126.2140
   652.0000     10.9201    -18.3335     10.0453    128.0544
   652.2500     10.8292    -18.2106      9.9940    128.7968
   652.5000     10.7189    -18.0444      9.9854    129.0134
   652.7500     10.5842    -17.8610     10.0080    128.4167
   653.0000     10.4436    -17.6993     10.0495    126.7399
   653.2500     10.3313    -17.5879     10.0978    125.5804
   653.5000     10.2745    -17.5195     10.1453    124.4667
   653.7500     10.2745    -17.4511     10.1952    124.4127
   654.0000     10.3226    -17.3374     10.2626    125.8187
   654.2500     10.4275    -17.1666     10.3670    127.7608
   654.5000     10.6066    -16.9628     10.5231    131.0767
   654.7500     10.8607    -16.7607     10.7352    132.4989
   655.0000     11.1799    -16.5857     10.9996    132.4068
   655.2500     11.5616    -16.4491     11.3092    131.1624
   655.5000     12.0009    -16.3530     11.6574    128.7992
   655.7500     12.4669    -16.2956     12.0347    127.2989
   656.0000     12.9098    -16.2748     12.4238    124.7694
   656.2500     13.3023    -16.2872     12.7965    122.5139
   656.5000     13.6665    -16.3245     13.1184    118.4010
   656.7500     14.0437    -16.3724     13.3596    115.5777
   657.0000     14.4432    -16.4115     13.5033    111.3774
   657.2500     14.8218    -16.4188     13.5492    108.2067
   657.5000     15.1017    -16.3716     13.5116    102.4193
   657.7500     15.2190    -16.2572     13.4151     98.2964
   658.0000     15.1496    -16.0812     13.2901     93.6470
   658.2500     14.9100    -15.8658     13.1637     92.8794
   658.5000     14.5650    -15.6388     13.0519     96.4470
   658.7500     14.1959    -15.4177     12.9534    101.6165
   659.0000     13.8563    -15.2022     12.8525    111.5132
   659.2500     13.5648    -14.9786     12.7269    118.1719
   659.5000     13.2850    -14.7309     12.5561    126.4857
   659.7500     12.9286    -14.4528     12.3277    130.2951
   660.0000     12.4477    -14.1514     12.0407    133.0847
   660.2500     11.9052    -13.8420     11.7080    133.3235
   660.5000     11.4288    -13.5343     11.3567    132.7178
   660.7500     11.1339    -13.2250     11.0234    132.7566
   661.0000     11.0757    -12.9023     10.7439    134.5763
   661.2500     11.1985    -12.5563     10.5436    136.6966
   661.5000     11.3357    -12.1830     10.4320    139.7295
   661.7500     11.3201    -11.7844     10.4033    140.8919
   662.0000     11.1104    -11.3712     10.4417    140.8246
   662.2500     10.7955    -10.9660     10.5292    139.4991
   662.5000     10.5250    -10.5999     10.6515    135.6144
   662.7500     10.4568    -10.3049     10.8014    131.9956
   663.0000     10.6990    -10.1084     10.9783    125.9034
   663.2500     11.2592    -10.0292     11.1870    122.0145
   663.5000     12.0613    -10.0746     11.4354    117.2272
   663.7500     13.0010    -10.2367     11.7330    114.8633
   664.0000     13.9747    -10.4909     12.0915    112.2906
   664.2500     14.8923    -10.8000     12.5277    111.0806
   664.5000     15.7059    -11.1247     13.0649    110.1710
   664.7500     16.4285    -11.4351     13.7274    110.2653
   665.0000     17.1494    -11.7193     14.5286    110.9924
   665.2500     18.0133    -11.9848     15.4611    111.2476
   665.5000     19.0929    -12.2515     16.4994    110.4549
   665.7500     20.3356    -12.5381     17.6163    109.1819
   666.0000     21.6993    -12.8486     18.7964    106.8470
   666.2500     23.1957    -13.1685     20.0298    105.2233
   666.5000     24.7727    -13.4701     21.2948    102.3188
   666.7500     26.2850    -13.7245     22.5501     99.8012
   667.0000     27.6338    -13.9087     23.7512     95.3483
   667.2500     28.8706    -14.0064     24.8730     92.2919
   667.5000     30.0757    -14.0063     25.9156     87.8957
   667.7500     31.1893    -13.9062     26.8863     84.9875
   668.0000     32.0566    -13.7232     27.7772     80.4029
   668.2500     32.5766    -13.4918     28.5558     77.2129
   668.5000     32.7693    -13.2445     29.1812     72.4860
   668.7500     32.7488    -12.9943     29.6380     69.5141
   669.0000     32.6446    -12.7383     29.9572     65.3919
   669.2500     32.5425    -12.4733     30.1983     62.7807
   669.5000     32.4776    -12.2047     30.3974     58.8577
   669.7500     32.4390    -11.9428     30.5305     56.2932
   670.0000     32.3949    -11.6964     30.5357     53.2152
   670.2500     32.3355    -11.4718     30.3828     52.3051
   670.5000     32.2703    -11.2712     30.1299     53.4969
   670.7500     32.2007    -11.0898     29.9071     56.0286
   671.0000     32.1240    -10.9163     29.8406     61.4400
   671.2500     32.0417    -10.7412     29.9762     65.1324
   671.5000     31.9534    -10.5662     30.2461     69.2872
   671.7500     31.8560    -10.4046     30.4883     70.8023
   672.0000     31.7430    -10.2714     30.5203     71.6875
   672.2500     31.5949    -10.1764     30.2367     71.9629
   672.5000     31.3819    -10.1265     29.6663     72.6729
   672.7500     31.0793    -10.1346     28.9415     73.3589
   673.0000     30.6734    -10.2205     28.2148     74.3241
   673.2500     30.1556    -10.4010     27.5947     74.9646
   673.5000     29.5321    -10.6737     27.1318     76.8248
   673.7500     28.8482    -11.0106     26.8355     79.2351
   674.0000     28.1802    -11.3674     26.6926     84.5112
   674.2500     27.5990    -11.7036     26.6745     88.4019
