~Version Information
VERS.                      2.0: CWLS Log ASCII Standard - VERSION 2.0
WRAP.                       NO: One line per depth step
~Well Information Block
STRT.FT                -8.2500: 
STOP.FT              2209.7500: 
STEP.FT                 0.2500: 
NULL.                -999.2500: 
COMP.          Petrogulf Corporation: COMPANY
WELL.          Alexander 9-43V: WELL
FLD.           Purgatorie River: FIELD
LOC.                          : LOCATION
CNTY.               Las Animas: COUNTY
SRVC.                         : SERVICE COMPANY
DATE.          Wed May 28 09:25:28 2003: LOG DATE
UWI.           05 071 07727 00: UNIQUE WELL ID
STAT.                 Colorado: STATE
~Curve Information Block
DEPT.FT            0 000 00 00: Depth
CCL.                          : Casing Collar Locator
TT3.usec                      : CBL 3' Travel Time
AMP3.mV                       : CBL 3' Amplitude
GR.GAPI                       : Gamma Ray
~Parameter Information Block
~A  Depth       CCL         TT3         AMP3         GR     
# ...
   125.7500      0.0000    494.3144     10.0473     48.5126
   126.0000      0.0000    483.9996     10.0912     49.3931
   126.2500      0.0000    463.9310     10.1549     48.9875
   126.5000      0.0000    436.9967     10.2068     48.2739
   126.7500      0.0000    409.3382     10.2219     48.7624
   127.0000      0.0000    389.0436     10.1867     51.3384
   127.2500      0.0000    381.4245     10.0973     55.9002
   127.5000      0.0000    385.7787      9.9611     61.7128
   127.7500      0.0000    396.0999      9.7903     67.8048
   128.0000      0.0000    405.0005      9.5928     73.1870
   128.2500      0.0000    408.6092      9.3772     77.1628
   128.5000      0.0000    408.8188      9.1588     79.7368
   128.7500      0.0000    411.1907      8.9463     81.6619
   129.0000      0.0000    421.3265      8.7298     83.8771
   129.2500      0.0000    442.2470      8.4995     86.8075
   129.5000      0.0000    471.4875      8.2678     90.1641
   129.7500      0.0000    498.8270      8.0616     93.3597
   130.0000      0.0000    510.4624      7.9022     96.0165
   130.2500      0.0000    499.7549      7.7990     98.0794
   130.5000      0.0000    473.6189      7.7510     99.4575
   130.7500      0.0000    446.6768      7.7533     99.6473
   131.0000      0.0000    430.6839      7.8011     98.0136
   131.2500      0.0000    430.3047      7.8857     94.7596
   131.5000      0.0000    445.5627      7.9870     91.5290
   131.7500      0.0000    474.9180      8.0810     90.6196
   132.0000      0.0000    516.4688      8.1563     93.2166
   132.2500      0.0000    567.2296      8.2177     98.3655
   132.5000      0.0000    620.2526      8.2783    103.8010
   132.7500      0.0000    662.5320      8.3462    107.6607
   133.0000      0.0000    678.7901      8.4198    109.1202
   133.2500      0.0000    660.4738      8.4910    107.6823
   133.5000      0.0000    613.1404      8.5485    102.9727
   133.7500      0.0000    555.6763      8.5771     95.8268
   134.0000      0.0000    510.8548      8.5667     88.6644
   134.2500      0.0000    494.1077      8.5240     83.9367
   134.5000      0.0000    508.2734      8.4716     82.5878
   134.7500      0.0000    544.3439      8.4351     84.1772
   135.0000      0.0000    585.3074      8.4318     87.3945
   135.2500      0.0000    613.4196      8.4676     90.1334
   135.5000      0.0000    618.6105      8.5397     90.3437
   135.7500      0.0000    600.7817      8.6390     87.7584
   136.0000      0.0000    565.5956      8.7508     84.2487
   136.2500      0.0000    521.1735      8.8558     81.8682
   136.5000      0.0000    477.2402      8.9347     80.8720
   136.7500      0.0000    442.1306      8.9776     80.0710
   137.0000      0.0000    418.8796      8.9894     78.7734
   137.2500      0.0000    405.5052      8.9837     77.8150
   137.5000      0.0000    398.8144      8.9716     78.6270
   137.7500      0.0000    396.9430      8.9583     81.5757
   138.0000      0.0000    399.1270      8.9438     85.4704
   138.2500      0.0000    404.4402      8.9248     88.6869
   138.5000      0.0000    411.0862      8.8998     90.6381
   138.7500      0.0000    416.5290      8.8712     92.1873
   139.0000      0.0000    418.4017      8.8437     94.8253
   139.2500      0.0000    415.6611      8.8264     99.3902
   139.5000      0.0000    409.1937      8.8379    105.3347
   139.7500      0.0000    401.5913      8.8970    111.1510
   140.0000      0.0000    396.5234      9.0012    115.3535
   140.2500      0.0000    398.1975      9.1221    116.9961
   140.5000      0.0000    410.3990      9.2246    115.7305
   140.7500      0.0000    433.8741      9.2877    111.9408
   141.0000      0.0000    462.6988      9.3114    106.6281
   141.2500      0.0000    484.5640      9.3117    100.7011
   141.5000      0.0000    488.2705      9.3081     94.4205
   141.7500      0.0000    472.0611      9.3141     87.8555
   142.0000      0.0000    443.7255      9.3342     81.7405
   142.2500      0.0000    413.6711      9.3648     77.4577
   142.5000      0.0000    389.1045      9.3967     75.9316
   142.7500      0.0000    372.8729      9.4196     76.5281
   143.0000      0.0000    364.7542      9.4293     77.3216
   143.2500      0.0000    362.7652      9.4304     76.6984
   143.5000      0.0000    364.1485      9.4291     74.5162
   143.7500      0.0000    366.4198      9.4270     71.5511
   144.0000      0.0000    368.0960      9.4250     68.4458
   144.2500      0.0000    368.6473      9.4286     65.7328
   144.5000      0.0000    367.8616      9.4471     64.2457
   144.7500      0.0000    365.4117      9.4896     64.6381
   145.0000      0.0000    361.3857      9.5634     66.6110
   145.2500      0.0000    357.9397      9.6680     69.1796
   145.5000      0.0000    360.8650      9.7875     71.6941
   145.7500      0.0000    378.2474      9.8930     74.2044
   146.0000      0.0000    414.2625      9.9583     76.7406
   146.2500      0.0000    461.6294      9.9747     78.7226
   146.5000      0.0000    502.6536      9.9504     79.5406
   146.7500      0.0000    523.0023      9.9003     79.5666
   147.0000      0.0000    525.0328      9.8408     79.9466
   147.2500      0.0000    523.9904      9.7830     81.0813
   147.5000      0.0000    531.3957      9.7110     81.7492
   147.7500      0.0000    544.9065      9.5694     80.2045
   148.0000      0.0000    553.2430      9.2955     75.9474
   148.2500      0.0000    548.8432      8.8811     70.0766
   148.5000      0.0000    535.5614      8.4025     64.1716
   148.7500      0.0000    523.0848      7.9829     59.2667
   149.0000      0.0000    515.2643      7.7202     55.7417
   149.2500      0.0000    508.5257      7.6374     53.6320
   149.5000      3.4155    500.9206      7.6820     52.8537
   149.7500      0.0000    496.4668      7.7712     53.2992
   150.0000      5.0000    498.7611      7.8492     54.7357
   150.2500      0.0000    503.8474      7.9306     56.5834
   150.5000      0.0000    501.6346      8.1084     58.0104
   150.7500      0.0000    484.0214      8.5022     58.4330
   151.0000      0.0000    451.8167      9.1403     57.8586
   151.2500      0.0000    413.9763      9.8741     56.6580
   151.5000      0.0000    380.3233     10.4532     55.0586
   151.7500      0.0000    355.6609     10.7250     53.0321
   152.0000      0.0000    339.9082     10.7316     50.7204
   152.2500      0.0000    331.0341     10.6116     48.7982
   152.5000      0.0000    326.8120     10.4683     48.2092
   152.7500      0.0000    325.2387     10.3478     49.4957
   153.0000      0.0000    324.7907     10.2758     52.4892
   153.2500      0.0000    324.6090     10.2724     56.7560
   153.5000      0.0000    324.3897     10.3410     62.2181
   153.7500      0.0000    324.1271     10.4606     68.9977
   154.0000      0.0000    323.8837     10.5940     76.6147
   154.2500      0.0000    323.6784     10.7103     83.7441
   154.5000      0.0000    323.4901     10.8008     89.1191
   154.7500      0.0000    323.2970     10.8759     92.6107
   155.0000      0.0000    323.1092     10.9497     95.2123
   155.2500      0.0000    322.9543     11.0259     97.8308
   155.5000      0.0000    322.8438     11.0963    100.2712
   155.7500      0.0000    322.7685     11.1533    101.7745
   156.0000      0.0000    322.7198     11.1964    102.3051
   156.2500      0.0000    322.6969     11.2232    102.5370
   156.5000      0.0000    322.7018     11.2285    102.5278
   156.7500      0.0000    322.7381     11.2154    101.3000
   157.0000      0.0000    322.8084     11.1923     98.2590
   157.2500      0.0000    322.9087     11.1619     94.5704
   157.5000      0.0000    323.0363     11.1262     92.4717
   157.7500      0.0000    323.1968     11.0919     93.2151
   158.0000      0.0000    323.3914     11.0537     96.0463
   158.2500      0.0000    323.5975     10.9892     99.0891
   158.5000      0.0000    323.7753     10.8875    100.7230
   158.7500      0.0000    323.8968     10.7709    100.0027
   159.0000      0.0000    323.9625     10.6755     96.4466
