~Version Information
 VERS.                      2.0: CWLS Log ASCII Standard - VERSION 2.0
 WRAP.                       NO: One line per depth step
 ~Well Information Block
 STRT.FT              1969.0000: 
 STOP.FT              2129.7500: 
 STEP.FT                 0.2500: 
 NULL.                -999.2500: 
 COMP.          Petrogulf Corporation: COMPANY
 WELL.             State 16-43V: WELL
 FLD.           Purgatorie River: FIELD
 LOC.           2437' FSL & 734' FEL----: LOCATION
 CNTY.               Las Animas: COUNTY
 SRVC.                         : SERVICE COMPANY
 DATE.          Thu Dec 09 15:38:16 2004: LOG DATE
 UWI.                          : UNIQUE WELL ID
 STAT.                       CO: STATE
 PROV.                         :Province
 ~Curve Information Block
 DEPT.FT            0 000 00 00: Depth
 GR.GAPI                       : Gamma Ray
 CCL.                          : Casing Collar Locator
 TT3.usec                      : CBL 3' Travel Time
 AMP3.mV                       : CBL 3' Amplitude
 ~Parameter Information Block
 ~A  Depth        GR         CCL         TT3         AMP3    
  1969.0000   -999.2500   -999.2500   -999.2500   -999.2500
  1969.2500   -999.2500   -999.2500   -999.2500   -999.2500
  1969.5000   -999.2500   -999.2500   -999.2500   -999.2500
  1969.7500   -999.2500   -999.2500   -999.2500   -999.2500
  1970.0000   -999.2500   -999.2500    664.1097     11.5982
  1970.2500   -999.2500   -999.2500    624.8211     11.3911
  1970.5000   -999.2500   -999.2500    597.5100     11.2063
  1970.7500   -999.2500   -999.2500    595.4557     11.0561
  1971.0000   -999.2500   -999.2500    618.2057     10.9108
  1971.2500   -999.2500   -999.2500    652.0327     10.7172
  1971.5000   -999.2500   -999.2500    681.6168     10.4446
  1971.7500   -999.2500   -999.2500    700.0242     10.1216
  1972.0000   -999.2500   -999.2500    709.3940      9.8305
  1972.2500   -999.2500   -999.2500    715.8878      9.6632
  1972.5000   -999.2500   -999.2500    724.5703      9.6787
  1972.7500   -999.2500   -999.2500    736.5126      9.8877
  1973.0000   -999.2500   -999.2500    748.4493     10.2609
  1973.2500   -999.2500   -999.2500    754.9357     10.7447
  1973.5000   -999.2500   -999.2500    752.1780     11.2724
  1973.7500   -999.2500   -999.2500    741.1188     11.7696
  1974.0000   -999.2500   -999.2500    726.8840     12.1549
  1974.2500   -999.2500   -999.2500    714.8774     12.3452
  1974.5000   -999.2500   -999.2500    707.4830     12.2722
  1974.7500   -999.2500   -999.2500    704.0453     11.9056
  1975.0000   -999.2500   -999.2500    702.8095     11.2664
  1975.2500   -999.2500   -999.2500    702.4172     10.4182
  1975.5000   -999.2500   -999.2500    702.2256      9.4428
  1975.7500   -999.2500      0.0000    702.0799      8.4207
  1976.0000   -999.2500      0.0000    702.2219      7.4252
  1976.2500   -999.2500      0.0000    703.5329      6.5180
  1976.5000   -999.2500      0.0000    707.7145      5.7362
  1976.7500   -999.2500      0.0000    716.5417      5.0899
  1977.0000   -999.2500      0.0000    729.6401      4.5771
  1977.2500   -999.2500      0.0000    742.2425      4.1979
  1977.5000   -999.2500      0.0000    745.8810      3.9604
  1977.7500   -999.2500      0.0000    733.4086      3.8806
  1978.0000   -999.2500      0.0000    705.6144      3.9637
  1978.2500   -999.2500      0.0000    673.8878      4.1670
  1978.5000   -999.2500      0.0000    654.7708      4.3950
  1978.7500   -999.2500     -2.0000    659.1716      4.5498
  1979.0000   -999.2500     -2.0000    686.0408      4.5919
  1979.2500   -999.2500      0.0000    725.7442      4.5540
  1979.5000   -999.2500      0.0000    766.6985      4.4995
  1979.7500   -999.2500      0.0000    798.6007      4.4567
  1980.0000   -999.2500      0.0000    814.8185      4.3917
  1980.2500   -999.2500      0.0000    815.8886      4.2548
  1980.5000     61.2682      0.0000    809.0895      4.0476
  1980.7500     65.8656      0.0000    801.9668      3.8243
  1981.0000     69.7941      0.0000    796.6040      3.6352
  1981.2500     71.6155      0.0000    790.9314      3.4921
  1981.5000     70.4846      0.0000    783.7594      3.3865
  1981.7500     66.7614      0.0000    776.3384      3.3203
  1982.0000     61.9334      0.0000    769.6490      3.3114
  1982.2500     57.8363      0.0000    762.6282      3.3769
  1982.5000     55.6556      0.0000    753.8645      3.5145
  1982.7500     55.4671      0.0000    743.8727      3.7013
  1983.0000     56.5220      0.0000    734.8299      3.9102
  1983.2500     57.8301      0.0000    728.5035      4.1226
  1983.5000     58.6217      0.0000    725.0504      4.3241
  1983.7500     58.5659      0.0000    723.5153      4.4944
  1984.0000     57.8813      0.0000    722.8947      4.6137
  1984.2500     57.3669      0.0000    722.6135      4.6810
  1984.5000     58.0831      0.0000    722.4420      4.7182
  1984.7500     60.6588      0.0000    722.3018      4.7470
  1985.0000     64.6295      0.0000    722.1874      4.7648
  1985.2500     68.3259      0.0000    722.1528      4.7473
  1985.5000     69.8975      0.0000    722.2606      4.6739
  1985.7500     69.1544      0.0000    722.6064      4.5484
  1986.0000     68.1435      0.0000    723.6475      4.3974
  1986.2500     69.0270      0.0000    726.9045      4.2532
  1986.5000     71.4479      0.0000    735.2156      4.1362
  1986.7500     72.7441      0.0000    750.4985      4.0506
  1987.0000     70.6866      0.0000    768.9577      3.9936
  1987.2500     65.4021      0.0000    778.9729      3.9615
  1987.5000     58.8744      0.0000    767.9120      3.9468
  1987.7500     53.4350      0.0000    733.9936      3.9387
  1988.0000     50.7591      0.0000    689.8705      3.9318
  1988.2500     51.4241      0.0000    651.5370      3.9260
  1988.5000     54.7733      0.0000    623.4477      3.9131
  1988.7500     59.1187      0.0000    596.4774      3.8760
  1989.0000     62.4385      0.0000    560.8427      3.8099
  1989.2500     63.5280      0.0000    518.2563      3.7359
  1989.5000     62.8875      0.0000    479.4966      3.6844
  1989.7500     62.2994      0.0000    452.6358      3.6693
  1990.0000     63.2657      0.0000    436.8772      3.6822
  1990.2500     65.7560      0.0000    426.6501      3.7070
  1990.5000     68.3640      0.0000    418.0510      3.7353
  1990.7500     69.6305      0.0000    410.5604      3.7675
  1991.0000     69.3788      0.0000    404.9425      3.8020
  1991.2500     68.9344      0.0000    401.3138      3.8262
  1991.5000     69.8948      0.0000    399.0573      3.8231
  1991.7500     72.4927      0.0000    397.5222      3.7877
  1992.0000     75.3066      0.0000    396.4163      3.7369
  1992.2500     76.6751      0.0000    395.7126      3.6984
  1992.5000     76.1867      0.0000    395.4418      3.6906
  1992.7500     74.7500      0.0000    395.5872      3.7126
  1993.0000     73.6624      0.0000    396.0892      3.7532
  1993.2500     73.7774      0.0000    396.8885      3.8041
  1993.5000     75.1000      0.0000    397.9677      3.8619
  1993.7500     76.7241      0.0000    399.4310      3.9211
  1994.0000     77.3010      0.0000    401.6491      3.9696
  1994.2500     75.9283      0.0000    405.3116      3.9928
  1994.5000     72.8331      0.0000    411.0781      3.9824
  1994.7500     69.3342      0.0000    418.8412      3.9419
  1995.0000     67.1951      0.0000    427.3320      3.8844
  1995.2500     67.6302      0.0000    434.7365      3.8272
  1995.5000     70.3100      0.0000    439.9758      3.7876
  1995.7500     73.3412      0.0000    443.4857      3.7781
  1996.0000     74.7732      0.0000    447.1258      3.7970
  1996.2500     74.2168      0.0000    453.2987      3.8243
  1996.5000     72.7113      0.0000    462.9847      3.8345
  1996.7500     71.1689      0.0000    473.5185      3.8158
  1997.0000     69.5212      0.0000    479.3078      3.7718
  1997.2500     67.4830      0.0000    476.6418      3.7083
  1997.5000     65.5119      0.0000    467.5267      3.6261
  1997.7500     64.4347      0.0000    457.7578      3.5321
  1998.0000     64.3743      0.0000    452.3277      3.4441
  1998.2500     64.7166      0.0000    454.0998      3.3782
  1998.5000     65.1374      0.0000    465.5841      3.3364
  1998.7500     66.0969      0.0000    489.1202      3.3084
  1999.0000     68.2000      0.0000    523.5609      3.2829
  1999.2500     71.2617      0.0000    561.2584      3.2555
  1999.5000     73.9290      0.0000    589.8900      3.2281
  1999.7500     74.4173      0.0000    598.2280      3.2067
  2000.0000     72.1620      0.0000    581.4411      3.2024
  2000.2500     68.6064      0.0000    543.6243      3.2335
  2000.5000     65.9184      0.0000    497.0788      3.3174
  2000.7500     65.1378      0.0000    457.4794      3.4557
  2001.0000     65.8171      0.0000    437.3120      3.6281
  2001.2500     67.0028      0.0000    442.5004      3.8060
  2001.5000     68.0887      0.0000    472.4653      3.9735
  2001.7500     68.8476      0.0000    520.0795      4.1385
  2002.0000     69.0803      0.0000    572.4139      4.3283
  2002.2500     68.5347      0.0000    616.1690      4.5734
