~Version Information
 VERS.                                  2.0 : CWLS LAS VERSION
 WRAP.                                   NO : WRAPING MODE
 SWARE .                 MController 2.5.0I : SOFTWARE VERSION
~Well Information
 WELL.                        Montoya 1-44v : WELL
 COMP.                       Petrogulf Corp : COMPANY
 FLD.                      Purgatorie River : FIELD
 LOC.                 SE/SE Sec 1 T33S R68W : LOCATION
 DATE.                           8/24-25/04 : DATE(S) LOGGED
 SRVC.       Blanco Geological services LLC : SERVICE COMPANY
 STAT.                                   CO : STATE
 CNTY.                           Las Animas : COUNTY
 CTRY.                                  USA : COUNTRY
 API.                       05-071-08142-00 : API NUMBER
 STRT.FT                             556.00 : START DEPTH
 STOP.FT                            2600.00 : STOP DEPTH
 STEP.FT                               1.00 : DEPTH INCREMENT
 NULL.                                -9999 : NULL VALUE
~Curve information
 DEPTH.FT                                   :
 ROP.MIN/FT                                 :
 GAS.UNITS                                  :
~ASCII Log data
# ...
      1956.0          0.2          6.7 
      1957.0          4.6         37.4 
      1958.0          0.2         16.1 
      1959.0          0.3         12.9 
      1960.0          0.3         11.4 
      1961.0          0.5         10.2 
      1962.0          0.5          9.4 
      1963.0          0.4         10.5 
      1964.0          0.4         13.2 
      1965.0          0.3         13.6 
      1966.0          0.3         13.4 
      1967.0          0.3         11.7 
      1968.0          0.4          9.5 
      1969.0          0.2          8.3 
      1970.0          0.5          7.8 
      1971.0          0.4          7.1 
      1972.0          0.4          7.2 
      1973.0          0.2          6.8 
      1974.0          0.1          6.6 
      1975.0          0.3          6.8 
      1976.0          0.6          6.9 
      1977.0          0.5          7.3 
      1978.0          0.4          6.8 
      1979.0          0.4          6.0 
      1980.0          0.5          5.7 
      1981.0          0.4          5.6 
      1982.0          0.3          5.6 
      1983.0          0.3          5.7 
      1984.0          0.2          5.9 
      1985.0          0.3          5.9 
      1986.0          0.3          6.2 
      1987.0          4.6         46.7 
      1988.0          0.2         18.3 
      1989.0          0.4         13.8 
      1990.0          0.3         10.3 
      1991.0          0.3          9.1 
      1992.0          0.4          8.7 
      1993.0          0.3          8.5 
      1994.0          0.3          8.8 
      1995.0          0.7          9.2 
      1996.0          0.6          8.3 
      1997.0          0.3          7.5 
      1998.0          0.3          7.1 
      1999.0          0.5          6.8 
      2000.0          0.4          6.6 
      2001.0          0.4          6.9 
      2002.0          0.3          7.0 
      2003.0          0.3          7.0 
      2004.0          0.3          7.0 
      2005.0          0.3          7.9 
      2006.0          0.3          8.8 
      2007.0          0.3          9.4 
      2008.0          0.3          9.4 
      2009.0          0.4          9.9 
      2010.0          0.3          9.6 
      2011.0          0.3          9.0 
      2012.0          0.2          8.2 
      2013.0          0.3          7.5 
      2014.0          0.3          6.4 
      2015.0          0.3          6.8 
      2016.0          0.4          6.7 
      2017.0          5.5         36.2 
      2018.0          0.3         10.7 
      2019.0          0.4          9.9 
      2020.0          0.3          9.1 
      2021.0          0.3          8.3 
      2022.0          0.2          8.4 
      2023.0          0.3          8.5 
      2024.0          0.5          8.6 
      2025.0          0.4          8.2 
      2026.0          0.4          7.1 
      2027.0          0.4          7.0 
      2028.0          0.3          7.0 
      2029.0          0.3          6.4 
      2030.0          0.3          6.1 
      2031.0          0.3          6.1 
      2032.0          0.3          7.2 
      2033.0          0.3          7.9 
      2034.0          0.4          8.6 
      2035.0          0.3          8.4 
      2036.0          0.3          7.8 
      2037.0          0.3          7.8 
      2038.0          0.3          7.1 
      2039.0          0.3          7.2 
      2040.0          0.3          6.9 
      2041.0          0.4          6.1 
      2042.0          0.4          5.7 
      2043.0          0.4          6.0 
      2044.0          0.4          5.7 
      2045.0          0.3          5.5 
      2046.0          0.4          5.5 
      2047.0          4.6         40.9 
      2048.0          0.4         15.0 
      2049.0          0.4         10.2 
      2050.0          0.4          9.3 
      2051.0          0.4          9.5 
      2052.0          0.3          9.8 
      2053.0          0.3          9.4 
      2054.0          0.3          9.4 
      2055.0          0.3          9.7 
      2056.0          0.3          9.6 
      2057.0          0.3          8.9 
      2058.0          0.3          8.7 
      2059.0          0.3          9.0 
      2060.0          0.3          9.2 
      2061.0          0.3          8.3 
      2062.0          0.3          8.4 
      2063.0          0.3          8.8 
      2064.0          0.3          8.5 
      2065.0          0.3          8.7 
      2066.0          0.3          9.0 
      2067.0          0.3          9.2 
      2068.0          0.3          9.5 
      2069.0          0.3          9.1 
      2070.0          0.3          9.1 
      2071.0          0.4          8.6 
      2072.0          0.3          7.4 
      2073.0          0.3          6.5 
      2074.0          0.3          6.4 
      2075.0          0.3          5.8 
      2076.0          0.3          5.6 
      2077.0          4.5         45.3 
      2078.0          0.3         37.1 
      2079.0          0.3         25.3 
      2080.0          0.3         15.4 
      2081.0          0.4         10.7 
      2082.0          0.3          8.4 
      2083.0          0.3          7.8 
      2084.0          0.4          8.3 
      2085.0          0.3          9.0 
      2086.0          0.3          9.4 
      2087.0          0.3          9.4 
      2088.0          0.3          9.6 
      2089.0          0.3          8.6 
      2090.0          0.3          7.4 
      2091.0          0.3          8.1 
      2092.0          0.3          8.0 
      2093.0          0.3          8.1 
      2094.0          0.3          7.3 
      2095.0          0.3          6.4 
      2096.0          0.2          5.6 
      2097.0          0.3          5.1 
      2098.0          0.2          5.0 
      2099.0          0.3          5.0 
      2100.0          0.3          4.8 
      2101.0          0.3          4.8 
      2102.0          0.3          4.4 
      2103.0          0.3          4.8 
      2104.0          0.3          5.2 
      2105.0          0.3          6.2 
      2106.0          0.3          7.1 
      2107.0          5.7         42.4 
      2108.0          0.3         10.0 
      2109.0          0.4          8.9 
      2110.0          3.0          7.5 
      2111.0          0.1          6.9 
      2112.0          0.2          6.9 
      2113.0          0.3          7.1 
      2114.0          0.2          7.0 
      2115.0          0.2          7.1 
      2116.0          0.3          7.3 
      2117.0          0.4          7.3 
      2118.0          0.3          7.5 
      2119.0          0.4          6.6 
      2120.0          0.3          6.6 
      2121.0          0.4          6.7 
      2122.0          0.4          6.8 
      2123.0          0.7          6.4 
      2124.0          0.6          6.2 
      2125.0          0.4          5.6 
      2126.0          0.3          5.2 
      2127.0          0.5          5.2 
      2128.0          0.5          5.1 
      2129.0          0.4          5.3 
      2130.0          0.4          5.0 
      2131.0          0.4          5.2 
      2132.0          0.4          5.4 
      2133.0          0.4          5.7 
      2134.0          0.4          5.6 
      2135.0          0.4          5.2 
      2136.0          0.3          5.3 
      2137.0          4.1         42.1 
      2138.0          0.3         15.5 
      2139.0          0.3          9.6 
      2140.0          0.3          7.7 
      2141.0          0.3          6.8 
      2142.0          0.3          6.9 
      2143.0          0.3          6.6 
      2144.0          0.3          6.2 
      2145.0          0.3          6.3 
      2146.0          0.3          6.5 
      2147.0          0.3          6.3 
      2148.0          0.3          6.1 
      2149.0          0.3          5.6 
      2150.0          0.3          5.3 
      2151.0          0.3          5.1 
      2152.0          0.2          5.2 
      2153.0          0.3          4.6 
      2154.0          0.3          4.4 
      2155.0          0.3          4.1 
