~Version Information
VERS.                      2.0: CWLS Log ASCII Standard - VERSION 2.0
WRAP.                       NO: One line per depth step
~Well Information Block
STRT.FT                 0.0000: 
STOP.FT              1439.5000: 
STEP.FT                 0.2500: 
NULL.                -999.2500: 
COMP.          Petrogulf Corporation: COMPANY
WELL.          Robinson 15-12R: WELL
FLD.           Purgatorie River: FIELD
LOC.           1752' FNL & 561' FWL: LOCATION
PROV.                 Colorado: PROVINCE
CNTY.               Las Animas: COUNTRY
SRVC.                Patterson: SERVICE COMPANY
DATE.          Tue Oct 04 09:17:52 2005: LOG DATE
UWI.                          : UNIQUE WELL ID
~Curve Information Block
DEPT.FT            0 000 00 00: Depth
GR.GAPI                       : Gamma Ray
CCL.                          : Casing Collar Locator
TT3.usec                      : CBL 3' Travel Time
AMP3.mV                       : CBL 3' Amplitude
~Parameter Information Block
~A  Depth        GR         CCL         TT3         AMP3    
# ...
   100.5000     71.1549      0.0000    374.6721      9.3014
   100.7500     77.2754      0.0000    376.3808      9.2086
   101.0000     82.8226      0.0000    376.8535      9.0498
   101.2500     86.8707      0.0000    376.9580      8.8381
   101.5000     88.9524      0.0000    377.0948      8.6255
   101.7500     89.0864      0.0000    377.4347      8.4524
   102.0000     87.6589      0.0000    378.0308      8.3304
   102.2500     85.0836      0.0000    378.8011      8.2491
   102.5000     81.6148      0.0000    379.5287      8.1919
   102.7500     77.5989      0.0000    380.0045      8.1501
   103.0000     73.8322      0.0000    380.1643      8.1196
   103.2500     71.4968      0.0000    380.0801      8.0946
   103.5000     71.5895      0.0000    379.8946      8.0757
   103.7500     74.2010      0.0000    379.7106      8.0715
   104.0000     78.1250      0.0000    379.4760      8.0826
   104.2500     81.2500      0.0000    379.0776      8.0951
   104.5000     81.7822      0.0000    378.5463      8.0986
   104.7500     79.4586      0.0000    378.0376      8.0983
   105.0000     75.6090      0.0000    377.6509      8.1054
   105.2500     72.0455      0.0000    377.3739      8.1227
   105.5000     70.0092      0.0000    377.1530      8.1387
   105.7500     69.9399      0.0000    376.9743      8.1362
   106.0000     71.5700      0.0000    376.9066      8.1040
   106.2500     73.9285      0.0000    377.0632      8.0393
   106.5000     75.6763      0.0000    377.5207      7.9477
   106.7500     75.8355      0.0000    378.2492      7.8489
   107.0000     74.2812      0.0000    379.0732      7.7720
   107.2500     71.7499      0.0000    379.7745      7.7369
   107.5000     69.5729      0.0000    380.3333      7.7431
   107.7500     69.0730      0.0000    381.1059      7.7784
   108.0000     70.7584      0.0000    383.0869      7.8242
   108.2500     74.0949      0.0000    388.0883      7.8597
   108.5000     78.0779      0.0000    397.2800      7.8707
   108.7500     81.7894      0.0000    408.5746      7.8548
   109.0000     84.4780      0.0000    417.5948      7.8199
   109.2500     85.6526      0.0000    422.0625      7.7786
   109.5000     85.4120      0.0000    423.0541      7.7453
   109.7500     84.5123      0.0000    422.8407      7.7313
   110.0000     83.9053      0.0000    423.8764      7.7310
   110.2500     84.1678      0.0000    429.3700      7.7222
   110.5000     85.2748      0.0000    443.7054      7.6917
   110.7500     86.7389      0.0000    474.0608      7.6491
   111.0000     87.9227      0.0000    532.5915      7.6135
   111.2500     88.3553      0.0000    625.2235      7.5983
   111.5000     88.0051      0.0000    730.5407      7.6000
   111.7500     87.4198      0.0000    810.7766      7.5992
   112.0000     87.4777      0.0000    849.7861      7.5853
   112.2500     88.8355      0.0000    857.8188      7.5703
   112.5000     91.6132      0.0000    846.1719      7.5667
   112.7500     95.4201      0.0000    819.1681      7.5724
   113.0000     99.3250      0.0000    785.3238      7.5727
   113.2500    101.8801      0.0000    758.0224      7.5514
   113.5000    101.7301      0.0000    741.8042      7.5128
   113.7500     98.6556      0.0000    725.9146      7.4812
   114.0000     94.0014      0.0000    690.4811      7.4722
   114.2500     89.8689      0.0000    623.0771      7.4833
   114.5000     87.7372      0.0000    538.7367      7.4995
   114.7500     87.6081      0.0000    470.6832      7.4978
   115.0000     88.2477      0.0000    435.0845      7.4634
   115.2500     88.3535      0.0000    422.6978      7.4052
   115.5000     87.6343      0.0000    419.2741      7.3360
   115.7500     86.8143      0.0000    416.9916      7.2412
   116.0000     86.7181      0.0000    412.1700      7.1069
   116.2500     87.3526      0.0000    403.2927      6.9640
   116.5000     87.7895      0.0000    392.3768      6.8600
   116.7500     87.0821      0.0000    383.6534      6.8045
   117.0000     85.3262      0.0000    379.0568      6.7749
   117.2500     83.4601      0.0000    377.2655      6.7488
   117.5000     81.9517      0.0000    376.4526      6.7242
   117.7500     80.2273      0.0000    375.8407      6.7175
   118.0000     77.7351      0.0000    375.4128      6.7319
   118.2500     75.1151      0.0000    375.3176      6.7448
   118.5000     73.6790      0.0000    375.5049      6.7402
   118.7500     73.7700      0.0000    375.7677      6.7294
   119.0000     74.1882      0.0000    376.2106      6.7230
   119.2500     73.4286      0.0000    377.8976      6.7110
   119.5000     71.1114      0.0000    383.1695      6.6944
   119.7500     67.9656      0.0000    395.2819      6.7116
   120.0000     64.8119      0.0000    419.6647      6.7599
   120.2500     62.0650      0.0000    467.4006      6.6911
   120.5000     60.0939      0.0000    547.3892      6.3082
   120.7500     59.4603      0.0000    646.6637      5.5911
   121.0000     60.4187      0.0000    734.2263      4.7259
   121.2500     62.2917      0.0000    788.6743      3.9772
   121.5000     63.7524      0.0000    811.1270      3.5354
   121.7500     63.9579      0.0000    819.3934      3.3783
   122.0000     63.2258      0.0000    827.5739      3.3653
   122.2500     62.3842     -2.0000    827.8535      3.4338
   122.5000     61.7200     -2.0000    809.9222      3.6011
   122.7500     60.9720      0.0000    788.8632      3.8632
   123.0000     60.2226      0.0000    782.7372      4.2269
   123.2500     60.2411      0.0000    779.3405      4.8268
   123.5000     61.7788      0.0000    753.4493      5.7130
   123.7500     64.8281      0.0000    692.6765      6.4997
   124.0000     68.6479      0.0000    600.6986      6.7805
   124.2500     72.2566      0.0000    502.2462      6.6981
   124.5000     74.9585      0.0000    429.2738      6.5877
   124.7500     76.6793      0.0000    392.0817      6.5650
   125.0000     77.8505      0.0000    379.1262      6.6436
   125.2500     78.9523      0.0000    376.7248      6.8327
   125.5000     80.2124      0.0000    378.4956      7.0705
   125.7500     81.4977      0.0000    383.0041      7.2074
   126.0000     82.2092      0.0000    388.7506      7.1509
   126.2500     81.4216      0.0000    391.9927      6.9770
   126.5000     78.4562      0.0000    390.6270      6.8208
   126.7500     73.4008      0.0000    388.1116      6.7466
   127.0000     67.1404      0.0000    389.8157      6.7463
   127.2500     61.0543      0.0000    397.4673      6.7887
   127.5000     56.5918      0.0000    408.0205      6.8532
   127.7500     54.7309      0.0000    416.9766      6.9288
   128.0000     55.5374      0.0000    423.2847      6.9979
   128.2500     58.1780      0.0000    429.8463      7.0257
   128.5000     61.4144      0.0000    438.1991      6.9603
   128.7500     64.2577      0.0000    443.3874      6.7678
   129.0000     66.3658      0.0000    437.4157      6.5015
   129.2500     67.9571      0.0000    419.6847      6.3046
   129.5000     69.2615      0.0000    399.5456      6.2782
   129.7500     69.9118      0.0000    386.9959      6.3809
   130.0000     69.0240      0.0000    385.5211      6.5024
   130.2500     66.1215      0.0000    393.2956      6.5763
   130.5000     61.8823      0.0000    405.9252      6.5990
   130.7500     57.6939      0.0000    418.7816      6.5881
   131.0000     54.5678      0.0000    428.8025      6.5443
   131.2500     52.7044      0.0000    433.7405      6.4584
   131.5000     51.8345      0.0000    433.7938      6.3396
   131.7500     51.5821      0.0000    434.2071      6.2180
   132.0000     51.6630      0.0000    440.3961      6.1280
   132.2500     52.0435      0.0000    451.7147      6.0906
   132.5000     52.7842      0.0000    463.4411      6.1015
   132.7500     53.6740      0.0000    471.0403      6.1433
   133.0000     54.3372      0.0000    470.0602      6.2045
   133.2500     54.8532      0.0000    458.6814      6.2674
   133.5000     55.8937      0.0000    442.3718      6.2983
   133.7500     57.8958      0.0000    429.3900      6.2779
