~Version Information
VERS.                      2.0: CWLS Log ASCII Standard - VERSION 2.0
WRAP.                       NO: One line per depth step
~Well Information Block
STRT.FT               230.0000: 
STOP.FT              1527.0000: 
STEP.FT                 0.1000: 
NULL.                -999.2500: 
COMP.          Pioneer Natural Resources: COMPANY
WELL.              Border 21-3: WELL
FLD.           Purgatorie River: FIELD
LOC.           865' FNL & 1415' FWL: LOCATION
PROV.                 Colorado: PROVINCE
CNTY.               Las Animas: COUNTRY
SRVC.                         : SERVICE COMPANY
DATE.          Thu Dec 09 16:57:34 2004: LOG DATE
UWI.           05 071 08169 00: UNIQUE WELL ID
~Curve Information Block
DEPT.FT            0 000 00 00: Depth
LTEN.lb                       : Surface Line Tension
DCAL.in                       : CDL Caliper
RHOB.g/cc                     : CDL Bulk Density
RHOC.g/cc                     : CDL Density Correction
DPOR.pu                       : CDL Density Porosity
GR.GAPI                       : Gamma Ray
NPOR.pu                       : Neutron Porosity
~Parameter Information Block
~A  Depth       LTEN        DCAL        RHOB        RHOC        DPOR         GR         NPOR    
# ...
  1431.2000   1068.2567      7.6930      2.5349      0.1028      6.9750     59.1099     17.1409
  1431.3000   1066.1879      7.6935      2.5361      0.0413      6.9047     59.1200     18.1097
  1431.4000   1066.1879      7.6935      2.5297      0.0554      7.2917     60.3117     18.2250
  1431.5000   1050.7314      7.6942      2.5205      0.0324      7.8480     59.8351     17.2335
  1431.6000   1050.7314      7.6942      2.5169      0.0454      8.0653     59.4722     15.8985
  1431.7000   1050.7314      7.6942      2.5200      0.0709      7.8763     62.6611     15.2827
  1431.8000   1066.7814      7.6936      2.5266      0.0474      7.4771     66.3401     14.9105
  1431.9000   1066.7814      7.6936      2.5339      0.0916      7.0359     67.3953     14.2569
  1432.0000   1042.2251      7.6939      2.5299      0.0640      7.2760     68.8144     13.9393
  1432.1000   1042.2251      7.6939      2.5142      0.0645      8.2333     71.9075     13.9490
  1432.2000   1042.2251      7.6939      2.5052      0.0605      8.7744     73.2168     13.3652
  1432.3000   1046.6637      7.6938      2.5100      0.1043      8.4864     71.2001     12.5787
  1432.4000   1046.6637      7.6938      2.5196      0.0469      7.9037     68.5065     12.9638
  1432.5000   1078.4246      7.6932      2.5315      0.0847      7.1841     67.0894     14.3311
  1432.6000   1078.4246      7.6932      2.5419      0.0789      6.5487     66.6143     14.9977
  1432.7000   1078.4246      7.6932      2.5408      0.0842      6.6185     66.8045     14.5274
  1432.8000   1052.0205      7.6933      2.5319      0.0359      7.1586     67.6913     13.8147
  1432.9000   1052.0205      7.6933      2.5343      0.0453      7.0147     66.9411     13.4962
  1433.0000   1050.3525      7.6927      2.5481      0.0687      6.1755     63.2070     14.0294
  1433.1000   1050.3525      7.6927      2.5544      0.0667      5.7949     60.6536     14.8595
  1433.2000   1050.3525      7.6927      2.5475      0.0433      6.2142     62.1731     14.5502
  1433.3000   1081.4974      7.6936      2.5411      0.0227      6.5982     65.2301     13.1164
  1433.4000   1081.4974      7.6936      2.5472      0.0083      6.2329     65.4964     11.8173
  1433.5000   1058.1615      7.6982      2.5638      0.0275      5.2243     61.8696     11.3423
  1433.6000   1058.1615      7.6982      2.5798      0.0674      4.2538     57.5929     11.2895
  1433.7000   1058.1615      7.6982      2.5866      0.0651      3.8442     55.5208     11.1601
  1433.8000   1066.3160      7.7010      2.5857      0.0467      3.8996     56.2464     10.9157
  1433.9000   1066.3160      7.7010      2.5810      0.0482      4.1810     58.5241     10.5271
  1434.0000   1067.2214      7.6927      2.5736      0.0658      4.6326     60.1694     10.2147
  1434.1000   1067.2214      7.6927      2.5672      0.0492      5.0179     62.4546     10.2699
  1434.2000   1067.2214      7.6927      2.5660      0.0695      5.0924     66.5053     10.5495
  1434.3000   1054.8082      7.6932      2.5630      0.0830      5.2711     67.9681     10.5926
  1434.4000   1054.8082      7.6932      2.5495      0.0519      6.0915     65.4004     10.2552
  1434.5000   1063.0034      7.6928      2.5316      0.0404      7.1751     61.2237     10.0686
  1434.6000   1063.0034      7.6928      2.5216      0.0437      7.7846     55.3708     10.4244
  1434.7000   1063.0034      7.6928      2.5191      0.0208      7.9362     48.8502     11.2717
  1434.8000   1073.3999      7.6937      2.5176      0.0639      8.0268     44.7724     12.4533
  1434.9000   1073.3999      7.6937      2.5172      0.0376      8.0508     45.6147     13.3805
  1435.0000   1058.9205      7.6932      2.5256      0.0502      7.5414     50.8873     13.2585
  1435.1000   1058.9205      7.6932      2.5421      0.1009      6.5418     56.0151     12.5034
  1435.2000   1058.9205      7.6932      2.5546      0.0740      5.7794     57.9081     12.3890
  1435.3000   1035.0631      7.6933      2.5549      0.0907      5.7649     61.3226     13.7414
  1435.4000   1035.0631      7.6933      2.5364      0.0705      6.8832     70.9366     15.8053
  1435.5000   1077.2111      7.6924      2.5060      0.0283      8.7251     79.8933     16.3780
  1435.6000   1077.2111      7.6924      2.4944     -0.0226      9.4283     79.6104     15.1656
  1435.7000   1077.2111      7.6924      2.5195      0.0775      7.9068     72.8039     13.9945
  1435.8000   1047.5847      7.6930      2.5556      0.0862      5.7215     66.0608     13.4515
  1435.9000   1047.5847      7.6930      2.5646      0.1338      5.1744     62.5933     13.1190
  1436.0000   1065.5449      7.6934      2.5390      0.0706      6.7248     62.9366     13.0097
  1436.1000   1065.5449      7.6934      2.5112      0.0203      8.4117     62.9255     13.1798
  1436.2000   1065.5449      7.6934      2.5103      0.0303      8.4679     59.5049     13.2808
  1436.3000   1054.7568      7.6929      2.5263      0.0863      7.4992     55.5266     13.1515
  1436.4000   1054.7568      7.6929      2.5367      0.0776      6.8678     54.7085     13.0238
  1436.5000   1077.3367      7.6919      2.5407      0.0831      6.6253     56.3946     12.9021
  1436.6000   1077.3367      7.6919      2.5468      0.0851      6.2523     58.3948     12.5349
  1436.7000   1077.3367      7.6919      2.5499      0.0966      6.0642     59.1817     12.1742
  1436.8000   1070.6202      7.6917      2.5426      0.0519      6.5075     58.4360     12.2752
  1436.9000   1070.6202      7.6917      2.5351      0.0312      6.9630     58.2278     12.4802
  1437.0000   1044.9969      7.6919      2.5370      0.0522      6.8486     59.8907     12.1715
  1437.1000   1044.9969      7.6919      2.5397      0.0414      6.6839     61.7919     11.4990
  1437.2000   1044.9969      7.6919      2.5388      0.0433      6.7364     63.7720     11.0493
  1437.3000   1092.6624      7.6932      2.5404      0.0599      6.6445     66.3194     11.3002
  1437.4000   1092.6624      7.6932      2.5474      0.0758      6.2168     67.0350     11.8730
  1437.5000   1038.9840      7.6929      2.5595      0.0834      5.4826     65.6937     11.7052
  1437.6000   1038.9840      7.6929      2.5654      0.1370      5.1273     64.7886     10.9292
  1437.7000   1038.9840      7.6929      2.5565      0.0594      5.6661     65.8193     10.7542
  1437.8000   1095.3065      7.6940      2.5454      0.0625      6.3402     67.3378     11.5356
  1437.9000   1095.3065      7.6940      2.5430      0.0440      6.4849     66.2274     12.6308
  1438.0000   1069.9502      7.6930      2.5454      0.0656      6.3369     62.4380     13.3870
  1438.1000   1069.9502      7.6930      2.5486      0.0519      6.1445     58.4166     13.6025
  1438.2000   1069.9502      7.6930      2.5600      0.0520      5.4575     54.4903     13.2732
  1438.3000   1054.2089      7.6943      2.5768      0.1181      4.4377     51.2336     12.8450
  1438.4000   1054.2089      7.6943      2.5803      0.1356      4.2217     52.3036     12.4196
  1438.5000   1084.0031      7.6927      2.5643      0.1400      5.1921     58.4075     11.6815
  1438.6000   1084.0031      7.6927      2.5372      0.1247      6.8371     62.7387     11.0238
  1438.7000   1084.0031      7.6927      2.4995      0.1258      9.1217     61.7723     11.2989
  1438.8000   1047.2843      7.6948      2.4460      0.0800     12.3632     59.7960     12.7396
  1438.9000   1047.2843      7.6948      2.3861      0.0508     15.9953     58.5597     14.6197
  1439.0000   1097.6825      7.7035      2.3306      0.0132     19.3596     57.7388     16.3941
  1439.1000   1097.6825      7.7035      2.2588      0.0366     23.7109     58.1207     18.2891
  1439.2000   1097.6825      7.7035      2.1366      0.0150     31.1178     58.0548     19.9352
  1439.3000   1047.7001      7.7393      1.9797     -0.0645     40.6223     57.4544     20.6270
  1439.4000   1047.7001      7.7393      1.8432      0.0076     48.8959     57.8553     20.8460
  1439.5000   1099.6995      7.8090      1.7443      0.0192     54.8925     57.4109     21.6247
