~Version Information
VERS.                      2.0: CWLS Log ASCII Standard - VERSION 2.0
WRAP.                       NO: One line per depth step
~Well Information Block
STRT.FT               -11.0000: 
STOP.FT              1523.2500: 
STEP.FT                 0.2500: 
NULL.                -999.2500: 
COMP.          Petrogulf Corporation: COMPANY
WELL.             State 16-43R: WELL
FLD.           Purgatorie River: FIELD
LOC.           2538' FSL & 716' FEL--: LOCATION
PROV.                       CO: PROVINCE
CNTY.               Las Animas: COUNTRY
SRVC.          Patterson Wireline: SERVICE COMPANY
DATE.          Fri Sep 09 13:13:52 2005: LOG DATE
UWI.           05 071 08338 00: UNIQUE WELL ID
~Curve Information Block
DEPT.FT            0 000 00 00: Depth
CCL.                          : Casing Collar Locator
TT3.usec                      : CBL 3' Travel Time
AMP3.mV                       : CBL 3' Amplitude
GR.GAPI                       : Gamma Ray
~Parameter Information Block
~A  Depth       CCL         TT3         AMP3         GR     
# ...
  1195.0000      0.0000    670.9320     10.0771    159.8596
  1195.2500      0.0000    671.1110     10.1193    157.4153
  1195.5000      0.0000    671.7744     10.2036    155.9349
  1195.7500      0.0000    673.2563     10.3470    155.3699
  1196.0000      0.0000    675.5137     10.5438    156.3704
  1196.2500      0.0000    677.7409     10.7608    159.4133
  1196.5000      0.0000    678.6942     10.9576    163.4326
  1196.7500      0.0000    677.7476     11.1202    165.7174
  1197.0000      0.0000    675.5795     11.2724    163.6802
  1197.2500      0.0000    673.6862     11.4477    156.8149
  1197.5000      0.0000    673.5438     11.6514    146.8906
  1197.7500      0.0000    676.3640     11.8558    136.7723
  1198.0000      0.0000    683.1303     12.0274    129.4813
  1198.2500      0.0000    694.2075     12.1459    127.4172
  1198.5000      0.0000    708.5776     12.1999    130.9597
  1198.7500      0.0000    723.1283     12.1781    137.7052
  1199.0000      0.0000    732.7869     12.0727    143.9497
  1199.2500      0.0000    732.7575     11.8908    147.2477
  1199.5000      0.0000    722.2085     11.6611    147.6502
  1199.7500      0.0000    705.6663     11.4275    146.9384
  1200.0000      0.0000    689.9424     11.2271    146.8277
  1200.2500      0.0000    679.7186     11.0710    147.5597
  1200.5000      0.0000    675.9486     10.9454    148.1754
  1200.7500      0.0000    677.1557     10.8295    148.2070
  1201.0000      0.0000    681.1093     10.7083    148.5620
  1201.2500      0.0000    685.7480     10.5766    150.3819
  1201.5000      0.0000    689.7886     10.4394    153.6052
  1201.7500      0.0000    692.9440     10.3117    157.1117
  1202.0000      0.0000    695.4219     10.2105    159.8365
  1202.2500      0.0000    697.2254     10.1440    161.2447
  1202.5000      0.0000    698.0562     10.1091    161.0898
  1202.7500      0.0000    697.5981     10.0953    159.2923
  1203.0000      0.0000    695.5952     10.0873    156.1526
  1203.2500      0.0000    692.0823     10.0699    152.5741
  1203.5000      0.0000    687.9227     10.0360    150.1106
  1203.7500      0.0000    684.5304      9.9928    150.4385
  1204.0000      0.0000    682.5047      9.9557    153.9473
  1204.2500      0.0000    681.0184      9.9360    158.5318
  1204.5000      0.0000    678.9727      9.9334    160.5027
  1204.7500      0.0000    676.3149      9.9385    157.5641
  1205.0000      0.0000    673.8445      9.9422    150.9340
  1205.2500      0.0000    672.1785      9.9434    144.1745
  1205.5000      0.0000    671.3170      9.9491    140.0245
  1205.7500      0.0000    670.9534      9.9711    138.7129
  1206.0000      0.0000    670.8286     10.0212    138.8931
  1206.2500      0.0000    670.7944     10.1023    139.1981
  1206.5000      0.0000    670.7408     10.2002    138.6311
  1206.7500      0.0000    670.5729     10.2870    136.2490
  1207.0000      0.0000    670.2436     10.3401    131.5194
  1207.2500      0.0000    669.8029     10.3597    125.2984
  1207.5000      0.0000    669.3993     10.3663    119.7463
  1207.7500      0.0000    669.2045     10.3834    116.4975
  1208.0000      0.0000    669.2996     10.4243    115.2043
  1208.2500      0.0000    669.6127     10.4906    114.4866
  1208.5000      0.0000    669.9597     10.5768    113.8028
  1208.7500      0.0000    670.1535     10.6750    113.4921
  1209.0000      0.0000    670.0963     10.7769    113.2893
  1209.2500      0.0000    669.8031     10.8712    111.8980
  1209.5000      0.0000    669.3784     10.9402    108.2913
  1209.7500      0.0000    668.9925     10.9656    102.9932
  1210.0000      0.0000    668.8391     10.9402     98.0097
  1210.2500      0.0000    669.0344     10.8720     95.7672
  1210.5000      0.0000    669.5186     10.7795     97.8290
  1210.7500      0.0000    670.0844     10.6868    103.9886
  1211.0000      0.0000    670.5217     10.6164    112.2895
  1211.2500      0.0000    670.7307     10.5753    120.0580
  1211.5000      0.0000    670.7185     10.5457    125.2424
  1211.7500      0.0000    670.5458     10.4959    127.2795
  1212.0000      0.0000    670.3057     10.4089    127.0634
  1212.2500      0.0000    670.1129     10.2979    125.9461
  1212.5000      0.0000    670.0546     10.1882    124.5864
  1212.7500      0.0000    670.1354     10.0790    122.8689
  1213.0000      0.0000    670.2728      9.9249    120.6681
  1213.2500      0.0000    670.3945      9.6623    118.1872
  1213.5000      0.0000    670.6455      9.2574    115.6928
  1213.7500      0.0000    671.6832      8.7303    113.4449
  1214.0000      0.0000    674.7687      8.1380    111.9444
  1214.2500      0.0000    681.1835      7.5384    111.7377
  1214.5000      0.0000    691.1803      6.9685    112.5290
  1214.7500      0.0000    703.5996      6.4441    112.7862
  1215.0000      0.0000    716.8968      5.9718    110.9359
  1215.2500      0.0000    730.1385      5.5564    107.0837
  1215.5000      0.0000    742.0440      5.1985    102.9647
  1215.7500      0.0000    749.2784      4.8974     99.9664
  1216.0000      0.0000    747.6871      4.6629     97.5959
  1216.2500      0.0000    736.6420      4.5146     94.2358
  1216.5000      0.0000    721.1738      4.4566     89.0966
  1216.7500      0.0000    708.5256      4.4616     83.0516
  1217.0000      0.0000    702.9365      4.4955     77.7834
  1217.2500      0.0000    703.8362      4.5495     74.6070
  1217.5000      0.0000    707.7385      4.6344     73.9069
  1217.7500      0.0000    711.1850      4.7531     74.9999
  1218.0000      2.0000    712.4623      4.8907     76.3661
  1218.2500     -2.0000    711.2474      5.0261     76.5130
  1218.5000      0.0000    707.3096      5.1440     75.0490
  1218.7500      0.0000    700.2847      5.2408     72.9292
  1219.0000      0.0000    690.8698      5.3235     71.6438
  1219.2500      0.0000    681.5325      5.3997     72.2608
  1219.5000      0.0000    675.3879      5.4697     75.0373
  1219.7500      0.0000    674.2163      5.5267     79.4059
  1220.0000      0.0000    677.5095      5.5625     84.1071
  1220.2500      0.0000    683.1121      5.5708     87.8382
  1220.5000      0.0000    688.6678      5.5514     90.3013
  1220.7500      0.0000    692.8052      5.5121     92.6525
  1221.0000      0.0000    695.4503      5.4638     96.6799
  1221.2500      0.0000    697.4744      5.4144    103.2749
  1221.5000      0.0000    700.1737      5.3676    111.4370
  1221.7500      0.0000    704.6793      5.3265    118.8802
  1222.0000      0.0000    711.1672      5.2940    123.8662
  1222.2500      0.0000    718.3564      5.2727    126.2311
  1222.5000      0.0000    723.9844      5.2653    126.3885
  1222.7500      0.0000    726.0263      5.2727    123.8974
  1223.0000      0.0000    723.7056      5.2935    117.7416
  1223.2500      0.0000    717.8182      5.3244    107.8930
  1223.5000      0.0000    710.3768      5.3592     96.0223
  1223.7500      0.0000    703.5928      5.3880     84.5475
  1224.0000      0.0000    698.6938      5.3971     75.2793
  1224.2500      0.0000    695.5621      5.3748     68.9951
  1224.5000      0.0000    693.4192      5.3199     65.8053
  1224.7500      0.0000    691.6892      5.2473     65.4327
  1225.0000      0.0000    690.2965      5.1831     67.1190
  1225.2500      0.0000    689.5048      5.1512     69.5182
  1225.5000      0.0000    689.7172      5.1602     70.9448
  1225.7500      0.0000    691.2723      5.2011     70.1640
  1226.0000      0.0000    694.0326      5.2564     67.3377
  1226.2500      0.0000    696.9882      5.3124     63.9704
  1226.5000      0.0000    698.5532      5.3646     61.6266
  1226.7500      0.0000    697.5792      5.4147     60.8247
  1227.0000      0.0000    694.0096      5.4645     61.0544
  1227.2500      0.0000    688.5457      5.5097     61.3520
  1227.5000      0.0000    682.1451      5.5406     60.8255
  1227.7500      0.0000    676.0331      5.5512     59.2071
  1228.0000      0.0000    671.6734      5.5495     57.1985
  1228.2500      0.0000    670.2367      5.5524     56.1331
