~Version Information
VERS.                      2.0: CWLS Log ASCII Standard - VERSION 2.0
WRAP.                       NO: One line per depth step
~Well Information Block
STRT.FT                -8.0000: 
STOP.FT              1357.5000: 
STEP.FT                 0.2500: 
NULL.                -999.2500: 
COMP.          Pioneer Natural Resources: COMPANY
WELL.          Lorencito 6-3-34-66: WELL
FLD.           Purgatorie River: FIELD
LOC.           2545' FNL & 1914' FWL: LOCATION
STAT.                       CO: State
CNTY.               Las Animas: COUNTY
CTRY. USA : Country
SECT. 3 : Section
TOWN. 34S : Township
RANG. 66W : Range
SRVC.          Patterson Wireline: SERVICE COMPANY
DATE.          Tue Sep 27 11:36:13 2005: LOG DATE
API.           05 071 08369 00: UNIQUE WELL ID
~Curve Information Block
DEPT.FT            0 000 00 00: Depth
CCL.                          : Casing Collar Locator
TT3.usec                      : CBL 3' Travel Time
AMP3.mV                       : CBL 3' Amplitude
GR.GAPI                       : Gamma Ray
~Parameter Information Block
~A  Depth       CCL         TT3         AMP3         GR     
# ...
   159.5000      0.0000    766.9594      9.2810     37.0226
   159.7500      0.0000    768.3882      9.3445     35.2775
   160.0000      0.0000    771.9108      9.4126     34.6721
   160.2500      0.0000    776.4929      9.4928     34.6868
   160.5000      0.0000    781.1277      9.6006     35.0531
   160.7500      0.0000    784.7498      9.7457     35.9039
   161.0000      0.0000    786.2089      9.9228     37.3790
   161.2500      0.0000    785.0934     10.1105     39.3122
   161.5000      0.0000    782.3534     10.2817     41.3291
   161.7500      0.0000    779.5863     10.4190     43.2345
   162.0000      0.0000    777.7886     10.5228     45.2156
   162.2500      0.0000    776.9821     10.6022     47.5145
   162.5000      0.0000    776.7220     10.6631     50.0217
   162.7500      0.0000    776.6326     10.7056     52.3439
   163.0000      0.0000    776.5466     10.7306     53.9189
   163.2500      0.0000    776.4253     10.7430     53.8615
   163.5000      0.0000    776.2791     10.7478     51.4282
   163.7500      0.0000    776.1277     10.7455     47.2598
   164.0000      0.0000    775.9839     10.7328     43.5768
   164.2500      0.0000    775.8461     10.7078     42.3646
   164.5000      0.0000    775.7108     10.6742     43.5240
   164.7500      0.0000    775.5833     10.6390     45.1198
   165.0000      0.0000    775.4722     10.6071     45.2209
   165.2500      0.0000    775.3863     10.5796     43.4253
   165.5000      0.0000    775.3411     10.5572     41.0035
   165.7500      0.0000    775.3581     10.5444     39.8339
   166.0000      0.0000    775.4468     10.5469     40.9969
   166.2500      0.0000    775.5884     10.5666     44.0304
   166.5000      0.0000    775.7373     10.5985     47.4296
   166.7500      0.0000    775.8351     10.6358     49.8870
   167.0000      0.0000    775.8314     10.6765     51.0475
   167.2500      0.0000    775.7032     10.7240     51.1558
   167.5000      0.0000    775.4307     10.7792     50.3231
   167.7500      0.0000    774.9184     10.8343     48.5293
   168.0000      0.0000    773.9188     10.8784     46.1710
   168.2500      0.0000    772.1375     10.9090     43.9857
   168.5000      0.0000    769.6463     10.9337     42.3174
   168.7500      0.0000    767.2786     10.9612     41.0261
   169.0000      0.0000    766.2841     10.9928     40.2598
   169.2500      0.0000    767.2412     11.0242     40.6703
   169.5000      0.0000    769.4476     11.0538     42.4631
   169.7500      0.0000    771.6173     11.0847     44.7029
   170.0000      0.0000    772.9878     11.1188     46.0299
   170.2500      0.0000    773.6105     11.1506     45.8567
   170.5000      0.0000    773.8850     11.1703     44.5071
   170.7500      0.0000    774.1119     11.1720     42.4917
   171.0000      0.0000    774.3861     11.1596     40.2529
   171.2500      0.0000    774.6730     11.1425     38.5112
   171.5000      0.0000    774.8931     11.1263     38.0887
   171.7500      0.0000    774.9918     11.1086     39.0028
   172.0000      0.0000    774.9783     11.0840     40.0615
   172.2500      0.0000    774.9182     11.0525     39.7528
   172.5000      0.0000    774.8784     11.0224     37.5419
   172.7500      0.0000    774.8733     11.0056     34.2625
   173.0000      0.0000    774.8547     11.0109     31.4247
   173.2500      0.0000    774.7159     11.0403     30.2940
   173.5000      0.0000    774.2282     11.0880     31.4297
   173.7500      0.0000    772.9208     11.1398     34.6416
   174.0000      0.0000    770.0313     11.1707     38.9926
   174.2500      0.0000    764.8746     11.1472     42.8726
   174.5000      0.0000    757.7869     11.0430     44.6030
   174.7500      0.0000    751.4359     10.8592     43.5934
   175.0000      0.0000    751.9670     10.6121     41.0668
   175.2500      0.0000    768.1625     10.2888     39.3786
   175.5000      0.0000    805.5979      9.8435     40.2439
   175.7500      0.0000    858.0376      9.2763     43.3625
   176.0000      0.0000    907.8632      8.6866     46.6740
   176.2500      0.0000    941.5052      8.2055     48.0073
   176.5000      0.0000    963.4210      7.8904     46.7043
   176.7500      0.0000    988.4460      7.7148     44.0290
   177.0000     -2.0000   1021.1500      7.6377     42.2249
   177.2500      0.0000   1048.6259      7.6684     42.9144
   177.5000      0.0000   1052.5520      7.8769     45.9892
   177.7500      0.0000   1023.6348      8.3254     49.8614
   178.0000      0.0000    967.1920      8.9616     52.7273
   178.2500      0.0000    900.8513      9.6071     53.6292
   178.5000      0.0000    845.3185     10.1048     52.7321
   178.7500      0.0000    812.0099     10.4429     50.9924
   179.0000      0.0000    798.3545     10.6911     49.4511
   179.2500      0.0000    794.7533     10.8754     48.6062
   179.5000      0.0000    793.5424     10.9747     48.4195
   179.7500      0.0000    791.5386     10.9894     48.8423
   180.0000      0.0000    788.3130     10.9592     50.2457
   180.2500      0.0000    784.6160     10.9263     53.3167
   180.5000      0.0000    781.4818     10.9085     58.4551
   180.7500      0.0000    779.4086     10.9045     65.1696
   181.0000      0.0000    778.0893     10.9078     72.0872
   181.2500      0.0000    776.7384     10.9149     77.5888
   181.5000      0.0000    774.5880     10.9241     80.5350
   181.7500      0.0000    771.3932     10.9321     80.7436
   182.0000      0.0000    767.6931     10.9343     79.1644
   182.2500      0.0000    764.3931     10.9254     77.5635
   182.5000      0.0000    761.8817     10.9044     77.7093
   182.7500      0.0000    759.8259     10.8744     80.4747
   183.0000      0.0000    757.9158     10.8382     85.2979
   183.2500      0.0000    756.4393     10.7938     90.3055
   183.5000      0.0000    756.0508     10.7376     93.3563
   183.7500      0.0000    757.2629     10.6723     93.4673
   184.0000      0.0000    760.0048     10.6101     91.1983
   184.2500      0.0000    763.1910     10.5688     87.5527
   184.5000      0.0000    764.7731     10.5615     82.9455
   184.7500      0.0000    762.8473     10.5881     77.5426
   185.0000      0.0000    757.2261     10.6330     72.2424
   185.2500      0.0000    750.0133     10.6698     68.6870
   185.5000      0.0000    744.4240     10.6740     68.0317
   185.7500      0.0000    742.7548     10.6349     69.8080
   186.0000      0.0000    745.2276     10.5612     72.3178
   186.2500      0.0000    750.5097     10.4746     74.2741
   186.5000      0.0000    756.9662     10.3968     75.7132
   186.7500      0.0000    763.2847     10.3403     77.1308
   187.0000      0.0000    768.3160     10.3077     78.2766
   187.2500      0.0000    770.9393     10.2951     78.3866
   187.5000      0.0000    770.2771     10.2936     77.4449
   187.7500      0.0000    766.1359     10.2902     76.5237
   188.0000      0.0000    759.6472     10.2698     76.5704
   188.2500      0.0000    753.5270     10.2238     77.4201
   188.5000      0.0000    750.9067     10.1602     78.3745
   188.7500      0.0000    753.0936     10.1043     79.1259
   189.0000      0.0000    758.3979     10.0788     79.6013
   189.2500      0.0000    763.5037     10.0783     79.5097
   189.5000      0.0000    766.1359     10.0674     78.7318
   189.7500      0.0000    766.4871     10.0154     77.7542
   190.0000      0.0000    766.2123      9.9290     77.1738
   190.2500      0.0000    766.3653      9.8457     77.1090
   190.5000      0.0000    766.7114      9.7994     77.5561
   190.7500      0.0000    766.9033      9.8013     78.9815
   191.0000      0.0000    767.3463      9.8495     82.0205
   191.2500      0.0000    768.2579      9.9439     86.5020
   191.5000      0.0000    768.5779     10.0860     91.0246
   191.7500      0.0000    766.8472     10.2665     93.8160
   192.0000      0.0000    763.2106     10.4516     94.0982
   192.2500      0.0000    759.8610     10.5885     92.5781
   192.5000      0.0000    758.9650     10.6359     90.7861
   192.7500      0.0000    760.3199     10.5971     90.0587
