~Version Information
VERS.                      2.0: CWLS Log ASCII Standard - VERSION 2.0
WRAP.                       NO: One line per depth step
~Well Information Block
STRT.FT                60.5000: 
STOP.FT              1875.7500: 
STEP.FT                 0.2500: 
NULL.                -999.2500: 
COMP.          Petrogulf Corporation: COMPANY
WELL.             State 16-14R: WELL
FLD.           Purgatorie River: FIELD
LOC.           598' FSL & 682' FWL--: LOCATION
PROV.                       CO: PROVINCE
CNTY.               Las Animas: COUNTRY
SRVC.                         : SERVICE COMPANY
DATE.          Fri Nov 12 08:50:45 2004: LOG DATE
UWI.            005 071 08034 : UNIQUE WELL ID
~Curve Information Block
DEPT.FT            0 000 00 00: Depth
GR.GAPI                       : Gamma Ray
CCL.                          : Casing Collar Locator
TT3.usec                      : CBL 3' Travel Time
AMP3.mV                       : CBL 3' Amplitude
~Parameter Information Block
~A  Depth        GR         CCL         TT3         AMP3    
# ...
  1702.0000    115.4198      0.0000    418.0915     22.3260
  1702.2500    117.1127      0.0000    514.1248     20.9041
  1702.5000    122.1239      0.0000    626.7346     19.0481
  1702.7500    128.7968      0.0000    727.2300     16.9145
  1703.0000    134.8508      0.0000    791.8055     14.6800
  1703.2500    137.9545      0.0000    815.5015     12.5211
  1703.5000    137.0453      0.0000    810.8657     10.6077
  1703.7500    132.7593      0.0000    795.8381      9.0637
  1704.0000    126.3792      0.0000    782.9849      7.9118
  1704.2500    118.9371      0.0000    776.1046      7.0740
  1704.5000    111.3393      0.0000    772.7158      6.4367
  1704.7500    104.6185      0.0000    769.0348      5.9118
  1705.0000     99.6647      0.0000    763.8611      5.4432
  1705.2500     96.9419      0.0000    758.1232      4.9907
  1705.5000     96.5009      0.0000    751.7835      4.5381
  1705.7500     97.9553      0.0000    743.9843      4.1143
  1706.0000    100.4825      0.0000    736.9437      3.7839
  1706.2500    103.3821      0.0000    736.4997      3.6010
  1706.5000    106.5970      0.0000    746.2410      3.5675
  1706.7500    110.0507      0.0000    762.2127      3.6359
  1707.0000    112.4890      0.0000    775.5973      3.7493
  1707.2500    111.8659      0.0000    780.9007      3.8771
  1707.5000    107.1839      0.0000    780.4445      4.0131
  1707.7500     99.4652      0.0000    779.9520      4.1509
  1708.0000     90.9433      0.0000    780.6920      4.2702
  1708.2500     83.8502      0.0000    778.6459      4.3463
  1708.5000     79.6098      0.0000    772.1276      4.3677
  1708.7500     78.2874      0.0000    766.8232      4.3465
  1709.0000     78.9640      0.0000    769.5857      4.3120
  1709.2500     81.1612      0.0000    778.0909      4.2880
  1709.5000     85.4392      0.0000    780.8375      4.2729
  1709.7500     92.1179      0.0000    769.3531      4.2462
  1710.0000     99.7507      0.0000    748.8210      4.1945
  1710.2500    105.5999      0.0000    735.3396      4.1219
  1710.5000    107.9886      0.0000    743.1116      4.0391
  1710.7500    107.8315      0.0000    773.4902      3.9527
  1711.0000    107.3439      0.0000    813.6086      3.8673
  1711.2500    107.7106      0.0000    844.1088      3.7900
  1711.5000    108.7394      0.0000    850.2814      3.7276
  1711.7500    110.3931      0.0000    829.7659      3.6845
  1712.0000    113.8080      0.0000    793.1444      3.6687
  1712.2500    120.6113      0.0000    758.0800      3.6917
  1712.5000    131.1445      0.0000    740.1321      3.7500
  1712.7500    143.1277      0.0000    744.3727      3.8038
  1713.0000    152.5857      0.0000    762.2012      3.7907
  1713.2500    156.7967      0.0000    777.0469      3.6742
  1713.5000    156.0644      0.0000    777.8361      3.4778
  1713.7500    152.1572      0.0000    769.6444      3.2640
  1714.0000    145.8491      0.0000    769.4166      3.0820
  1714.2500    137.1667      0.0000    789.4952      2.9352
  1714.5000    127.5766      0.0000    826.3729      2.7933
  1714.7500    120.4470      0.0000    865.5920      2.6260
  1715.0000    118.7479      0.0000    894.8613      2.4273
  1715.2500    122.5434      0.0000    911.1206      2.2174
  1715.5000    128.8246      0.0000    917.9451      2.0286
  1715.7500    133.8081      0.0000    919.8235      1.8920
  1716.0000    135.7838      0.0000    918.9131      1.8316
  1716.2500    136.0710      0.0000    914.5721      1.8551
  1716.5000    137.2105      0.0000    904.3575      1.9439
  1716.7500    140.2315      0.0000    886.5108      2.0600
  1717.0000    143.8089      0.0000    863.2067      2.1715
  1717.2500    145.8683      0.0000    840.9675      2.2731
  1717.5000    145.4442      0.0000    826.1995      2.3813
  1717.7500    143.0597      0.0000    820.5596      2.5179
  1718.0000    140.0767      0.0000    821.7727      2.6996
  1718.2500    137.8876      0.0000    827.1301      2.9365
  1718.5000    137.1096      0.0000    833.9650      3.2292
  1718.7500    137.1250      0.0000    838.7006      3.5611
  1719.0000    136.5089      0.0000    838.3879      3.8947
  1719.2500    134.1805      0.0000    832.1812      4.1849
  1719.5000    130.5098      0.0000    819.4482      4.3995
  1719.7500    127.4344      0.0000    798.0432      4.5236
  1720.0000    127.1452      0.0000    767.1315      4.5532
  1720.2500    130.2764      0.0000    731.1987      4.5005
  1720.5000    135.3294      0.0000    698.7916      4.4047
  1720.7500    139.7965      0.0000    676.6542      4.3179
  1721.0000    141.6824      0.0000    666.0059      4.2669
  1721.2500    140.0692      0.0000    664.2585      4.2303
  1721.5000    134.9226      0.0000    668.9512      4.1551
  1721.7500    127.2233      0.0000    679.1528      3.9999
  1722.0000    119.3575      0.0000    692.8880      3.7668
  1722.2500    114.4920      0.0000    704.4571      3.4986
  1722.5000    114.5356      0.0000    707.2966      3.2495
  1722.7500    118.3314      0.0000    701.0624      3.0612
  1723.0000    121.9434      0.0000    694.0101      2.9591
  1723.2500    120.9558      0.0000    696.3517      2.9564
  1723.5000    113.0720      0.0000    711.6276      3.0523
  1723.7500     99.3546      0.0000    734.5999      3.2246
  1724.0000     83.5258      0.0000    755.6924      3.4269
  1724.2500     69.8381      0.0000    766.5298      3.5899
  1724.5000     61.0572      0.0000    763.1931      3.6414
  1724.7500     58.0664      0.0000    747.6864      3.5490
  1725.0000     60.8128      0.0000    727.8896      3.3477
  1725.2500     68.8899      0.0000    714.6312      3.1108
  1725.5000     81.1085      0.0000    716.9715      2.8967
  1725.7500     95.0617      0.0000    738.8793      2.7248
  1726.0000    107.7812      0.0000    777.6796      2.5896
  1726.2500    117.2869      0.0000    824.0046      2.4820
  1726.5000    123.6225      0.0000    865.5089      2.3975
  1726.7500    128.2372      0.0000    893.2922      2.3330
  1727.0000    132.3574      0.0000    904.8782      2.2865
  1727.2500    136.1500      0.0000    901.5143      2.2615
  1727.5000    139.3667      0.0000    884.9946      2.2637
  1727.7500    142.3688      0.0000    858.2078      2.2955
  1728.0000    145.9388      0.0000    826.9136      2.3598
  1728.2500    149.7914      0.0000    798.4694      2.4687
  1728.5000    151.6879      0.0000    778.1240      2.6347
  1728.7500    148.9500      0.0000    767.0076      2.8553
  1729.0000    141.3364      0.0000    763.2286      3.1125
  1729.2500    132.0252      0.0000    763.9819      3.3863
  1729.5000    125.3277      0.0000    766.9716      3.6587
  1729.7500    123.3511      0.0000    771.5425      3.9085
  1730.0000    124.6248      0.0000    779.5629      4.1104
  1730.2500    125.6847      0.0000    794.2532      4.2431
  1730.5000    124.3097      0.0000    816.3854      4.2961
  1730.7500    121.5501      0.0000    841.6380      4.2719
  1731.0000    120.5806      0.0000    862.9824      4.1796
  1731.2500    123.6545      0.0000    875.5492      4.0301
  1731.5000    130.2012      0.0000    878.5016      3.8398
  1731.7500    137.5799      0.0000    873.8879      3.6435
  1732.0000    143.4128      0.0000    865.2098      3.4913
  1732.2500    147.2701      0.0000    855.6030      3.4159
  1732.5000    150.2754      0.0000    845.9417      3.4015
  1732.7500    153.1824      0.0000    835.5939      3.4027
  1733.0000    155.1785      0.0000    824.6836      3.3863
  1733.2500    154.8175      0.0000    814.2585      3.3375
  1733.5000    151.5714      0.0000    805.3817      3.2350
  1733.7500    145.9242      0.0000    799.1083      3.0515
  1734.0000    138.4659      2.0000    794.9156      2.7855
  1734.2500    129.6756      2.0000    788.2258      2.4818
  1734.5000    120.6831      0.0000    773.3522      2.2114
  1734.7500    113.5562      0.0000    751.4931      2.0240
  1735.0000    109.8054      0.0000    733.2220      1.9148
  1735.2500    108.4049      0.0000    730.1689      1.8377
