~Version Information
VERS.                      2.0: CWLS Log ASCII Standard - VERSION 2.0
WRAP.                       NO: One line per depth step
~Well Information Block
STRT.FT               -13.0000: 
STOP.FT              1411.2500: 
STEP.FT                 0.2500: 
NULL.                -999.2500: 
COMP.                         : COMPANY
WELL.                         : WELL
FLD.                          : FIELD
LOC.                          : LOCATION
CNTY.                         : COUNTY
SRVC.                         : SERVICE COMPANY
DATE.          Sat Jan 17 07:25:27 2004: LOG DATE
UWI.                          : UNIQUE WELL ID
STAT.                         : STATE
~Curve Information Block
DEPT.FT            0 000 00 00: Depth
CCL.                          : Casing Collar Locator
TT3.usec                      : CBL 3' Travel Time
AMP3.mV                       : CBL 3' Amplitude
GR.GAPI                       : Gamma Ray
~Parameter Information Block
~A  Depth       CCL         TT3         AMP3         GR     
# ...
   724.0000      0.0000    309.7935     20.3805     52.0693
   724.2500      0.0000    302.6387     20.4205     49.8867
   724.5000      0.0000    300.2111     20.3375     50.4971
   724.7500      0.0000    299.5440     20.2708     54.1386
   725.0000      0.0000    299.3378     20.2653     60.0344
   725.2500      0.0000    299.1752     20.2737     66.6852
   725.5000      0.0000    299.0398     20.2234     72.1045
   725.7500      0.0000    299.1744     20.0835     74.5079
   726.0000      0.0000    300.3807     19.8771     73.4237
   726.2500      0.0000    304.8512     19.6329     70.0870
   726.5000      0.0000    317.0425     19.3157     66.5473
   726.7500      0.0000    342.7765     18.8011     64.3868
   727.0000      0.0000    385.0581     17.9560     64.1479
   727.2500      0.0000    439.2989     16.7999     65.4981
   727.5000      0.0000    494.1587     15.5913     67.5859
   727.7500      0.0000    539.0283     14.6904     69.3498
   728.0000      0.0000    570.6116     14.2674     69.8690
   728.2500      0.0000    592.0412     14.1471     68.8605
   728.5000      0.0000    607.2859     13.9677     67.0574
   728.7500      0.0000    618.2103     13.4876     65.9199
   729.0000      0.0000    627.2160     12.7192     66.6498
   729.2500     -4.0000    639.3591     11.8162     69.4232
   729.5000      0.0000    657.2708     10.9288     73.5079
   729.7500      0.0000    675.4731     10.1712     77.8269
   730.0000      0.0000    685.0241      9.6102     81.3690
   730.2500      0.0000    683.3245      9.1896     83.4114
   730.5000      0.0000    675.8114      8.7169     83.6387
   730.7500      0.0000    669.5001      8.0251     82.2025
   731.0000      0.0000    668.1569      7.1489     79.7998
   731.2500      0.0000    672.0908      6.2853     77.5516
   731.5000      0.0000    678.9451      5.5963     76.5341
   731.7500      0.0000    684.5930      5.1064     77.2593
   732.0000      0.0000    685.1688      4.7583     79.4482
   732.2500      0.0000    679.2519      4.4932     82.0113
   732.5000      0.0000    668.6464      4.2692     83.3358
   732.7500      0.0000    657.5237      4.0496     82.2436
   733.0000      0.0000    649.6711      3.8029     79.0761
   733.2500      0.0000    644.7603      3.5079     75.7149
   733.5000      0.0000    637.5114      3.1594     74.3232
   733.7500      0.0000    622.2272      2.7837     75.9384
   734.0000      0.0000    598.9803      2.4512     80.1191
   734.2500      0.0000    574.9728      2.2486     85.7034
   734.5000      0.0000    559.9888      2.2177     91.6122
   734.7500      0.0000    561.2115      2.3223     96.8853
   735.0000      0.0000    581.0151      2.4754    100.3393
   735.2500      0.0000    616.2585      2.5882    100.7441
   735.5000      0.0000    658.5052      2.6108     97.6488
   735.7500      0.0000    697.3803      2.5497     91.9258
   736.0000      0.0000    725.6919      2.4503     85.2338
   736.2500      0.0000    741.5732      2.3531     78.7915
   736.5000      0.0000    746.4842      2.2677     72.6824
   736.7500      0.0000    742.9258      2.1855     66.2672
   737.0000      0.0000    734.0886      2.1100     59.1834
   737.2500      0.0000    724.0189      2.0753     52.0806
   737.5000      0.0000    716.5132      2.1341     46.5604
   737.7500      0.0000    713.4122      2.3069     44.3503
   738.0000      0.0000    714.0938      2.5429     46.3739
   738.2500      0.0000    716.6350      2.7428     52.3023
   738.5000      0.0000    719.5368      2.8151     60.6521
   738.7500      0.0000    722.6285      2.7149     69.3061
   739.0000      0.0000    726.8032      2.4606     76.3509
   739.2500      0.0000    733.2511      2.1380     80.7367
   739.5000      0.0000    742.7334      1.8694     82.3832
   739.7500      0.0000    754.7337      1.7449     81.9976
   740.0000      0.0000    766.4431      1.7686     80.7294
   740.2500      0.0000    772.7781      1.8702     79.4353
   740.5000      0.0000    768.7216      1.9677     78.0471
   740.7500      0.0000    752.8895      2.0247     75.8694
   741.0000      0.0000    729.0417      2.0596     72.4582
   741.2500      0.0000    703.7997      2.1140     68.0721
   741.5000      0.0000    682.8885      2.2157     63.5961
   741.7500      0.0000    669.3620      2.3722     60.3447
   742.0000      0.0000    663.9513      2.5871     59.5194
   742.2500      0.0000    665.5232      2.8580     61.2102
   742.5000      0.0000    671.3052      3.1461     64.0866
   742.7500      0.0000    677.9308      3.3689     66.5154
   743.0000      0.0000    683.0146      3.4510     67.7615
   743.2500      0.0000    685.8937      3.3876     67.7902
   743.5000      0.0000    687.1971      3.2535     66.4747
   743.7500      0.0000    688.2490      3.1487     63.6470
   744.0000      0.0000    690.8198      3.1473     59.6601
   744.2500      0.0000    696.8146      3.2918     55.4670
   744.5000      0.0000    706.9937      3.6062     52.2239
   744.7500      0.0000    718.9466      4.1130     50.9650
   745.0000      0.0000    725.8259      4.8615     52.4303
   745.2500      0.0000    718.3945      5.9371     56.7096
   745.5000      0.0000    690.5071      7.4020     62.7198
   745.7500      0.0000    643.5765      9.1923     68.2608
   746.0000      0.0000    585.7203     11.0631     71.2309
   746.2500      0.0000    528.5712     12.6541     71.2022
   746.5000      0.0000    486.5396     13.6619     69.7499
   746.7500      0.0000    473.7880     14.0170     68.9177
   747.0000      0.0000    494.2524     13.9292     69.2431
   747.2500      0.0000    535.7751     13.7353     69.5363
   747.5000      0.0000    580.2799     13.6569     68.7289
   747.7500      0.0000    618.9028     13.6773     67.5394
   748.0000      0.0000    653.3773     13.6313     67.8603
   748.2500      0.0000    686.4994     13.3625     70.7409
   748.5000     -4.0000    716.7092     12.7789     75.4485
   748.7500      0.0000    739.8878     11.8298     80.3522
   749.0000      0.0000    752.3145     10.5288     84.1933
   749.2500      0.0000    752.8622      9.0279     86.4344
   749.5000      0.0000    744.3895      7.6165     86.8253
   749.7500      0.0000    732.8256      6.5728     85.1619
   750.0000      0.0000    723.6030      5.9847     81.6807
   750.2500      0.0000    718.1286      5.7287     77.4929
   750.5000      0.0000    713.8012      5.6137     74.2649
   750.7500      0.0000    707.7823      5.5110     73.2636
   751.0000      0.0000    700.3528      5.3645     74.6073
   751.2500      0.0000    694.3987      5.1593     77.3516
   751.5000      0.0000    693.0922      4.9340     80.1826
   751.7500      0.0000    698.7894      4.7959     81.9650
   752.0000      0.0000    712.4640      4.8524     81.8517
   752.2500      0.0000    732.0456      5.1007     79.5272
   752.5000      0.0000    751.5318      5.4156     75.8027
   752.7500      0.0000    764.1484      5.6694     72.6459
   753.0000      0.0000    768.0684      5.8353     71.9908
   753.2500      0.0000    768.3264      5.9523     74.2853
   753.5000      0.0000    771.6981      6.0328     78.2778
   753.7500      0.0000    779.7018      6.0484     82.1643
   754.0000      0.0000    787.0579      5.9913     84.8360
   754.2500      0.0000    786.2050      5.9039     86.2081
   754.5000      0.0000    772.9647      5.8387     86.7299
   754.7500      0.0000    749.6595      5.8095     86.6735
   755.0000      0.0000    724.3227      5.7845     85.6968
   755.2500      0.0000    705.8583      5.7227     83.0959
   755.5000      0.0000    698.4614      5.6130     78.6175
   755.7500      0.0000    700.5609      5.4808     72.9960
   756.0000      0.0000    708.5508      5.3629     67.4440
   756.2500      0.0000    720.0134      5.2813     62.5790
   756.5000      0.0000    733.4346      5.2344     58.0701
   756.7500      0.0000    746.9694      5.2116     53.3832
   757.0000      0.0000    758.7857      5.2142     48.6840
   757.2500      0.0000    767.7184      5.2592     44.8574
