~Version Information
VERS.                      2.0: CWLS Log ASCII Standard - VERSION 2.0
WRAP.                       NO: One line per depth step
~Well Information Block
STRT.FT                37.7500: 
STOP.FT              1898.5000: 
STEP.FT                 0.2500: 
NULL.                -999.2500: 
COMP.          Petrogulf Corporation: COMPANY
WELL.           Montoya 12-41R: WELL
FLD.           Purgatorie River: FIELD
LOC.           1086' FNL & 610' FEL--: LOCATION
PROV.                       CO: PROVINCE
CNTY.               Las Animas: COUNTRY
SRVC.                         : SERVICE COMPANY
DATE.          Wed Feb 09 11:45:45 2005: LOG DATE
UWI.         005 071 08241 : UNIQUE WELL ID
~Curve Information Block
DEPT.FT            0 000 00 00: Depth
CCL.                          : Casing Collar Locator
TT3.usec                      : CBL 3' Travel Time
AMP3.mV                       : CBL 3' Amplitude
GR.GAPI                       : Gamma Ray
~Parameter Information Block
~A  Depth       CCL         TT3         AMP3         GR     
# ...
  1880.2500      0.0000    608.1539      4.5870    147.9357
  1880.5000      0.0000    567.6206      4.3381    144.5504
  1880.7500      0.0000    519.2332      4.1552    140.7750
  1881.0000      0.0000    478.1002      4.1727    137.6003
  1881.2500      0.0000    451.7231      4.3862    136.8557
  1881.5000      0.0000    437.6817      4.6609    139.2225
  1881.7500      0.0000    430.1931      4.8182    142.8666
  1882.0000      0.0000    427.4735      4.7407    145.1484
  1882.2500      0.0000    432.2942      4.4453    145.5028
  1882.5000      0.0000    446.0013      4.0837    145.5799
  1882.7500      0.0000    462.6652      3.8583    146.6007
  1883.0000      0.0000    470.9484      3.8916    147.8451
  1883.2500      0.0000    463.6088      4.1469    147.8913
  1883.5000      0.0000    444.5220      4.4603    146.0575
  1883.7500      0.0000    425.1913      4.6493    142.2233
  1884.0000      0.0000    416.0241      4.6193    136.2797
  1884.2500      0.0000    421.1477      4.4160    127.9063
  1884.5000      0.0000    437.2296      4.2000    115.9665
  1884.7500      0.0000    454.2807      4.1448     98.6076
  1885.0000      0.0000    461.2537      4.3246     75.5246
  1885.2500      0.0000    456.0269      4.6814     50.1001
  1885.5000      0.0000    449.9754      5.0849     27.9131
  1885.7500      0.0000    460.1222      5.4153     12.7809
  1886.0000      0.0000    495.7979      5.6029      4.7376
  1886.2500      0.0000    551.7789      5.6217      1.4067
  1886.5000      0.0000    612.5645      5.4716      0.3320
  1886.7500      0.0000    663.2224      5.1752      0.0611
  1887.0000      0.0000    697.6912      4.7870      0.0080
  1887.2500      0.0000    718.4330      4.3979   -999.2500
  1887.5000      0.0000    730.0248      4.1160   -999.2500
  1887.7500      0.0000    734.0560      4.0214   -999.2500
  1888.0000      0.0000    728.9463      4.1211   -999.2500
  1888.2500      0.0000    712.2326      4.3447   -999.2500
  1888.5000      0.0000    683.3633      4.5830   -999.2500
  1888.7500      0.0000    647.3359      4.7354   -999.2500
  1889.0000      0.0000    615.6647      4.7408   -999.2500
  1889.2500      0.0000    598.4994      4.5854   -999.2500
  1889.5000      0.0000    591.3101      4.2907   -999.2500
  1889.7500      0.0000    571.2473      3.8891   -999.2500
  1890.0000      0.0000    511.9644      3.4117   -999.2500
  1890.2500      0.0000    406.2999      2.8999   -999.2500
  1890.5000      0.0000    275.7247      2.4186   -999.2500
  1890.7500      0.0000    156.0049      2.0372   -999.2500
  1891.0000      0.0000     72.2515      1.7905   -999.2500
  1891.2500      0.0000     27.0267      1.6629   -999.2500
  1891.5000      0.0000      8.0858      1.6107   -999.2500
  1891.7500      0.0000      1.9170      1.5939   -999.2500
  1892.0000      0.0000      0.3555      1.5897   -999.2500
  1892.2500      0.0000   -999.2500   -999.2500   -999.2500
  1892.5000      0.0000   -999.2500   -999.2500   -999.2500
  1892.7500      0.0000   -999.2500   -999.2500   -999.2500
  1893.0000      0.0000   -999.2500   -999.2500   -999.2500
  1893.2500      0.0000   -999.2500   -999.2500   -999.2500
  1893.5000      0.0000   -999.2500   -999.2500   -999.2500
  1893.7500      0.0000   -999.2500   -999.2500   -999.2500
  1894.0000      0.0000   -999.2500   -999.2500   -999.2500
  1894.2500      0.0000   -999.2500   -999.2500   -999.2500
  1894.5000      0.0000   -999.2500   -999.2500   -999.2500
  1894.7500      0.0000   -999.2500   -999.2500   -999.2500
  1895.0000      0.0000   -999.2500   -999.2500   -999.2500
  1895.2500      0.0000   -999.2500   -999.2500   -999.2500
  1895.5000      0.0000   -999.2500   -999.2500   -999.2500
  1895.7500      0.0000   -999.2500   -999.2500   -999.2500
  1896.0000      0.0000   -999.2500   -999.2500   -999.2500
  1896.2500      0.0000   -999.2500   -999.2500   -999.2500
  1896.5000      0.0000   -999.2500   -999.2500   -999.2500
  1896.7500      0.0000   -999.2500   -999.2500   -999.2500
  1897.0000      0.0000   -999.2500   -999.2500   -999.2500
  1897.2500      0.0000   -999.2500   -999.2500   -999.2500
  1897.5000      0.0000   -999.2500   -999.2500   -999.2500
  1897.7500      0.0000   -999.2500   -999.2500   -999.2500
  1898.0000   -999.2500   -999.2500   -999.2500   -999.2500
  1898.2500   -999.2500   -999.2500   -999.2500   -999.2500
  1898.5000   -999.2500   -999.2500   -999.2500   -999.2500
