~Version Information
VERS.                      2.0: CWLS Log ASCII Standard - VERSION 2.0
WRAP.                       NO: One line per depth step
~Well Information Block
STRT.FT               899.1000: 
STOP.FT              2501.5000: 
STEP.FT                 0.1000: 
NULL.                -999.2500: 
COMP.          Petrogulf Corporation: COMPANY
WELL.           Deremer 17-21V: WELL
FLD.           Purgatorie River: FIELD
LOC.           851' FNL & 963' FWL: LOCATION
CNTY.               Las Animas: COUNTY
SRVC.                         : SERVICE COMPANY
DATE.          Tue Nov 18 09:12:06 2003: LOG DATE
UWI.                          : UNIQUE WELL ID
STAT.                 Colorado: STATE
~Curve Information Block
DEPT.FT            0 000 00 00: Depth
DPOR.pu                       : CDL Density Porosity
NEU.NAPI                      : Neutron
NPOR.pu                       : Neutron Porosity
RHOB.g/cc                     : CDL Bulk Density
RHOC.g/cc                     : CDL Density Correction
GR.GAPI                       : Gamma Ray
DCAL.in                       : CDL Caliper
~Parameter Information Block
~A  Depth       DPOR        NEU         NPOR        RHOB        RHOC         GR         DCAL    
# ...
  2285.1000      4.9950    208.3241     27.4347      2.5676      0.0802     67.5777      7.9034
  2285.2000      6.0976    212.1320     27.0518      2.5494      0.0387     68.8506      7.9034
  2285.3000      6.8512    217.1041     26.5534      2.5370      0.0109     75.3479      7.9031
  2285.4000      6.6223    221.6804     26.0965      2.5407      0.0511     86.1526      7.9031
  2285.5000      6.2531    225.7172     25.6950      2.5468      0.0531     94.3547      7.9077
  2285.6000      6.3592    228.6905     25.4002      2.5451      0.0548     95.8212      7.9077
  2285.7000      6.7789    229.5951     25.3107      2.5381      0.1231     91.3857      7.9077
  2285.8000      7.5655    226.6060     25.6068      2.5252      0.0454     86.3293      7.9073
  2285.9000      8.2501    219.9837     26.2657      2.5139      0.0099     86.1177      7.9073
  2286.0000      7.9141    214.3053     26.8337      2.5194     -0.0173     88.2654      7.9062
  2286.1000      6.8691    213.2996     26.9346      2.5367      0.0603     88.5460      7.9062
  2286.2000      6.1373    216.1763     26.6463      2.5487      0.0148     88.4441      7.9062
  2286.3000      5.8243    217.5216     26.5117      2.5539      0.1017     89.5674      7.9086
  2286.4000      5.3745    213.6113     26.9033      2.5613      0.0314     92.9539      7.9086
  2286.5000      4.4843    208.7661     27.3902      2.5760      0.1116     98.7542      7.9068
  2286.6000      3.9654    208.6058     27.4064      2.5846      0.1315    101.1036      7.9068
  2286.7000      4.2114    214.1227     26.8520      2.5805      0.0353     98.0052      7.9068
  2286.8000      4.6699    221.6725     26.0973      2.5729      0.0758     96.5498      7.8968
  2286.9000      5.2711    225.1345     25.7529      2.5630      0.0865     96.4922      7.8968
  2287.0000      5.6999    222.7285     25.9921      2.5560      0.0574     89.2984      7.8878
  2287.1000      5.9177    218.4477     26.4191      2.5524      0.0834     80.5890      7.8878
  2287.2000      7.1243    215.1858     26.7455      2.5324      0.1217     81.0109      7.8878
  2287.3000      9.1363    212.3554     27.0293      2.4993     -0.0118     87.5806      7.8864
  2287.4000      9.8851    208.6711     27.3998      2.4869      0.0203     93.8061      7.8864
  2287.5000      8.9046    205.0122     27.7687      2.5031      0.0307     95.7904      7.8887
  2287.6000      7.4070    205.4390     27.7257      2.5278      0.0565     90.1924      7.8887
  2287.7000      6.2681    211.2928     27.1361      2.5466      0.0729     81.7861      7.8887
  2287.8000      5.3958    218.7701     26.3869      2.5610      0.0486     77.6211      7.8920
  2287.9000      4.2611    224.3964     25.8262      2.5797      0.0607     73.9730      7.8920
  2288.0000      3.3736    226.9675     25.5709      2.5943      0.0935     68.6496      7.8934
  2288.1000      3.8919    227.4271     25.5254      2.5858      0.0528     68.1461      7.8934
  2288.2000      5.1532    224.3048     25.8353      2.5650      0.0192     74.0457      7.8934
  2288.3000      5.7389    216.7103     26.5928      2.5553      0.1039     79.6403      7.8890
  2288.4000      6.1540    210.0572     27.2603      2.5485      0.0885     81.1485      7.8890
  2288.5000      7.1780    209.3781     27.3286      2.5316      0.0152     81.1964      7.8755
  2288.6000      8.0234    212.4470     27.0201      2.5176     -0.0079     82.2807      7.8755
  2288.7000      7.6186    213.3125     26.9333      2.5243      0.0119     87.0919      7.8755
  2288.8000      6.3615    211.9544     27.0696      2.5450      0.0936     96.4345      7.8615
  2288.9000      5.5918    210.5342     27.2123      2.5577      0.0697    105.5255      7.8615
  2289.0000      5.9837    208.3537     27.4318      2.5513      0.0990    108.5415      7.8599
  2289.1000      6.9613    208.2876     27.4384      2.5351      0.0140    106.9911      7.8599
  2289.2000      7.4429    211.9485     27.0702      2.5272      0.0522    104.1489      7.8599
  2289.3000      7.3312    214.4955     26.8146      2.5290      0.0674     98.9704      7.8676
  2289.4000      7.0634    211.8652     27.0786      2.5335      0.0551     93.7210      7.8676
  2289.5000      6.8981    206.3418     27.6346      2.5362      0.0735     91.0532      7.8757
  2289.6000      6.8787    202.7636     27.9959      2.5365      0.0542     88.8141      7.8757
  2289.7000      6.3981    202.8527     27.9869      2.5444      0.0314     85.5975      7.8757
  2289.8000      5.2673    205.3515     27.7345      2.5631      0.1523     84.7677      7.8795
  2289.9000      4.7151    204.5548     27.8149      2.5722      0.0810     88.6370      7.8795
  2290.0000      6.1207    197.0542     28.5744      2.5490      0.1173     95.4804      7.8812
  2290.1000      8.9808    189.2619     29.3672      2.5018     -0.0089    102.5186      7.8812
  2290.2000     11.0972    185.3157     29.7701      2.4669      0.0128    104.9678      7.8812
  2290.3000     12.2495    184.4760     29.8559      2.4479      0.0515    103.2772      7.8867
  2290.4000     14.1952    188.2110     29.4744      2.4158      0.0073    102.7390      7.8867
  2290.5000     17.2864    195.7092     28.7110      2.3648      0.0175    105.3673      7.8947
  2290.6000     20.1943    202.2859     28.0443      2.3168     -0.0129    107.7180      7.8947
  2290.7000     21.6299    205.3595     27.7337      2.2931     -0.0625    102.8085      7.8947
  2290.8000     21.3803    206.1495     27.6540      2.2972     -0.0434     94.3014      7.8976
  2290.9000     20.1404    207.4524     27.5226      2.3177      0.0191     92.6622      7.8976
  2291.0000     18.5867    210.1384     27.2521      2.3433      0.0290     94.5453      7.9027
  2291.1000     17.1522    214.7819     26.7859      2.3670      0.0954     92.1872      7.9027
  2291.2000     16.4443    220.4547     26.2187      2.3787      0.1058     88.1674      7.9027
  2291.3000     17.0849    224.3914     25.8267      2.3681      0.0978     85.0545      7.9153
  2291.4000     18.4155    226.6860     25.5989      2.3461      0.0043     82.0036      7.9153
  2291.5000     18.8334    226.3466     25.6325      2.3392     -0.0064     80.1098      7.9191
  2291.6000     18.3405    220.0894     26.2552      2.3474      0.0631     79.3993      7.9191
  2291.7000     17.3308    213.4603     26.9184      2.3640     -0.0159     76.9779      7.9191
  2291.8000     14.9710    213.7754     26.8868      2.4030     -0.0018     72.0487      7.9134
  2291.9000     11.9008    218.7429     26.3896      2.4536      0.0874     67.9536      7.9134
  2292.0000     10.0372    224.4387     25.8220      2.4844      0.0263     67.5013      7.9031
  2292.1000      9.6031    228.2397     25.4448      2.4915      0.1143     72.3521      7.9031
  2292.2000      9.4222    227.1002     25.5578      2.4945      0.0660     80.3568      7.9031
  2292.3000      8.7882    221.3921     26.1253      2.5050      0.0928     85.4850      7.8855
  2292.4000      8.3048    215.0025     26.7638      2.5130      0.0475     86.6893      7.8855
  2292.5000      8.1044    211.0145     27.1641      2.5163      0.0257     87.4693      7.8704
  2292.6000      7.5421    211.9774     27.0673      2.5256      0.0566     87.6763      7.8704
  2292.7000      6.9958    217.8665     26.4772      2.5346      0.1190     86.6215      7.8704
  2292.8000      6.6726    225.2864     25.7378      2.5399      0.0517     86.2775      7.8721
  2292.9000      5.9804    232.8570     24.9885      2.5513      0.1181     86.6915      7.8721
  2293.0000      5.5130    240.3168     24.2556      2.5590      0.1012     87.2775      7.8831
  2293.1000      6.1318    243.2231     23.9716      2.5488      0.0795     88.4203      7.8831
  2293.2000      7.5278    239.4121     24.3442      2.5258      0.0661     86.8146      7.8831
  2293.3000      8.8953    234.5753     24.8192      2.5032      0.0582     81.1560      7.8893
  2293.4000      9.3188    231.6185     25.1107      2.4962     -0.0266     75.4775      7.8893
