~Version Information
VERS.                      2.0: CWLS Log ASCII Standard - VERSION 2.0
WRAP.                       NO: One line per depth step
~Well Information Block
STRT.FT               620.0000: 
STOP.FT              2660.0000: 
STEP.FT                 0.1000: 
NULL.                -999.2500: 
COMP.          Evergreen Operating Corporation: COMPANY
WELL.             Carbon 34-21: WELL
FLD.           Purgatoire River: FIELD
LOC.           56' FSL & 2304' FEL: LOCATION
PROV.                 Colorado: PROVINCE
CNTY.               Las Animas: COUNTRY
SRVC.                Patterson: SERVICE COMPANY
DATE.          Mon Sep 13 14:13:15 2004: LOG DATE
UWI.           05 071 08117 00: UNIQUE WELL ID
~Curve Information Block
DEPT.FT            0 000 00 00: Depth
DCAL.in                       : CDL Caliper
DPOR.pu                       : CDL Density Porosity
NPOR.pu                       : Neutron Porosity
RHOB.g/cc                     : CDL Bulk Density
RHOC.g/cc                     : CDL Density Correction
GR.GAPI                       : Gamma Ray
~Parameter Information Block
~A  Depth       DCAL        DPOR        NPOR        RHOB        RHOC         GR     
# ...
  1167.2000      8.3986     67.0269     31.4579      1.5441      0.1008    101.1259
  1167.3000      8.3765     62.7280     30.7789      1.6150      0.0939    103.8727
  1167.4000      8.3765     56.5883     31.7887      1.7163      0.1453    104.9915
  1167.5000      8.3373     48.5652     34.0304      1.8487      0.1822    105.5008
  1167.6000      8.3373     39.3230     35.8773      2.0012      0.2103    104.4693
  1167.7000      8.3373     29.8493     36.0252      2.1575      0.2704    102.0610
  1167.8000      8.3072     21.8632     34.9299      2.2893      0.3027    100.5547
  1167.9000      8.3072     17.1452     33.8406      2.3671      0.2925    103.7361
  1168.0000      8.2943     15.6359     32.9779      2.3920      0.2116    110.0098
  1168.1000      8.2943     14.9693     32.3318      2.4030      0.1826    114.9673
  1168.2000      8.2943     12.9931     32.6113      2.4356      0.1848    122.0547
  1168.3000      8.2856     10.0044     33.6187      2.4849      0.2202    133.4847
  1168.4000      8.2856      7.8917     33.9959      2.5198      0.2437    141.5741
  1168.5000      8.2673      7.4178     33.3561      2.5276      0.1205    139.3072
  1168.6000      8.2673      7.6748     32.6360      2.5234      0.1019    131.4344
  1168.7000      8.2673      8.2123     32.8766      2.5145      0.0662    127.4607
  1168.8000      8.2365      8.9631     34.1425      2.5021      0.0437    127.1008
  1168.9000      8.2365      9.2842     35.3324      2.4968      0.0226    129.8887
  1169.0000      8.2105      8.8715     35.3442      2.5036      0.0536    139.8846
  1169.1000      8.2105      8.2105     34.0053      2.5145      0.0427    150.9698
  1169.2000      8.2105      7.9256     31.9573      2.5192      0.1012    152.7440
  1169.3000      8.1868      8.3719     29.8576      2.5119      0.0618    145.1273
  1169.4000      8.1868      9.0819     28.0726      2.5001      0.0426    133.7331
  1169.5000      8.1666      9.1690     27.2628      2.4987      0.0209    123.4376
  1169.6000      8.1666      8.3361     28.1035      2.5125     -0.0010    119.1146
  1169.7000      8.1666      7.6104     30.3628      2.5244      0.0503    121.3429
  1169.8000      8.1567      7.9139     33.0371      2.5194      0.0015    127.5005
  1169.9000      8.1567      8.1418     35.2060      2.5157      0.0038    135.5903
  1170.0000      8.1450      7.6020     36.0697      2.5246      0.0498    139.4788
  1170.1000      8.1450      7.2441     35.2084      2.5305      0.0413    134.0443
  1170.2000      8.1450      7.1341     33.1055      2.5323      0.0233    125.4910
  1170.3000      8.1352      6.5290     30.6807      2.5423      0.0336    121.5098
  1170.4000      8.1352      5.8378     29.1240      2.5537      0.0601    125.2545
  1170.5000      8.1333      5.5300     29.1846      2.5588      0.0337    132.9402
  1170.6000      8.1333      4.8463     30.0925      2.5700      0.0079    132.8569
  1170.7000      8.1333      3.0781     30.5383      2.5992      0.0461    122.9328
  1170.8000      8.1339      0.5127     30.2488      2.6415      0.0442    114.2984
  1170.9000      8.1339     -1.7206     29.4881      2.6784      0.1001    112.0374
  1171.0000      8.1341     -2.1363     28.1088      2.6852      0.0834    110.2685
  1171.1000      8.1341     -0.7024     26.3246      2.6616      0.0454    104.5907
  1171.2000      8.1341      0.8240     25.5430      2.6364      0.0484     97.8130
  1171.3000      8.1346      0.8765     26.6946      2.6355     -0.0296     92.6767
  1171.4000      8.1346     -0.2371     28.7924      2.6539      0.0241     90.0944
  1171.5000      8.1335     -0.3219     30.1946      2.6553     -0.0075     92.1339
  1171.6000      8.1335      1.6136     29.9353      2.6234     -0.0002    100.1938
  1171.7000      8.1335      4.0992     28.2143      2.5824     -0.0477    109.5821
  1171.8000      8.1305      5.8021     26.1941      2.5543     -0.0369    111.3966
  1171.9000      8.1305      6.7582     25.1558      2.5385     -0.0483    105.4084
  1172.0000      8.1292      6.8417     25.8135      2.5371     -0.0513     99.8749
  1172.1000      8.1292      6.0973     27.7015      2.5494     -0.0261     97.9841
  1172.2000      8.1292      5.4108     29.6735      2.5607      0.0022     98.4465
  1172.3000      8.1299      5.1220     30.9780      2.5655      0.0143    100.7910
  1172.4000      8.1299      5.0724     31.6799      2.5663      0.0398    103.9634
  1172.5000      8.1316      5.1637     32.0126      2.5648      0.0047    106.2465
  1172.6000      8.1316      5.3152     31.2922      2.5623      0.0489    110.2287
  1172.7000      8.1316      5.8622     29.3688      2.5533      0.0201    119.5011
  1172.8000      8.1327      7.0999     27.9449      2.5329      0.0168    125.7324
  1172.9000      8.1327      8.5554     28.3482      2.5088     -0.0372    120.8684
  1173.0000      8.1330      9.0018     29.9961      2.5015     -0.0236    114.7828
  1173.1000      8.1330      8.0049     31.5001      2.5179      0.0156    117.1317
  1173.2000      8.1330      6.5114     31.7375      2.5426      0.0117    124.8555
  1173.3000      8.1339      5.5790     30.6641      2.5579      0.0611    128.8516
  1173.4000      8.1339      5.2907     29.4709      2.5627      0.0021    126.4087
  1173.5000      8.1350      5.0512     29.1910      2.5667      0.0479    124.2367
  1173.6000      8.1350      5.0072     29.8573      2.5674      0.0350    123.8734
  1173.7000      8.1350      5.2325     30.6052      2.5637      0.0053    121.7954
  1173.8000      8.1358      4.9998     31.3195      2.5675      0.0243    116.6132
  1173.9000      8.1358      3.8597     32.9539      2.5863      0.0295    108.9498
  1174.0000      8.1366      2.1600     34.7901      2.6144      0.0791    103.6896
  1174.1000      8.1366      0.8165     34.7644      2.6365      0.0545    104.1596
  1174.2000      8.1366      0.2449     32.5583      2.6460      0.0491    106.7704
  1174.3000      8.1367     -0.0379     29.6686      2.6506      0.0513    108.0459
  1174.4000      8.1367     -0.0304     27.0194      2.6505      0.0954    107.7356
  1174.5000      8.1361      0.6116     24.7071      2.6399      0.0106    107.5620
  1174.6000      8.1361      1.3149     23.4819      2.6283      0.0370    109.4242
  1174.7000      8.1361      1.6650     24.2397      2.6225     -0.0038    111.2782
  1174.8000      8.1354      1.8563     26.2742      2.6194      0.0215    110.4915
  1174.9000      8.1354      2.2252     27.8920      2.6133      0.0388    108.2555
  1175.0000      8.1370      2.8840     28.2811      2.6024      0.0382    106.5438
  1175.1000      8.1370      3.1714     27.8312      2.5977      0.0157    106.5473
  1175.2000      8.1370      2.3628     27.5573      2.6110      0.0089    106.7667
  1175.3000      8.1483      1.0634     28.1069      2.6325      0.0183    103.1609
  1175.4000      8.1483      0.3445     28.7946      2.6443      0.0260     98.6542
  1175.5000      8.1690      0.0790     28.1660      2.6487      0.0234     99.9942
  1175.6000      8.1690     -0.4976     26.4886      2.6582      0.0342    102.6094
  1175.7000      8.1690     -0.9880     26.1111      2.6663      0.0742     99.6470
  1175.8000      8.1853     -0.6688     28.1705      2.6610      0.0173     92.2602
  1175.9000      8.1853     -0.1981     30.9547      2.6533      0.0180     86.9297
  1176.0000      8.1926     -0.2429     32.1402      2.6540      0.0305     89.4042
  1176.1000      8.1926     -0.4505     31.5578      2.6574      0.0748     96.3846
  1176.2000      8.1926     -0.7182     30.4141      2.6619      0.0165    102.3937
  1176.3000      8.2008     -1.4802     29.0807      2.6744     -0.0017    108.6452
  1176.4000      8.2008     -1.8383     27.7277      2.6803      0.0682    115.5880
  1176.5000      8.2101     -0.2902     27.4755      2.6548      0.0353    119.4846
  1176.6000      8.2101      2.4410     28.7542      2.6097      0.0108    119.6612
  1176.7000      8.2101      4.2336     30.7594      2.5801     -0.0143    121.0755
