~Version Information
VERS.                      2.0: CWLS Log ASCII Standard - VERSION 2.0
WRAP.                       NO: One line per depth step
~Well Information Block
STRT.FT                -9.0000: 
STOP.FT              2518.0000: 
STEP.FT                 0.2500: 
NULL.                -999.2500: 
COMP.          Petrogulf Corporation: COMPANY
WELL.            Montoya 7-12V: WELL
FLD.           Purgatorie River: FIELD
LOC.           1764' FNL & 728' FWL: LOCATION
CNTY.               Las Animas: COUNTY
SRVC.                         : SERVICE COMPANY
DATE.          Mon Mar 08 16:11:04 2004: LOG DATE
UWI.           05-071-07887-00: UNIQUE WELL ID
STAT.                 Colorado: STATE
~Curve Information Block
DEPT.FT            0 000 00 00: Depth
GR.GAPI                       : Gamma Ray
CCL.                          : Casing Collar Locator
TT3.usec                      : CBL 3' Travel Time
AMP3.mV                       : CBL 3' Amplitude
~Parameter Information Block
~A  Depth        GR         CCL         TT3         AMP3    
# ...
  1297.5000    110.1753      0.0000    699.1194      3.2772
  1297.7500    117.9298      0.0000    698.4692      3.7817
  1298.0000    123.2854      0.0000    691.5536      4.3168
  1298.2500    126.3538      0.0000    671.7903      4.9277
  1298.5000    127.8741      0.0000    632.1024      5.7089
  1298.7500    128.2911      0.0000    567.8970      6.6523
  1299.0000    127.5218      0.0000    490.7932      7.6574
  1299.2500    125.6448      0.0000    425.8940      8.6131
  1299.5000    123.2453      0.0000    385.5057      9.4581
  1299.7500    121.1694      0.0000    363.3983     10.1909
  1300.0000    120.4029      0.0000    351.4536     10.8163
  1300.2500    121.7941      0.0000    345.7573     11.3329
  1300.5000    125.2676      0.0000    343.5430     11.7431
  1300.7500    129.5124      0.0000    342.7187     12.0250
  1301.0000    132.8624      0.0000    342.3335     12.1382
  1301.2500    134.5318      0.0000    342.1451     12.0784
  1301.5000    135.1184      0.0000    342.3366     11.9042
  1301.7500    136.1400      0.0000    344.4053     11.6696
  1302.0000    138.8626      0.0000    353.9247     11.3376
  1302.2500    143.0323      0.0000    382.0199     10.8364
  1302.5000    146.5456      0.0000    435.8956     10.1769
  1302.7500    146.8254      0.0000    502.6808      9.4460
  1303.0000    143.2777      0.0000    556.3535      8.7525
  1303.2500    138.4034      0.0000    586.0797      8.1961
  1303.5000    135.7211      0.0000    602.3837      7.8213
  1303.7500    136.3706      0.0000    616.6883      7.5868
  1304.0000    138.5126      0.0000    628.0399      7.4010
  1304.2500    140.1608      0.0000    632.4297      7.1974
  1304.5000    141.4882      0.0000    634.6696      6.9587
  1304.7500    143.8358      0.0000    637.2548      6.6447
  1305.0000    147.3540      0.0000    628.8037      6.1504
  1305.2500    150.5357      0.0000    604.6677      5.4748
  1305.5000    151.8213      0.0000    586.0425      4.8791
  1305.7500    150.9587      0.0000    594.1093      4.6149
  1306.0000    148.7256      0.0000    620.5226      4.6104
  1306.2500    145.9015      0.0000    643.3805      4.6876
  1306.5000    142.9088     -5.0000    652.0680      4.8354
  1306.7500    140.1610     -5.0000    649.4927      5.1022
  1307.0000    138.3190      0.0000    646.1471      5.4473
  1307.2500    138.0559      0.0000    650.2440      5.7855
  1307.5000    139.5020      0.0000    655.6197      6.0802
  1307.7500    141.7470      0.0000    651.1139      6.3611
  1308.0000    143.2587      0.0000    640.7474      6.6655
  1308.2500    143.3596      0.0000    634.2407      6.9534
  1308.5000    143.1096      0.0000    633.3966      7.1295
  1308.7500    144.0785      0.0000    639.2772      7.1774
  1309.0000    146.4343      0.0000    651.6683      7.1714
  1309.2500    148.7365      0.0000    663.2268      7.1591
  1309.5000    149.2879      0.0000    665.2748      7.1241
  1309.7500    147.3676      0.0000    653.4384      7.0274
  1310.0000    143.5753      0.0000    630.6619      6.8395
  1310.2500    139.3563      0.0000    607.9863      6.5531
  1310.5000    136.0507      0.0000    591.3508      6.1837
  1310.7500    134.2933      0.0000    575.3708      5.7867
  1311.0000    134.1546      0.0000    560.9583      5.4611
  1311.2500    135.2051      0.0000    560.5976      5.3032
  1311.5000    136.3410      0.0000    580.4215      5.3422
  1311.7500    136.3888      0.0000    609.9319      5.5255
  1312.0000    135.3134      0.0000    632.5684      5.7755
  1312.2500    134.2604      0.0000    639.3481      6.0400
  1312.5000    134.1515      0.0000    627.9959      6.2987
  1312.7500    134.6651      0.0000    601.3611      6.5688
  1313.0000    134.7400      0.0000    575.5365      6.8826
  1313.2500    133.5716      0.0000    571.2289      7.2342
  1313.5000    130.9507      0.0000    584.4151      7.5946
  1313.7500    127.3361      0.0000    588.5945      7.9737
  1314.0000    124.2027      0.0000    570.8447      8.3979
  1314.2500    123.6804      0.0000    540.4836      8.8529
  1314.5000    126.6887      0.0000    507.6282      9.2977
  1314.7500    131.4957      0.0000    470.0212      9.7023
  1315.0000    135.0685      0.0000    423.3210     10.0723
  1315.2500    135.7879      0.0000    377.4143     10.4525
  1315.5000    134.2530      0.0000    345.1293     10.8802
  1315.7500    132.1065      0.0000    326.8414     11.3404
  1316.0000    131.0264      0.0000    317.3024     11.8021
  1316.2500    132.1342      0.0000    312.9373     12.2719
  1316.5000    135.2917      0.0000    311.2791     12.7886
  1316.7500    139.1769      0.0000    310.5595     13.3865
  1317.0000    142.6853      0.0000    309.9680     14.0640
  1317.2500    146.2524      0.0000    309.3681     14.7713
  1317.5000    151.2637      0.0000    308.8308     15.4446
  1317.7500    157.7536      0.0000    308.4128     16.0334
  1318.0000    163.1433      0.0000    308.1279     16.4876
  1318.2500    164.1704      0.0000    307.9366     16.7742
  1318.5000    159.9325      0.0000    307.7958     16.9140
  1318.7500    152.2776      0.0000    307.7351     16.9635
  1319.0000    143.6121      0.0000    307.7872     16.9666
  1319.2500    135.3981      0.0000    307.8918     16.9301
  1319.5000    128.6134      0.0000    307.9726     16.8426
  1319.7500    124.3513      0.0000    308.0360     16.7153
  1320.0000    123.2729      0.0000    308.1443     16.5933
  1320.2500    124.8502      0.0000    308.3222     16.5122
  1320.5000    127.6096      0.0000    308.4790     16.4481
  1320.7500    130.0963      0.0000    308.4802     16.3542
  1321.0000    131.5857      0.0000    308.3333     16.2206
  1321.2500    132.0685      0.0000    308.2143     16.0408
  1321.5000    131.6354      0.0000    308.3956     15.7677
  1321.7500    129.9587      0.0000    309.6399     15.3510
  1322.0000    126.7849      0.0000    315.0489     14.7825
  1322.2500    122.9963      0.0000    333.4487     14.0825
  1322.5000    120.4932      0.0000    378.1717     13.2726
  1322.7500    120.6521      0.0000    451.4928     12.3827
  1323.0000    123.1303      0.0000    528.1957     11.4666
  1323.2500    126.2799      0.0000    572.3886     10.5667
  1323.5000    128.5814      0.0000    577.6310      9.6736
  1323.7500    129.7673      0.0000    572.3537      8.7778
  1324.0000    130.7521      0.0000    575.8932      7.9317
  1324.2500    132.5622      0.0000    575.0043      7.1963
  1324.5000    135.4000      0.0000    560.4060      6.5685
  1324.7500    138.5768      0.0000    545.8412      6.0222
  1325.0000    141.0554      0.0000    538.9109      5.5673
  1325.2500    142.0671      0.0000    534.7004      5.2099
  1325.5000    141.5255      0.0000    533.3550      4.9288
  1325.7500    140.0239      0.0000    535.5925      4.7326
  1326.0000    138.4153      0.0000    535.0141      4.6307
  1326.2500    137.2080      0.0000    526.4021      4.5654
  1326.5000    136.0133      0.0000    512.1931      4.4762
  1326.7500    133.3755      0.0000    498.9608      4.3731
  1327.0000    127.4972      0.0000    491.8241      4.3063
  1327.2500    117.7288      0.0000    494.0171      4.3118
  1327.5000    105.4669      0.0000    508.3154      4.3793
  1327.7500     93.4143      0.0000    532.6180      4.4584
  1328.0000     83.9225      0.0000    553.8803      4.5036
  1328.2500     78.0038      0.0000    553.7377      4.5086
  1328.5000     75.4295      0.0000    527.8932      4.4827
  1328.7500     75.0614      0.0000    498.7252      4.4061
  1329.0000     75.0759      0.0000    492.6581      4.2572
  1329.2500     73.7544      0.0000    502.7378      4.0784
  1329.5000     70.7434      0.0000    499.0886      3.9900
  1329.7500     67.2816      0.0000    472.0021      4.1104
  1330.0000     64.8014      0.0000    439.5192      4.4320
  1330.2500     63.5617      0.0000    423.3373      4.8148
  1330.5000     62.8815      0.0000    430.7538      5.1193
  1330.7500     62.3071      0.0000    456.0661      5.3101
