~Version Information
VERS.                      2.0: CWLS Log ASCII Standard - VERSION 2.0
WRAP.                       NO: One line per depth step
~Well Information Block
STRT.FT                -7.5000: 
STOP.FT              1129.7500: 
STEP.FT                 0.2500: 
NULL.                -999.2500: 
COMP.          Pioneer Natural Resources: COMPANY
WELL.          Drewmeister 34-34: WELL
FLD.           Purgatorie River: FIELD
LOC.           958' FSL & 1857' FEL: LOCATION
STAT.                       CO: State
CNTY.               Las Animas: COUNTRY
CTRY. USA : Country
SECT. 34 : Section
TOWN. 32S : Township
RANG. 65W : Range
SRVC.          Patterson Wireline: SERVICE COMPANY
DATE.          Fri Oct 14 14:02:00 2005: LOG DATE
API.           05 071 08131 00: UNIQUE WELL ID
~Curve Information Block
DEPT.FT            0 000 00 00: Depth
CCL.                          : Casing Collar Locator
TT3.usec                      : CBL 3' Travel Time
AMP3.mV                       : CBL 3' Amplitude
GR.GAPI                       : Gamma Ray
~Parameter Information Block
~A  Depth       CCL         TT3         AMP3         GR     
# ...
   294.0000      0.0000    847.3175      7.8937     83.6899
   294.2500      0.0000    888.3770      7.8895     84.8965
   294.5000      0.0000    926.5971      7.8437     85.9214
   294.7500      0.0000    946.8629      7.7564     86.7582
   295.0000      0.0000    941.7090      7.6307     87.1586
   295.2500      0.0000    914.7812      7.4842     87.7118
   295.5000      0.0000    876.9240      7.3389     89.3463
   295.7500      0.0000    840.2875      7.2021     91.6638
   296.0000      0.0000    813.2310      7.0565     93.0422
   296.2500      0.0000    797.6915      6.8743     92.6522
   296.5000      0.0000    790.7055      6.6497     91.3127
   296.7500      0.0000    788.2074      6.4221     90.2291
   297.0000      0.0000    787.4836      6.2602     89.9497
   297.2500      0.0000    787.3341      6.2153     90.6585
   297.5000      0.0000    787.3436      6.2826     92.3744
   297.7500      0.0000    787.3887      6.4024     94.4714
   298.0000      0.0000    787.4102      6.4971     95.8667
   298.2500      0.0000    787.3430      6.5159     96.2122
   298.5000      0.0000    786.9635      6.4531     96.1444
   298.7500      0.0000    785.7227      6.3329     95.9819
   299.0000      0.0000    782.7413      6.1886     95.1387
   299.2500      0.0000    777.2355      6.0597     93.3727
   299.5000      0.0000    769.3060      5.9942     91.7382
   299.7500      0.0000    760.3561      6.0346     91.6678
   300.0000      0.0000    752.4202      6.1957     93.7391
   300.2500      0.0000    746.9027      6.4566     97.8083
   300.5000      0.0000    744.0226      6.7668    103.4984
   300.7500      0.0000    743.3776      7.0512    109.6554
   301.0000      0.0000    744.6824      7.2247    113.8530
   301.2500      0.0000    747.7569      7.2377    113.7462
   301.5000      0.0000    751.9097      7.1219    109.1915
   301.7500      0.0000    755.6594      6.9698    102.4034
   302.0000      0.0000    757.3653      6.8551     95.9974
   302.2500      0.0000    756.2712      6.7850     91.3291
   302.5000      0.0000    753.0161      6.7362     88.4696
   302.7500      0.0000    749.1558      6.7050     86.9820
   303.0000      0.0000    746.1017      6.7033     86.2069
   303.2500      0.0000    744.4202      6.7214     85.1284
   303.5000      0.0000    744.0394      6.7239     82.7683
   303.7500      0.0000    744.9711      6.6850     79.0894
   304.0000      0.0000    747.7415      6.6129     75.2774
   304.2500      0.0000    753.0135      6.5398     73.0477
   304.5000      0.0000    760.5831      6.4881     73.8420
   304.7500      0.0000    768.7374      6.4466     78.2197
   305.0000      0.0000    774.9915      6.3830     85.1822
   305.2500      0.0000    777.8689      6.2843     92.1116
   305.5000      0.0000    777.9487      6.1789     96.1503
   305.7500      0.0000    776.9390      6.1098     96.1143
   306.0000      0.0000    775.7081      6.0929     92.9398
   306.2500      0.0000    773.6236      6.1100     88.2929
   306.5000      0.0000    769.9607      6.1340     83.1792
   306.7500      0.0000    765.2651      6.1473     77.9600
   307.0000      0.0000    760.7544      6.1275     73.0738
   307.2500      0.0000    757.0371      6.0271     69.3340
   307.5000      0.0000    754.2984      5.7894     67.6952
   307.7500      0.0000    753.2960      5.4032     68.8558
   308.0000      0.0000    755.0157      4.9386     72.7551
   308.2500      0.0000    759.1486      4.5144     78.1567
   308.5000      0.0000    763.6204      4.2331     83.0111
   308.7500      0.0000    766.0801      4.1463     85.8964
   309.0000      0.0000    765.7737      4.2573     87.3271
   309.2500      0.0000    763.8907      4.5215     89.2344
   309.5000      0.0000    762.4492      4.8390     92.8376
   309.7500      0.0000    762.9913      5.0818     97.0942
   310.0000      0.0000    765.9485      5.1604     99.3971
   310.2500      0.0000    770.7595      5.0758     97.8673
   310.5000      0.0000    776.5294      4.9063     93.0211
   310.7500      0.0000    782.8611      4.7515     87.2117
   311.0000      0.0000    790.5994      4.6841     82.5782
   311.2500      0.0000    801.4860      4.7235     79.7207
   311.5000      0.0000    816.2590      4.8267     78.1710
   311.7500      0.0000    833.7316      4.8992     77.3983
   312.0000      0.0000    853.7712      4.8407     76.8284
   312.2500      0.0000    879.8731      4.6171     75.4289
   312.5000      0.0000    914.3329      4.2985     72.2167
   312.7500      0.0000    951.3757      4.0167     67.3445
   313.0000      0.0000    980.4081      3.8732     62.4651
   313.2500      0.0000    995.1038      3.8871     59.9910
   313.5000      0.0000    994.7921      4.0092     61.6733
   313.7500     -2.0000    980.1864      4.1574     67.3260
   314.0000      0.0000    953.0848      4.2410     74.9461
   314.2500      0.0000    917.3367      4.1926     82.3068
   314.5000      0.0000    876.9312      4.0169     88.0771
   314.7500      0.0000    835.9194      3.8051     91.4552
   315.0000      0.0000    800.5948      3.6701     91.8612
   315.2500      0.0000    777.6177      3.6509     89.5829
   315.5000      0.0000    769.0113      3.6895     86.2484
   315.7500      0.0000    770.8002      3.7039     84.2137
   316.0000      0.0000    776.6143      3.6661     85.1895
   316.2500      0.0000    781.7885      3.6028     88.9311
   316.5000      0.0000    784.6938      3.5385     93.0723
   316.7500      0.0000    785.5751      3.4676     94.6810
   317.0000      0.0000    784.8796      3.3853     92.6504
   317.2500      0.0000    782.4094      3.3235     88.9291
   317.5000      0.0000    777.6765      3.3349     87.2205
   317.7500      0.0000    770.8756      3.4438     89.8635
   318.0000      0.0000    763.4119      3.6208     95.6858
   318.2500      0.0000    757.0281      3.8006    101.0711
   318.5000      0.0000    752.3798      3.9196    103.1668
   318.7500      0.0000    748.9459      3.9410    101.9724
   319.0000      0.0000    746.3326      3.8586     99.5542
   319.2500      0.0000    744.9518      3.6857     97.6797
   319.5000      0.0000    745.2449      3.4508     96.3618
   319.7500      0.0000    746.7881      3.2079     94.5233
   320.0000      0.0000    748.1514      3.0388     91.7857
   320.2500      0.0000    747.3310      3.0199     89.1653
   320.5000      0.0000    743.0802      3.1774     87.8841
   320.7500      0.0000    736.8685      3.4772     88.0892
   321.0000      0.0000    732.9871      3.8564     89.3244
   321.2500      0.0000    735.1617      4.2536     91.6902
   321.5000      0.0000    742.8337      4.6130     95.4847
   321.7500      0.0000    751.7324      4.8854     99.9037
   322.0000      0.0000    758.1928      5.0439    103.3321
   322.2500      0.0000    762.1026      5.0983    105.1660
   322.5000      0.0000    765.6559      5.0951    106.4160
   322.7500      0.0000    770.3901      5.1024    108.1958
   323.0000      0.0000    775.9735      5.1825    110.2830
   323.2500      0.0000    781.0765      5.3606    111.3162
   323.5000      0.0000    784.6284      5.6161    109.9554
   323.7500      0.0000    786.3074      5.9062    105.9969
   324.0000      0.0000    786.3394      6.1981    100.7738
   324.2500      0.0000    785.2721      6.4752     96.2289
   324.5000      0.0000    783.9785      6.7178     93.2828
   324.7500      0.0000    783.4653      6.8910     91.3385
   325.0000      0.0000    784.2656      6.9663     89.6627
   325.2500      0.0000    786.0292      6.9591     88.8345
   325.5000      0.0000    787.9056      6.9364     90.1468
   325.7500      0.0000    789.2541      6.9712     93.6134
   326.0000      0.0000    789.9430      7.0845     97.2271
   326.2500      0.0000    790.1667      7.2345     98.5247
   326.5000      0.0000    790.1681      7.3589     96.8250
   326.7500      0.0000    790.1049      7.4217     93.7756
   327.0000      0.0000    790.0528      7.4224     91.5532
   327.2500      0.0000    790.0464      7.3769     90.7428
