~Version Information
 VERS.                                  2.0 : CWLS LAS VERSION
 WRAP.                                   NO : WRAPING MODE
 SWARE .                 MController 2.5.0E : SOFTWARE VERSION
~Well Information
 WELL.                      Latiluppe 8-13R : WELL
 COMP.                Petrogulf Corporation : COMPANY
 FLD.                      Purgatorie River : FIELD
 LOC.                 NW/SW Sec 8 T33S R67W : LOCATION
 DATE.                              4/20/04 : DATE(S) LOGGED
 SRVC.       Blanco Geological Services LLC : SERVICE COMPANY
 STAT.                                   CO : STATE
 CNTY.                           Las Animas : COUNTY
 CTRY.                                  USA : COUNTRY
 API.                       05-071-08035-00 : API NUMBER
 STRT.FT                            1036.00 : START DEPTH
 STOP.FT                            2246.00 : STOP DEPTH
 STEP.FT                               1.00 : DEPTH INCREMENT
 NULL.                                -9999 : NULL VALUE
~Curve information
 DEPTH.FT                                   :
 ROP.MIN/FT                                 :
 GAS.UNITS                                  :
~ASCII Log data
# ...
     1436.00        0.383          6.8 
     1437.00        0.267          6.8 
     1438.00        0.267          7.0 
     1439.00        0.333          7.1 
     1440.00        0.367          6.9 
     1441.00        0.367          7.3 
     1442.00        0.367          7.5 
     1443.00        0.400          7.5 
     1444.00        0.400          6.6 
     1445.00        0.333          6.6 
     1446.00        0.383          6.7 
     1447.00        0.233          6.8 
     1448.00        0.200          6.4 
     1449.00        0.233          6.6 
     1450.00        0.233          6.6 
     1451.00        0.367          9.0 
     1452.00        0.333         10.2 
     1453.00        0.400          9.1 
     1454.00        0.433          8.7 
     1455.00        0.233          7.6 
     1456.00        0.233          7.0 
     1457.00        0.233          7.0 
     1458.00        0.250          6.8 
     1459.00        0.267          7.5 
     1460.00        0.267         10.5 
     1461.00        0.300         13.4 
     1462.00        0.333         16.2 
     1463.00       24.450         31.7 
     1464.00        0.533          7.6 
     1465.00        0.267          7.4 
     1466.00        0.283          7.1 
     1467.00        0.267          7.1 
     1468.00        0.267          7.0 
     1469.00        0.300          7.3 
     1470.00        0.433          7.4 
     1471.00        0.267          8.4 
     1472.00        0.267          7.9 
     1473.00        0.533          7.8 
     1474.00        0.500          9.3 
     1475.00        0.550         11.3 
     1476.00        0.267         11.4 
     1477.00        0.267         10.0 
     1478.00        0.267          8.5 
     1479.00        0.267          6.9 
     1480.00        0.267          7.3 
     1481.00        0.267          6.8 
     1482.00        0.800          6.9 
     1483.00        0.333          7.0 
     1484.00        0.550          7.1 
     1485.00        0.433          6.9 
     1486.00        0.267          7.3 
     1487.00        0.267          6.9 
     1488.00        0.267          6.9 
     1489.00        0.267          7.9 
     1490.00        0.267         11.1 
     1491.00        0.267         19.9 
     1492.00        0.267         28.9 
     1493.00        4.083         61.8 
     1494.00        0.550          7.1 
     1495.00        0.667          7.1 
     1496.00        0.333          7.2 
     1497.00        0.333          6.8 
     1498.00        0.333          6.7 
     1499.00        0.300          6.5 
     1500.00        0.333          6.4 
     1501.00        0.233          6.7 
     1502.00        0.200          6.5 
     1503.00        0.200          6.2 
     1504.00        0.217          6.3 
     1505.00        0.233          6.4 
     1506.00        0.233          6.4 
     1507.00        0.300          6.4 
     1508.00        0.333          6.7 
     1509.00        0.300          6.1 
     1510.00        0.333          6.4 
     1511.00        0.300          6.5 
     1512.00        0.267          6.2 
     1513.00        0.300          6.2 
     1514.00        0.367          5.9 
     1515.00        0.233          6.1 
     1516.00        0.350          6.7 
     1517.00        0.267          7.8 
     1518.00        0.433          7.4 
     1519.00        0.400          8.3 
     1520.00        0.300         10.9 
     1521.00        0.300         14.4 
     1522.00        0.233         19.0 
     1523.00        2.317         19.3 
     1524.00        0.533          7.6 
     1525.00        0.600          7.0 
     1526.00        0.733          7.0 
     1527.00        0.750          6.7 
     1528.00        0.400          6.5 
     1529.00        0.233          7.2 
     1530.00        0.300          6.6 
     1531.00        0.300          6.5 
     1532.00        0.300          7.0 
     1533.00        0.300          6.5 
     1534.00        0.300          6.5 
     1535.00        0.300          6.4 
     1536.00        0.367          6.6 
     1537.00        0.383          6.7 
     1538.00        0.333          6.5 
     1539.00        0.367          6.5 
     1540.00        0.400          7.1 
     1541.00        0.333          9.5 
     1542.00        0.367          7.1 
     1543.00        0.400          7.0 
     1544.00        0.333          6.8 
     1545.00        0.333          7.1 
     1546.00        0.417          6.6 
     1547.00        0.467          6.7 
     1548.00        0.433         11.3 
     1549.00        0.933         11.5 
     1550.00        0.633          9.6 
     1551.00        0.750          7.1 
     1552.00        0.667         14.3 
     1553.00        3.017         28.7 
     1554.00        0.900          6.9 
     1555.00        0.700          6.5 
     1556.00        0.567          6.5 
     1557.00        0.633          6.7 
     1558.00        0.617          6.3 
     1559.00        0.767          7.8 
     1560.00        0.333          7.6 
     1561.00        0.367          6.2 
     1562.00        0.400          6.5 
     1563.00        0.333          6.0 
     1564.00        0.267          6.0 
     1565.00        0.300          6.4 
     1566.00        0.383          6.1 
     1567.00        0.467          6.3 
     1568.00        0.467          6.1 
     1569.00        0.500          6.2 
     1570.00        0.433          6.3 
     1571.00        0.467          6.2 
     1572.00        0.433          6.1 
     1573.00        0.517          6.2 
     1574.00        0.467          6.1 
     1575.00        0.467          6.5 
     1576.00        0.500          5.9 
     1577.00        0.500          6.7 
     1578.00        0.700          6.3 
     1579.00        0.617          6.1 
     1580.00        0.633          6.2 
     1581.00        0.833          6.1 
     1582.00        0.800          7.5 
     1583.00        3.583         29.0 
     1584.00        0.717          7.0 
     1585.00        0.800          6.3 
     1586.00        0.700          6.2 
     1587.00        0.633          6.4 
     1588.00        0.233          6.5 
     1589.00        0.533          6.2 
     1590.00        0.550          6.1 
     1591.00        0.800          6.3 
     1592.00        0.533          6.2 
     1593.00        0.667          6.0 
     1594.00        0.533          6.2 
     1595.00        0.400          6.0 
     1596.00        0.683          6.1 
     1597.00        0.800          6.1 
     1598.00        0.800          6.5 
     1599.00        0.933          6.5 
     1600.00        0.817          6.5 
     1601.00        0.533          7.5 
     1602.00        0.733          7.8 
     1603.00        0.533          8.8 
     1604.00        0.767          8.6 
     1605.00        0.283          7.4 
     1606.00        0.800          7.0 
     1607.00        0.533          6.2 
     1608.00        0.533          6.3 
     1609.00        0.800          6.4 
     1610.00        0.533          6.3 
     1611.00        0.550          6.3 
     1612.00        0.800          6.6 
     1613.00        0.533          6.5 
     1614.00        0.800          6.6 
     1615.00       39.700          7.1 
     1616.00        9.383          8.7 
     1617.00        0.367          8.6 
     1618.00        0.200          8.8 
     1619.00        0.233          8.9 
     1620.00        0.233          8.4 
     1621.00        0.200          7.8 
     1622.00        0.200          7.6 
     1623.00        0.200          7.3 
     1624.00        0.200          7.3 
     1625.00        0.250          6.9 
     1626.00        0.200          6.4 
     1627.00        0.167          6.3 
     1628.00        0.200          6.3 
     1629.00        0.200          6.3 
     1630.00        0.200          6.4 
     1631.00        0.200          6.2 
     1632.00        0.233          6.3 
     1633.00        0.233          6.3 
     1634.00        0.200          6.4 
     1635.00        0.200          6.1 
