~Version Information
 VERS.                                  2.0 : CWLS LAS VERSION
 WRAP.                                   NO : WRAPING MODE
 SWARE .                 MController 2.5.0J : SOFTWARE VERSION
~Well Information
 WELL.                      Warrior 33-1 Tr : WELL
 COMP.    Pioneer Natural Resources USA Inc : COMPANY
 FLD.                      Purgatoire River : FIELD
 LOC.                 NW/SE Sec 1 T33S R67W : LOCATION
 DATE.                            6/17/2005 : DATE(S) LOGGED
 SRVC.      Blanco Geological Services LLC  : SERVICE COMPANY
 STAT.                                   CO : STATE
 CNTY.                           Las Animas : COUNTY
 CTRY.                                  USA : COUNTRY
 API.                       05-071-08412-00 : API NUMBER
 STRT.FT                             383.00 : START DEPTH
 STOP.FT                            1751.00 : STOP DEPTH
 STEP.FT                               1.00 : DEPTH INCREMENT
 NULL.                                -9999 : NULL VALUE
~Curve information
 DEPTH.FT                                   :
 ROP.MIN/FT                                 :
 GAS.UNITS                                  :
~ASCII Log data
# ...
      1183.0         0.13       1262.6 
      1184.0         0.13       1261.9 
      1185.0         0.20       1264.6 
      1186.0         0.20       1270.0 
      1187.0         0.27       1269.7 
      1188.0         0.13       1263.3 
      1189.0         0.17       1255.5 
      1190.0         0.23       1217.4 
      1191.0         0.23       1221.5 
      1192.0         0.22       1110.0 
      1193.0         0.17        971.8 
      1194.0         0.20        913.5 
      1195.0         0.10        915.2 
      1196.0         2.40       4598.0 
      1197.0         0.20       3370.3 
      1198.0         0.48       2793.2 
      1199.0         0.37       1933.0 
      1200.0         0.37       1598.8 
      1201.0         0.27       1467.8 
      1202.0         0.27       1414.2 
      1203.0         0.23       1370.7 
      1204.0         0.23       1337.4 
      1205.0         0.20       1303.3 
      1206.0         0.20       1284.1 
      1207.0         0.30       1263.3 
      1208.0         0.30       1225.2 
      1209.0         0.20       1197.6 
      1210.0         0.25       1181.0 
      1211.0         0.20       1167.9 
      1212.0         0.23       1151.7 
      1213.0         0.20       1132.5 
      1214.0         0.20       1121.4 
      1215.0         0.20       1109.6 
      1216.0         0.20       1105.9 
      1217.0         0.20       1100.2 
      1218.0         0.17       1103.9 
      1219.0         0.23       1111.3 
      1220.0         0.20       1105.2 
      1221.0         0.20       1047.6 
      1222.0         0.20        937.1 
      1223.0         0.20        800.0 
      1224.0         0.17        706.7 
      1225.0         0.20        788.2 
      1226.0         2.18       3650.0 
      1227.0         0.60       2608.6 
      1228.0         0.40       1545.6 
      1229.0         0.23       1326.6 
      1230.0         0.18       1244.0 
      1231.0         0.13       1207.7 
      1232.0         0.20       1206.3 
      1233.0         0.17       1196.9 
      1234.0         0.17       1192.8 
      1235.0         0.17       1182.7 
      1236.0         0.13       1157.1 
      1237.0         0.20       1138.6 
      1238.0         0.27       1115.0 
      1239.0         0.33       1053.7 
      1240.0         0.30       1021.7 
      1241.0         0.23        986.6 
      1242.0         0.23        971.5 
      1243.0         0.20        958.0 
      1244.0         0.13        938.1 
      1245.0         0.20        917.9 
      1246.0         0.23        896.7 
      1247.0         0.18        913.5 
      1248.0         0.23        934.4 
      1249.0         0.47        956.0 
      1250.0         0.27        950.6 
      1251.0         0.20        848.2 
      1252.0         0.17        688.8 
      1253.0         0.20        623.5 
      1254.0         0.17        595.8 
      1255.0         0.17        626.5 
      1256.0         3.22       3191.4 
      1257.0         0.33       1130.8 
      1258.0         0.27       1001.8 
      1259.0         0.27        965.1 
      1260.0         0.23        942.5 
      1261.0         0.27        917.2 
      1262.0         0.25        893.0 
      1263.0         0.23        813.8 
      1264.0         0.23        782.1 
      1265.0         0.20        794.3 
      1266.0         0.23        837.1 
      1267.0         0.20        915.6 
      1268.0         0.20        971.5 
      1269.0         0.17        975.5 
      1270.0         0.20        951.9 
      1271.0         0.20        916.9 
      1272.0         0.20        849.2 
      1273.0         0.27        895.0 
      1274.0         0.27        935.8 
      1275.0         0.20        935.8 
      1276.0         0.20        943.2 
      1277.0         0.28        962.1 
      1278.0         0.33        964.1 
      1279.0         0.23        959.4 
      1280.0         0.17        937.1 
      1281.0         0.23        920.6 
      1282.0         0.30        790.2 
      1283.0         0.23        617.1 
      1284.0         0.23        571.2 
      1285.0         0.23        601.6 
      1286.0         3.18       3111.6 
      1287.0         0.37       1692.5 
      1288.0         0.30       1290.9 
      1289.0         0.23       1153.8 
      1290.0         0.30       1042.2 
      1291.0         0.32        995.1 
      1292.0         0.30        957.3 
      1293.0         0.40        929.4 
      1294.0         0.33        893.7 
      1295.0         0.33        860.6 
      1296.0         0.20        842.8 
      1297.0         0.17        829.6 
      1298.0         0.20        816.2 
      1299.0         0.33        810.4 
      1300.0         0.30        787.2 
      1301.0         0.20        767.0 
      1302.0         0.30        765.6 
      1303.0         0.20        749.5 
      1304.0         0.22        724.5 
      1305.0         0.17        696.2 
      1306.0         0.17        703.3 
      1307.0         0.20        725.5 
      1308.0         0.13        732.6 
      1309.0         0.20        740.0 
      1310.0         0.13        737.0 
      1311.0         0.43        791.6 
      1312.0         0.33        808.4 
      1313.0         0.23        745.8 
      1314.0         0.23        601.9 
      1315.0         0.23        539.6 
      1316.0         3.42       3425.6 
      1317.0         0.10       1350.9 
      1318.0         0.37       1297.6 
      1319.0         0.32       1113.7 
      1320.0         0.23       1010.6 
      1321.0         0.27        945.9 
      1322.0         0.17        849.2 
      1323.0         0.20        826.6 
      1324.0         0.23        821.9 
      1325.0         0.17        829.3 
      1326.0         0.13        839.8 
      1327.0         0.13        850.2 
      1328.0         0.13        864.7 
      1329.0         0.17        868.4 
      1330.0         0.13        865.7 
      1331.0         0.13        854.9 
      1332.0         0.13        840.4 
      1333.0         0.17        839.1 
      1334.0         0.17        836.4 
      1335.0         0.20        835.4 
      1336.0         0.17        833.0 
      1337.0         0.18        826.6 
      1338.0         0.17        817.9 
      1339.0         0.27        814.5 
      1340.0         0.23        815.8 
      1341.0         0.23        809.8 
      1342.0         0.17        792.2 
      1343.0         0.27        703.3 
      1344.0         0.17        605.6 
      1345.0         0.27        534.5 
      1346.0         2.95       3106.5 
      1347.0         0.43       1799.6 
      1348.0         0.37       1380.8 
      1349.0         0.43       1139.6 
      1350.0         0.30        972.2 
      1351.0         0.20        897.4 
      1352.0         0.25        858.6 
      1353.0         0.33        843.1 
      1354.0         0.33        804.0 
      1355.0         0.20        760.6 
      1356.0         0.27        752.8 
      1357.0         0.27        739.7 
      1358.0         0.20        730.6 
      1359.0         0.23        741.7 
      1360.0         0.20        738.3 
      1361.0         0.20        706.3 
      1362.0         0.20        702.6 
      1363.0         0.23        710.7 
      1364.0         0.27        747.1 
      1365.0         0.20        764.3 
      1366.0         0.25        769.7 
      1367.0         0.20        775.7 
      1368.0         0.27        781.8 
      1369.0         0.27        802.0 
      1370.0         0.27        809.4 
      1371.0         0.27        803.7 
      1372.0         0.27        722.2 
      1373.0         0.20        583.4 
      1374.0         0.20        536.2 
      1375.0         0.17        602.9 
      1376.0         3.22       3140.9 
      1377.0         0.37       1225.9 
      1378.0         0.30       1073.2 
      1379.0         0.27        956.0 
      1380.0         0.20        905.4 
      1381.0         0.22        886.6 
      1382.0         0.20        875.8 
