~Version Information
VERS.                      2.0: CWLS Log ASCII Standard - VERSION 2.0
WRAP.                       NO: One line per depth step
~Well Information Block
STRT.FT               964.2000: 
STOP.FT              2596.7000: 
STEP.FT                 0.1000: 
NULL.                -999.2500: 
COMP.          Petrogulf Corporation: COMPANY
WELL.             Valejo 8-12V: WELL
FLD.           Purgatorie River: FIELD
LOC.           1510' FNL & 1460' FWL: LOCATION
CNTY.               Las Animas: COUNTY
SRVC.                         : SERVICE COMPANY
DATE.          Sat Nov 15 12:30:37 2003: LOG DATE
UWI.                          : UNIQUE WELL ID
STAT.                 Colorado: STATE
~Curve Information Block
DEPT.FT            0 000 00 00: Depth
DCAL.in                       : CDL Caliper
RHOB.g/cc                     : CDL Bulk Density
RHOC.g/cc                     : CDL Density Correction
DPOR.pu                       : CDL Density Porosity
GR.GAPI                       : Gamma Ray
NPOR.pu                       : Neutron Porosity
~Parameter Information Block
~A  Depth       DCAL        RHOB        RHOC        DPOR         GR         NPOR    
# ...
  1521.0000      9.6598      2.2247      0.2359     25.7779     97.6669     35.2396
  1521.1000      9.6598      2.2486      0.2733     24.3256     91.5185     34.1055
  1521.2000      9.6598      2.2660      0.3128     23.2736     88.3237     33.0904
  1521.3000      9.7874      2.2632      0.3114     23.4410     87.8423     32.8718
  1521.4000      9.7874      2.2399      0.2843     24.8554     86.7225     32.7886
  1521.5000      9.8556      2.2074      0.2405     26.8269     85.6320     32.5379
  1521.6000      9.8556      2.1775      0.2060     28.6354     88.6282     32.1775
  1521.7000      9.8556      2.1575      0.1933     29.8496     96.2902     31.3654
  1521.8000      9.8781      2.1462      0.2086     30.5336    107.5037     31.2957
  1521.9000      9.8781      2.1316      0.2377     31.4152    116.1040     33.1995
  1522.0000      9.8789      2.1003      0.2314     33.3167    114.9730     35.3764
  1522.1000      9.8789      2.0487      0.2284     36.4452    109.5892     35.7727
  1522.2000      9.8789      1.9833      0.1885     40.4076    102.4587     34.6756
  1522.3000      9.8734      1.9150      0.1993     44.5433     92.0038     33.9993
  1522.4000      9.8734      1.8563      0.1851     48.1030     84.9958     34.6832
  1522.5000      9.8622      1.8284      0.1552     49.7932     83.9095     36.5726
  1522.6000      9.8622      1.8539      0.2001     48.2473     82.5042     38.7547
  1522.7000      9.8622      1.9265      0.2654     43.8500     78.2090     39.5843
  1522.8000      9.8308      2.0093      0.3143     38.8296     74.7067     38.6284
  1522.9000      9.8308      2.0721      0.3335     35.0219     78.2619     36.6997
  1523.0000      9.7514      2.1079      0.3341     32.8568     87.3049     34.6898
  1523.1000      9.7514      2.1149      0.3190     32.4325     92.8557     33.9290
  1523.2000      9.7514      2.0943      0.2127     33.6793     93.1930     35.0310
  1523.3000      9.5955      2.0660      0.1462     35.3959     93.2157     36.1926
  1523.4000      9.5955      2.0561      0.1116     35.9935     93.4743     35.6967
  1523.5000      9.3598      2.0722      0.1270     35.0206     90.9697     34.1935
  1523.6000      9.3598      2.1125      0.0812     32.5739     86.3852     32.3920
  1523.7000      9.3598      2.1746      0.1336     28.8105     82.3121     30.8194
  1523.8000      9.0834      2.2372      0.2640     25.0179     79.7027     31.2270
  1523.9000      9.0834      2.2800      0.2571     22.4237     80.5681     33.4050
  1524.0000      8.8310      2.3102      0.2505     20.5941     84.7189     34.3249
  1524.1000      8.8310      2.3389      0.2435     18.8543     87.3235     33.1919
  1524.2000      8.8310      2.3653      0.2423     17.2538     86.3752     31.5442
  1524.3000      8.6511      2.3908      0.1956     15.7121     84.7082     30.3516
  1524.4000      8.6511      2.4164      0.1750     14.1605     82.9199     29.8450
  1524.5000      8.5509      2.4284      0.1694     13.4296     80.2868     30.5394
  1524.6000      8.5509      2.4077      0.1399     14.6845     80.6103     32.3743
  1524.7000      8.5509      2.3476      0.1370     18.3274     85.1700     33.5521
  1524.8000      8.5073      2.2667      0.0149     23.2298     89.7947     33.2235
  1524.9000      8.5073      2.1931     -0.0044     27.6934     93.8100     32.6314
  1525.0000      8.4929      2.1279     -0.0234     31.6422     98.8370     32.7296
  1525.1000      8.4929      2.0603     -0.0440     35.7377    102.1932     33.2117
  1525.2000      8.4929      1.9970     -0.0358     39.5774    103.0381     32.6431
  1525.3000      8.4893      1.9521     -0.0149     42.2957    101.9645     30.7245
  1525.4000      8.4893      1.9333      0.0050     43.4383     97.2737     28.9931
  1525.5000      8.4885      1.9441      0.0393     42.7841     88.5979     27.8591
  1525.6000      8.4885      1.9865      0.0856     40.2094     81.7877     26.2088
  1525.7000      8.4885      2.0531      0.1559     36.1779     84.3288     23.4308
  1525.8000      8.4879      2.1268      0.1855     31.7089     91.6028     20.7181
  1525.9000      8.4879      2.1947      0.2185     27.5959     93.6497     19.1536
  1526.0000      8.4872      2.2526      0.2021     24.0839     90.9590     17.8680
  1526.1000      8.4872      2.3114      0.0958     20.5206     90.9073     16.5495
  1526.2000      8.4872      2.3778      0.1276     16.4960     94.0734     16.0381
  1526.3000      8.4865      2.4355      0.0761     12.9999     96.0670     15.7633
  1526.4000      8.4865      2.4728      0.0573     10.7413     95.4120     15.6289
  1526.5000      8.4863      2.4954      0.0147      9.3675     93.8899     16.5202
  1526.6000      8.4863      2.5103      0.0203      8.4692     93.1157     18.3129
  1526.7000      8.4863      2.5149      0.0281      8.1894     91.0442     19.6925
  1526.8000      8.4866      2.5116     -0.0097      8.3879     84.9339     20.3249
  1526.9000      8.4866      2.5140      0.0315      8.2402     79.4702     21.0665
  1527.0000      8.4871      2.5282     -0.0011      7.3798     81.4108     21.6645
  1527.1000      8.4871      2.5398      0.0635      6.6779     86.4747     21.6981
  1527.2000      8.4871      2.5260      0.0517      7.5173     88.5075     22.5465
  1527.3000      8.4875      2.4934     -0.0247      9.4922     91.6852     24.6585
  1527.4000      8.4875      2.4730     -0.0065     10.7283     97.3513     25.6581
  1527.5000      8.4874      2.4741      0.0177     10.6599     99.0034     23.8189
  1527.6000      8.4874      2.4846      0.0413     10.0268     96.6135     21.1350
  1527.7000      8.4874      2.4961      0.0271      9.3267     95.4322     20.1600
  1527.8000      8.4870      2.5081      0.0433      8.5986     97.0781     20.4843
  1527.9000      8.4870      2.5195      0.0906      7.9061    100.7919     20.6609
  1528.0000      8.4867      2.5332      0.0964      7.0781    101.8362     20.5623
  1528.1000      8.4867      2.5530      0.0951      5.8778     97.8448     20.9482
  1528.2000      8.4867      2.5698      0.1319      4.8586     96.0371     21.8003
  1528.3000      8.4868      2.5735      0.1507      4.6389     99.5734     21.7269
  1528.4000      8.4868      2.5652      0.1611      5.1374    102.8849     20.4941
  1528.5000      8.4871      2.5522      0.0816      5.9246    103.5853     18.9055
  1528.6000      8.4871      2.5466      0.0654      6.2662    101.4143     16.7950
  1528.7000      8.4871      2.5540      0.0481      5.8211     96.0789     14.6251
  1528.8000      8.4874      2.5644      0.0907      5.1882     92.0633     14.2503
  1528.9000      8.4874      2.5674      0.0717      5.0079     91.2781     15.5214
  1529.0000      8.4876      2.5663      0.0356      5.0740     90.0279     15.2627
  1529.1000      8.4876      2.5660      0.0799      5.0891     88.8717     12.8666
  1529.2000      8.4876      2.5624      0.0639      5.3063     90.9889     11.2401
  1529.3000      8.4879      2.5556      0.0460      5.7190     94.0012     11.6394
  1529.4000      8.4879      2.5515      0.0488      5.9696     93.1233     13.5978
  1529.5000      8.4885      2.5542      0.0502      5.8037     88.1352     14.9678
  1529.6000      8.4885      2.5649      0.0562      5.1556     82.5574     13.9159
  1529.7000      8.4885      2.5797      0.0707      4.2588     79.8306     12.2572
  1529.8000      8.4891      2.5888      0.0893      3.7087     79.5634     11.3964
  1529.9000      8.4891      2.5860      0.0779      3.8765     78.7259     11.0424
  1530.0000      8.4897      2.5784      0.0443      4.3420     74.9366     11.0969
  1530.1000      8.4897      2.5792      0.0485      4.2906     69.4158     11.5768
  1530.2000      8.4897      2.5940      0.0184      3.3956     66.6635     12.2557
  1530.3000      8.4902      2.6125      0.0769      2.2713     69.1347     12.7315
  1530.4000      8.4902      2.6200      0.0819      1.8207     75.9641     13.0634
  1530.5000      8.4909      2.6153      0.0667      2.1049     82.7563     13.2807
