~Version Information
VERS.                      2.0: CWLS Log ASCII Standard - VERSION 2.0
WRAP.                       NO: One line per depth step
~Well Information Block
STRT.FT               375.0000: 
STOP.FT              1727.7000: 
STEP.FT                 0.1000: 
NULL.                -999.2500: 
COMP.          Pioneer Natural Resources: COMPANY
WELL.          Warrior 33-1 Tr: WELL
FLD.           Purgatoire River: FIELD
LOC.           2648' FSL & 2341' FEL--: LOCATION
PROV.                 Colorado: PROVINCE
CNTY.               Las Animas: COUNTRY
SRVC.                Patterson: SERVICE COMPANY
DATE.          Sat Jun 18 07:53:12 2005: LOG DATE
UWI.           05 071 08412 00: UNIQUE WELL ID
~Curve Information Block
DEPT.FT            0 000 00 00: Depth
DCAL.in                       : CDL Caliper
RHOB.g/cc                     : CDL Bulk Density
RHOC.g/cc                     : CDL Density Correction
DPOR.pu                       : CDL Density Porosity
NPOR.pu                       : Neutron Porosity
GR.GAPI                       : Gamma Ray
~Parameter Information Block
~A  Depth       DCAL        RHOB        RHOC        DPOR        NPOR         GR     
# ...
  1085.4000      8.3367      2.5573      0.1736      5.6174     25.2326    144.9807
  1085.5000      8.3165      2.5630      0.1612      5.2735     25.6120    139.8422
  1085.6000      8.3165      2.5641      0.1322      5.2085     26.2729    132.8176
  1085.7000      8.3165      2.5694      0.1465      4.8838     26.6711    126.8400
  1085.8000      8.2693      2.5716      0.1519      4.7494     27.1638    122.8776
  1085.9000      8.2693      2.5590      0.0969      5.5160     27.8563    118.3950
  1086.0000      8.2490      2.5312      0.0898      7.1979     28.3959    115.5709
  1086.1000      8.2490      2.4906      0.0941      9.6625     28.6340    120.8597
  1086.2000      8.2490      2.4419      0.0559     12.6132     28.9125    130.9048
  1086.3000      8.2686      2.3967      0.0165     15.3515     29.3448    136.3229
  1086.4000      8.2686      2.3699     -0.0065     16.9744     29.7266    136.4889
  1086.5000      8.2880      2.3730      0.0468     16.7850     30.1658    135.3833
  1086.6000      8.2880      2.3987      0.1094     15.2291     30.6477    133.7454
  1086.7000      8.2880      2.4337      0.0971     13.1086     30.8410    136.4798
  1086.8000      8.2890      2.4720      0.1820     10.7909     30.7187    142.7320
  1086.9000      8.2890      2.4991      0.2139      9.1467     30.3868    142.4413
  1087.0000      8.2938      2.5022      0.2402      8.9606     29.7763    137.0087
  1087.1000      8.2938      2.4893      0.2059      9.7408     29.1803    135.0873
  1087.2000      8.2938      2.4713      0.2450     10.8294     28.9639    134.0541
  1087.3000      8.2896      2.4481      0.1606     12.2380     28.9740    129.2498
  1087.4000      8.2896      2.4341      0.0949     13.0818     29.0246    123.8604
  1087.5000      8.2393      2.4536      0.1279     11.9016     29.1832    121.4271
  1087.6000      8.2393      2.5026      0.1616      8.9337     29.2382    123.1772
  1087.7000      8.2393      2.5467      0.2327      6.2632     28.7885    128.9114
  1087.8000      8.1783      2.5606      0.1578      5.4176     28.1118    136.5843
  1087.9000      8.1783      2.5508      0.1940      6.0118     27.8005    140.5900
  1088.0000      8.1563      2.5316      0.1682      7.1786     27.8026    135.9126
  1088.1000      8.1563      2.5175      0.1593      8.0333     27.8392    126.7610
  1088.2000      8.1563      2.5175      0.1536      8.0283     27.8939    123.8520
  1088.3000      8.1570      2.5245      0.1299      7.6050     27.8275    128.1655
  1088.4000      8.1570      2.5292      0.1274      7.3200     27.4490    129.5021
  1088.5000      8.1539      2.5353      0.0761      6.9520     26.8349    128.5386
  1088.6000      8.1539      2.5535      0.0761      5.8496     26.6776    131.9326
  1088.7000      8.1539      2.5864      0.0834      3.8565     27.4316    132.6193
  1088.8000      8.1444      2.6387      0.0815      0.6867     28.4316    123.6761
  1088.9000      8.1444      2.7220      0.0935     -4.3665     28.9361    112.1112
  1089.0000      8.1292      2.8274      0.1469    -10.7508     28.6697    106.4615
  1089.1000      8.1292      2.9136      0.2412    -15.9767     27.8525    106.0470
  1089.2000      8.1292      2.9372      0.2258    -17.4081     27.3848    104.0084
  1089.3000      8.1073      2.8896      0.1515    -14.5206     27.6234     95.1040
  1089.4000      8.1073      2.8119     -0.0000     -9.8142     27.9436     81.6147
  1089.5000      8.0832      2.7587     -0.0267     -6.5849     28.2453     73.7040
  1089.6000      8.0832      2.7371     -0.0265     -5.2777     28.9898     78.6717
  1089.7000      8.0832      2.7143     -0.0721     -3.8989     29.8515     87.3485
  1089.8000      8.0687      2.6684     -0.1273     -1.1179     30.1252     87.6152
  1089.9000      8.0687      2.6091     -0.1462      2.4786     29.8599     84.8842
  1090.0000      8.0777      2.5561     -0.1095      5.6920     29.5942     90.0339
  1090.1000      8.0777      2.5160     -0.0158      8.1214     29.5580    100.3819
  1090.2000      8.0777      2.4924     -0.0041      9.5544     29.7060    108.0777
  1090.3000      8.1102      2.4961      0.0613      9.3260     29.9150    110.8155
  1090.4000      8.1102      2.5190      0.1179      7.9382     30.0114    110.8990
  1090.5000      8.1417      2.5349      0.1329      6.9788     29.8839    115.6271
  1090.6000      8.1417      2.5363      0.1228      6.8928     29.5674    127.6834
  1090.7000      8.1417      2.5435      0.0810      6.4527     29.1383    139.5589
  1090.8000      8.1552      2.5769      0.0786      4.4275     28.6888    145.6440
  1090.9000      8.1552      2.6180      0.1234      1.9411     28.4899    144.5606
  1091.0000      8.1583      2.6296      0.1243      1.2370     28.7087    138.0005
  1091.1000      8.1583      2.6113      0.1270      2.3451     28.8927    132.3039
  1091.2000      8.1583      2.5915      0.0842      3.5442     28.8896    130.0166
  1091.3000      8.1597      2.5799      0.1470      4.2468     29.2406    129.6886
  1091.4000      8.1597      2.5597      0.1183      5.4726     29.8182    131.3110
  1091.5000      8.1603      2.5352      0.0222      6.9574     29.9020    134.3320
  1091.6000      8.1603      2.5301      0.0595      7.2674     29.2828    137.6204
  1091.7000      8.1603      2.5374      0.0877      6.8246     28.4129    141.1177
  1091.8000      8.1614      2.5363      0.0673      6.8937     27.5826    144.9485
  1091.9000      8.1614      2.5315      0.0450      7.1842     27.0254    148.5316
  1092.0000      8.1669      2.5377      0.0823      6.8069     27.1554    149.7007
  1092.1000      8.1669      2.5555      0.1172      5.7297     27.4922    145.6858
  1092.2000      8.1669      2.5812      0.1394      4.1684     27.2610    139.3004
  1092.3000      8.1760      2.6224      0.1271      1.6750     26.8833    136.1641
  1092.4000      8.1760      2.6765      0.1690     -1.6060     26.9507    134.8774
  1092.5000      8.1863      2.7057      0.2510     -3.3781     27.0599    131.1510
  1092.6000      8.1863      2.6824      0.1617     -1.9620     26.7191    125.6156
  1092.7000      8.1863      2.6391      0.0765      0.6603     26.2366    121.7335
  1092.8000      8.1843      2.6147      0.0614      2.1408     26.0140    118.4416
  1092.9000      8.1843      2.5959      0.1112      3.2792     25.9245    116.3606
  1093.0000      8.1443      2.5605      0.0268      5.4220     25.9852    119.4586
  1093.1000      8.1443      2.5254     -0.0227      7.5509     26.2894    120.8485
  1093.2000      8.1443      2.5185      0.0290      7.9704     26.3438    114.5971
  1093.3000      8.0866      2.5424      0.0544      6.5219     26.1350    107.3252
  1093.4000      8.0866      2.5766      0.0921      4.4510     26.2368    106.2026
  1093.5000      8.0530      2.6044      0.1034      2.7628     26.1190    109.7978
  1093.6000      8.0530      2.6269      0.1474      1.4002     25.0990    110.5694
  1093.7000      8.0530      2.6455      0.1461      0.2714     23.8135    105.4275
  1093.8000      8.0400      2.6523      0.1348     -0.1418     23.2418     97.8539
  1093.9000      8.0400      2.6437      0.1210      0.3840     23.4791     93.4377
  1094.0000      8.0297      2.6278      0.1429      1.3448     23.6230     93.2876
  1094.1000      8.0297      2.6043      0.1572      2.7674     22.8590     93.3133
  1094.2000      8.0297      2.5676      0.1221      4.9915     21.8367     93.8879
  1094.3000      8.0222      2.5366      0.0437      6.8749     21.7458     97.7505
  1094.4000      8.0222      2.5385      0.0627      6.7571     22.3390     99.0217
  1094.5000      8.0169      2.5691      0.1169      4.9017     22.6271     93.4249
  1094.6000      8.0169      2.5909      0.1799      3.5844     22.2202     87.7029
  1094.7000      8.0169      2.5699      0.1215      4.8519     21.4472     87.3883
  1094.8000      8.0049      2.5186      0.0846      7.9619     21.0694     88.4866
  1094.9000      8.0049      2.4798      0.0117     10.3165     21.3752     86.9704
