~Version Information
VERS.                      2.0: CWLS Log ASCII Standard - VERSION 2.0
WRAP.                       NO: One line per depth step
~Well Information Block
STRT.FT                37.7500: 
STOP.FT              1898.5000: 
STEP.FT                 0.2500: 
NULL.                -999.2500: 
COMP.          Petrogulf Corporation: COMPANY
WELL.           Montoya 12-41R: WELL
FLD.           Purgatorie River: FIELD
LOC.           1086' FNL & 610' FEL--: LOCATION
PROV.                       CO: PROVINCE
CNTY.               Las Animas: COUNTRY
SRVC.                         : SERVICE COMPANY
DATE.          Wed Feb 09 11:45:45 2005: LOG DATE
UWI.         005 071 08241 : UNIQUE WELL ID
~Curve Information Block
DEPT.FT            0 000 00 00: Depth
CCL.                          : Casing Collar Locator
TT3.usec                      : CBL 3' Travel Time
AMP3.mV                       : CBL 3' Amplitude
GR.GAPI                       : Gamma Ray
~Parameter Information Block
~A  Depth       CCL         TT3         AMP3         GR     
# ...
  1746.2500      0.0000    711.7966      4.3267    169.9177
  1746.5000      0.0000    715.7321      4.3896    172.4491
  1746.7500      0.0000    718.0651      4.4597    176.3765
  1747.0000      0.0000    717.5131      4.4953    181.2771
  1747.2500      0.0000    714.1227      4.5066    186.3668
  1747.5000      0.0000    708.7327      4.5293    190.8047
  1747.7500      0.0000    702.3753      4.5743    193.6466
  1748.0000      0.0000    696.0169      4.6139    193.7163
  1748.2500      0.0000    690.4775      4.6161    189.8843
  1748.5000      0.0000    686.1447      4.5802    181.9674
  1748.7500      0.0000    682.6769      4.5351    171.5172
  1749.0000      0.0000    679.1282      4.5117    161.3658
  1749.2500      0.0000    674.7278      4.5183    154.1130
  1749.5000      0.0000    670.1773      4.5422    151.1623
  1749.7500      0.0000    668.3487      4.5672    152.8442
  1750.0000      0.0000    672.5901      4.5929    158.4408
  1750.2500      0.0000    683.3110      4.6380    165.4939
  1750.5000      0.0000    696.8387      4.7266    169.9043
  1750.7500      0.0000    708.3842      4.8646    168.2638
  1751.0000      0.0000    715.4739      5.0279    160.7190
  1751.2500      0.0000    718.0148      5.1744    150.8259
  1751.5000      0.0000    715.7183      5.2700    142.1436
  1751.7500      0.0000    705.8102      5.3109    135.6354
  1752.0000      0.0000    683.1469      5.3236    130.4350
  1752.2500      0.0000    643.9714      5.3422    125.9050
  1752.5000      0.0000    591.3721      5.3831    122.3291
  1752.7500      0.0000    536.0629      5.4356    120.2525
  1753.0000      0.0000    489.0403      5.4700    119.6453
  1753.2500      0.0000    453.7311      5.4538    119.5794
  1753.5000      0.0000    427.0759      5.3682    118.8052
  1753.7500      0.0000    406.3749      5.2167    116.7929
  1754.0000      0.0000    391.9232      5.0184    114.0875
  1754.2500      0.0000    384.1585      4.7939    111.5014
  1754.5000      0.0000    381.4808      4.5626    109.1266
  1754.7500      0.0000    381.7458      4.3533    106.3503
  1755.0000      0.0000    385.2054      4.2066    102.8021
  1755.2500      0.0000    395.4197      4.1510     99.0026
  1755.5000      0.0000    416.2542      4.1727     95.8727
  1755.7500      0.0000    446.5567      4.2199     93.6773
  1756.0000      0.0000    477.6834      4.2487     91.6911
  1756.2500      0.0000    498.8213      4.2556     89.0253
  1756.5000      0.0000    507.0549      4.2596     85.7157
  1756.7500      0.0000    511.0279      4.2675     82.9786
  1757.0000      0.0000    521.8248      4.2687     82.4544
  1757.2500      0.0000    541.0199      4.2501     85.0206
  1757.5000      0.0000    560.4748      4.2037     89.8884
  1757.7500      0.0000    572.1313      4.1316     94.7602
  1758.0000      0.0000    573.5101      4.0498     97.4273
  1758.2500      0.0000    564.9076      3.9769     97.4800
  1758.5000      0.0000    548.4199      3.9165     96.3040
  1758.7500      0.0000    532.1530      3.8565     95.7985
  1759.0000      0.0000    528.8352      3.7873     97.4624
  1759.2500      0.0000    544.5443      3.7147    101.7916
  1759.5000      0.0000    571.3232      3.6555    107.5068
  1759.7500      0.0000    595.4691      3.6201    111.8829
  1760.0000      0.0000    611.6050      3.6035    112.8417
  1760.2500      0.0000    624.7041      3.5992    110.6349
  1760.5000      0.0000    639.8387      3.6164    107.2014
  1760.7500      0.0000    655.2708      3.6659    104.4698
  1761.0000      0.0000    665.6514      3.7358    103.6024
  1761.2500      0.0000    667.4366      3.7934    105.0580
  1761.5000      0.0000    660.5276      3.8126    108.4136
  1761.7500      0.0000    648.2215      3.7908    112.2346
  1762.0000      0.0000    636.2512      3.7474    114.6746
  1762.2500      0.0000    628.8680      3.7109    114.4320
  1762.5000      0.0000    624.4973      3.7020    111.4118
  1762.7500      0.0000    615.9531      3.7200    106.9288
  1763.0000      0.0000    596.3837      3.7467    103.0676
  1763.2500      0.0000    566.8159      3.7618    101.3338
  1763.5000      0.0000    538.0348      3.7502    101.9809
  1763.7500      0.0000    522.2708      3.6986    104.5988
  1764.0000      0.0000    521.6791      3.5966    108.7459
  1764.2500      0.0000    526.0159      3.4522    113.7549
  1764.5000      0.0000    521.2433      3.2993    118.5799
  1764.7500      0.0000    500.2354      3.1771    122.4670
  1765.0000      0.0000    467.3464      3.0967    125.6630
  1765.2500      0.0000    433.9668      3.0373    129.0664
  1765.5000      0.0000    409.6743      2.9747    132.9240
  1765.7500      0.0000    397.5517      2.9110    135.7385
  1766.0000      0.0000    396.7167      2.8751    134.8117
  1766.2500      0.0000    406.2131      2.8991    128.5991
  1766.5000      0.0000    424.6143      2.9822    118.6029
  1766.7500      0.0000    447.0268      3.0739    108.3870
  1767.0000      0.0000    466.1880      3.1061    100.5860
  1767.2500      0.0000    478.9412      3.0555     95.3601
  1767.5000      0.0000    490.1924      2.9661     91.8089
  1767.7500      0.0000    507.4719      2.8988     89.9299
  1768.0000      0.0000    531.3813      2.8727     90.3158
  1768.2500      0.0000    552.7205      2.8716     92.3433
  1768.5000      0.0000    559.2324      2.8939     93.8955
  1768.7500      0.0000    545.5689      2.9656     93.2516
  1769.0000      0.0000    518.8486      3.0962     90.6569
  1769.2500      0.0000    495.6508      3.2441     87.7326
  1769.5000      0.0000    491.6321      3.3396     85.8582
  1769.7500      0.0000    511.5959      3.3436     85.4635
  1770.0000      0.0000    548.5047      3.2811     86.4097
  1770.2500      0.0000    589.8338      3.2180     88.3904
  1770.5000      0.0000    623.6142      3.2014     90.9983
  1770.7500      0.0000    641.7495      3.2142     93.7843
  1771.0000      0.0000    642.3326      3.1870     96.1170
  1771.2500      0.0000    628.8325      3.0696     96.8161
  1771.5000      0.0000    605.0010      2.8932     94.4830
  1771.7500      0.0000    571.9093      2.7512     88.7863
  1772.0000      0.0000    532.5771      2.7137     81.3230
  1772.2500      0.0000    496.7056      2.7706     74.8753
  1772.5000      0.0000    474.7375      2.8599     71.6357
  1772.7500      0.0000    466.3050      2.9343     71.9815
  1773.0000      0.0000    459.4130      2.9870     74.7899
  1773.2500      0.0000    443.4251      3.0305     78.7827
  1773.5000      0.0000    419.8384      3.0735     83.4407
  1773.7500      0.0000    398.8920      3.1190     88.7387
  1774.0000      0.0000    389.2193      3.1666     94.4090
  1774.2500      0.0000    393.1387      3.2116     99.7311
  1774.5000      0.0000    408.9780      3.2523    103.7799
  1774.7500      0.0000    434.3690      3.3030    105.4518
  1775.0000      0.0000    467.3679      3.3842    103.5255
  1775.2500      0.0000    506.5166      3.4893     97.6446
  1775.5000      0.0000    550.3057      3.5726     89.4748
  1775.7500      0.0000    595.0219      3.5868     82.0553
  1776.0000      0.0000    633.3857      3.5350     77.5685
  1776.2500      0.0000    658.1191      3.4711     76.0598
  1776.5000      0.0000    668.2979      3.4441     76.1488
  1776.7500      0.0000    670.7995      3.4496     76.3998
  1777.0000      0.0000    674.3801      3.4458     76.2439
  1777.2500      0.0000    682.7462      3.4138     76.1457
  1777.5000      0.0000    693.5070      3.3948     76.8869
  1777.7500      0.0000    702.4244      3.4620     78.6650
  1778.0000      0.0000    707.1212      3.6484     80.9991
  1778.2500      0.0000    707.1404      3.9030     83.1928
  1778.5000      0.0000    702.0625      4.1239     84.4719
  1778.7500      0.0000    690.4615      4.2324     83.9482
  1779.0000      0.0000    670.8831      4.2141     81.0718
  1779.2500      0.0000    644.4041      4.1055     76.3352
  1779.5000      0.0000    616.5414      3.9629     71.3251
