~Version Information
VERS.                      2.0: CWLS Log ASCII Standard - VERSION 2.0
WRAP.                       NO: One line per depth step
~Well Information Block
STRT.FT               588.6000: 
STOP.FT              2281.0000: 
STEP.FT                 0.1000: 
NULL.                -999.2500: 
COMP.          Petrogulf Corporation: COMPANY
WELL.             State 16-41V: WELL
FLD.           Purgatorie River: FIELD
LOC.           335' FNL & 823' FEL: LOCATION
CNTY.               Las Animas: COUNTY
SRVC.                         : SERVICE COMPANY
DATE.          Tue Aug 02 07:31:25 2005: LOG DATE
UWI.                          : UNIQUE WELL ID
STAT.                 Colorado: STATE
~Curve Information Block
DEPT.FT            0 000 00 00: Depth
DCAL.in                       : CDL Caliper
RHOB.g/cc                     : CDL Bulk Density
RHOC.g/cc                     : CDL Density Correction
DPOR.pu                       : CDL Density Porosity
GR.GAPI                       : Gamma Ray
NPOR.pu                       : Neutron Porosity
~Parameter Information Block
~A  Depth       DCAL        RHOB        RHOC        DPOR         GR         NPOR    
# ...
   703.8000      8.4521      2.5807      0.0331      4.2012    106.5889     27.7370
   703.9000      8.4521      2.5787      0.0429      4.3204    102.8515     27.7470
   704.0000      8.4613      2.5679      0.0527      4.9781    104.1419     27.7575
   704.1000      8.4613      2.5641      0.0213      5.2062    107.3642     27.7702
   704.2000      8.4613      2.5822      0.0608      4.1080    107.7333     27.7856
   704.3000      8.4369      2.6183      0.0754      1.9214    105.1339     27.8028
   704.4000      8.4369      2.6526      0.1333     -0.1594    100.8405     27.8187
   704.5000      8.4219      2.6704      0.1283     -1.2341     96.3128     27.8284
   704.6000      8.4219      2.6781      0.0590     -1.7047     94.0460     27.8251
   704.7000      8.4219      2.6846      0.1331     -2.0981     94.4254     27.8008
   704.8000      8.4268      2.6829      0.1070     -1.9940     94.7850     27.7478
   704.9000      8.4268      2.6670      0.0992     -1.0312     93.7343     27.6595
   705.0000      8.3849      2.6424      0.0574      0.4588     91.5398     27.5316
   705.1000      8.3849      2.6187      0.0095      1.8996     88.9606     27.3625
   705.2000      8.3849      2.5998     -0.0261      3.0426     87.1694     27.1544
   705.3000      8.2638      2.5869     -0.0089      3.8220     86.6313     26.9121
   705.4000      8.2638      2.5838      0.0267      4.0132     87.5510     26.6432
   705.5000      8.2434      2.5914      0.0367      3.5514     89.5493     26.3574
   705.6000      8.2434      2.5984      0.0780      3.1272     90.9303     26.0651
   705.7000      8.2434      2.5881      0.0632      3.7530     91.3947     25.7771
   705.8000      8.2488      2.5623      0.0266      5.3147     92.4418     25.5036
   705.9000      8.2488      2.5382      0.0300      6.7763     92.7160     25.2539
   706.0000      8.2557      2.5263      0.0424      7.4980     90.8857     25.0351
   706.1000      8.2557      2.5231      0.0536      7.6901     89.6031     24.8528
   706.2000      8.2557      2.5216      0.0173      7.7811     89.2566     24.7096
   706.3000      8.2531      2.5227      0.0402      7.7131     87.9639     24.6060
   706.4000      8.2531      2.5247      0.0574      7.5949     87.3769     24.5391
   706.5000      8.2494      2.5206      0.0532      7.8425     87.8371     24.5041
   706.6000      8.2494      2.5141      0.0418      8.2368     88.2861     24.4939
   706.7000      8.2494      2.5168      0.0310      8.0714     89.7382     24.5002
   706.8000      8.2742      2.5297      0.0640      7.2907     92.7223     24.5147
   706.9000      8.2742      2.5440      0.0597      6.4269     97.5967     24.5296
   707.0000      8.2898      2.5591      0.0607      5.5075    104.1070     24.5388
   707.1000      8.2898      2.5759      0.0799      4.4926    109.7677     24.5383
   707.2000      8.2898      2.5787      0.0885      4.3202    112.1546     24.5266
   707.3000      8.2666      2.5583      0.0520      5.5570    111.7935     24.5041
   707.4000      8.2666      2.5299      0.0281      7.2806    113.0203     24.4726
   707.5000      8.2612      2.5118     -0.0229      8.3737    117.1189     24.4349
   707.6000      8.2612      2.5100      0.0253      8.4860    119.7413     24.3936
   707.7000      8.2612      2.5141      0.0299      8.2353    119.2079     24.3504
   707.8000      8.2692      2.5135      0.0385      8.2732    118.3737     24.3062
   707.9000      8.2692      2.5125      0.0364      8.3322    117.5928     24.2608
   708.0000      8.3077      2.5155      0.0552      8.1493    115.1609     24.2132
   708.1000      8.3077      2.5173      0.0261      8.0445    112.3502     24.1621
   708.2000      8.3077      2.5156      0.0418      8.1465    111.2184     24.1059
   708.3000      8.3501      2.5118      0.0209      8.3771    112.0738     24.0437
   708.4000      8.3501      2.5055      0.0494      8.7560    113.2831     23.9755
   708.5000      8.3564      2.5004      0.0273      9.0679    114.2421     23.9021
   708.6000      8.3564      2.5005      0.0465      9.0586    116.2611     23.8250
   708.7000      8.3564      2.5023      0.0551      8.9508    118.5523     23.7467
   708.8000      8.3646      2.5031      0.0370      8.9012    120.0643     23.6697
   708.9000      8.3646      2.5062      0.0019      8.7148    120.2630     23.5962
   709.0000      8.3690      2.5075      0.0678      8.6375    118.3915     23.5278
   709.1000      8.3690      2.4949      0.0470      9.3973    116.4357     23.4648
   709.2000      8.3690      2.4672      0.0556     11.0796    114.9621     23.4063
   709.3000      8.3757      2.4371      0.0135     12.9052    111.0773     23.3500
   709.4000      8.3757      2.4190      0.0383     14.0006    105.9370     23.2927
   709.5000      8.3883      2.4166      0.0295     14.1426    105.2476     23.2304
   709.6000      8.3883      2.4235      0.0537     13.7286    109.7124     23.1591
   709.7000      8.3883      2.4295      0.0736     13.3642    114.6480     23.0751
   709.8000      8.4176      2.4313      0.0624     13.2548    116.2635     22.9756
   709.9000      8.4176      2.4275      0.1167     13.4875    114.3524     22.8588
   710.0000      8.4119      2.4152      0.0720     14.2294    111.8416     22.7243
   710.1000      8.4119      2.4036      0.0403     14.9342    111.8267     22.5734
   710.2000      8.4119      2.3976      0.0889     15.3000    113.2341     22.4082
   710.3000      8.4467      2.3908      0.0610     15.7113    111.9778     22.2322
   710.4000      8.4467      2.3889      0.0328     15.8260    108.2277     22.0497
   710.5000      8.4710      2.4015      0.0686     15.0600    106.3418     21.8655
   710.6000      8.4710      2.4233      0.0717     13.7379    106.7644     21.6842
   710.7000      8.4710      2.4415      0.1124     12.6391    105.7787     21.5107
   710.8000      8.4746      2.4518      0.1031     12.0144    102.6974     21.3493
   710.9000      8.4746      2.4641      0.1334     11.2696     99.3811     21.2037
   711.0000      8.4831      2.4821      0.1390     10.1781     98.1764     21.0770
   711.1000      8.4831      2.4959      0.1435      9.3415    100.2688     20.9712
   711.2000      8.4831      2.4983      0.1324      9.1965    102.7647     20.8870
   711.3000      8.4973      2.4869      0.1887      9.8865    101.3421     20.8235
   711.4000      8.4973      2.4657      0.0958     11.1721     96.8226     20.7781
   711.5000      8.4882      2.4493      0.0980     12.1627     94.0350     20.7461
   711.6000      8.4882      2.4427      0.0788     12.5637     95.8891     20.7209
   711.7000      8.4882      2.4386      0.0818     12.8116    101.3831     20.6949
   711.8000      8.4627      2.4359      0.0643     12.9772    106.0907     20.6598
   711.9000      8.4627      2.4396      0.0546     12.7494    106.9810     20.6075
   712.0000      8.4536      2.4477      0.1111     12.2607    106.2675     20.5313
   712.1000      8.4536      2.4536      0.0737     11.9016    106.1421     20.4261
   712.2000      8.4536      2.4584      0.1222     11.6129    104.6533     20.2898
   712.3000      8.4546      2.4671      0.0725     11.0835    100.1432     20.1226
   712.4000      8.4546      2.4757      0.1269     10.5636     93.7149     19.9273
   712.5000      8.4281      2.4685      0.1133     11.0018     88.9731     19.7090
   712.6000      8.4281      2.4481      0.0606     12.2381     88.7157     19.4741
   712.7000      8.4281      2.4330      0.0816     13.1544     90.1629     19.2298
   712.8000      8.4069      2.4253      0.0659     13.6167     88.7360     18.9832
   712.9000      8.4069      2.4187      0.0678     14.0187     83.8589     18.7410
   713.0000      8.3962      2.4117      0.0703     14.4424     78.7248     18.5092
   713.1000      8.3962      2.4007      0.0656     15.1088     75.6220     18.2927
   713.2000      8.3962      2.3816      0.0637     16.2695     75.5195     18.0961
   713.3000      8.3718      2.3625      0.0032     17.4262     78.4272     17.9234
