~Version Information
VERS.                      2.0: CWLS Log ASCII Standard - VERSION 2.0
WRAP.                       NO: One line per depth step
~Well Information Block
STRT.FT               930.0000: 
STOP.FT              2783.2000: 
STEP.FT                 0.1000: 
NULL.                -999.2500: 
COMP.          Pioneer Natural Resources: COMPANY
WELL.           Desoto 13-7TR: WELL
FLD.           Purgatoire River: FIELD
LOC.           1404' FSL & 1115' FWL: LOCATION
PROV.                 Colorado: PROVINCE
CNTY.               Las Animas: COUNTRY
SRVC.                Patterson: SERVICE COMPANY
DATE.          Fri Jan 14 14:42:18 2005: LOG DATE
UWI.           05 071 08216 00: UNIQUE WELL ID
~Curve Information Block
DEPT.FT            0 000 00 00: Depth
DCAL.in                       : CDL Caliper
RHOB.g/cc                     : CDL Bulk Density
RHOC.g/cc                     : CDL Density Correction
DPOR.pu                       : CDL Density Porosity
NPOR.pu                       : Neutron Porosity
GR.GAPI                       : Gamma Ray
~Parameter Information Block
~A  Depth       DCAL        RHOB        RHOC        DPOR        NPOR         GR     
# ...
  1534.8000      8.0524      2.5108     -0.0170      8.4340     25.5626    144.0143
  1534.9000      8.0524      2.5349      0.0497      6.9742     25.3135    152.2796
  1535.0000      8.0558      2.5553      0.1041      5.7407     24.8374    156.7844
  1535.1000      8.0558      2.5620      0.0737      5.3322     24.5893    155.3728
  1535.2000      8.0558      2.5548      0.0866      5.7682     24.8343    151.0957
  1535.3000      8.0705      2.5408      0.0786      6.6159     25.3101    150.3478
  1535.4000      8.0705      2.5368      0.0866      6.8585     25.4042    153.6128
  1535.5000      8.1095      2.5488      0.0708      6.1361     25.3293    157.0509
  1535.6000      8.1095      2.5583      0.0719      5.5563     25.6701    158.4503
  1535.7000      8.1095      2.5479      0.0655      6.1891     26.2868    159.5558
  1535.8000      8.1638      2.5263     -0.0103      7.4977     26.7111    160.7373
  1535.9000      8.1638      2.5122      0.0361      8.3486     26.6398    157.4744
  1536.0000      8.2011      2.5077      0.0377      8.6255     26.3073    149.5454
  1536.1000      8.2011      2.5041      0.0002      8.8410     26.4024    141.3146
  1536.2000      8.2011      2.4869      0.0466      9.8845     27.2538    134.5332
  1536.3000      8.2142      2.4506     -0.0068     12.0843     28.2273    130.9542
  1536.4000      8.2142      2.4158     -0.0073     14.1943     28.5613    137.2714
  1536.5000      8.2186      2.3955      0.0125     15.4238     28.3265    151.3612
  1536.6000      8.2186      2.3810      0.0087     16.3031     28.1275    157.5775
  1536.7000      8.2186      2.3681     -0.0195     17.0858     28.3039    149.0300
  1536.8000      8.2254      2.3630      0.0009     17.3911     28.4780    138.3484
  1536.9000      8.2254      2.3678      0.0274     17.1056     28.1533    135.9099
  1537.0000      8.2346      2.3786      0.0233     16.4500     27.4895    133.1016
  1537.1000      8.2346      2.3944      0.0513     15.4919     26.8435    128.0165
  1537.2000      8.2346      2.4238      0.0509     13.7098     26.1316    135.4174
  1537.3000      8.2434      2.4716      0.1348     10.8094     25.6815    155.0101
  1537.4000      8.2434      2.5207      0.1108      7.8355     25.9299    168.9768
  1537.5000      8.2554      2.5490      0.1060      6.1230     26.4270    170.6958
  1537.6000      8.2554      2.5486      0.0654      6.1482     26.8150    167.8767
  1537.7000      8.2554      2.5244      0.0476      7.6123     27.1479    164.1674
  1537.8000      8.2636      2.4948     -0.0359      9.4049     27.1979    158.0017
  1537.9000      8.2636      2.4914     -0.0382      9.6150     26.9986    151.3963
  1538.0000      8.2552      2.5231      0.0504      7.6905     26.8812    149.3110
  1538.1000      8.2552      2.5637      0.0717      5.2295     26.9212    152.8869
  1538.2000      8.2552      2.5943      0.0598      3.3754     27.1068    158.4038
  1538.3000      8.2450      2.6195      0.0670      1.8513     27.3513    161.7925
  1538.4000      8.2450      2.6405      0.0942      0.5787     27.4192    163.7396
  1538.5000      8.2430      2.6413      0.0960      0.5290     26.8390    164.5386
  1538.6000      8.2430      2.6112      0.0824      2.3505     25.7422    161.8738
  1538.7000      8.2430      2.5655      0.0230      5.1204     25.3564    157.9906
  1538.8000      8.2433      2.5252      0.0426      7.5657     26.2525    154.5061
  1538.9000      8.2433      2.4985     -0.0229      9.1807     27.2976    152.0732
  1539.0000      8.2419      2.4902      0.0049      9.6826     27.4796    154.4849
  1539.1000      8.2419      2.5061     -0.0156      8.7183     27.2398    158.7908
  1539.2000      8.2419      2.5443      0.0271      6.4076     27.1086    160.5358
  1539.3000      8.2407      2.5802      0.0607      4.2287     26.8536    164.4314
  1539.4000      8.2407      2.5836      0.0580      4.0243     26.2884    172.4608
  1539.5000      8.2414      2.5539      0.0320      5.8228     25.8454    178.3461
  1539.6000      8.2414      2.5212      0.0191      7.8048     26.0928    179.9814
  1539.7000      8.2414      2.5072      0.0320      8.6524     26.7369    180.6599
  1539.8000      8.2425      2.5052      0.0416      8.7727     26.9713    177.1731
  1539.9000      8.2425      2.4979      0.0383      9.2196     26.7024    169.4157
  1540.0000      8.2424      2.4748      0.0307     10.6152     26.3085    166.4158
  1540.1000      8.2424      2.4463     -0.0552     12.3483     26.0511    169.4264
  1540.2000      8.2424      2.4384     -0.0211     12.8221     26.1411    170.5630
  1540.3000      8.2421      2.4579      0.0369     11.6446     26.6279    165.9773
  1540.4000      8.2421      2.4856      0.0335      9.9635     27.0666    158.5087
  1540.5000      8.2401      2.5037      0.0281      8.8677     26.9478    153.4724
  1540.6000      8.2401      2.5165      0.0213      8.0925     26.1451    150.2871
  1540.7000      8.2401      2.5439      0.0536      6.4330     25.1602    143.5945
  1540.8000      8.2168      2.5851      0.0982      3.9322     24.6792    135.9425
  1540.9000      8.2168      2.6215      0.1070      1.7290     24.3239    133.8558
  1541.0000      8.1660      2.6544      0.1204     -0.2644     23.5636    135.3247
  1541.1000      8.1660      2.6959      0.1601     -2.7803     23.2023    136.0742
  1541.2000      8.1660      2.7331      0.1884     -5.0338     23.7834    137.4022
  1541.3000      8.1243      2.7476      0.1126     -5.9153     24.5964    138.6300
  1541.4000      8.1243      2.7487      0.1048     -5.9825     24.8658    136.0727
  1541.5000      8.1036      2.7555      0.0693     -6.3941     24.3456    130.4301
  1541.6000      8.1036      2.7687      0.0887     -7.1953     23.7425    126.1803
  1541.7000      8.1036      2.7665      0.0896     -7.0602     23.7096    127.4525
  1541.8000      8.0901      2.7317      0.1103     -4.9523     23.8510    132.7687
  1541.9000      8.0901      2.6839      0.0272     -2.0564     23.6140    135.7880
  1542.0000      8.0818      2.6553      0.0040     -0.3220     23.0937    136.5384
  1542.1000      8.0818      2.6423      0.0310      0.4666     22.8123    137.0455
  1542.2000      8.0818      2.6252     -0.0253      1.5031     23.1541    132.0103
  1542.3000      8.0776      2.6034     -0.0555      2.8270     23.8159    125.6051
  1542.4000      8.0776      2.5864     -0.0155      3.8551     24.1469    129.1231
  1542.5000      8.0748      2.5833     -0.0243      4.0421     24.1466    139.1986
  1542.6000      8.0748      2.5982      0.0046      3.1403     24.4549    143.9962
  1542.7000      8.0748      2.6240      0.0464      1.5746     25.2348    139.7898
  1542.8000      8.0755      2.6503      0.0351     -0.0187     25.9320    134.7429
  1542.9000      8.0755      2.6685      0.0651     -1.1199     26.4409    136.0594
  1543.0000      8.0789      2.6675      0.0484     -1.0619     27.0213    142.1930
  1543.1000      8.0789      2.6485      0.0545      0.0913     27.6253    149.3303
  1543.2000      8.0789      2.6293      0.0202      1.2565     27.9427    153.0645
  1543.3000      8.0816      2.6241      0.0163      1.5672     27.4336    148.6325
  1543.4000      8.0816      2.6279      0.0168      1.3381     26.2487    141.1977
  1543.5000      8.0821      2.6252     -0.0229      1.5009     25.3010    139.4450
  1543.6000      8.0821      2.6101     -0.0101      2.4153     25.0850    138.8409
  1543.7000      8.0821      2.5904     -0.0326      3.6131     25.1067    132.4496
  1543.8000      8.0821      2.5769      0.0084      4.4292     24.8717    125.6819
  1543.9000      8.0821      2.5772      0.0433      4.4148     24.6470    127.8756
  1544.0000      8.0825      2.5969      0.0200      3.2209     24.6362    136.7918
  1544.1000      8.0825      2.6315      0.0575      1.1198     24.4951    142.4728
  1544.2000      8.0825      2.6621      0.0749     -0.7361     24.1052    140.5025
  1544.3000      8.0830      2.6762      0.0618     -1.5856     24.0167    134.4003
