~Version Information
 VERS.                                  2.0 : CWLS LAS VERSION
 WRAP.                                   NO : WRAPING MODE
 SWARE .                 MController 2.5.0J : SOFTWARE VERSION
~Well Information
 WELL.                         Sliva 01-43V : WELL
 COMP.                Petrogulf Corporation : COMPANY
 FLD.                      Purgatoire River : FIELD
 LOC.                 NE/SE Sec 1 T33S R68W : LOCATION
 DATE.                          08/26-27/05 : DATE(S) LOGGED
 SRVC.       BLANCO Geological Services LLC : SERVICE COMPANY
 STAT.                                   CO : STATE
 CNTY.                           Las Animas : COUNTY
 CTRY.                                  USA : COUNTRY
 API.                       05-071-08371-00 : API NUMBER
 STRT.FT                             503.00 : START DEPTH
 STOP.FT                            2764.00 : STOP DEPTH
 STEP.FT                               1.00 : DEPTH INCREMENT
 NULL.                                -9999 : NULL VALUE
~Curve information
 DEPTH.FT                                   :
 ROP.MIN/FT                                 :
 GAS.UNITS                                  :
~ASCII Log data
# ...
      2503.0         0.80          5.7 
      2504.0         0.67          9.7 
      2505.0         0.40          9.9 
      2506.0         0.40          8.5 
      2507.0         0.65          7.2 
      2508.0         0.63          5.8 
      2509.0         0.73          5.4 
      2510.0         0.63          5.4 
      2511.0         0.63          7.6 
      2512.0         0.50         10.2 
      2513.0         0.35         10.1 
      2514.0         0.43          9.7 
      2515.0         0.40          8.6 
      2516.0         0.53         12.1 
      2517.0         0.40         16.6 
      2518.0         0.30         16.3 
      2519.0         0.27         14.8 
      2520.0         0.40         11.9 
      2521.0         0.45          8.4 
      2522.0         0.37          7.0 
      2523.0         0.37          6.6 
      2524.0         3.65        113.4 
      2525.0         1.00         27.2 
      2526.0         0.90         12.6 
      2527.0         0.92         11.5 
      2528.0         0.83          8.5 
      2529.0         0.73          7.3 
      2530.0         0.77          7.0 
      2531.0         0.85          6.7 
      2532.0         0.93          6.4 
      2533.0         1.03          6.2 
      2534.0         1.02          6.2 
      2535.0         0.90          6.5 
      2536.0         0.70          6.5 
      2537.0         0.93          6.5 
      2538.0         0.88          6.5 
      2539.0         0.87          6.6 
      2540.0         0.77          6.7 
      2541.0         0.90          6.5 
      2542.0         0.82          6.6 
      2543.0         0.77          6.9 
      2544.0         0.97         10.8 
      2545.0         0.60         18.7 
      2546.0         0.42         19.5 
      2547.0         0.43         18.6 
      2548.0         0.53         14.7 
      2549.0         0.60         12.0 
      2550.0         0.63         10.7 
      2551.0         0.70         10.2 
      2552.0         0.68         10.6 
      2553.0         0.57          9.6 
      2554.0         3.72         87.4 
      2555.0         0.43         57.1 
      2556.0         0.50         35.1 
      2557.0         0.47         23.7 
      2558.0         0.47         18.8 
      2559.0         0.35         17.6 
      2560.0         0.40         16.1 
      2561.0         0.57         14.2 
      2562.0         0.53         12.1 
      2563.0         0.47         10.5 
      2564.0         0.47          9.5 
      2565.0         0.53          9.3 
      2566.0         0.55          8.8 
      2567.0         0.47          8.7 
      2568.0         0.47          8.7 
      2569.0         0.43          9.6 
      2570.0         0.40         18.2 
      2571.0         0.23         25.2 
      2572.0         0.27         25.3 
      2573.0         0.38         21.8 
      2574.0         2.75         15.0 
      2575.0         0.70         16.6 
      2576.0         0.50         15.7 
      2577.0         0.37         13.7 
      2578.0         0.37         13.4 
      2579.0         0.43         13.1 
      2580.0         0.37         12.6 
      2581.0         0.38          9.9 
      2582.0         0.40          9.6 
      2583.0         0.40         14.4 
      2584.0         2.82        173.2 
      2585.0         0.77         58.9 
      2586.0         0.37         25.4 
      2587.0         0.30         19.6 
      2588.0         0.30         17.6 
      2589.0         0.30         16.7 
      2590.0         0.23         14.8 
      2591.0         0.27         17.0 
      2592.0         0.38         19.3 
      2593.0         0.27         19.4 
      2594.0         0.20         19.5 
      2595.0         0.20         19.5 
      2596.0         0.30         20.4 
      2597.0         0.37         25.7 
      2598.0         0.27         31.2 
      2599.0         0.27         34.7 
      2600.0         0.17         34.0 
      2601.0         0.20         31.1 
      2602.0         0.27         27.6 
      2603.0         0.37         22.4 
      2604.0         0.55         19.1 
      2605.0         0.63         24.0 
      2606.0         0.47         24.3 
      2607.0         0.43         23.9 
      2608.0         0.47         22.7 
      2609.0         0.47         20.3 
      2610.0         0.62         16.3 
      2611.0         0.43         12.1 
      2612.0         0.47         13.3 
      2613.0         0.40         15.0 
      2614.0         3.65         85.3 
      2615.0         0.70         31.0 
      2616.0         0.57         21.2 
      2617.0         0.48         18.4 
      2618.0         0.40         20.1 
      2619.0         0.33         20.1 
      2620.0         0.53         17.7 
      2621.0         0.50         15.2 
      2622.0         0.47         13.0 
      2623.0         0.47         12.8 
      2624.0         0.52         12.3 
      2625.0         0.50         11.5 
      2626.0         0.47         11.2 
      2627.0         0.53         11.0 
      2628.0         0.63         10.8 
      2629.0         0.77         10.8 
      2630.0         0.82         10.8 
      2631.0         0.77         10.4 
      2632.0         0.63         10.0 
      2633.0         0.60          9.4 
      2634.0         0.50          9.7 
      2635.0         0.55         10.0 
      2636.0         0.57         10.1 
      2637.0         0.60         10.2 
      2638.0         0.57         10.2 
      2639.0         0.57         10.5 
      2640.0         0.58         10.7 
      2641.0         0.60          9.7 
      2642.0         0.67         10.2 
      2643.0         0.67         11.6 
      2644.0         5.00        105.0 
      2645.0         0.53         17.6 
      2646.0         0.50         13.4 
      2647.0         8.02         13.4 
      2648.0         1.07         12.6 
      2649.0         1.15         11.8 
      2650.0         1.37         11.4 
      2651.0         1.10         11.5 
      2652.0         1.15         11.1 
      2653.0         2.70         15.9 
      2654.0         0.48         16.7 
      2655.0         0.40         16.4 
      2656.0         0.43         15.7 
      2657.0         0.33         15.1 
      2658.0         0.37         14.5 
      2659.0         0.43         13.9 
      2660.0         0.40         14.2 
      2661.0         0.43         13.7 
      2662.0         0.55         13.5 
      2663.0         0.53         13.6 
      2664.0         0.47         13.8 
      2665.0         0.43         13.5 
      2666.0         0.37         13.3 
      2667.0         0.37         13.1 
      2668.0         0.33         12.8 
      2669.0         0.42         12.4 
      2670.0         0.40         12.1 
      2671.0         0.47         11.5 
      2672.0         0.43         11.0 
      2673.0         0.47         11.7 
      2674.0         5.40         98.0 
      2675.0         0.57         28.9 
      2676.0         0.43         23.7 
      2677.0         0.57         26.6 
      2678.0         0.70         24.8 
      2679.0         0.72         20.5 
      2680.0         0.67         15.1 
      2681.0         0.80         13.8 
      2682.0         0.70         13.4 
      2683.0         0.60         13.4 
      2684.0         0.65         13.5 
      2685.0         0.57         13.3 
      2686.0         0.57         13.2 
      2687.0         0.53         13.5 
      2688.0         0.57         13.4 
      2689.0         0.62         13.4 
      2690.0         0.67         13.8 
      2691.0         0.50         13.8 
      2692.0         0.50         13.8 
      2693.0         0.47         13.5 
      2694.0         0.47         13.7 
      2695.0         0.40         14.0 
      2696.0         0.38         13.9 
      2697.0         0.47         14.1 
      2698.0         0.47         14.2 
      2699.0         0.47         14.3 
      2700.0         0.50         14.3 
      2701.0         0.43         13.8 
      2702.0         0.43         12.9 
