~Version Information
VERS.                      2.0: CWLS Log ASCII Standard - VERSION 2.0
WRAP.                       NO: One line per depth step
~Well Information Block
STRT.FT                -8.2500: 
STOP.FT              2209.7500: 
STEP.FT                 0.2500: 
NULL.                -999.2500: 
COMP.          Petrogulf Corporation: COMPANY
WELL.          Alexander 9-43V: WELL
FLD.           Purgatorie River: FIELD
LOC.                          : LOCATION
CNTY.               Las Animas: COUNTY
SRVC.                         : SERVICE COMPANY
DATE.          Wed May 28 09:25:28 2003: LOG DATE
UWI.           05 071 07727 00: UNIQUE WELL ID
STAT.                 Colorado: STATE
~Curve Information Block
DEPT.FT            0 000 00 00: Depth
CCL.                          : Casing Collar Locator
TT3.usec                      : CBL 3' Travel Time
AMP3.mV                       : CBL 3' Amplitude
GR.GAPI                       : Gamma Ray
~Parameter Information Block
~A  Depth       CCL         TT3         AMP3         GR     
# ...
  1432.2500      0.0000    393.1507      4.8500    119.7411
  1432.5000      0.0000    392.0291      4.5930    113.5953
  1432.7500      0.0000    390.9047      4.3449    110.6916
  1433.0000      0.0000    389.7259      4.2393    110.4713
  1433.2500      0.0000    388.4809      4.3244    111.6672
  1433.5000      0.0000    387.1682      4.5399    112.8576
  1433.7500      0.0000    385.7585      4.7660    112.9590
  1434.0000      0.0000    384.1876      4.9003    111.4008
  1434.2500      0.0000    382.3706      4.9008    108.0384
  1434.5000      0.0000    380.2201      4.7829    103.3010
  1434.7500      0.0000    377.7048      4.5893     98.5321
  1435.0000      0.0000    374.9535      4.3698     95.4812
  1435.2500      0.0000    372.3112      4.1822     94.8169
  1435.5000      0.0000    370.2365      4.0971     95.4081
  1435.7500      0.0000    369.0603      4.1673     95.5527
  1436.0000      0.0000    368.7809      4.3719     94.6578
  1436.2500      0.0000    369.0701      4.6038     93.4135
  1436.5000      0.0000    369.4862      4.7456     92.8615
  1436.7500      0.0000    369.7243      4.7736     93.8299
  1437.0000      0.0000    369.7373      4.7821     96.7330
  1437.2500      0.0000    369.6777      4.8909    101.0303
  1437.5000      0.0000    369.7409      5.1203    105.1419
  1437.7500      0.0000    370.0332      5.3569    107.8621
  1438.0000      0.0000    370.5160      5.4454    109.8398
  1438.2500      0.0000    371.0068      5.3166    112.7279
  1438.5000      0.0000    371.2225      5.0424    116.8752
  1438.7500      0.0000    370.8325      4.7931    120.7301
  1439.0000      0.0000    369.4489      4.7393    122.3651
  1439.2500      0.0000    366.6334      4.9570    120.6874
  1439.5000      0.0000    362.2362      5.3886    115.4839
  1439.7500      0.0000    357.0251      5.8882    107.5857
  1440.0000      0.0000    352.7160      6.3168     99.1386
  1440.2500      0.0000    350.6941      6.6094     92.6196
  1440.5000      0.0000    350.5446      6.7731     89.0124
  1440.7500      0.0000    350.4490      6.8468     87.1911
  1441.0000      0.0000    349.3556      6.8666     85.1479
  1441.2500      0.0000    348.2919      6.8554     81.6783
  1441.5000      0.0000    349.1432      6.8263     77.2265
  1441.7500      0.0000    352.5058      6.7883     73.6520
  1442.0000      0.0000    357.2905      6.7487     72.9749
  1442.2500      0.0000    362.2756      6.7110     75.5318
  1442.5000      0.0000    367.7805      6.6716     79.1839
  1442.7500      0.0000    376.1068      6.6216     81.1117
  1443.0000      0.0000    390.7643      6.5514     80.9467
  1443.2500      0.0000    414.4812      6.4480     81.8213
  1443.5000      0.0000    446.3519      6.2871     87.8634
  1443.7500      0.0000    480.7654      6.0361    100.4783
  1444.0000      0.0000    511.1090      5.6717    116.8330
  1444.2500      0.0000    535.0316      5.1976    131.7770
  1444.5000      0.0000    553.4426      4.6521    141.4171
  1444.7500      0.0000    564.1344      4.1088    145.1118
  1445.0000      0.0000    561.1247      3.6625    144.5227
  1445.2500      0.0000    542.3285      3.3937    141.5030
  1445.5000      0.0000    514.1660      3.3303    137.1559
  1445.7500      0.0000    486.6888      3.4368    132.2101
  1446.0000      0.0000    466.4432      3.6381    127.3619
  1446.2500      0.0000    454.7053      3.8601    123.0222
  1446.5000      0.0000    450.0916      4.0668    119.2045
  1446.7500      0.0000    450.9454      4.2693    116.1076
  1447.0000      0.0000    455.7173      4.4981    114.6226
  1447.2500      0.0000    462.4750      4.7588    115.6909
  1447.5000      0.0000    469.1572      5.0128    118.8225
  1447.7500      0.0000    474.6443      5.2011    121.6328
  1448.0000      0.0000    479.6047      5.2866    121.5212
  1448.2500      0.0000    486.4377      5.2794    118.0594
  1448.5000      0.0000    498.1575      5.2246    113.6094
  1448.7500      0.0000    515.5674      5.1674    111.7027
  1449.0000      0.0000    533.5953      5.1300    114.8771
  1449.2500      0.0000    541.4364      5.1184    123.4458
  1449.5000      0.0000    530.2036      5.1421    135.3461
  1449.7500      0.0000    502.1412      5.2208    146.9701
  1450.0000      0.0000    470.0118      5.3708    154.9764
  1450.2500      0.0000    446.1258      5.5885    158.0083
  1450.5000      0.0000    433.4470      5.8449    156.8254
  1450.7500      0.0000    427.0996      6.0961    152.9693
  1451.0000      0.0000    421.5569      6.2983    147.4965
  1451.2500      0.0000    415.2031      6.4217    140.8421
  1451.5000      0.0000    409.8566      6.4621    133.6623
  1451.7500      0.0000    407.8764      6.4407    127.6757
  1452.0000      0.0000    409.8365      6.3814    125.3294
  1452.2500      0.0000    414.0361      6.2856    128.1054
  1452.5000      0.0000    417.6687      6.1276    134.9125
  1452.7500      0.0000    418.5846      5.8676    142.3853
  1453.0000      0.0000    416.5051      5.4748    147.1665
  1453.2500      0.0000    413.1304      4.9616    148.2921
  1453.5000      0.0000    411.3045      4.4091    147.6310
  1453.7500      0.0000    414.1334      3.9526    148.0474
  1454.0000      0.0000    424.3247      3.7198    150.9567
  1454.2500      0.0000    443.0389      3.7585    155.4879
  1454.5000      0.0000    468.1105      4.0060    159.7555
  1454.7500      0.0000    493.6277      4.3289    162.6697
  1455.0000      0.0000    512.7789      4.6220    164.7129
  1455.2500      0.0000    522.3766      4.8817    167.3251
  1455.5000      0.0000    525.0529      5.1820    171.2930
  1455.7500      0.0000    526.7672      5.5771    175.5087
  1456.0000      0.0000    531.8885      6.0372    177.7420
  1456.2500      0.0000    540.6890      6.4699    176.8190
  1456.5000      3.8013    550.6531      6.7878    173.7502
  1456.7500      0.0000    559.1480      6.9567    170.7690
  1457.0000      0.0000    565.7511      6.9974    169.5854
  1457.2500      0.0000    573.3066      6.9471    170.6008
  1457.5000      0.0000    585.6878      6.8037    173.1704
  1457.7500      0.0000    603.1138      6.5107    175.9665
  1458.0000      0.0000    620.5082      6.0265    177.5042
  1458.2500      0.0000    631.8973      5.4202    177.1762
  1458.5000      0.0000    635.6672      4.8673    175.7941
  1458.7500      0.0000    634.9104      4.5267    174.8716
  1459.0000      0.0000    633.7222      4.4326    175.3853
  1459.2500      0.0000    633.8025      4.5096    176.9914
  1459.5000      0.0000    633.7257      4.6744    178.0698
  1459.7500      0.0000    630.6965      4.9034    176.7601
  1460.0000      0.0000    623.4084      5.2094    172.4575
  1460.2500      0.0000    613.9221      5.5806    166.3929
  1460.5000      0.0000    606.4920      5.9525    160.7137
  1460.7500      0.0000    603.9124      6.2286    157.1160
  1461.0000      0.0000    605.2032      6.3154    156.2336
  1461.2500      0.0000    607.0707      6.1490    157.7806
  1461.5000      0.0000    606.4100      5.7279    160.6727
  1461.7500      0.0000    600.5094      5.1440    163.1095
  1462.0000      0.0000    586.5173      4.5748    163.3906
  1462.2500      0.0000    563.5122      4.2106    161.2720
  1462.5000      0.0000    535.5753      4.1567    158.3440
  1462.7500      0.0000    511.1238      4.3758    156.9104
  1463.0000      0.0000    498.2337      4.7100    158.5039
  1463.2500      0.0000    500.6241      4.9640    162.9849
  1463.5000      0.0000    516.9538      4.9999    168.2449
  1463.7500      0.0000    542.4188      4.7961    170.9886
  1464.0000      0.0000    571.1687      4.4525    168.8342
  1464.2500      0.0000    598.4560      4.1380    162.1017
  1464.5000      0.0000    621.2242      3.9990    153.2583
  1464.7500      0.0000    637.2117      4.0766    144.5811
  1465.0000      0.0000    644.3438      4.2909    136.4996
  1465.2500      0.0000    641.2211      4.4929    127.9414
  1465.5000      0.0000    628.0141      4.5470    117.8792
