~Version Information
VERS.                      2.0: CWLS Log ASCII Standard - VERSION 2.0
WRAP.                       NO: One line per depth step
~Well Information Block
STRT.FT               475.0000: 
STOP.FT              2336.7000: 
STEP.FT                 0.1000: 
NULL.                -999.2500: 
COMP.          Pioneer Natural Resources: COMPANY
WELL.              Bobsy 34-11: WELL
FLD.           Purgatoire River: FIELD
LOC.           1937' FEL & 451' FSL----: LOCATION
PROV.                 Colorado: PROVINCE
CNTY.               Las Animas: COUNTRY
SRVC.                Patterson: SERVICE COMPANY
DATE.          Fri Apr 08 11:07:54 2005: LOG DATE
UWI.           05 071 08330 00: UNIQUE WELL ID
~Curve Information Block
DEPT.FT            0 000 00 00: Depth
DCAL.in                       : CDL Caliper
RHOB.g/cc                     : CDL Bulk Density
RHOC.g/cc                     : CDL Density Correction
DPOR.pu                       : CDL Density Porosity
NPOR.pu                       : Neutron Porosity
GR.GAPI                       : Gamma Ray
~Parameter Information Block
~A  Depth       DCAL        RHOB        RHOC        DPOR        NPOR         GR     
# ...
  1579.0000      8.0266      2.5872      0.0820      3.8087     26.6324    101.2451
  1579.1000      8.0266      2.5372      0.0535      6.8345     27.7381    104.7864
  1579.2000      8.0266      2.4892      0.0294      9.7455     28.7153    110.5828
  1579.3000      8.0269      2.4543     -0.0268     11.8583     29.1541    119.6617
  1579.4000      8.0269      2.4413     -0.0367     12.6466     29.5332    127.3957
  1579.5000      8.0273      2.4426     -0.0189     12.5682     30.3166    130.9574
  1579.6000      8.0273      2.4439     -0.0256     12.4890     31.0154    130.9964
  1579.7000      8.0273      2.4351     -0.0091     13.0254     31.2612    129.8288
  1579.8000      8.0272      2.4114     -0.0037     14.4598     31.0438    128.4892
  1579.9000      8.0272      2.3857      0.0382     16.0166     30.5424    128.9831
  1580.0000      8.0271      2.3783      0.0842     16.4661     30.2437    134.3455
  1580.1000      8.0271      2.3952      0.1200     15.4403     30.3908    138.5960
  1580.2000      8.0271      2.4301      0.1226     13.3289     30.5360    135.5130
  1580.3000      8.0266      2.4647      0.1646     11.2303     30.1592    131.0653
  1580.4000      8.0266      2.4784      0.1116     10.4004     29.4016    131.5754
  1580.5000      8.0251      2.4743      0.1043     10.6496     28.9708    135.4935
  1580.6000      8.0251      2.4733      0.0995     10.7069     29.1649    135.5583
  1580.7000      8.0251      2.4913      0.1104      9.6199     29.3375    128.0080
  1580.8000      8.0242      2.5321      0.1093      7.1452     29.2164    121.1519
  1580.9000      8.0242      2.5870      0.1153      3.8171     29.2283    121.9071
  1581.0000      8.0237      2.6424      0.0932      0.4632     29.4130    125.6823
  1581.1000      8.0237      2.6877      0.1643     -2.2850     29.6795    126.7613
  1581.2000      8.0237      2.7128      0.1222     -3.8070     29.9501    125.7044
  1581.3000      8.0231      2.7070      0.1530     -3.4538     30.0409    126.0082
  1581.4000      8.0231      2.6677      0.1394     -1.0704     29.8974    129.6959
  1581.5000      8.0240      2.6232      0.0416      1.6233     29.9132    132.3901
  1581.6000      8.0240      2.6111      0.0348      2.3555     30.6600    125.6570
  1581.7000      8.0240      2.6303      0.0325      1.1969     31.6894    113.3736
  1581.8000      8.0301      2.6363      0.0475      0.8293     32.1143    108.9812
  1581.9000      8.0301      2.5850     -0.0208      3.9417     31.8740    113.9509
  1582.0000      8.0408      2.4915     -0.1121      9.6069     31.3287    118.4887
  1582.1000      8.0408      2.4185     -0.0896     14.0325     30.8579    117.7836
  1582.2000      8.0408      2.4022      0.0175     15.0181     30.5837    118.0071
  1582.3000      8.0481      2.4222      0.1195     13.8044     30.5605    124.4921
  1582.4000      8.0481      2.4362      0.1530     12.9560     30.7838    131.2021
  1582.5000      8.0522      2.4368      0.0935     12.9183     30.7799    133.3629
  1582.6000      8.0522      2.4496      0.1001     12.1425     30.3174    139.7594
  1582.7000      8.0522      2.4810      0.1070     10.2396     29.6320    151.4021
  1582.8000      8.0557      2.5141      0.1128      8.2380     29.0638    154.7885
  1582.9000      8.0557      2.5339      0.1471      7.0379     28.9546    148.8203
  1583.0000      8.0566      2.5393      0.1185      6.7114     29.1735    145.7606
  1583.1000      8.0566      2.5421      0.1194      6.5420     29.4549    145.8940
  1583.2000      8.0566      2.5507      0.1018      6.0174     29.6713    140.4616
  1583.3000      8.0555      2.5637      0.0872      5.2284     29.5193    132.7815
  1583.4000      8.0555      2.5721      0.1472      4.7207     29.2371    130.3802
  1583.5000      8.0548      2.5720      0.0742      4.7269     29.2843    134.2019
  1583.6000      8.0548      2.5729      0.0478      4.6754     29.2616    143.4083
  1583.7000      8.0548      2.5734      0.0865      4.6428     28.4109    150.0759
  1583.8000      8.0546      2.5675      0.0804      4.9979     26.8868    145.5326
  1583.9000      8.0546      2.5664      0.0557      5.0663     25.7422    137.0361
  1584.0000      8.0553      2.5793      0.0787      4.2834     25.3886    135.3145
  1584.1000      8.0553      2.5974      0.1208      3.1865     25.4350    138.0567
  1584.2000      8.0553      2.6118      0.0783      2.3157     25.7210    138.7492
  1584.3000      8.0551      2.6229      0.1042      1.6410     26.2768    133.3813
  1584.4000      8.0551      2.6292      0.1013      1.2602     26.8789    122.0337
  1584.5000      8.0547      2.6292      0.0840      1.2600     26.9913    115.3552
  1584.6000      8.0547      2.6218      0.0849      1.7072     26.2818    119.5454
  1584.7000      8.0547      2.6052      0.0411      2.7144     25.1246    125.5543
  1584.8000      8.0545      2.5873      0.0395      3.8020     24.3096    126.8612
  1584.9000      8.0545      2.5718      0.0335      4.7393     24.4345    127.1346
  1585.0000      8.0518      2.5567      0.0358      5.6557     25.2987    128.4163
  1585.1000      8.0518      2.5573     -0.0194      5.6189     26.3077    127.2846
  1585.2000      8.0518      2.5810      0.0597      4.1832     27.1862    122.2655
  1585.3000      8.0497      2.6011      0.0849      2.9665     27.5851    115.2625
  1585.4000      8.0497      2.6063      0.0507      2.6512     27.3001    109.7435
  1585.5000      8.0513      2.6156      0.0632      2.0840     26.9624    109.7049
  1585.6000      8.0513      2.6341      0.0978      0.9657     27.0655    115.0545
  1585.7000      8.0513      2.6548      0.0420     -0.2879     27.3100    120.2667
  1585.8000      8.0542      2.6799      0.0929     -1.8133     27.3546    120.4236
  1585.9000      8.0542      2.7011      0.1449     -3.0944     27.1521    115.8206
  1586.0000      8.0556      2.7027      0.1356     -3.1965     26.6896    110.1262
  1586.1000      8.0556      2.6937      0.0894     -2.6508     26.0871    109.1451
  1586.2000      8.0556      2.6941      0.1063     -2.6715     25.7529    115.8806
  1586.3000      8.0548      2.7013      0.1101     -3.1110     25.6765    123.4022
  1586.4000      8.0548      2.7043      0.0702     -3.2914     25.5013    125.8285
  1586.5000      8.0556      2.7046      0.0606     -3.3095     25.3914    127.2091
  1586.6000      8.0556      2.6931      0.0843     -2.6106     25.9177    129.2571
  1586.7000      8.0556      2.6568      0.0232     -0.4103     26.9156    128.2651
  1586.8000      8.0578      2.6166      0.0057      2.0235     27.8191    124.7829
  1586.9000      8.0578      2.5937      0.0487      3.4141     28.5200    121.6356
  1587.0000      8.0585      2.5745      0.0665      4.5745     28.9040    117.7036
  1587.1000      8.0585      2.5450      0.0587      6.3609     28.9303    111.2940
  1587.2000      8.0585      2.5179     -0.0184      8.0059     28.9124    107.3184
  1587.3000      8.0573      2.5085      0.0331      8.5738     28.9269    110.8769
  1587.4000      8.0573      2.5092      0.0235      8.5357     28.7161    117.3461
  1587.5000      8.0548      2.5100      0.0306      8.4820     28.3819    119.0922
  1587.6000      8.0548      2.5157      0.0456      8.1407     28.4128    116.3520
  1587.7000      8.0548      2.5300      0.0770      7.2757     28.9815    115.1424
  1587.8000      8.0539      2.5402      0.1168      6.6527     29.6466    115.3365
  1587.9000      8.0539      2.5334      0.0920      7.0647     29.9287    113.0127
  1588.0000      8.0537      2.5236      0.0557      7.6606     29.9479    109.4761
  1588.1000      8.0537      2.5260      0.0857      7.5171     29.8592    108.0816
  1588.2000      8.0537      2.5304      0.0965      7.2508     29.3801    109.3941
  1588.3000      8.0518      2.5253      0.0767      7.5599     28.6184    112.1939
  1588.4000      8.0518      2.5137      0.0687      8.2630     28.1791    119.6905
  1588.5000      8.0494      2.5014      0.0724      9.0079     28.1518    129.5023
