~Version Information
VERS.                      2.0: CWLS Log ASCII Standard - VERSION 2.0
WRAP.                       NO: One line per depth step
~Well Information Block
STRT.FT                -7.5000: 
STOP.FT               978.5000: 
STEP.FT                 0.2500: 
NULL.                -999.2500: 
COMP.          Pioneer Natural Resources: COMPANY
WELL.          Piggyback 33-25: WELL
FLD.           Purgatoire River: FIELD
LOC.           1600' FSL & 1800' FEL: LOCATION
PROV.                 Colorado: PROVINCE
CNTY.               Las Animas: COUNTRY
SRVC.                Patterson: SERVICE COMPANY
DATE.          Mon May 09 09:22:28 2005: LOG DATE
UWI.           05 071 08233 00: UNIQUE WELL ID
~Curve Information Block
DEPT.FT            0 000 00 00: Depth
CCL.                          : Casing Collar Locator
TT3.usec                      : CBL 3' Travel Time
AMP3.mV                       : CBL 3' Amplitude
GR.GAPI                       : Gamma Ray
~Parameter Information Block
~A  Depth       CCL         TT3         AMP3         GR     
# ...
   562.0000      0.0000    719.4295      5.4060    113.0996
   562.2500      0.0000    738.3073      5.1145    112.6575
   562.5000      0.0000    755.2300      5.0280    111.5392
   562.7500     -2.0000    765.8058      5.1693    108.7063
   563.0000      2.0000    770.2418      5.4185    103.4834
   563.2500      2.0000    771.2628      5.6290     96.7215
   563.5000     -2.0000    770.3679      5.7188     90.7267
   563.7500      0.0000    766.5281      5.6777     87.7951
   564.0000      0.0000    758.7389      5.5299     88.7068
   564.2500      0.0000    748.9237      5.3103     92.5452
   564.5000      0.0000    740.9359      5.0815     97.7855
   564.7500      0.0000    736.9655      4.9731    103.3660
   565.0000      0.0000    735.7756      5.1528    108.7280
   565.2500      0.0000    733.5812      5.7010    113.1599
   565.5000      0.0000    725.6702      6.5193    115.5405
   565.7500      0.0000    708.9864      7.3904    114.9904
   566.0000      0.0000    685.6946      8.1212    111.8219
   566.2500      0.0000    664.0054      8.6263    107.7124
   566.5000      0.0000    653.2733      8.9114    104.7529
   566.7500      0.0000    656.9969      9.0197    104.2324
   567.0000      0.0000    670.7881      9.0058    106.1599
   567.2500      0.0000    686.4449      8.9344    109.5587
   567.5000      0.0000    696.7910      8.8747    113.0275
   567.7500      0.0000    697.9817      8.8715    115.4239
   568.0000      0.0000    690.2624      8.9216    116.4247
   568.2500      0.0000    677.3443      8.9865    116.4083
   568.5000      0.0000    663.7262      9.0323    115.9186
   568.7500      0.0000    651.6186      9.0514    115.6754
   569.0000      0.0000    639.9706      9.0491    116.8347
   569.2500      0.0000    626.1948      9.0229    120.2809
   569.5000      0.0000    609.0845      8.9610    125.2811
   569.7500      0.0000    590.6000      8.8567    129.4616
   570.0000      0.0000    574.8618      8.7196    130.7460
   570.2500      0.0000    565.3713      8.5712    129.1289
   570.5000      0.0000    563.0728      8.4294    126.1628
   570.7500      0.0000    566.3879      8.2973    123.1392
   571.0000      0.0000    572.3983      8.1665    120.4398
   571.2500      0.0000    578.2920      8.0310    118.2854
   571.5000      0.0000    582.4642      7.8936    117.1771
   571.7500      0.0000    584.6587      7.7604    117.4197
   572.0000      0.0000    585.1522      7.6340    118.6347
   572.2500      0.0000    583.8835      7.5170    119.9574
   572.5000      0.0000    580.4333      7.4154    120.6047
   572.7500      0.0000    574.8413      7.3359    120.1937
   573.0000      0.0000    568.3846      7.2819    118.8638
   573.2500      0.0000    563.5041      7.2587    117.5666
   573.5000      0.0000    563.0850      7.2777    117.8862
   573.7500      0.0000    569.6410      7.3446    120.6516
   574.0000      0.0000    584.0295      7.4381    124.4914
   574.2500      0.0000    603.6849      7.5134    126.4512
   574.5000      0.0000    622.1557      7.5384    124.4501
   574.7500      0.0000    632.1179      7.5206    118.8909
   575.0000      0.0000    630.9028      7.4975    111.9756
   575.2500      0.0000    623.7839      7.5060    105.9908
   575.5000      0.0000    620.4101      7.5629    102.2305
   575.7500      0.0000    626.2660      7.6613    100.9453
   576.0000      0.0000    637.6923      7.7774    101.9698
   576.2500      0.0000    645.5087      7.8825    105.2404
   576.5000      0.0000    642.1637      7.9546    110.4304
   576.7500      0.0000    625.3130      7.9832    116.1698
   577.0000      0.0000    597.3763      7.9687    120.3446
   577.2500      0.0000    564.1450      7.9186    121.6689
   577.5000      0.0000    533.6141      7.8435    120.7514
   577.7500      0.0000    513.8395      7.7528    119.3106
   578.0000      0.0000    509.0907      7.6551    118.5371
   578.2500      0.0000    516.6881      7.5589    118.4095
   578.5000      0.0000    528.9385      7.4711    118.2713
   578.7500      0.0000    540.4320      7.3944    117.7774
   579.0000      0.0000    553.1489      7.3260    117.4296
   579.2500      0.0000    572.6526      7.2640    118.3083
   579.5000      0.0000    599.8709      7.2126    121.1278
   579.7500      0.0000    628.9667      7.1792    125.4446
   580.0000      0.0000    653.0616      7.1642    129.8087
   580.2500      0.0000    669.7883      7.1605    132.7105
   580.5000      0.0000    681.2131      7.1657    133.3976
   580.7500      0.0000    690.5908      7.1858    131.9078
   581.0000      0.0000    699.7618      7.2251    128.5937
   581.2500      0.0000    708.1273      7.2836    123.9465
   581.5000      0.0000    713.6063      7.3739    118.9666
   581.7500      0.0000    715.2833      7.5281    115.3725
   582.0000      0.0000    714.9368      7.7746    114.9119
   582.2500      0.0000    715.3445      8.1023    118.0166
   582.5000      0.0000    717.8228      8.4515    123.1023
   582.7500      0.0000    722.0475      8.7439    127.5699
   583.0000      0.0000    727.3609      8.9312    129.7339
   583.2500      0.0000    733.2705      9.0243    129.5871
   583.5000      0.0000    739.0277      9.0832    127.8525
   583.7500      0.0000    743.4988      9.1738    125.0276
   584.0000      0.0000    745.7424      9.3282    121.5143
   584.2500      0.0000    745.9042      9.5361    117.9195
   584.5000      0.0000    745.4437      9.7639    114.7127
   584.7500      0.0000    745.7006      9.9715    111.9708
   585.0000      0.0000    745.7745     10.1123    109.7990
   585.2500      0.0000    742.4911     10.1305    108.6333
   585.5000      0.0000    733.2070      9.9769    108.7360
   585.7500      0.0000    718.6724      9.6424    109.6766
   586.0000      0.0000    702.9839      9.1766    110.6235
   586.2500      0.0000    690.8666      8.6674    111.0230
   586.5000      0.0000    685.0305      8.1992    110.9780
   586.7500      0.0000    685.4291      7.8228    111.1959
   587.0000      0.0000    690.0219      7.5490    112.5518
   587.2500      0.0000    696.1272      7.3656    115.5656
   587.5000      0.0000    702.0030      7.2624    120.2179
   587.7500      0.0000    707.7318      7.2446    125.8896
   588.0000      0.0000    714.3390      7.3172    131.0168
   588.2500      0.0000    721.8463      7.4578    133.2927
   588.5000      0.0000    728.3459      7.6119    131.2954
   588.7500      0.0000    731.1665      7.7211    126.1288
   589.0000      0.0000    729.2073      7.7582    120.9302
   589.2500      0.0000    724.0540      7.7337    118.4790
   589.5000      0.0000    718.4678      7.6733    119.2237
   589.7500      0.0000    714.1752      7.5947    121.4130
   590.0000      0.0000    711.6738      7.5051    122.9006
   590.2500      0.0000    711.3864      7.4155    122.9066
   590.5000      0.0000    713.8532      7.3471    122.4661
   590.7500      0.0000    718.9835      7.3153    123.5818
   591.0000      0.0000    725.6234      7.3071    127.6908
   591.2500      0.0000    731.4149      7.2806    134.2600
   591.5000      0.0000    733.0114      7.1985    140.8053
   591.7500      0.0000    727.6808      7.0694    144.8945
   592.0000      0.0000    715.7078      6.9521    146.2027
   592.2500      0.0000    700.8325      6.9092    146.2231
   592.5000      0.0000    687.7076      6.9500    146.1034
   592.7500      0.0000    678.9277      7.0239    145.3397
   593.0000      0.0000    674.3698      7.0713    142.7987
   593.2500      0.0000    672.5533      7.0744    138.4965
   593.5000      0.0000    672.0634      7.0581    133.7791
   593.7500      0.0000    672.0352      7.0528    129.9697
   594.0000      0.0000    672.0361      7.0677    127.3523
   594.2500      0.0000    671.8868      7.0982    125.3541
   594.5000      0.0000    671.5853      7.1458    123.2452
   594.7500      0.0000    671.2491      7.2182    120.7334
   595.0000      0.0000    671.0251      7.3101    118.1670
   595.2500      0.0000    671.0195      7.3948    116.0531
