~Version Information
VERS.                      2.0: CWLS Log ASCII Standard - VERSION 2.0
WRAP.                       NO: One line per depth step
~Well Information Block
STRT.FT               440.0000: 
STOP.FT              1003.5000: 
STEP.FT                 0.2500: 
NULL.                -999.2500: 
COMP.          Pioneer Natural Resources: COMPANY
WELL.              Dylan 42-25: WELL
FLD.           Purgatoire River: FIELD
LOC.           2160' FNL & 855' FEL: LOCATION
PROV.                 Colorado: PROVINCE
CNTY.               Las Animas: COUNTRY
SRVC.                Patterson: SERVICE COMPANY
DATE.          Sat Apr 23 11:21:51 2005: LOG DATE
UWI.           05 071 08229 00: UNIQUE WELL ID
~Curve Information Block
DEPT.FT            0 000 00 00: Depth
SN.Ohm-m                      : IEL Short Normal
SP.mV                         : IEL Spontaneous Potential
DIR.Ohm-m                     : IEL Induction Resistivity
GR.GAPI                       : Gamma Ray
~Parameter Information Block
~A  Depth        SN          SP         DIR          GR     
# ...
   473.5000   2000.0000   2000.0000     18.3981    124.8767
   473.7500   2000.0000   2000.0000     19.3630    121.5604
   474.0000   2000.0000   2000.0000     20.3601    116.3304
   474.2500   2000.0000   2000.0000     21.3619    112.9460
   474.5000   2000.0000   2000.0000     22.2810    108.4245
   474.7500   2000.0000   2000.0000     23.0002    106.0441
   475.0000   2000.0000   2000.0000     23.4453    104.4776
   475.2500   2000.0000   2000.0000     23.6413    105.6735
   475.5000   2000.0000   2000.0000     23.6892    111.9406
   475.7500   2000.0000   2000.0000     23.6846    119.0473
   476.0000   2000.0000   2000.0000     23.6515    132.8678
   476.2500   2000.0000   2000.0000     23.5445    143.1343
   476.5000   2000.0000   2000.0000     23.3052    158.0904
   476.7500   2000.0000   2000.0000     22.9178    166.5597
   477.0000   2000.0000   2000.0000     22.4157    175.5624
   477.2500   2000.0000   2000.0000     21.8480    179.0519
   477.5000   2000.0000   2000.0000     21.2520    181.6753
   477.7500   2000.0000   2000.0000     20.6578    182.5115
   478.0000   2000.0000   2000.0000     20.1051    183.2162
   478.2500   2000.0000   2000.0000     19.6464    183.3580
   478.5000   2000.0000   2000.0000     19.3318    182.6471
   478.7500   2000.0000   2000.0000     19.1905    181.2221
   479.0000   2000.0000   2000.0000     19.2234    177.1472
   479.2500   2000.0000   2000.0000     19.4086    172.9002
   479.5000   2000.0000   2000.0000     19.7121    164.1238
   479.7500   2000.0000   2000.0000     20.0972    156.9778
   480.0000   2000.0000   2000.0000     20.5336    145.5661
   480.2500   2000.0000   2000.0000     21.0125    138.4487
   480.5000   2000.0000   2000.0000     21.5571    130.0458
   480.7500   2000.0000   2000.0000     22.2187    126.7011
   481.0000   2000.0000   2000.0000     23.0430    125.9590
   481.2500   2000.0000   2000.0000     24.0230    128.3127
   481.5000   2000.0000   2000.0000     25.0709    134.7060
   481.7500   2000.0000   2000.0000     26.0420    139.5073
   482.0000   2000.0000   2000.0000     26.8116    145.3981
   482.2500   2000.0000   2000.0000     27.3394    147.6327
   482.5000   2000.0000   2000.0000     27.6554    147.7725
   482.7500   2000.0000   2000.0000     27.7898    145.9577
   483.0000   2000.0000   2000.0000     27.7383    142.0956
   483.2500   2000.0000   2000.0000     27.5003    140.0374
   483.5000   2000.0000   2000.0000     27.1285    138.9801
   483.7500   2000.0000   2000.0000     26.7227    139.6023
   484.0000   2000.0000   2000.0000     26.3714    141.8092
   484.2500   2000.0000   2000.0000     26.1056    143.5565
   484.5000   2000.0000   2000.0000     25.8985    145.4132
   484.7500   2000.0000   2000.0000     25.6969    145.6046
   485.0000   2000.0000   2000.0000     25.4510    144.4350
   485.2500   2000.0000   2000.0000     25.1270    143.4436
   485.5000   2000.0000   2000.0000     24.7137    143.2103
   485.7500   2000.0000   2000.0000     24.2370    144.1832
   486.0000   2000.0000   2000.0000     23.7695    145.9435
   486.2500   2000.0000   2000.0000     23.4123    145.7657
   486.5000   2000.0000   2000.0000     23.2462    141.2457
   486.7500   2000.0000   2000.0000     23.2850    135.0583
   487.0000   2000.0000   2000.0000     23.4625    122.1841
   487.2500   2000.0000   2000.0000     23.6630    112.5141
   487.5000   2000.0000   2000.0000     23.7764     98.7794
   487.7500   2000.0000   2000.0000     23.7390     91.2644
   488.0000   2000.0000   2000.0000     23.5394     83.7190
   488.2500   2000.0000   2000.0000     23.2036     81.6363
   488.5000   2000.0000   2000.0000     22.7783     83.4789
   488.7500   2000.0000   2000.0000     22.3163     88.1793
   489.0000   2000.0000   2000.0000     21.8632    100.2597
   489.2500   2000.0000   2000.0000     21.4519    111.1142
   489.5000   2000.0000   2000.0000     21.0995    129.5032
   489.7500   2000.0000   2000.0000     20.8032    141.2511
   490.0000   2000.0000   2000.0000     20.5351    154.3863
   490.2500   2000.0000   2000.0000     20.2508    158.6071
   490.5000   2000.0000   2000.0000     19.9182    158.2894
   490.7500   2000.0000   2000.0000     19.5440    155.5478
   491.0000   2000.0000   2000.0000     19.1756    151.9114
   491.2500   2000.0000   2000.0000     18.8768    151.2125
   491.5000   2000.0000   2000.0000     18.7040    152.1814
   491.7500   2000.0000   2000.0000     18.7015    152.9697
   492.0000   2000.0000   2000.0000     18.9064    152.7753
   492.2500   2000.0000   2000.0000     19.3495    151.3437
   492.5000   2000.0000   2000.0000     20.0408    147.3218
   492.7500   2000.0000   2000.0000     20.9473    143.8830
   493.0000   2000.0000   2000.0000     21.9804    138.7665
   493.2500   2000.0000   2000.0000     23.0153    135.7172
   493.5000   2000.0000   2000.0000     23.9496    131.2677
   493.7500   2000.0000   2000.0000     24.7630    127.9386
   494.0000   2000.0000   2000.0000     25.5259    122.0490
   494.2500   2000.0000   2000.0000     26.3445    117.6117
   494.5000   2000.0000   2000.0000     27.2906    110.5948
   494.7500   2000.0000   2000.0000     28.3612    106.0205
   495.0000   2000.0000   2000.0000     29.4809    100.1283
   495.2500   2000.0000   2000.0000     30.5383     97.3195
   495.5000   2000.0000   2000.0000     31.4376     95.0835
   495.7500   2000.0000   2000.0000     32.1412     94.6844
   496.0000   2000.0000   2000.0000     32.6774     95.0695
   496.2500   2000.0000   2000.0000     33.1082     95.7639
   496.5000   2000.0000   2000.0000     33.4817     97.4625
   496.7500   2000.0000   2000.0000     33.8042     99.0385
   497.0000   2000.0000   2000.0000     34.0475    101.7441
   497.2500   2000.0000   2000.0000     34.1776    103.4398
   497.5000   2000.0000   2000.0000     34.1765    105.3332
   497.7500   2000.0000   2000.0000     34.0457    106.1002
   498.0000   2000.0000   2000.0000     33.7986    106.9278
   498.2500   2000.0000   2000.0000     33.4554    107.6982
   498.5000   2000.0000   2000.0000     33.0466    109.6121
   498.7500   2000.0000   2000.0000     32.6158    111.1356
   499.0000   2000.0000   2000.0000     32.2113    112.6847
   499.2500   2000.0000   2000.0000     31.8685    112.7037
   499.5000   2000.0000   2000.0000     31.5900    111.3015
   499.7500   2000.0000   2000.0000     31.3366    109.9636
   500.0000   2000.0000   2000.0000     31.0332    108.5129
   500.2500   2000.0000   2000.0000     30.5960    108.4708
   500.5000   2000.0000   2000.0000     29.9709    110.2631
   500.7500   2000.0000   2000.0000     29.1654    112.5956
   501.0000   2000.0000   2000.0000     28.2502    117.2838
   501.2500   2000.0000   2000.0000     27.3304    121.0961
   501.5000   2000.0000   2000.0000     26.5063    128.2152
   501.7500   2000.0000   2000.0000     25.8415    134.0905
   502.0000   2000.0000   2000.0000     25.3478    144.1830
   502.2500   2000.0000   2000.0000     24.9903    150.9757
   502.5000   2000.0000   2000.0000     24.7139    159.2598
   502.7500   2000.0000   2000.0000     24.4827    162.4049
   503.0000   2000.0000   2000.0000     24.3053    162.8087
   503.2500   2000.0000   2000.0000     24.2257    160.5930
   503.5000   2000.0000   2000.0000     24.2898    154.6579
   503.7500   2000.0000   2000.0000     24.5173    149.2329
   504.0000   2000.0000   2000.0000     24.8998    138.7513
   504.2500   2000.0000   2000.0000     25.4244    130.3689
   504.5000   2000.0000   2000.0000     26.0982    117.0464
   504.7500   2000.0000   2000.0000     26.9564    108.6694
   505.0000   2000.0000   2000.0000     28.0418     97.8434
   505.2500   2000.0000   2000.0000     29.3707     91.8532
   505.5000   2000.0000   2000.0000     30.9030     84.6699
   505.7500   2000.0000   2000.0000     32.5374     81.1164
   506.0000   2000.0000   2000.0000     34.1478     77.4108
   506.2500   2000.0000   2000.0000     35.6513     75.6495
   506.5000   2000.0000   2000.0000     37.0559     73.4955
   506.7500   2000.0000   2000.0000     38.4287     72.2665
