~Version Information
VERS.                      2.0: CWLS Log ASCII Standard - VERSION 2.0
WRAP.                       NO: One line per depth step
~Well Information Block
STRT.FT               750.3000: 
STOP.FT              1254.0000: 
STEP.FT                 0.1000: 
NULL.                -999.2500: 
COMP.          Petrogulf Corporation: COMPANY
WELL.           Montoya 13-41V: WELL
FLD.           Purgatorie River: FIELD
LOC.           449' FNL & 891' FEL: LOCATION
CNTY.               Las Animas: COUNTY
SRVC.                         : SERVICE COMPANY
DATE.          Tue Aug 17 15:47:43 2004: LOG DATE
UWI.           05 071 08021 00: UNIQUE WELL ID
STAT.                 Colorado: STATE
~Curve Information Block
DEPT.FT            0 000 00 00: Depth
DCAL.in                       : CDL Caliper
RHOB.g/cc                     : CDL Bulk Density
RHOC.g/cc                     : CDL Density Correction
DPOR.pu                       : CDL Density Porosity
GR.GAPI                       : Gamma Ray
NPOR.pu                       : Neutron Porosity
~Parameter Information Block
~A  Depth       DCAL        RHOB        RHOC        DPOR         GR         NPOR    
# ...
   798.3000      2.4291      2.0471      0.5208     36.5373    129.7439     24.0606
   798.4000      2.4291      2.0627      0.5602     35.5935    134.4078     24.2473
   798.5000      2.4421      2.1156      0.6221     32.3874    139.2276     24.6463
   798.6000      2.4421      2.1802      0.6522     28.4714    141.9994     25.1255
   798.7000      2.4421      2.2286      0.6869     25.5392    141.6399     25.2190
   798.8000      2.4459      2.2486      0.6996     24.3263    140.3819     25.2066
   798.9000      2.4459      2.2385      0.6887     24.9424    138.0801     25.7525
   799.0000      2.4615      2.1968      0.6536     27.4680    130.9787     26.7888
   799.1000      2.4615      2.1305      0.5719     31.4831    121.7171     27.5565
   799.2000      2.4615      2.0650      0.4699     35.4531    117.2805     27.8500
   799.3000      2.4650      2.0280      0.4948     37.6998    119.5823     28.1978
   799.4000      2.4650      2.0254      0.5351     37.8533    126.7951     28.7331
   799.5000      2.4708      2.0456      0.5587     36.6274    134.8916     29.2259
   799.6000      2.4708      2.0775      0.5990     34.6957    140.3602     29.7028
   799.7000      2.4708      2.1190      0.6087     32.1834    144.0963     30.1952
   799.8000      2.4722      2.1695      0.6381     29.1208    146.9149     30.6660
   799.9000      2.4722      2.2186      0.6920     26.1451    146.6553     31.1509
   800.0000      2.4709      2.2478      0.6986     24.3738    141.7357     31.5744
   800.1000      2.4709      2.2489      0.6871     24.3061    133.2125     31.7737
   800.2000      2.4709      2.2311      0.6734     25.3900    125.3229     31.9200
   800.3000      2.4661      2.2080      0.6747     26.7868    122.0348     32.2546
   800.4000      2.4661      2.1915      0.6521     27.7894    122.8537     32.3653
   800.5000      2.4636      2.1895      0.6712     27.9112    124.6343     31.8456
   800.6000      2.4636      2.1972      0.6689     27.4403    123.6842     30.9321
   800.7000      2.4636      2.2026      0.6532     27.1126    118.7309     29.7228
   800.8000      2.4687      2.1955      0.6434     27.5476    117.0286     28.1797
   800.9000      2.4687      2.1712      0.5953     29.0160    124.0076     26.7863
   801.0000      2.4703      2.1403      0.5559     30.8886    131.9394     25.7493
   801.1000      2.4703      2.1331      0.5543     31.3259    135.1153     24.8877
   801.2000      2.4703      2.2162      0.5320     26.2888    136.7043     24.1315
   801.3000      3.2236      2.4607      0.5949     11.4707    141.5062     23.3398
   801.4000      3.2236      2.8135      0.8193     -9.9061    147.9237     22.4909
   801.5000      8.9853      3.1072      0.9141    -27.7109    149.7261     21.9505
   801.6000      8.9853      3.2578      0.9476    -36.8355    147.1163     22.0337
   801.7000      8.9853      3.2997      0.9209    -39.3777    149.3667     22.6703
   801.8000     11.2711      3.2564      0.9106    -36.7543    159.7754     23.5631
   801.9000     11.2711      3.1086      0.7990    -27.7953    167.3110     24.2747
   802.0000     12.7531      2.8958      0.2826    -14.8975    168.4716     24.5354
   802.1000     12.7531      2.7262      0.1204     -4.6193    172.9310     24.5265
   802.2000     12.7531      2.6399      0.1643      0.6143    179.1710     24.4481
   802.3000     13.5266      2.5868      0.1416      3.8323    176.3453     24.1376
   802.4000     13.5266      2.5328      0.1024      7.1040    164.5558     23.6449
   802.5000     13.5733      2.4861      0.0622      9.9308    152.6408     23.2982
   802.6000     13.5733      2.4543      0.0946     11.8581    143.8619     23.0676
   802.7000     13.5733      2.4285      0.1200     13.4247    139.2277     22.6786
   802.8000     13.6832      2.4034      0.0796     14.9444    145.0184     22.0514
   802.9000     13.6832      2.3914      0.0396     15.6729    158.8266     21.3545
   803.0000     13.9000      2.4027      0.1006     14.9873    167.4159     20.7546
   803.1000     13.9000      2.4237      0.1874     13.7152    165.1088     20.2302
   803.2000     13.9000      2.4331      0.1977     13.1472    157.2286     19.5774
   803.3000     14.0896      2.4264      0.2271     13.5531    150.9713     18.9462
   803.4000     14.0896      2.4059      0.2146     14.7934    153.2046     18.7522
   803.5000     14.1917      2.3663      0.2034     17.1933    168.0017     18.9187
   803.6000     14.1917      2.3026      0.1678     21.0567    182.1506     18.9217
   803.7000     14.1917      2.2301      0.0673     25.4496    179.2055     18.4500
   803.8000     14.2265      2.1757      0.0740     28.7477    166.2521     17.7088
   803.9000     14.2265      2.1534      0.0311     30.0952    156.5068     17.0576
   804.0000     14.2134      2.1647      0.0507     29.4138    153.5713     16.6127
   804.1000     14.2134      2.1943      0.1594     27.6185    155.7980     16.2946
   804.2000     14.2134      2.2243      0.1562     25.8023    156.6626     16.2043
   804.3000     14.1085      2.2588      0.1589     23.7116    153.2321     16.5015
   804.4000     14.1085      2.2987      0.1961     21.2926    147.3209     17.1455
   804.5000     13.3098      2.3263      0.1713     19.6197    140.6211     18.0357
   804.6000     13.3098      2.3407      0.0850     18.7428    138.0118     19.1551
   804.7000     13.3098      2.3564      0.0817     17.7935    139.0490     20.5860
   804.8000     13.1207      2.3701      0.0815     16.9612    136.9771     22.3167
   804.9000     13.1207      2.3775      0.0039     16.5135    133.7799     24.0673
   805.0000     13.1061      2.3925      0.0405     15.6035    135.2046     25.5495
   805.1000     13.1061      2.4217      0.0596     13.8382    139.8129     26.8560
   805.2000     13.1061      2.4520      0.1153     11.9998    144.1725     28.2461
   805.3000     13.0910      2.4712      0.1003     10.8380    148.6960     29.5364
   805.4000     13.0910      2.4770      0.0986     10.4867    155.5029     30.3671
   805.5000     12.8172      2.4726      0.1256     10.7525    161.5685     30.8110
   805.6000     12.8172      2.4604      0.1261     11.4886    163.4431     31.1136
   805.7000     12.8172      2.4450      0.0702     12.4214    163.7388     31.0974
   805.8000     10.5105      2.4391      0.0808     12.7839    162.7720     30.4613
   805.9000     10.5105      2.4535      0.0910     11.9063    158.3895     29.4909
   806.0000      8.4853      2.4944      0.0727      9.4301    155.1033     28.8478
   806.1000      8.4853      2.5568      0.1914      5.6487    159.4522     28.6583
   806.2000      8.4853      2.6209      0.2185      1.7665    166.6377     28.3980
   806.3000      8.2847      2.6708      0.2586     -1.2611    166.9653     27.8285
   806.4000      8.2847      2.6910      0.3593     -2.4829    162.6313     27.3234
   806.5000      8.2866      2.6692      0.2308     -1.1651    161.6288     27.2348
   806.6000      8.2866      2.6232      0.1739      1.6227    164.1492     27.6138
   806.7000      8.2866      2.5801      0.1310      4.2353    167.2616     28.1616
   806.8000      8.2862      2.5539      0.0805      5.8231    168.4173     28.4938
   806.9000      8.2862      2.5518      0.0774      5.9514    166.3882     28.4664
   807.0000      8.2862      2.5690      0.0861      4.9074    163.0568     28.1469
   807.1000      8.2862      2.5835      0.1109      4.0304    156.8146     27.9101
   807.2000      8.2862      2.5808      0.1039      4.1952    148.8107     27.9422
   807.3000      8.2862      2.5748      0.0721      4.5593    146.9681     27.9285
   807.4000      8.2862      2.5796      0.1184      4.2687    151.0162     27.8274
   807.5000      8.2858      2.5858      0.1320      3.8910    151.2693     27.7346
   807.6000      8.2858      2.5837      0.0748      4.0157    148.5958     27.3277
   807.7000      8.2858      2.5755      0.1020      4.5152    151.1851     26.5967
   807.8000      8.2859      2.5570      0.0462      5.6364    153.4041     26.0574
