~Version Information
VERS.                      2.0: CWLS Log ASCII Standard - VERSION 2.0
WRAP.                       NO: One line per depth step
~Well Information Block
STRT.FT               258.0000: 
STOP.FT              1001.0000: 
STEP.FT                 0.2500: 
NULL.                -999.2500: 
COMP.          Pioneer Natural Resources: COMPANY
WELL.          Piggyback 33-25: WELL
FLD.           Purgatoire River: FIELD
LOC.           1600' FSL & 1800' FEL: LOCATION
PROV.                 Colorado: PROVINCE
CNTY.               Las Animas: COUNTRY
SRVC.                Patterson: SERVICE COMPANY
DATE.          Fri Apr 29 14:22:38 2005: LOG DATE
UWI.           05 071 08233 00: UNIQUE WELL ID
~Curve Information Block
DEPT.FT            0 000 00 00: Depth
SN.Ohm-m                      : IEL Short Normal
SP.mV                         : IEL Spontaneous Potential
DIR.Ohm-m                     : IEL Induction Resistivity
GR.GAPI                       : Gamma Ray
~Parameter Information Block
~A  Depth        SN          SP         DIR          GR     
# ...
   626.5000     26.7108     47.4093     22.9315     86.5809
   626.7500     24.6145     47.2419     22.1740     94.3126
   627.0000     23.2871     47.0794     21.4258    103.1005
   627.2500     22.1863     46.9470     20.6710    106.0923
   627.5000     21.0307     46.8493     19.9181    107.0908
   627.7500     19.9807     46.7743     19.1869    106.9115
   628.0000     19.3522     46.7066     18.4978    107.4051
   628.2500     19.2799     46.6377     17.8679    108.2516
   628.5000     19.5979     46.5702     17.3099    108.8587
   628.7500     19.9409     46.5168     16.8275    108.1880
   629.0000     19.9794     46.4954     16.4127    105.9821
   629.2500     19.6047     46.5199     16.0503    104.5803
   629.5000     18.9587     46.5923     15.7276    103.9834
   629.7500     18.3310     46.6988     15.4438    104.9557
   630.0000     17.9491     46.8152     15.2133    108.2369
   630.2500     17.8011     46.9173     15.0596    111.1758
   630.5000     17.6865     46.9908     15.0029    115.8242
   630.7500     17.4451     47.0303     15.0472    118.7276
   631.0000     17.1002     47.0301     15.1758    122.4101
   631.2500     16.7839     46.9766     15.3594    124.1521
   631.5000     16.6089     46.8520     15.5737    125.2186
   631.7500     16.6354     46.6490     15.8144    124.8665
   632.0000     16.8920     46.3815     16.0972    123.1435
   632.2500     17.4059     46.0805     16.4462    121.3035
   632.5000     18.1951     45.7797     16.8814    116.9039
   632.7500     19.2208     45.5024     17.4127    112.3345
   633.0000     20.4190     45.2573     18.0354    102.9003
   633.2500     21.7835     45.0387     18.7294     95.5331
   633.5000     23.3623     44.8330     19.4629     84.5173
   633.7500     25.1625     44.6297     20.2064     78.0312
   634.0000     27.0623     44.4326     20.9475     70.6056
   634.2500     28.8490     44.2624     21.6901     67.5963
   634.5000     30.3314     44.1487     22.4318     66.2914
   634.7500     31.3528     44.1164     23.1326     67.4842
   635.0000     31.7661     44.1729     23.7013     71.8571
   635.2500     31.5234     44.3082     24.0243     75.9190
   635.5000     30.7387     44.5077     24.0277     82.2615
   635.7500     29.5976     44.7611     23.7217     85.8540
   636.0000     28.2275     45.0573     23.1841     89.8969
   636.2500     26.6700     45.3809     22.5021     92.0846
   636.5000     25.0025     45.7235     21.7294     95.4817
   636.7500     23.3819     46.0922     20.8874     98.0148
   637.0000     21.9355     46.4952     19.9911    102.0002
   637.2500     20.7462     46.9228     19.0701    104.6149
   637.5000     19.8379     47.3490     18.1674    108.3544
   637.7500     19.1032     47.7501     17.3249    110.5903
   638.0000     18.3988     48.1179     16.5700    112.9392
   638.2500     17.6963     48.4594     15.9100    113.4649
   638.5000     17.0629     48.7890     15.3348    112.7838
   638.7500     16.5343     49.1203     14.8250    111.8575
   639.0000     16.0677     49.4577     14.3603    110.6549
   639.2500     15.6185     49.7918     13.9249    110.2180
   639.5000     15.2085     50.0975     13.5079    110.3773
   639.7500     14.8881     50.3388     13.1021    111.3575
   640.0000     14.6400     50.4778     12.7023    114.6950
   640.2500     14.3691     50.4846     12.3059    118.1226
   640.5000     14.0064     50.3461     11.9149    124.2333
   640.7500     13.5623     50.0702     11.5396    128.2699
   641.0000     13.0737     49.6851     11.1970    133.1730
   641.2500     12.5390     49.2303     10.9053    135.2409
   641.5000     11.9451     48.7456     10.6757    136.4469
   641.7500     11.3391     48.2658     10.5074    136.2988
   642.0000     10.8026     47.8233     10.3881    135.2889
   642.2500     10.3954     47.4442     10.2999    134.2697
   642.5000     10.1625     47.1297     10.2270    132.2992
   642.7500     10.1067     46.8476     10.1629    130.7354
   643.0000     10.1685     46.5545     10.1115    127.9889
   643.2500     10.3052     46.2297     10.0841    125.7464
   643.5000     10.5566     45.8888     10.0933    121.6283
   643.7500     11.0058     45.5681     10.1488    118.6227
   644.0000     11.6873     45.3001     10.2555    114.5810
   644.2500     12.5080     45.0981     10.4152    112.6028
   644.5000     13.2647     44.9547     10.6309    110.8668
   644.7500     13.8057     44.8494     10.9121    110.4423
   645.0000     14.1667     44.7626     11.2748    110.8657
   645.2500     14.5035     44.6872     11.7358    111.9060
   645.5000     14.9481     44.6344     12.3018    114.3893
   645.7500     15.5182     44.6281     12.9627    116.1586
   646.0000     16.1120     44.6894     13.6913    117.8395
   646.2500     16.6564     44.8235     14.4524    117.8940
   646.5000     17.2106     45.0179     15.2161    116.2221
   646.7500     17.8331     45.2538     15.9670    114.0341
   647.0000     18.4986     45.5195     16.7039    109.9421
   647.2500     19.2327     45.8152     17.4341    107.6800
   647.5000     20.2126     46.1482     18.1690    106.5699
   647.7500     21.6622     46.5215     18.9242    107.3183
   648.0000     23.5939     46.9230     19.7212    109.0349
   648.2500     25.6643     47.3264     20.5824    109.6419
   648.5000     27.4026     47.7038     21.5228    109.4412
   648.7500     28.5946     48.0442     22.5452    108.9563
   649.0000     29.3607     48.3631     23.6416    108.2590
   649.2500     29.9222     48.6955     24.7971    107.7333
   649.5000     30.4298     49.0815     25.9915    106.2170
   649.7500     31.0033     49.5529     27.1984    104.3880
   650.0000     31.7887     50.1267     28.3925    100.1207
   650.2500     32.9509     50.8054     29.5690     96.0460
   650.5000     34.6768     51.5864     30.7704     87.4821
   650.7500     37.1454     52.4717     32.0986     79.9850
   651.0000     40.4842     53.4602     33.6892     66.9095
   651.2500     44.8047     54.5245     35.6509     58.1156
   651.5000     50.2781     55.6006     38.0059     47.1200
   651.7500     57.1176     56.6028     40.6815     42.2841
   652.0000     65.4347     57.4537     43.5849     39.2235
   652.2500     75.0605     58.1113     46.7157     39.3257
   652.5000     85.4396     58.5821     50.1933     40.4813
   652.7500     95.7337     58.9155     54.1389     40.5925
   653.0000    105.0983     59.1755     58.4839     38.6123
   653.2500    112.9176     59.4044     62.8655     36.1303
   653.5000    118.9759     59.6084     66.7492     32.2011
   653.7500    123.5045     59.7794     69.7729     30.3085
   654.0000    126.9870     59.9247     72.0027     29.0752
   654.2500    129.8347     60.0684     73.8120     29.0021
   654.5000    132.1478     60.2319     75.5114     28.9727
   654.7500    133.7068     60.4189     77.1072     28.5616
   655.0000    134.2140     60.6167     78.3582     27.3905
   655.2500    133.6597     60.7966     79.0276     26.5904
   655.5000    132.3371     60.9096     79.0534     25.8788
   655.7500    130.3699     60.8900     78.4668     25.8600
   656.0000    127.5892     60.6778     77.2134     26.7992
   656.2500    124.0097     60.2485     75.1876     28.4277
   656.5000    120.0487     59.6283     72.4786     33.0383
   656.7500    116.1922     58.8899     69.4959     37.5457
   657.0000    112.6965     58.1354     66.7646     44.9114
   657.2500    109.5512     57.4730     64.5747     48.4586
   657.5000    106.4705     56.9871     62.7800     48.8631
   657.7500    103.0565     56.7089     60.8482     45.4675
   658.0000     99.2418     56.6026     58.1701     36.9960
   658.2500     95.3978     56.5781     54.5040     31.0834
   658.5000     91.7009     56.5282     50.1704     24.5245
   658.7500     87.5760     56.3703     45.7802     22.5125
   659.0000     82.1363     56.0680     41.8192     23.6510
   659.2500     75.0611     55.6267     38.4814     27.3867
   659.5000     66.8444     55.0754     35.7424     37.5102
   659.7500     58.4010     54.4543     33.4935     46.8235
