~Version Information
VERS.                      2.0: CWLS Log ASCII Standard - VERSION 2.0
WRAP.                       NO: One line per depth step
~Well Information Block
STRT.FT               500.0000: 
STOP.FT              2732.5000: 
STEP.FT                 0.1000: 
NULL.                -999.2500: 
COMP.          Pioneer Natural Resources: COMPANY
WELL.          Dude Canyon 22-32: WELL
FLD.           Purgatoire River: FIELD
LOC.           1662' FNL & 2446' FWL----: LOCATION
PROV.                 Colorado: PROVINCE
CNTY.               Las Animas: COUNTRY
SRVC.                Patterson: SERVICE COMPANY
DATE.          Thu Mar 10 07:06:34 2005: LOG DATE
UWI.           05 071 08257 00: UNIQUE WELL ID
~Curve Information Block
DEPT.FT            0 000 00 00: Depth
GR.GAPI                       : Gamma Ray
DCAL.in                       : CDL Caliper
DPOR.pu                       : CDL Density Porosity
NPOR.pu                       : Neutron Porosity
RHOB.g/cc                     : CDL Bulk Density
RHOC.g/cc                     : CDL Density Correction
~Parameter Information Block
~A  Depth        GR         DCAL        DPOR        NPOR        RHOB        RHOC    
# ...
  2420.0000     87.2526      7.8876     20.0307     26.7032      2.3195     -0.0377
  2420.1000     76.2480      7.8876     20.6103     26.4895      2.3099      0.0015
  2420.2000     90.6610      7.8876     20.8604     26.5558      2.3058      0.0010
  2420.3000    112.8131      7.8867     21.4176     26.7063      2.2966      0.0074
  2420.4000    126.0837      7.8867     21.6602     26.6263      2.2926     -0.0024
  2420.5000    130.5189      7.8867     20.7601     26.5687      2.3075      0.0021
  2420.6000    133.2401      7.8867     19.3300     26.6673      2.3311      0.0625
  2420.7000    134.1017      7.8867     18.2440     26.7635      2.3490      0.0346
  2420.8000    123.2832      7.8864     17.3497     26.8173      2.3637      0.0514
  2420.9000    104.6564      7.8864     16.4026     26.7491      2.3794      0.0632
  2421.0000     99.3257      7.8847     15.3890     26.5531      2.3961      0.0755
  2421.1000    113.4654      7.8847     14.1832     26.4252      2.4160      0.0565
  2421.2000    134.4304      7.8847     13.0759     26.0224      2.4342      0.0907
  2421.3000    150.6915      7.8836     12.8139     25.1881      2.4386      0.0452
  2421.4000    155.6380      7.8836     13.8655     24.5887      2.4212      0.0737
  2421.5000    144.4189      7.8844     16.0975     24.5275      2.3844      0.0232
  2421.6000    120.4638      7.8844     18.8284     24.9449      2.3393      0.0232
  2421.7000     98.6479      7.8844     21.0365     25.9541      2.3029     -0.0442
  2421.8000     95.4549      7.8844     21.5299     27.2800      2.2948     -0.0326
  2421.9000    110.3730      7.8844     20.3968     28.0573      2.3135      0.0226
  2422.0000    119.7012      7.8839     19.2152     27.9999      2.3329      0.0621
  2422.1000    110.5887      7.8839     18.7477     27.3713      2.3407      0.0629
  2422.2000    102.6587      7.8839     18.1328     26.6217      2.3508      0.0520
  2422.3000    114.4919      7.8831     17.0521     26.2724      2.3686      0.1205
  2422.4000    141.4784      7.8831     16.2706     26.2378      2.3815      0.1249
  2422.5000    163.2773      7.8831     15.6396     26.1958      2.3919      0.0860
  2422.6000    161.0013      7.8831     14.7369     25.7101      2.4068      0.0925
  2422.7000    135.2711      7.8831     14.3332     24.4072      2.4135      0.0664
  2422.8000    110.2729      7.8830     14.6772     22.9915      2.4078      0.0290
  2422.9000    107.8916      7.8830     14.5488     22.4718      2.4099      0.0123
  2423.0000    126.7653      7.8817     12.7580     22.7549      2.4395      0.0051
  2423.1000    148.8639      7.8817      9.6602     23.1186      2.4906      0.0627
  2423.2000    155.9240      7.8817      6.9755     23.2549      2.5349      0.0409
  2423.3000    150.0127      7.8818      5.9851     23.1188      2.5512      0.0559
  2423.4000    146.9586      7.8818      5.9220     22.7938      2.5523      0.0163
  2423.5000    144.1958      7.8827      5.1366     22.7902      2.5652      0.0327
  2423.6000    127.6740      7.8827      3.7312     22.9873      2.5884      0.0661
  2423.7000    107.8862      7.8827      3.1591     22.6516      2.5979      0.0652
  2423.8000    106.7860      7.8834      3.8923     21.8692      2.5858      0.0231
  2423.9000    116.5048      7.8834      4.7726     21.3266      2.5713      0.0352
  2424.0000    111.9981      7.8831      4.5922     21.2226      2.5742     -0.0152
  2424.1000     93.6470      7.8831      3.5000     21.3140      2.5923      0.0283
  2424.2000     85.6466      7.8831      2.7897     21.5326      2.6040      0.0444
  2424.3000     97.5077      7.8828      3.3344     22.1581      2.5950      0.0440
  2424.4000    110.4857      7.8828      4.4466     22.9848      2.5766      0.0122
  2424.5000    113.7313      7.8849      4.8980     23.1830      2.5692     -0.0014
  2424.6000    118.9795      7.8849      4.7723     22.7407      2.5713      0.0325
  2424.7000    129.1667      7.8849      5.1478     22.1082      2.5651      0.0341
  2424.8000    132.7115      7.8862      6.1652     21.3679      2.5483      0.0129
  2424.9000    123.4811      7.8862      7.0182     20.9118      2.5342     -0.0048
  2425.0000    105.0384      7.8851      7.6781     21.0103      2.5233      0.0157
  2425.1000     92.8050      7.8851      8.3820     21.3542      2.5117     -0.0234
  2425.2000     98.6707      7.8851      8.6155     21.5544      2.5078     -0.0272
  2425.3000    112.2247      7.8851      8.1743     21.2930      2.5151     -0.0016
  2425.4000    116.5738      7.8851      7.3006     20.6178      2.5295      0.0117
  2425.5000    107.2607      7.8853      6.5106     20.1190      2.5426      0.0445
  2425.6000     94.9053      7.8853      6.6902     20.0653      2.5396      0.0152
  2425.7000     88.3317      7.8853      7.4894     20.1897      2.5264     -0.0109
  2425.8000     85.9328      7.8833      7.2662     20.0204      2.5301     -0.0068
  2425.9000     87.4746      7.8833      5.9167     19.5178      2.5524      0.0397
  2426.0000     93.5888      7.8818      4.9189     19.3232      2.5688      0.0330
  2426.1000    102.2226      7.8818      4.6506     19.6223      2.5733      0.0358
  2426.2000    111.3420      7.8818      4.5702     19.9099      2.5746      0.0582
  2426.3000    120.8200      7.8836      4.8530     19.9993      2.5699      0.0398
  2426.4000    123.7418      7.8836      5.7214     20.2192      2.5556     -0.0189
  2426.5000    115.8315      7.8854      6.4924     20.7099      2.5429     -0.0320
  2426.6000    107.9839      7.8854      7.0203     21.0629      2.5342      0.0205
  2426.7000    105.7442      7.8854      7.5063     21.2093      2.5261     -0.0192
  2426.8000    109.0393      7.8847      7.0343     21.2629      2.5339     -0.0191
  2426.9000    116.0303      7.8847      5.2489     20.9366      2.5634      0.0071
  2427.0000    119.7849      7.8834      3.6222     20.5660      2.5902      0.0666
  2427.1000    118.1372      7.8834      3.5948     20.5822      2.5907      0.0502
  2427.2000    113.7873      7.8834      4.6327     20.5057      2.5736      0.0291
  2427.3000    108.5955      7.8828      5.3782     20.0928      2.5613      0.0375
  2427.4000    106.6579      7.8828      5.5007     19.7520      2.5592      0.0207
  2427.5000    108.5815      7.8834      5.1606     20.0270      2.5649      0.0435
  2427.6000    109.4522      7.8834      4.3102     20.7662      2.5789      0.0083
  2427.7000    111.7141      7.8834      3.3184     20.7553      2.5952      0.0434
  2427.8000    123.5640      7.8840      3.2613     19.6919      2.5962      0.0428
  2427.9000    145.5896      7.8840      4.3145     18.9911      2.5788     -0.0228
  2428.0000    160.0316      7.8849      5.4237     19.3952      2.5605     -0.0132
  2428.1000    152.6708      7.8849      6.1164     20.2028      2.5491      0.0070
  2428.2000    136.0726      7.8849      6.6118     20.8753      2.5409      0.0253
  2428.3000    130.2345      7.8853      7.0736     21.3183      2.5333      0.0373
  2428.4000    140.2222      7.8853      7.3588     21.5604      2.5286     -0.0144
  2428.5000    146.7010      7.8849      7.1921     21.7989      2.5313      0.0355
  2428.6000    137.2296      7.8849      6.9140     21.8174      2.5359      0.0498
  2428.7000    124.8797      7.8849      6.8978     21.4781      2.5362      0.0419
  2428.8000    123.5427      7.8836      6.9654     21.0203      2.5351      0.0187
  2428.9000    135.9981      7.8836      7.0625     20.9248      2.5335      0.0284
  2429.0000    149.0992      7.8831      7.4128     21.3757      2.5277      0.0146
  2429.1000    148.4097      7.8831      8.1362     21.9228      2.5158      0.0458
  2429.2000    139.2820      7.8831      8.5672     22.2191      2.5086     -0.0079
  2429.3000    127.8176      7.8859      7.6407     22.1620      2.5239      0.0162
  2429.4000    109.8875      7.8859      5.9816     21.7944      2.5513      0.0390
  2429.5000     89.6875      7.8894      5.2708     21.3774      2.5630      0.0314
