~Version Information
VERS.                      2.0: CWLS Log ASCII Standard - VERSION 2.0
WRAP.                       NO: One line per depth step
~Well Information Block
STRT.FT               698.9000: 
STOP.FT              2460.4000: 
STEP.FT                 0.1000: 
NULL.                -999.2500: 
COMP.          Petrogulf Corporation: COMPANY
WELL.             State 16-23V: WELL
FLD.           Purgatorie River: FIELD
LOC.           2414' FSL & 2215' FWL: LOCATION
PROV.                 Colorado: PROVINCE
CNTY.               Las Animas: COUNTRY
SRVC.                         : SERVICE COMPANY
DATE.          Mon Jun 09 14:24:56 2003: LOG DATE
UWI.           05 071 07865 00: UNIQUE WELL ID
~Curve Information Block
DEPT.FT            0 000 00 00: Depth
DCAL.in                       : CDL Caliper
RHOB.g/cc                     : CDL Bulk Density
RHOC.g/cc                     : CDL Density Correction
DPOR.pu                       : CDL Density Porosity
GR.GAPI                       : Gamma Ray
NPOR.pu                       : Neutron Porosity
~Parameter Information Block
~A  Depth       DCAL        RHOB        RHOC        DPOR         GR         NPOR    
# ...
   727.7000      8.1632      2.2248     -0.3676     25.7713     79.8681     51.0301
   727.8000      8.1589      2.2239     -0.3700     25.8226     80.6236     51.2818
   727.9000      8.1589      2.2240     -0.3721     25.8178     81.4375     51.5256
   728.0000      8.1539      2.2251     -0.3740     25.7497     82.2979     51.7523
   728.1000      8.1539      2.2274     -0.3754     25.6113     83.1825     51.9540
   728.2000      8.1539      2.2310     -0.3763     25.3968     84.0609     52.1252
   728.3000      8.1553      2.2358     -0.3764     25.1018     84.8912     52.2621
   728.4000      8.1553      2.2421     -0.3755     24.7234     85.6254     52.3626
   728.5000      8.1592      2.2497     -0.3737     24.2610     86.2077     52.4258
   728.6000      8.1592      2.2587     -0.3710     23.7160     86.5774     52.4516
   728.7000      8.1592      2.2690     -0.3673     23.0915     86.6739     52.4408
   728.8000      8.1625      2.2805     -0.3631     22.3925     86.4395     52.3945
   728.9000      8.1625      2.2932     -0.3585     21.6253     85.8281     52.3149
   729.0000      8.1651      2.3069     -0.3537     20.7966     84.8126     52.2057
   729.1000      8.1651      2.3214     -0.3492     19.9136     83.3928     52.0714
   729.2000      8.1651      2.3368     -0.3449     18.9829     81.5995     51.9182
   729.3000      8.1662      2.3528     -0.3411     18.0111     79.4989     51.7527
   729.4000      8.1662      2.3694     -0.3377     17.0042     77.1906     51.5818
   729.5000      8.1656      2.3865     -0.3346     15.9682     74.7968     51.4115
   729.6000      8.1656      2.4040     -0.3315     14.9099     72.4541     51.2465
   729.7000      8.1656      2.4217     -0.3282     13.8372     70.2959     51.0897
   729.8000      8.1647      2.4395     -0.3244     12.7605     68.4418     50.9422
   729.9000      8.1647      2.4571     -0.3199     11.6932     66.9798     50.8036
   730.0000      8.1648      2.4742     -0.3146     10.6518     65.9601     50.6727
   730.1000      8.1648      2.4907     -0.3086      9.6565     65.3931     50.5483
   730.2000      8.1648      2.5059     -0.3019      8.7303     65.2504     50.4296
   730.3000      8.1637      2.5197     -0.2949      7.8983     65.4699     50.3171
   730.4000      8.1637      2.5314     -0.2882      7.1856     65.9723     50.2121
   730.5000      8.1640      2.5408     -0.2822      6.6164     66.6703     50.1167
   730.6000      8.1640      2.5475     -0.2775      6.2111     67.4810     50.0341
   730.7000      8.1640      2.5512     -0.2745      5.9849     68.3395     49.9670
   730.8000      8.1688      2.5519     -0.2736      5.9465     69.2005     49.9185
   730.9000      8.1688      2.5494     -0.2748      6.0964     70.0421     49.8908
   731.0000      8.1747      2.5440     -0.2780      6.4271     70.8654     49.8857
   731.1000      8.1747      2.5358     -0.2830      6.9237     71.6867     49.9038
   731.2000      8.1747      2.5252     -0.2893      7.5640     72.5302     49.9446
   731.3000      8.1788      2.5127     -0.2963      8.3211     73.4206     50.0064
   731.4000      8.1788      2.4988     -0.3036      9.1647     74.3768     50.0867
   731.5000      8.1804      2.4840     -0.3107     10.0635     75.4077     50.1816
   731.6000      8.1804      2.4687     -0.3171     10.9871     76.5111     50.2873
   731.7000      8.1804      2.4535     -0.3225     11.9078     77.6743     50.3997
   731.8000      8.1789      2.4388     -0.3267     12.8017     78.8757     50.5160
   731.9000      8.1789      2.4248     -0.3295     13.6502     80.0918     50.6341
   732.0000      8.1756      2.4117     -0.3311     14.4397     81.2927     50.7539
   732.1000      8.1756      2.3998     -0.3315     15.1619     82.4483     50.8763
   732.2000      8.1756      2.3891     -0.3311     15.8133     83.5288     51.0031
   732.3000      8.1719      2.3795     -0.3301     16.3941     84.5055     51.1361
   732.4000      8.1719      2.3710     -0.3289     16.9077     85.3539     51.2764
   732.5000      8.1688      2.3636     -0.3277     17.3591     86.0548     51.4238
   732.6000      8.1688      2.3570     -0.3269     17.7548     86.5970     51.5763
   732.7000      8.1688      2.3513     -0.3265     18.1010     86.9818     51.7306
   732.8000      8.1653      2.3463     -0.3267     18.4040     87.2198     51.8820
   732.9000      8.1653      2.3420     -0.3276     18.6690     87.3319     52.0260
   733.0000      8.1639      2.3381     -0.3290     18.9004     87.3427     52.1578
   733.1000      8.1639      2.3348     -0.3308     19.1016     87.2789     52.2739
   733.2000      8.1639      2.3320     -0.3329     19.2753     87.1665     52.3726
   733.3000      8.1653      2.3295     -0.3351     19.4236     87.0299     52.4533
   733.4000      8.1653      2.3275     -0.3372     19.5483     86.8912     52.5176
   733.5000      8.1627      2.3258     -0.3389     19.6508     86.7731     52.5678
   733.6000      8.1627      2.3244     -0.3403     19.7329     86.7004     52.6077
   733.7000      8.1627      2.3234     -0.3411     19.7960     86.6975     52.6407
   733.8000      8.1580      2.3226     -0.3414     19.8418     86.7865     52.6707
   733.9000      8.1580      2.3221     -0.3413     19.8716     86.9816     52.7006
   734.0000      8.1567      2.3219     -0.3410     19.8864     87.2851     52.7326
   734.1000      8.1567      2.3219     -0.3407     19.8867     87.6832     52.7679
   734.2000      8.1567      2.3221     -0.3406     19.8720     88.1454     52.8067
   734.3000      8.1568      2.3226     -0.3411     19.8410     88.6265     52.8483
   734.4000      8.1568      2.3234     -0.3424     19.7917     89.0758     52.8911
   734.5000      8.1578      2.3246     -0.3447     19.7211     89.4401     52.9329
   734.6000      8.1578      2.3262     -0.3480     19.6258     89.6772     52.9708
   734.7000      8.1578      2.3282     -0.3521     19.5028     89.7615     53.0011
   734.8000      8.1604      2.3307     -0.3569     19.3497     89.6881     53.0204
   734.9000      8.1604      2.3338     -0.3619     19.1657     89.4747     53.0251
   735.0000      8.1617      2.3373     -0.3668     18.9521     89.1619     53.0124
   735.1000      8.1617      2.3412     -0.3712     18.7130     88.8049     52.9807
   735.2000      8.1617      2.3455     -0.3748     18.4559     88.4693     52.9300
   735.3000      8.1604      2.3498     -0.3773     18.1910     88.2240     52.8621
   735.4000      8.1604      2.3541     -0.3787     17.9318     88.1286     52.7809
   735.5000      8.1588      2.3581     -0.3793     17.6933     88.2309     52.6915
   735.6000      8.1588      2.3614     -0.3792     17.4919     88.5595     52.6003
   735.7000      8.1588      2.3638     -0.3789     17.3434     89.1178     52.5141
   735.8000      8.1588      2.3652     -0.3787     17.2618     89.8878     52.4397
   735.9000      8.1588      2.3652     -0.3788     17.2579     90.8298     52.3829
   736.0000      8.1584      2.3639     -0.3796     17.3383     91.8866     52.3489
   736.1000      8.1584      2.3612     -0.3809     17.5043     92.9939     52.3415
   736.2000      8.1584      2.3571     -0.3828     17.7522     94.0853     52.3635
   736.3000      8.1568      2.3518     -0.3849     18.0726     95.0996     52.4161
   736.4000      8.1568      2.3455     -0.3871     18.4521     95.9871     52.4994
   736.5000      8.1567      2.3386     -0.3892     18.8735     96.7099     52.6120
   736.6000      8.1567      2.3313     -0.3911     19.3175     97.2444     52.7507
   736.7000      8.1567      2.3239     -0.3926     19.7642     97.5748     52.9112
   736.8000      8.1571      2.3168     -0.3937     20.1941     97.6932     53.0874
   736.9000      8.1571      2.3103     -0.3945     20.5898     97.5948     53.2725
   737.0000      8.1588      2.3045     -0.3949     20.9367     97.2783     53.4587
   737.1000      8.1588      2.2998     -0.3950     21.2237     96.7504     53.6381
   737.2000      8.1588      2.2962     -0.3945     21.4434     96.0268     53.8030
