~Version Information
VERS.                      2.0: CWLS Log ASCII Standard - VERSION 2.0
WRAP.                       NO: One line per depth step
~Well Information Block
STRT.FT               -19.2500: 
STOP.FT              2421.5000: 
STEP.FT                 0.2500: 
NULL.                -999.2500: 
COMP.          Petrogulf Corporation: COMPANY
WELL.           Montoya 13-41V: WELL
FLD.           Purgatorie River: FIELD
LOC.           449' FNL & 891' FEL: LOCATION
CNTY.               Las Animas: COUNTY
SRVC.                         : SERVICE COMPANY
DATE.          Mon Sep 13 13:48:36 2004: LOG DATE
UWI.                       N/A: UNIQUE WELL ID
STAT.                 Colorado: STATE
~Curve Information Block
DEPT.FT            0 000 00 00: Depth
TT3.usec                      : CBL 3' Travel Time
AMP3.mV                       : CBL 3' Amplitude
GR.GAPI                       : Gamma Ray
CCL.                          : Casing Collar Locator
~Parameter Information Block
~A  Depth       TT3         AMP3         GR         CCL     
# ...
  1253.7500    310.5237     48.9090    133.7711      0.0000
  1254.0000    310.4776     45.3972    131.7442      0.0000
  1254.2500    310.5222     42.0898    129.0907      0.0000
  1254.5000    310.7300     39.1375    127.9125      0.0000
  1254.7500    311.0534     36.7498    129.6366      0.0000
  1255.0000    311.4786     35.0120    133.5313      0.0000
  1255.2500    312.0003     33.6586    137.0868      0.0000
  1255.5000    312.5247     32.2892    138.3263      0.0000
  1255.7500    312.9716     30.8145    137.7075      0.0000
  1256.0000    313.3954     29.3681    137.4989      0.0000
  1256.2500    313.8951     27.9276    139.5052      0.0000
  1256.5000    314.4672     26.3986    143.6567      0.0000
  1256.7500    314.9907     24.8727    148.4764      0.0000
  1257.0000    315.3267     23.5503    152.3383      0.0000
  1257.2500    315.3797     22.6322    154.2868      0.0000
  1257.5000    315.0944     22.3318    154.0740      0.0000
  1257.7500    314.5417     22.7097    151.6802      0.0000
  1258.0000    313.9322     23.5344    146.8743      0.0000
  1258.2500    313.4467     24.4482    139.3542      0.0000
  1258.5000    313.1267     25.2093    129.3219      0.0000
  1258.7500    312.8929     25.8548    117.7461      0.0000
  1259.0000    312.6419     26.6053    106.0575      0.0000
  1259.2500    312.3681     27.4959     95.7916      0.0000
  1259.5000    312.1543     28.3511     88.4600      0.0000
  1259.7500    312.0468     29.1166     85.2521      0.0000
  1260.0000    312.0253     29.8190     86.1826      0.0000
  1260.2500    312.0889     30.2513     89.3412      0.0000
  1260.5000    312.3366     30.0407     91.6572      0.0000
  1260.7500    313.0813     29.0100     91.1568      0.0000
  1261.0000    315.2488     27.2822     88.5569      0.0000
  1261.2500    320.6845     25.0431     86.5906      0.0000
  1261.5000    330.5844     22.4214     87.9739      0.0000
  1261.7500    342.7046     19.6890     93.8560      0.0000
  1262.0000    352.4919     17.2828    103.3967      0.0000
  1262.2500    357.7039     15.4699    114.2724      0.0000
  1262.5000    359.4802     14.2394    123.9927      0.0000
  1262.7500    359.8198     13.4545    131.3500      0.0000
  1263.0000    360.0327     12.9469    136.6451      0.0000
  1263.2500    360.5291     12.6477    140.4775      0.0000
  1263.5000    361.1553     12.5681    142.5660      0.0000
  1263.7500    362.0217     12.5638    141.8929      0.0000
  1264.0000    365.3726     12.4030    137.9793      0.0000
  1264.2500    380.3755     12.0235    131.9727      0.0000
  1264.5000    425.8168     11.5012    126.2935      0.0000
  1264.7500    513.7034     10.9233    123.0219      0.0000
  1265.0000    622.0710     10.3768    122.5844      0.0000
  1265.2500    706.9362      9.9266    123.8631      0.0000
  1265.5000    747.7566      9.5360    125.3921      0.0000
  1265.7500    757.9195      9.0958    126.2306      0.0000
  1266.0000    758.7049      8.6117    125.7475      0.0000
  1266.2500    760.5154      8.2253    123.2646      0.0000
  1266.5000    762.7388      7.9689    118.6068      0.0000
  1266.7500    763.9056      7.7048    112.8932      0.0000
  1267.0000    767.2457      7.3508    108.2259      0.0000
  1267.2500    774.8965      6.9602    106.2553      0.0000
  1267.5000    784.3444      6.6014    106.8907      0.0000
  1267.7500    791.9244      6.3074    108.3061      0.0000
  1268.0000    794.1693      6.1097    108.2769      0.0000
  1268.2500    787.9092      6.0191    105.8259      0.0000
  1268.5000    768.4490      6.0009    101.8419      0.0000
  1268.7500    725.2081      6.0493     98.2545      0.0000
  1269.0000    656.0340      6.2308     96.5593      0.0000
  1269.2500    593.4888      6.5895     96.7659      0.0000
  1269.5000    578.2943      7.0841     97.4557      0.0000
  1269.7500    591.0694      7.6832     96.9768      0.0000
  1270.0000    567.7532      8.4520     94.8564      0.0000
  1270.2500    493.4315      9.5052     92.0474      0.0000
  1270.5000    415.9523     10.8955     89.8386      0.0000
  1270.7500    371.8430     12.4994     88.8834      0.0000
  1271.0000    356.4983     13.9766     89.3655      0.0000
  1271.2500    353.1056     14.9356     91.6113      0.0000
  1271.5000    352.6569     15.2479     95.9180      0.0000
  1271.7500    352.5173     15.1270    101.5772      0.0000
  1272.0000    352.1065     14.8529    106.4039      0.0000
  1272.2500    351.4765     14.5443    108.0048      0.0000
  1272.5000    350.9317     14.1890    105.8791      0.0000
  1272.7500    350.6635     13.7516    101.7163      0.0000
  1273.0000    350.6432     13.2543     97.4486      0.0000
  1273.2500    350.7609     12.8186     93.8509      0.0000
  1273.5000    350.9192     12.5985     91.1693      0.0000
  1273.7500    351.0714     12.6223     89.9200      0.0000
  1274.0000    351.1987     12.7498     90.4037      0.0000
  1274.2500    351.2365     12.8378     92.0214      0.0000
  1274.5000    351.1386     12.8865     93.6626      0.0000
  1274.7500    350.9993     12.9726     94.7236      0.0000
  1275.0000    350.9566     13.1180     95.5441      0.0000
  1275.2500    351.0013     13.2846     96.8249      0.0000
  1275.5000    351.0607     13.4761     98.6963      0.0000
  1275.7500    351.1496     13.7720    100.4384      0.0000
  1276.0000    351.0036     14.2485    101.1702      0.0000
  1276.2500    349.4779     15.0214    100.8714      0.0000
  1276.5000    344.6594     16.3136    100.6200      0.0000
  1276.7500    335.5576     18.2271    101.6239      0.0000
  1277.0000    324.3911     20.4600    104.0275      0.0000
  1277.2500    315.3911     22.4868    106.7906      0.0000
  1277.5000    310.5340     24.0761    108.5529      0.0000
  1277.7500    308.6065     25.4500    108.3458      0.0000
  1278.0000    307.8405     26.9528    105.7654      0.0000
  1278.2500    307.4165     28.7096    101.0991      0.0000
  1278.5000    307.1640     30.5664     95.4167      0.0000
  1278.7500    307.0546     32.2534     90.1174      0.0000
  1279.0000    307.0546     33.6404     86.1070      0.0000
  1279.2500    307.1640     34.8166     83.4542      0.0000
  1279.5000    307.4128     35.7533     81.8596      0.0000
  1279.7500    307.7947     36.0524     81.2112      0.0000
  1280.0000    308.2501     35.3403     81.5278      0.0000
  1280.2500    308.7064     33.7826     82.6140      0.0000
  1280.5000    309.0959     31.9416     84.0701      0.0000
  1280.7500    309.3818     30.2617     85.4919      0.0000
  1281.0000    309.6072     28.8563     86.5294      0.0000
  1281.2500    309.8506     27.6622     87.0441      0.0000
  1281.5000    310.0959     26.6542     87.2947      0.0000
  1281.7500    310.2376     25.8955     87.6104      0.0000
  1282.0000    310.2500     25.4230     87.8586      0.0000
  1282.2500    310.2625     25.1303     87.6326      0.0000
  1282.5000    310.4077     24.8043     86.9933      0.0000
  1282.7500    310.6952     24.3003     86.5393      0.0000
  1283.0000    311.2501     23.6419     86.5667      0.0000
  1283.2500    312.9512     22.9083     86.5116      0.0000
  1283.5000    317.7155     22.0728     85.4954      0.0000
  1283.7500    326.7890     21.0592     83.3013      0.0000
  1284.0000    337.8209     19.9864     80.7207      0.0000
  1284.2500    345.5329     19.2517     79.1110      0.0000
  1284.5000    346.1982     19.1764     79.6552      0.0000
  1284.7500    340.6437     19.6012     82.6895      0.0000
  1285.0000    334.2350     20.0341     87.5037      0.0000
  1285.2500    332.3674     20.1861     92.9032      0.0000
  1285.5000    333.6179     20.2626     97.9899      0.0000
  1285.7500    331.6656     20.6517    102.2206      0.0000
  1286.0000    324.7993     21.4802    104.9379      0.0000
  1286.2500    317.4413     22.6613    105.4466      0.0000
  1286.5000    313.1241     24.0918    103.7649      0.0000
  1286.7500    311.5946     25.5251    100.9103      0.0000
  1287.0000    311.4671     26.4202     98.2118      0.0000
