~Version Information
VERS.                      2.0: CWLS Log ASCII Standard - VERSION 2.0
WRAP.                       NO: One line per depth step
~Well Information Block
STRT.FT               -14.0000: 
STOP.FT              2565.5000: 
STEP.FT                 0.5000: 
NULL.                -999.2500: 
COMP.          Pioneer Natural Resources: COMPANY
WELL.             Carbon 34-21: WELL
FLD.           Purgatorie River: FIELD
LOC.           56' FSL & 2304' FEL: LOCATION
PROV.                 Colorado: PROVINCE
CNTY.               Las Animas: COUNTRY
SRVC.          Patterson Wireline: SERVICE COMPANY
DATE.          Mon Nov 08 08:55:10 2004: LOG DATE
UWI.           05-071-08117-00: UNIQUE WELL ID
~Curve Information Block
DEPT.FT            0 000 00 00: Depth
TT3.usec                      : CBL 3' Travel Time
AMP3.mV                       : CBL 3' Amplitude
GR.GAPI                       : Gamma Ray
CCL.                          : Casing Collar Locator
~Parameter Information Block
~A  Depth       TT3         AMP3         GR         CCL     
   -14.0000   -999.2500   -999.2500   -999.2500   -999.2500
   -13.5000   -999.2500   -999.2500   -999.2500      0.0000
   -13.0000   -999.2500   -999.2500   -999.2500      0.0000
   -12.5000   -999.2500   -999.2500   -999.2500      0.0000
   -12.0000   -999.2500   -999.2500   -999.2500      0.0000
   -11.5000   -999.2500   -999.2500   -999.2500      0.0000
   -11.0000   -999.2500   -999.2500   -999.2500      0.0000
   -10.5000   -999.2500   -999.2500     68.4448      0.0000
   -10.0000   -999.2500   -999.2500     72.2208      0.0000
    -9.5000   -999.2500   -999.2500     74.5038      0.0000
    -9.0000   -999.2500   -999.2500     72.0972      0.0000
    -8.5000   -999.2500   -999.2500     70.0247      0.0000
    -8.0000   -999.2500   -999.2500     70.3664      0.0000
    -7.5000   -999.2500   -999.2500     69.3430      0.0000
    -7.0000   -999.2500   -999.2500     64.5716      0.0000
    -6.5000   -999.2500   -999.2500     61.6918      0.0000
    -6.0000   -999.2500   -999.2500     61.0119      0.0000
    -5.5000   -999.2500   -999.2500     63.0858      0.0000
    -5.0000   -999.2500   -999.2500     70.0391      0.0000
    -4.5000   -999.2500   -999.2500     73.6773      0.0000
    -4.0000   1200.0000      1.1338     73.7948      0.0000
    -3.5000   1200.0000      1.1629     75.5621      0.0000
    -3.0000   1200.0000      1.1719     71.1242      0.0000
    -2.5000   1200.0000      1.1513     57.8989      0.0000
    -2.0000   1200.0000      1.1503     42.6155      2.3236
    -1.5000   1200.0000      1.1722     33.1782     -5.0000
    -1.0000   1200.0000      1.1791     30.9535      5.0000
    -0.5000   1200.0000      1.1473     30.1575      0.0000
     0.0000   1200.0000      1.1132     29.1538     -2.2632
     0.5000   1200.0000      1.1227     28.6893      0.0000
     1.0000   1200.0000      1.1458     30.7503      0.0000
     1.5000   1200.0000      1.1581     38.3435      0.0000
     2.0000   1200.0000      1.1743     47.9330      0.0000
     2.5000   1200.0000      1.1849     55.6478      0.0000
     3.0000   1200.0000      1.1767     61.3265      0.0000
     3.5000   1200.0000      1.1562     67.2570      0.0000
     4.0000   1200.0000      1.1447     76.0276      0.0000
     4.5000   1200.0000      1.1424     81.7205      0.0000
     5.0000   1200.0000      1.1423     78.7049      0.0000
     5.5000   1200.0000      1.1423     75.1967      0.0000
     6.0000   1200.0000      1.1423     72.5680      0.0000
     6.5000   1200.0000      1.1427     67.2549      0.0000
     7.0000   1200.0000      1.1447     62.6948      0.0000
     7.5000   1200.0000      1.1460     59.3006      0.0000
     8.0000   1200.0000      1.1425     54.9354      0.0000
     8.5000   1200.0000      1.1466     49.8538      0.0000
     9.0000   1200.0000      1.1569     48.6374      0.0000
     9.5000   1200.0000      1.1707     50.0409      3.9935
    10.0000   1200.0000      1.2084     52.6100      0.0000
    10.5000   1200.0000      1.2178     58.3483      0.0000
    11.0000   1199.6287      1.2190     62.3976      0.0000
    11.5000   1191.2793      1.5779     60.2703      0.0000
    12.0000   1118.6959      4.6713     52.9244      0.0000
    12.5000    869.2604     19.5183     47.6327      0.0000
    13.0000    524.8106     48.6661     51.0190      0.0000
    13.5000    331.3852     71.3408     56.8270      0.0000
    14.0000    286.9502     78.2368     59.3195      0.0000
    14.5000    282.7838     79.0550     60.6568      0.0000
    15.0000    282.6981     79.1675     59.5442      0.0000
    15.5000    282.7681     79.1964     58.0490      0.0000
    16.0000    282.7835     78.9438     62.6180      0.0000
    16.5000    282.7654     78.5748     68.6905      0.0000
    17.0000    282.7256     78.7712     67.0884      0.0000
    17.5000    282.7214     79.2753     62.2132      0.0000
    18.0000    282.7231     79.5288     58.9296      0.0000
    18.5000    282.6909     79.2445     55.4917      0.0000
    19.0000    282.7055     78.3494     54.9867      0.0000
    19.5000    282.7315     77.8556     56.7826      0.0000
    20.0000    282.7199     78.1555     59.0241      0.0000
    20.5000    282.6910     78.4634     65.1968      0.0000
    21.0000    282.6302     78.5328     69.3174      0.0000
    21.5000    282.5916     78.4462     64.0321      0.0000
    22.0000    282.6448     78.0672     57.5782      0.0000
    22.5000    282.7082     77.7938     53.6925      0.0000
    23.0000    282.6975     77.4912     52.0020      0.0000
    23.5000    282.6940     76.8256     54.7209      0.0000
    24.0000    282.6743     76.5931     61.2742      0.0000
    24.5000    282.6007     77.0876     65.2631      0.0000
    25.0000    282.5482     77.6877     63.5503      0.0000
    25.5000    282.5591     77.8960     61.9183      0.0000
    26.0000    282.6326     78.0054     58.9851      0.0000
    26.5000    282.6869     78.1909     54.9437      0.0000
    27.0000    282.6911     78.2027     52.8833      0.0000
    27.5000    282.6754     78.0735     54.3387      0.0000
    28.0000    282.6549     77.8964     54.1880      0.0000
    28.5000    282.6348     77.9597     51.1867      0.0000
    29.0000    282.6140     78.2655     50.0405      0.0000
    29.5000    282.6271     78.3761     54.1333      0.0000
    30.0000    282.6358     78.4337     59.6643      0.0000
    30.5000    282.6273     78.6578     60.6238      0.0000
    31.0000    282.6222     78.9482     59.4286      0.0000
    31.5000    282.6505     78.9030     57.1534      0.0000
    32.0000    282.7102     78.5891     56.4477      0.0000
    32.5000    282.7649     78.4563     58.7503      0.0000
    33.0000    282.7908     78.7240     58.5496      0.0000
    33.5000    282.8299     78.6223     53.8012      0.0000
    34.0000    282.8557     78.1211     51.1922      0.0000
    34.5000    282.8320     78.3609     52.4707      0.0000
    35.0000    282.8043     79.6308     55.3764      0.0000
    35.5000    282.7542     80.9141     59.6192      0.0000
    36.0000    282.7486     81.2264     61.4025      0.0000
    36.5000    282.8100     80.7590     60.6948      0.0000
    37.0000    282.8561     80.2071     58.8410      0.0000
    37.5000    282.8386     80.3754     57.5223      0.0000
    38.0000    282.8045     81.0983     58.2419      0.0000
    38.5000    282.7953     81.3139     58.4300      0.0000
    39.0000    282.8160     81.0691     56.7152      0.0000
    39.5000    282.8832     81.3620     54.5311      0.0000
    40.0000    283.3268     80.8503     52.9466      0.0000
    40.5000    284.8989     76.8856     53.4983      0.0000
    41.0000    287.3224     71.3817     55.8601      0.0000
    41.5000    289.1418     67.1750     57.2908      0.0000
    42.0000    289.9811     64.0140     55.0054      0.0000
    42.5000    290.6420     62.1057     48.6874      0.0000
    43.0000    293.2654     59.8461     48.4693      0.0000
    43.5000    297.8078     58.5988     52.8308      0.0000
    44.0000    295.4521     64.1492     57.4161      0.0000
    44.5000    287.2840     73.0358     63.4785      0.0000
    45.0000    283.1575     78.7857     64.6595      0.0000
    45.5000    282.4279     80.9264     61.5133      0.0000
    46.0000    282.4110     81.0439     59.5956      0.0000
    46.5000    282.4390     80.5458     58.9107      0.0000
    47.0000    282.4437     80.5228     62.1288      0.0000
    47.5000    282.4497     80.9975     66.0340      0.0000
    48.0000    282.3988     81.2894     64.2007      0.0000
    48.5000    282.3211     80.8690     61.9367      0.0000
    49.0000    282.3235     80.0149     64.3303      0.0000
    49.5000    282.3659     79.7379     67.8050      0.0000
    50.0000    282.4196     79.7558     69.3304      0.0000
    50.5000    282.4668     79.4869     72.8066      0.0000
    51.0000    282.4350     79.4812     76.1075      0.0000
    51.5000    282.4120     79.8779     75.9213      0.0000
    52.0000    282.4852     79.6249     74.7889      0.0000
    52.5000    282.4894     78.8896     73.6022      0.0000
