~Version Information
VERS.                      2.0: CWLS Log ASCII Standard - VERSION 2.0
WRAP.                       NO: One line per depth step
~Well Information Block
STRT.FT               732.2500: 
STOP.FT              2476.0000: 
STEP.FT                 0.2500: 
NULL.                -999.2500: 
COMP.          Petrogulf Corporation: COMPANY
WELL.            Montoya 7-14V: WELL
FLD.           Purgatorie River: FIELD
LOC.           535' FSL & 491' FWL: LOCATION
CNTY.               Las Animas: COUNTY
SRVC.                         : SERVICE COMPANY
DATE.          Mon Aug 23 05:51:43 2004: LOG DATE
UWI.           05 071 08019 00: UNIQUE WELL ID
STAT.                 Colorado: STATE
~Curve Information Block
DEPT.FT            0 000 00 00: Depth
SP.mV                         : DIL Spontaneous Potential
RILD.Ohm-m                    : DIL Deep Resistivity
RILM.Ohm-m                    : DIL Medium Resistivity
RLL3.Ohm-m                    : DIL Shallow Resistivity
GR.GAPI                       : Gamma Ray
~Parameter Information Block
~A  Depth        SP         RILD        RILM        RLL3         GR     
# ...
   984.2500    -67.1500     22.1479     32.2792     35.9749    110.2896
   984.5000    -67.1679     21.7418     31.2284     32.6975    115.3433
   984.7500    -67.0047     21.3493     30.0430     29.5909    118.3266
   985.0000    -66.6621     20.9502     28.8068     26.8965    120.6641
   985.2500    -66.2285     20.5293     27.6018     24.7279    120.5755
   985.5000    -65.8441     20.0889     26.4995     23.0875    119.0903
   985.7500    -65.6512     19.6520     25.5535     21.9428    118.3221
   986.0000    -65.7512     19.2552     24.7974     21.2794    118.6859
   986.2500    -66.1795     18.9393     24.2462     21.1046    119.6135
   986.5000    -66.9080     18.7389     23.8972     21.4409    120.3038
   986.7500    -67.8636     18.6737     23.7324     22.3178    119.5247
   987.0000    -68.9570     18.7419     23.7210     23.7322    116.6704
   987.2500    -70.1069     18.9155     23.8237     25.5676    114.4180
   987.5000    -71.2447     19.1463     23.9994     27.5335    111.7258
   987.7500    -72.3119     19.3806     24.2115     29.2146    110.5282
   988.0000    -73.2459     19.5822     24.4345     30.2360    109.0545
   988.2500    -73.9778     19.7463     24.6553     30.4417    107.9031
   988.5000    -74.4486     19.8960     24.8695     29.9529    105.7449
   988.7500    -74.6303     20.0622     25.0729     29.0694    104.2545
   989.0000    -74.5480     20.2588     25.2521     28.0967    102.7820
   989.2500    -74.2797     20.4686     25.3817     27.2272    102.8969
   989.5000    -73.9336     20.6430     25.4254     26.5336    105.4347
   989.7500    -73.6130     20.7204     25.3453     26.0317    108.4870
   990.0000    -73.3876     20.6542     25.1156     25.7209    113.1001
   990.2500    -73.2817     20.4370     24.7341     25.5621    114.6961
   990.5000    -73.2723     20.1058     24.2258     25.4366    114.0160
   990.7500    -73.2977     19.7274     23.6377     25.1652    112.4384
   991.0000    -73.2685     19.3771     23.0261     24.5996    110.8064
   991.2500    -73.0862     19.1195     22.4449     23.7200    111.0770
   991.5000    -72.6662     18.9964     21.9347     22.6513    113.5152
   991.7500    -71.9679     19.0156     21.5184     21.5874    115.8577
   992.0000    -71.0176     19.1429     21.1995     20.6978    119.0859
   992.2500    -69.9144     19.2989     20.9645     20.0888    120.5485
   992.5000    -68.8118     19.3756     20.7871     19.8240    121.6471
   992.7500    -67.8870     19.2753     20.6356     19.9458    121.8881
   993.0000    -67.3009     18.9563     20.4808     20.4578    121.9833
   993.2500    -67.1617     18.4545     20.3038     21.2816    122.0912
   993.5000    -67.5058     17.8614     20.1003     22.2403    122.6312
   993.7500    -68.2886     17.2811     19.8792     23.0986    123.3962
   994.0000    -69.3888     16.7951     19.6560     23.6382    125.3392
   994.2500    -70.6243     16.4486     19.4462     23.7266    127.1433
   994.5000    -71.7791     16.2510     19.2586     23.3481    130.1636
   994.7500    -72.6486     16.1821     19.0941     22.5948    131.8432
   995.0000    -73.0868     16.1999     18.9461     21.6352    132.8695
   995.2500    -73.0524     16.2505     18.8056     20.6739    132.3804
   995.5000    -72.6228     16.2828     18.6646     19.9052    130.6230
   995.7500    -71.9729     16.2648     18.5202     19.4603    129.4012
   996.0000    -71.3160     16.1930     18.3756     19.3686    127.8648
   996.2500    -70.8361     16.0896     18.2377     19.5592    126.7480
   996.5000    -70.6366     15.9899     18.1149     19.9138    124.3543
   996.7500    -70.7314     15.9275     18.0138     20.3366    122.3034
   997.0000    -71.0726     15.9222     17.9386     20.7873    119.3056
   997.2500    -71.5959     15.9760     17.8906     21.2502    117.9946
   997.5000    -72.2540     16.0734     17.8698     21.6760    117.8034
   997.7500    -73.0232     16.1901     17.8765     21.9634    118.8431
   998.0000    -73.8874     16.3015     17.9109     22.0100    121.4257
   998.2500    -74.8134     16.3903     17.9725     21.7884    123.3184
   998.5000    -75.7431     16.4479     18.0584     21.3733    125.8166
   998.7500    -76.6056     16.4729     18.1622     20.8947    127.0300
   999.0000    -77.3357     16.4708     18.2765     20.4612    127.9177
   999.2500    -77.8863     16.4578     18.3956     20.1241    127.9944
   999.5000    -78.2243     16.4654     18.5210     19.9047    128.2131
   999.7500    -78.3207     16.5364     18.6646     19.8440    129.0903
  1000.0000    -78.1349     16.7123     18.8490     20.0258    132.0993
  1000.2500    -77.6209     17.0176     19.1061     20.5683    135.0616
  1000.5000    -76.7477     17.4482     19.4707     21.6183    139.8149
  1000.7500    -75.5261     17.9717     19.9764     23.3633    142.3011
  1001.0000    -74.0354     18.5427     20.6498     26.0226    143.8030
  1001.2500    -72.4221     19.1271     21.5077     29.7560    142.9841
  1001.5000    -70.8700     19.7208     22.5542     34.4966    138.8603
  1001.7500    -69.5499     20.3480     23.7786     39.8199    134.4000
  1002.0000    -68.5658     21.0415     25.1533     44.9979    126.5600
  1002.2500    -67.9235     21.8187     26.6343     49.2764    121.7914
  1002.5000    -67.5444     22.6658     28.1612     52.2428    116.8144
  1002.7500    -67.3100     23.5367     29.6623     54.0493    115.0431
  1003.0000    -67.1247     24.3658     31.0606     55.3218    113.6276
  1003.2500    -66.9594     25.0893     32.2867     56.7634    112.5132
  1003.5000    -66.8536     25.6684     33.2919     58.6493    109.3742
  1003.7500    -66.8894     26.1000     34.0590     60.5194    106.4686
  1004.0000    -67.1394     26.4105     34.6057     61.3128    102.6581
  1004.2500    -67.6346     26.6311     34.9776     59.9410    101.7963
  1004.5000    -68.3518     26.7754     35.2330     55.9776    104.4757
  1004.7500    -69.2313     26.8331     35.4235     50.0138    108.8099
  1005.0000    -70.1988     26.7846     35.5812     43.4438    117.1785
  1005.2500    -71.1858     26.6249     35.7125     37.8466    122.2714
  1005.5000    -72.1396     26.3733     35.8025     34.3801    126.7720
  1005.7500    -73.0214     26.0664     35.8253     33.5034    127.3396
  1006.0000    -73.8036     25.7421     35.7597     35.0268    125.6669
  1006.2500    -74.4691     25.4349     35.6051     38.2785    123.6382
  1006.5000    -75.0051     25.1814     35.3880     42.2422    119.5972
  1006.7500    -75.4005     25.0259     35.1617     45.7226    116.3607
  1007.0000    -75.6346     25.0132     34.9977     47.6621    112.1910
  1007.2500    -75.6799     25.1656     34.9723     47.5573    111.3001
  1007.5000    -75.5025     25.4622     35.1536     45.7199    114.0943
  1007.7500    -75.0832     25.8288     35.5902     43.1668    117.9145
  1008.0000    -74.4314     26.1562     36.3032     41.2100    123.1113
  1008.2500    -73.5964     26.3383     37.2750     41.0347    124.1780
  1008.5000    -72.6597     26.3152     38.4411     43.4859    120.8703
  1008.7500    -71.7223     26.0938     39.6858     48.9960    116.2722
  1009.0000    -70.8832     25.7332     40.8484     57.4125    108.7429
  1009.2500    -70.2340     25.3157     41.7498     67.6609    104.5714
  1009.5000    -69.8587     24.9187     42.2346     77.5602     99.7884
  1009.7500    -69.8235     24.5945     42.2190     84.2737     97.1581
  1010.0000    -70.1678     24.3560     41.7148     85.4850     94.2156
  1010.2500    -70.8777     24.1679     40.8194     80.6956     93.7204
  1010.5000    -71.8711     23.9624     39.6751     71.7004     96.4176
  1010.7500    -72.9988     23.6774     38.4243     61.7753    100.3848
  1011.0000    -74.0731     23.3067     37.1799     54.0453    107.8470
  1011.2500    -74.9163     22.9195     36.0154     50.0667    112.5756
  1011.5000    -75.4030     22.6337     34.9693     49.4162    117.9442
  1011.7500    -75.4875     22.5655     34.0585     50.3270    120.1959
  1012.0000    -75.2004     22.7893     33.2911     50.8127    122.0388
