~Version Information
VERS.                      2.0: CWLS Log ASCII Standard - VERSION 2.0
WRAP.                       NO: One line per depth step
~Well Information Block
STRT.FT               582.2500: 
STOP.FT              2642.5000: 
STEP.FT                 0.2500: 
NULL.                -999.2500: 
COMP.          Petrogulf Corporation: COMPANY
WELL.           Montoya 12-41V: WELL
FLD.           Purgatorie River: FIELD
LOC.           1081' FNL & 605' FEL: LOCATION
CNTY.               Las Animas: COUNTY
SRVC.                         : SERVICE COMPANY
DATE.          Tue Aug 10 10:59:28 2004: LOG DATE
UWI.           05 071 08094 00: UNIQUE WELL ID
STAT.                 Colorado: STATE
~Curve Information Block
DEPT.FT            0 000 00 00: Depth
SP.mV                         : DIL Spontaneous Potential
RILD.Ohm-m                    : DIL Deep Resistivity
RILM.Ohm-m                    : DIL Medium Resistivity
RLL3.Ohm-m                    : DIL Shallow Resistivity
GR.GAPI                       : Gamma Ray
~Parameter Information Block
~A  Depth        SP         RILD        RILM        RLL3         GR     
# ...
  1282.2500    -50.0533     36.5428     44.4818     47.0201    123.5801
  1282.5000    -50.4107     37.4947     44.0244     46.4625    123.1187
  1282.7500    -50.9661     38.5812     43.9088     46.3755    123.4545
  1283.0000    -51.6569     39.6612     44.1181     46.9222    123.8317
  1283.2500    -52.4130     40.5376     44.6610     48.2908    123.4689
  1283.5000    -53.1594     41.0433     45.5733     50.5971    121.9453
  1283.7500    -53.8269     41.1291     46.9108     53.8387    120.6139
  1284.0000    -54.3631     40.9011     48.7233     57.9221    118.6702
  1284.2500    -54.7441     40.5506     51.0286     62.7374    117.4270
  1284.5000    -54.9796     40.2417     53.7781     68.2198    115.2482
  1284.7500    -55.1115     40.0401     56.8236     74.3361    113.3597
  1285.0000    -55.2028     39.9272     59.9073     80.9855    109.6689
  1285.2500    -55.3165     39.8753     62.6871     87.8578    106.5448
  1285.5000    -55.4920     39.9248     64.8090     94.3417    100.9374
  1285.7500    -55.7262     40.1965     66.0227     99.5710     97.1017
  1286.0000    -55.9666     40.8330     66.2727    102.6421     92.9582
  1286.2500    -56.1177     41.8981     65.7003    102.9420     92.1648
  1286.5000    -56.0736     43.3050     64.5707    100.4450     93.8210
  1286.7500    -55.7532     44.8023     63.1809     95.8213     95.7439
  1287.0000    -55.1262     46.0787     61.7795     90.2812     97.6369
  1287.2500    -54.2168     46.9525     60.5489     85.2122     97.5014
  1287.5000    -53.0885     47.5064     59.6045     81.7787     95.0893
  1287.7500    -51.8110     48.0181     59.0188     80.6569     92.2245
  1288.0000    -50.4385     48.7461     58.8268     81.9838     86.3051
  1288.2500    -49.0079     49.7560     59.0370     85.4776     81.3867
  1288.5000    -47.5519     50.8783     59.6199     90.6158     73.1391
  1288.7500    -46.1211     51.8267     60.5033     96.7810     67.7002
  1289.0000    -44.7953     52.3890     61.5619    103.3496     60.4671
  1289.2500    -43.6774     52.5376     62.6213    109.7470     56.1886
  1289.5000    -42.8674     52.3772     63.4704    115.4901     50.0328
  1289.7500    -42.4357     52.0121     63.8986    120.2153     46.2045
  1290.0000    -42.3980     51.4787     63.7414    123.6758     42.0449
  1290.2500    -42.7176     50.7752     62.9256    125.7092     41.0129
  1290.5000    -43.3222     49.9293     61.4896    126.1928     42.1964
  1290.7500    -44.1340     49.0173     59.5598    125.0126     44.3037
  1291.0000    -45.0974     48.1086     57.2993    122.0564     48.5463
  1291.2500    -46.1860     47.1917     54.8649    117.2363     51.9080
  1291.5000    -47.3940     46.1488     52.3717    110.5395     58.0197
  1291.7500    -48.7101     44.7994     49.8959    102.1042     63.1856
  1292.0000    -50.0904     43.0044     47.4825     92.2995     73.1903
  1292.2500    -51.4451     40.7634     45.1671     81.7572     81.2702
  1292.5000    -52.6415     38.2390     42.9849     71.3050     94.2348
  1292.7500    -53.5270     35.6800     40.9698     61.7933    102.5597
  1293.0000    -53.9663     33.3233     39.1466     53.8759    113.8378
  1293.2500    -53.8841     31.3267     37.5177     47.8461    120.3658
  1293.5000    -53.3042     29.7571     36.0605     43.6019    127.7961
  1293.7500    -52.3579     28.6060     34.7298     40.7476    130.4705
  1294.0000    -51.2651     27.8080     33.4662     38.7733    130.8105
  1294.2500    -50.2796     27.2556     32.2119     37.2298    129.3034
  1294.5000    -49.6230     26.8203     30.9266     35.8337    126.3375
  1294.7500    -49.4292     26.3829     29.5974     34.4800    124.9229
  1295.0000    -49.7214     25.8662     28.2383     33.1836    125.2156
  1295.2500    -50.4195     25.2495     26.8857     31.9935    127.7474
  1295.5000    -51.3753     24.5556     25.5852     30.9270    134.9960
  1295.7500    -52.4120     23.8237     24.3831     29.9510    140.9068
  1296.0000    -53.3613     23.0924     23.3174     29.0051    148.1759
  1296.2500    -54.0967     22.4015     22.4178     28.0426    150.6532
  1296.5000    -54.5514     21.7975     21.7033     27.0606    151.1006
  1296.7500    -54.7341     21.3326     21.1843     26.1056    150.4863
  1297.0000    -54.7218     21.0532     20.8625     25.2598    149.9992
  1297.2500    -54.6418     20.9879     20.7307     24.6221    149.9432
  1297.5000    -54.6264     21.1379     20.7714     24.2937    149.0342
  1297.7500    -54.7661     21.4731     20.9572     24.3669    147.5512
  1298.0000    -55.0766     21.9344     21.2505     24.9093    145.0367
  1298.2500    -55.4898     22.4470     21.6064     25.9399    144.1042
  1298.5000    -55.8826     22.9430     21.9774     27.4058    144.6776
  1298.7500    -56.1264     23.3817     22.3197     29.1700    146.4364
  1299.0000    -56.1358     23.7551     22.5986     31.0228    151.0447
  1299.2500    -55.9015     24.0688     22.7906     32.7114    155.1062
  1299.5000    -55.4907     24.3195     22.8830     33.9851    161.2785
  1299.7500    -55.0228     24.4822     22.8725     34.6440    164.5464
  1300.0000    -54.6274     24.5225     22.7645     34.5862    167.7475
  1300.2500    -54.4064     24.4214     22.5761     33.8398    169.1922
  1300.5000    -54.4047     24.1900     22.3371     32.5639    171.1805
  1300.7500    -54.5951     23.8646     22.0884     31.0132    172.5089
  1301.0000    -54.8815     23.4883     21.8758     29.4747    174.2853
  1301.2500    -55.1162     23.0927     21.7418     28.1983    175.1566
  1301.5000    -55.1426     22.6945     21.7172     27.3441    175.5111
  1301.7500    -54.8438     22.3008     21.8172     26.9613    174.6899
  1302.0000    -54.1886     21.9187     22.0404     26.9972    171.4547
  1302.2500    -53.2517     21.5593     22.3712     27.3301    168.1423
  1302.5000    -52.1891     21.2375     22.7852     27.8176    162.1045
  1302.7500    -51.1841     20.9684     23.2550     28.3489    157.7817
  1303.0000    -50.3843     20.7684     23.7564     28.8892    152.0346
  1303.2500    -49.8562     20.6594     24.2712     29.5043    149.6830
  1303.5000    -49.5783     20.6721     24.7872     30.3556    149.0733
  1303.7500    -49.4677     20.8423     25.2966     31.6627    149.7896
  1304.0000    -49.4222     21.1976     25.7937     33.6351    150.1958
  1304.2500    -49.3636     21.7369     26.2756     36.3940    149.3054
  1304.5000    -49.2572     22.4139     26.7445     39.9066    146.6198
  1304.7500    -49.1228     23.1313     27.2127     43.9594    144.3949
  1305.0000    -49.0236     23.7681     27.7032     48.1787    140.6920
  1305.2500    -49.0433     24.2296     28.2486     52.0851    138.0385
  1305.5000    -49.2632     24.4989     28.8858     55.1667    134.2840
  1305.7500    -49.7328     24.6392     29.6478     56.9638    132.5179
  1306.0000    -50.4545     24.7517     30.5564     57.1732    132.4207
  1306.2500    -51.3841     24.9199     31.6191     55.7641    135.0935
  1306.5000    -52.4384     25.1812     32.8319     53.0682    144.3338
  1306.7500    -53.5126     25.5340     34.1891     49.8030    153.4252
  1307.0000    -54.4936     25.9592     35.6964     47.0209    168.1539
  1307.2500    -55.2699     26.4433     37.3834     45.9613    176.2898
  1307.5000    -55.7442     26.9825     39.3109     48.1819    183.0673
  1307.7500    -55.8461     27.5703     41.5640     55.6570    183.3955
  1308.0000    -55.5426     28.1854     44.2396     71.0025    177.9635
  1308.2500    -54.8539     28.7916     47.4206     97.4384    170.9500
  1308.5000    -53.8616     29.3607     51.1464    138.0794    156.6439
  1308.7500    -52.7031     29.9033     55.3820    194.2888    145.6548
  1309.0000    -51.5583     30.4878     59.9872    263.4355    129.1732
  1309.2500    -50.6150     31.2254     64.7109    337.2596    119.2055
  1309.5000    -50.0279     32.2315     69.2178    402.4950    106.5239
  1309.7500    -49.8802     33.5820     73.1629    444.5808     99.6614
  1310.0000    -50.1579     35.2837     76.2744    453.2885     91.9965
