~Version Information
VERS.                      2.0: CWLS Log ASCII Standard - VERSION 2.0
WRAP.                       NO: One line per depth step
~Well Information Block
STRT.FT               250.0000: 
STOP.FT              2600.7000: 
STEP.FT                 0.1000: 
NULL.                -999.2500: 
COMP.          Pioneer Natural Resources: COMPANY
WELL.              Quack 22-24: WELL
FLD.           Purgatoire River: FIELD
LOC.           2492' FNL & 2459' FWL--: LOCATION
PROV.                 Colorado: PROVINCE
CNTY.               Las Animas: COUNTRY
SRVC.                Patterson: SERVICE COMPANY
DATE.          Mon Jun 13 08:03:15 2005: LOG DATE
UWI.            05 071 0840200: UNIQUE WELL ID
~Curve Information Block
DEPT.FT            0 000 00 00: Depth
DCAL.in                       : CDL Caliper
RHOB.g/cc                     : CDL Bulk Density
RHOC.g/cc                     : CDL Density Correction
DPOR.pu                       : CDL Density Porosity
NPOR.pu                       : Neutron Porosity
GR.GAPI                       : Gamma Ray
~Parameter Information Block
~A  Depth       DCAL        RHOB        RHOC        DPOR        NPOR         GR     
# ...
  1949.2000      8.2283      2.3034      0.1439     21.0046     31.9296    123.2567
  1949.3000      8.2379      2.3316      0.1947     19.2990     31.6006    123.0065
  1949.4000      8.2379      2.3870      0.2787     15.9416     31.2183    127.4778
  1949.5000      8.2327      2.4607      0.3473     11.4724     31.1459    132.5318
  1949.6000      8.2327      2.5305      0.3940      7.2433     31.1806    133.7131
  1949.7000      8.2327      2.5686      0.4249      4.9332     31.2498    131.7061
  1949.8000      8.2089      2.5641      0.3301      5.2064     31.1786    133.4092
  1949.9000      8.2089      2.5383      0.2716      6.7708     30.8517    140.4960
  1950.0000      8.1492      2.5139      0.2038      8.2464     30.4279    145.7310
  1950.1000      8.1492      2.4951      0.1911      9.3875     29.9778    147.1284
  1950.2000      8.1492      2.4845      0.1455     10.0329     29.5413    149.8625
  1950.3000      8.0895      2.4924      0.1567      9.5528     29.2136    152.1454
  1950.4000      8.0895      2.5181      0.1627      7.9911     28.9061    148.8288
  1950.5000      8.0596      2.5432      0.1773      6.4751     28.4157    140.7042
  1950.6000      8.0596      2.5524      0.1484      5.9157     28.2019    133.6678
  1950.7000      8.0596      2.5482      0.1330      6.1720     28.5801    130.6518
  1950.8000      8.0462      2.5397      0.1116      6.6823     28.6613    130.6710
  1950.9000      8.0462      2.5335      0.1196      7.0603     28.0008    132.3959
  1951.0000      8.0419      2.5363      0.1198      6.8886     27.4351    132.6029
  1951.1000      8.0419      2.5513      0.0968      5.9844     27.3090    130.5636
  1951.2000      8.0419      2.5661      0.0962      5.0839     27.2383    129.3959
  1951.3000      8.0531      2.5678      0.0784      4.9824     27.2623    127.9352
  1951.4000      8.0531      2.5629      0.0528      5.2796     27.5053    123.5679
  1951.5000      8.0701      2.5676      0.0470      4.9922     27.4944    119.7382
  1951.6000      8.0701      2.5832      0.0628      4.0503     26.9562    118.8950
  1951.7000      8.0701      2.5939      0.0734      3.4024     26.3916    116.9764
  1951.8000      8.0792      2.5946      0.0276      3.3564     26.3364    110.9450
  1951.9000      8.0792      2.5964      0.0515      3.2468     26.5171    105.4857
  1952.0000      8.0798      2.5991      0.0698      3.0843     26.4614    107.8741
  1952.1000      8.0798      2.5970      0.0437      3.2130     26.2556    113.4881
  1952.2000      8.0798      2.5957      0.0502      3.2910     26.0564    113.0686
  1952.3000      8.0774      2.6015      0.0451      2.9382     25.7819    108.4481
  1952.4000      8.0774      2.6057      0.0882      2.6874     25.4917    109.1697
  1952.5000      8.0762      2.5947      0.0457      3.3510     25.5309    115.7163
  1952.6000      8.0762      2.5744      0.0231      4.5796     25.7120    117.3719
  1952.7000      8.0762      2.5564      0.0375      5.6757     25.3066    110.4118
  1952.8000      8.0779      2.5484     -0.0339      6.1601     24.4704    101.0172
  1952.9000      8.0779      2.5631     -0.0064      5.2694     23.9842     94.8017
  1953.0000      8.0821      2.5916      0.0595      3.5404     24.0682     92.3682
  1953.1000      8.0821      2.6028      0.0614      2.8622     24.4565     91.8046
  1953.2000      8.0821      2.5893      0.0144      3.6786     24.8268     93.2423
  1953.3000      8.0884      2.5736      0.0235      4.6303     24.6767     96.8508
  1953.4000      8.0884      2.5744      0.0332      4.5832     23.9462     97.2738
  1953.5000      8.0928      2.5919      0.0605      3.5230     23.3912     94.6432
  1953.6000      8.0928      2.6111      0.0619      2.3567     23.4164     94.0435
  1953.7000      8.0928      2.6213      0.0809      1.7386     23.7060     92.8750
  1953.8000      8.0818      2.6282      0.0837      1.3190     24.1135     88.7764
  1953.9000      8.0818      2.6388      0.0791      0.6799     24.5631     84.4601
  1954.0000      8.0518      2.6467      0.0728      0.2004     24.7055     83.4715
  1954.1000      8.0518      2.6419      0.0649      0.4937     24.4769     88.1291
  1954.2000      8.0518      2.6227      0.0896      1.6527     24.1161     98.1739
  1954.3000      8.0209      2.5964      0.0788      3.2455     23.9366    112.5642
  1954.4000      8.0209      2.5704      0.0649      4.8229     24.3230    124.8423
  1954.5000      8.0066      2.5528      0.0328      5.8903     25.2590    126.6987
  1954.6000      8.0066      2.5547      0.0366      5.7730     26.3073    121.0338
  1954.7000      8.0066      2.5727      0.0614      4.6827     26.8744    115.6850
  1954.8000      8.0027      2.5875      0.0762      3.7888     26.9341    114.2245
  1954.9000      8.0027      2.5886      0.0503      3.7240     26.9452    117.1035
  1955.0000      8.0015      2.5773      0.0705      4.4069     27.0653    118.8804
  1955.1000      8.0015      2.5542      0.0597      5.8050     27.3983    115.4702
  1955.2000      8.0015      2.5245      0.0604      7.6076     27.8891    113.3560
  1955.3000      8.0003      2.4994      0.0345      9.1302     28.3326    117.1482
  1955.4000      8.0003      2.4803      0.0423     10.2824     28.5769    126.9599
  1955.5000      7.9992      2.4619      0.0120     11.4020     28.6050    141.6648
  1955.6000      7.9992      2.4447      0.0271     12.4421     28.8304    153.3652
  1955.7000      7.9992      2.4313      0.0324     13.2560     29.7154    156.2857
  1955.8000      7.9992      2.4247      0.0273     13.6570     30.8401    151.7327
  1955.9000      7.9992      2.4265      0.0228     13.5466     31.4435    144.1171
  1956.0000      7.9984      2.4251      0.0542     13.6323     31.5193    141.2182
  1956.1000      7.9984      2.4097      0.0365     14.5630     31.2187    144.3389
  1956.2000      7.9984      2.3901      0.0611     15.7506     30.5921    147.3301
  1956.3000      7.9968      2.3806      0.0450     16.3273     30.1975    150.3277
  1956.4000      7.9968      2.3819      0.0687     16.2487     30.6698    152.2715
  1956.5000      7.9971      2.3870      0.0599     15.9380     31.3141    147.3724
  1956.6000      7.9971      2.3988      0.0768     15.2233     31.1116    142.0589
  1956.7000      7.9971      2.4216      0.0937     13.8431     30.7830    144.1182
  1956.8000      7.9980      2.4475      0.1249     12.2747     31.1303    147.5451
  1956.9000      7.9980      2.4692      0.0999     10.9592     31.2896    145.8199
  1957.0000      7.9979      2.4856      0.1164      9.9619     30.5956    142.8986
  1957.1000      7.9979      2.4925      0.1184      9.5442     29.9072    144.1584
  1957.2000      7.9979      2.4862      0.1147      9.9245     29.7407    147.0943
  1957.3000      7.9989      2.4757      0.1040     10.5647     29.3512    146.0281
  1957.4000      7.9989      2.4784      0.0807     10.4007     28.2740    142.2343
  1957.5000      8.0016      2.5002      0.1043      9.0779     27.2082    141.9323
  1957.6000      8.0016      2.5332      0.0831      7.0813     26.9608    143.6517
  1957.7000      8.0016      2.5689      0.1078      4.9161     27.5044    140.6258
  1957.8000      8.0044      2.5895      0.1210      3.6688     28.3784    135.7201
  1957.9000      8.0044      2.5732      0.1024      4.6530     29.0519    135.1807
  1958.0000      8.0054      2.5290      0.0687      7.3307     29.3041    135.3312
  1958.1000      8.0054      2.4914      0.0310      9.6143     29.2341    133.0810
  1958.2000      8.0054      2.4859      0.0139      9.9450     28.6134    134.0107
  1958.3000      8.0042      2.5108      0.0578      8.4355     27.4542    137.9146
  1958.4000      8.0042      2.5442      0.0652      6.4150     26.2727    136.0252
  1958.5000      8.0012      2.5674      0.0931      5.0053     25.5067    127.6036
  1958.6000      8.0012      2.5733      0.1078      4.6505     25.5970    122.6074
  1958.7000      8.0012      2.5688      0.0750      4.9183     26.4809    127.2918
