~Version Information
VERS.                      2.0: CWLS Log ASCII Standard - VERSION 2.0
WRAP.                       NO: One line per depth step
~Well Information Block
STRT.FT               557.0000: 
STOP.FT              2136.0000: 
STEP.FT                 0.2500: 
NULL.                -999.2500: 
COMP.          Petrogulf Corporation: COMPANY
WELL.           Montoya 12-41R: WELL
FLD.           Purgatorie River: FIELD
LOC.           1086' FNL & 610' FEL: LOCATION
CNTY.               Las Animas: COUNTY
SRVC.                         : SERVICE COMPANY
DATE.          Thu Nov 18 06:03:03 2004: LOG DATE
UWI.           05 071 08241 00: UNIQUE WELL ID
STAT.                 Colorado: STATE
~Curve Information Block
DEPT.FT            0 000 00 00: Depth
SP.mV                         : DIL Spontaneous Potential
RILD.Ohm-m                    : DIL Deep Resistivity
RILM.Ohm-m                    : DIL Medium Resistivity
RLL3.Ohm-m                    : DIL Shallow Resistivity
GR.GAPI                       : Gamma Ray
~Parameter Information Block
~A  Depth        SP         RILD        RILM        RLL3         GR     
# ...
   697.0000   2000.0000     27.2388     35.2880   2000.0000     84.4605
   697.2500   2000.0000     25.9898     32.6049   2000.0000     85.8417
   697.5000   2000.0000     24.8146     29.9467   2000.0000     92.5898
   697.7500   2000.0000     23.7553     27.4513   2000.0000    100.4406
   698.0000   2000.0000     22.8309     25.2048   2000.0000    116.6397
   698.2500   2000.0000     22.0418     23.2502   2000.0000    129.2027
   698.5000   2000.0000     21.3777     21.5994   2000.0000    147.3030
   698.7500   2000.0000     20.8211     20.2443   2000.0000    156.7902
   699.0000   2000.0000     20.3515     19.1667   2000.0000    165.2118
   699.2500   2000.0000     19.9490     18.3442   2000.0000    167.2270
   699.5000   2000.0000     19.5959     17.7545   2000.0000    166.8503
   699.7500   2000.0000     19.2796     17.3760   2000.0000    165.4414
   700.0000   2000.0000     18.9942     17.1889   2000.0000    162.2727
   700.2500   2000.0000     18.7399     17.1739   2000.0000    159.2610
   700.5000   2000.0000     18.5225     17.3097   2000.0000    152.8194
   700.7500   2000.0000     18.3505     17.5711   2000.0000    146.9176
   701.0000   2000.0000     18.2317     17.9268   2000.0000    135.1208
   701.2500   2000.0000     18.1707     18.3381   2000.0000    125.3349
   701.5000   2000.0000     18.1657     18.7596   2000.0000    109.5700
   701.7500   2000.0000     18.2073     19.1437   2000.0000    100.4886
   702.0000   2000.0000     18.2784     19.4463   2000.0000     92.8725
   702.2500   2000.0000     18.3552     19.6346   2000.0000     92.7625
   702.5000   2000.0000     18.4099     19.6913   2000.0000     98.5046
   702.7500   2000.0000     18.4151     19.6161   2000.0000    104.3416
   703.0000   2000.0000     18.3485     19.4223   2000.0000    113.3054
   703.2500   2000.0000     18.1973     19.1309   2000.0000    118.5186
   703.5000   2000.0000     17.9598     18.7649   2000.0000    124.3413
   703.7500   2000.0000     17.6464     18.3463   2000.0000    126.5943
   704.0000   2000.0000     17.2761     17.8937   2000.0000    127.7567
   704.2500   2000.0000     16.8730     17.4229   2000.0000    127.7141
   704.5000   2000.0000     16.4624     16.9473   2000.0000    127.8151
   704.7500   2000.0000     16.0674     16.4791   2000.0000    128.4771
   705.0000   2000.0000     15.7075     16.0298   2000.0000    130.3255
   705.2500   2000.0000     15.3981     15.6103   2000.0000    131.7479
   705.5000   2000.0000     15.1501     15.2313   2000.0000    133.4239
   705.7500   2000.0000     14.9716     14.9028   2000.0000    134.0099
   706.0000   2000.0000     14.8681     14.6348   2000.0000    134.1867
   706.2500   2000.0000     14.8443     14.4366   2000.0000    134.0709
   706.5000   2000.0000     14.9034     14.3169   2000.0000    134.0880
   706.7500   2000.0000     15.0486     14.2839   2000.0000    134.5257
   707.0000   2000.0000     15.2826     14.3454   2000.0000    135.8534
   707.2500   2000.0000     15.6069     14.5087   2000.0000    136.7743
   707.5000   2000.0000     16.0216     14.7806   2000.0000    137.4390
   707.7500   2000.0000     16.5242     15.1672   2000.0000    137.4907
   708.0000   2000.0000     17.1095     15.6731   2000.0000    138.0001
   708.2500   2000.0000     17.7700     16.3012   2000.0000    139.0045
   708.5000   2000.0000     18.4963     17.0521   2000.0000    140.8886
   708.7500   2000.0000     19.2791     17.9229   2000.0000    141.6427
   709.0000   2000.0000     20.1112     18.9079   2000.0000    141.1769
   709.2500   2000.0000     20.9886     19.9991   2000.0000    139.6781
   709.5000   2000.0000     21.9107     21.1865   2000.0000    135.7639
   709.7500   2000.0000     22.8790     22.4607   2000.0000    132.3798
   710.0000   2000.0000     23.8932     23.8126   2000.0000    127.3674
   710.2500   2000.0000     24.9478     25.2353   2000.0000    124.8832
   710.5000   2000.0000     26.0272     26.7219   2000.0000    123.3365
   710.7500   2000.0000     27.1036     28.2629   2000.0000    123.9301
   711.0000   2000.0000     28.1359     29.8424   2000.0000    126.9359
   711.2500   2000.0000     29.0748     31.4316   2000.0000    129.6985
   711.5000   2000.0000     29.8693     32.9829   2000.0000    133.4803
   711.7500   2000.0000     30.4792     34.4263   2000.0000    135.2459
   712.0000   2000.0000     30.8834     35.6709   2000.0000    136.8870
   712.2500   2000.0000     31.0875     36.6187   2000.0000    137.5381
   712.5000   2000.0000     31.1210     37.1863   2000.0000    137.8436
   712.7500   2000.0000     31.0317     37.3316   2000.0000    137.6161
   713.0000   2000.0000     30.8733     37.0741   2000.0000    137.3587
   713.2500   2000.0000     30.6965     36.4938   2000.0000    137.9046
   713.5000   2000.0000     30.5415     35.7114   2000.0000    140.3312
   713.7500   2000.0000     30.4336     34.8575   2000.0000    142.7557
   714.0000   2000.0000     30.3839     34.0475   2000.0000    146.6975
   714.2500   2000.0000     30.3889     33.3649   2000.0000    149.0917
   714.5000   2000.0000     30.4336     32.8561   2000.0000    151.7899
   714.7500   2000.0000     30.4947     32.5331   2000.0000    152.6913
   715.0000   2000.0000     30.5432     32.3784   2000.0000    152.4052
   715.2500   2000.0000     30.5493     32.3522   2000.0000    151.3131
   715.5000   2000.0000     30.4864     32.4005   2000.0000    149.0526
   715.7500   2000.0000     30.3377     32.4633   2000.0000    147.3065
   716.0000   2000.0000     30.0963     32.4855   2000.0000    143.8350
   716.2500   2000.0000     29.7676     32.4244   2000.0000    140.6362
   716.5000   2000.0000     29.3667     32.2550   2000.0000    134.9318
   716.7500   2000.0000     28.9136     31.9708   2000.0000    131.3461
   717.0000   2000.0000     28.4277     31.5779   2000.0000    127.8346
   717.2500   2000.0000     27.9238     31.0890   2000.0000    127.2979
   717.5000   2000.0000     27.4068     30.5174   2000.0000    129.3635
   717.7500   2000.0000     26.8731     29.8726   2000.0000    132.3796
   718.0000   2000.0000     26.3117     29.1595   2000.0000    138.7336
   718.2500   2000.0000     25.7091     28.3794   2000.0000    143.9803
   718.5000   2000.0000     25.0547     27.5331   2000.0000    153.1025
   718.7500   2000.0000     24.3458     26.6245   2000.0000    159.5596
   719.0000   2000.0000     23.5896     25.6626   2000.0000    168.4862
   719.2500   2000.0000     22.8039     24.6621   2000.0000    173.3249
   719.5000   2000.0000     22.0112     23.6430   2000.0000    178.7767
   719.7500   2000.0000     21.2353     22.6274   2000.0000    181.5311
   720.0000   2000.0000     20.4953     21.6367   2000.0000    185.0284
   720.2500   2000.0000     19.8037     20.6889   2000.0000    187.1874
   720.5000   2000.0000     19.1650     19.7976   2000.0000    190.0596
   720.7500   2000.0000     18.5781     18.9713   2000.0000    191.3669
   721.0000   2000.0000     18.0377     18.2139   2000.0000    191.7784
   721.2500   2000.0000     17.5384     17.5253   2000.0000    190.9653
   721.5000   2000.0000     17.0759     16.9031   2000.0000    188.4202
   721.7500   2000.0000     16.6493     16.3428   2000.0000    185.8098
   722.0000   2000.0000     16.2605     15.8395   2000.0000    179.9624
   722.2500   2000.0000     15.9133     15.3882   2000.0000    174.6943
   722.5000   2000.0000     15.6120     14.9851   2000.0000    165.8365
   722.7500   2000.0000     15.3597     14.6277   2000.0000    160.4081
   723.0000   2000.0000     15.1576     14.3159   2000.0000    154.5714
   723.2500   2000.0000     15.0040     14.0511   2000.0000    152.5466
   723.5000   2000.0000     14.8954     13.8358   2000.0000    151.6657
   723.7500   2000.0000     14.8260     13.6732   2000.0000    151.6422
   724.0000   2000.0000     14.7899     13.5657   2000.0000    151.1465
   724.2500   2000.0000     14.7814     13.5147   2000.0000    150.4543
   724.5000   2000.0000     14.7967     13.5205   2000.0000    149.8756
   724.7500   2000.0000     14.8343     13.5819   2000.0000    150.2466
