~Version Information
VERS.                                  2.0 : CWLS LAS VERSION
WRAP.                                   NO : WRAPING MODE
SWARE .                 MController 2.5.0E : SOFTWARE VERSION
~Well Information
WELL.                     Moneypenny 31-16 : WELL
COMP.             Evergreen Operating Corp : COMPANY
FLD.                      Purgatorie River : FIELD
LOC.                NW/NE Sec 36 t33S R67W : LOCATION
DATE.                             10/01/04 : DATE(S) LOGGED
SRVC.       Blanco Geological Services LLC : SERVICE COMPANY
STAT.                                   CO : STATE
CNTY.                           Las Animas : COUNTY
CTRY.                                  USA : COUNTRY
API.                       05-071-08183-00 : API NUMBER
STRT.FT                            1097.00 : START DEPTH
STOP.FT                            1675.00 : STOP DEPTH
STEP.FT                               1.00 : DEPTH INCREMENT
NULL.                                -9999 : NULL VALUE
~Curve information
DEPTH.FT                                   :
ROP.MIN/FT                                 :
GAS.UNITS                                  :
~ASCII Log data
     1097.00    -9999.000        151.3
     1098.00        0.067        151.1
     1099.00        0.267        149.3
     1100.00        0.133        147.2
     1101.00        0.167        145.1
     1102.00        0.283        141.5
     1103.00        0.200        138.4
     1104.00        0.233        137.9
     1105.00        0.200        140.7
     1106.00        3.650        282.6
     1107.00        0.367        470.9
     1108.00        0.233       1106.9
     1109.00        0.233        984.6
     1110.00        0.200        783.5
     1111.00        0.217        594.5
     1112.00        0.167        491.7
     1113.00        0.133        448.6
     1114.00        0.133        440.0
     1115.00        0.167        190.4
     1116.00        0.300        180.7
     1117.00        0.200        172.3
     1118.00        0.167        163.1
     1119.00        0.133        155.0
     1120.00        0.100        148.8
     1121.00        0.100        143.5
     1122.00        0.100        138.8
     1123.00        0.100        134.4
     1124.00        0.133        129.7
     1125.00        0.133        126.0
     1126.00        0.133        122.4
     1127.00        0.167        118.0
     1128.00        0.183        114.2
     1129.00        0.100        111.7
     1130.00        0.100        109.4
     1131.00        0.167        105.9
     1132.00        0.167        103.1
     1133.00        0.167        100.1
     1134.00        0.167         97.8
     1135.00        0.167         96.2
     1136.00        3.483        171.3
     1137.00        0.283        272.2
     1138.00        0.267        357.4
     1139.00        0.233        364.6
     1140.00        0.233        315.0
     1141.00        0.300        222.6
     1142.00        0.400        159.7
     1143.00        0.267        148.3
     1144.00        0.200        140.7
     1145.00        0.167        133.1
     1146.00        0.167        123.8
     1147.00        0.200        113.0
     1148.00        0.167        104.7
     1149.00        0.250         94.2
     1150.00        0.200         87.2
     1151.00        0.200         82.3
     1152.00        0.167         79.6
     1153.00        0.200         77.7
     1154.00        0.200         77.2
     1155.00        0.200         77.8
     1156.00        0.233         78.1
     1157.00        0.300         75.8
     1158.00        0.267         72.0
     1159.00        0.267         69.0
     1160.00        0.133         68.5
     1161.00        0.167         69.2
     1162.00        0.100         69.7
     1163.00        0.100         70.3
     1164.00        0.133         70.9
     1165.00        0.133         71.5
     1166.00        3.233        165.6
     1167.00        0.367        248.1
     1168.00        0.333        260.8
     1169.00        0.267        222.0
     1170.00        0.267        171.1
     1171.00        0.500        128.3
     1172.00        0.267        124.9
     1173.00        0.267        115.5
     1174.00        0.250        105.2
     1175.00        0.167         98.9
     1176.00        0.167         92.2
     1177.00        0.167         86.4
     1178.00        0.233         81.9
     1179.00        0.233         81.0
     1180.00        0.267         80.7
     1181.00        0.167         79.7
     1182.00        0.167         78.7
     1183.00        0.200         76.7
     1184.00        0.200         74.9
     1185.00        0.167         73.1
     1186.00        0.200         71.2
     1187.00        0.167         69.4
     1188.00        0.217         67.8
     1189.00        0.200         66.3
     1190.00        0.133         65.6
     1191.00        0.167         64.5
     1192.00        0.133         64.0
     1193.00        0.167         63.4
     1194.00        0.167         62.5
     1195.00        0.133         61.9
     1196.00        3.717        268.1
     1197.00        0.200        317.6
     1198.00        0.367        309.6
     1199.00        0.300        226.4
     1200.00        0.233        163.1
     1201.00        0.300        118.6
     1202.00        0.233        106.9
     1203.00        0.250        102.3
     1204.00        0.200         99.0
     1205.00        0.233         95.3
     1206.00        0.200         92.5
     1207.00        0.200         89.0
     1208.00        0.200         86.0
     1209.00        0.300         82.2
     1210.00        0.233         79.5
     1211.00        0.200         77.1
     1212.00        0.200         74.8
     1213.00        0.200         72.5
     1214.00        0.233         70.0
     1215.00        0.200         67.5
     1216.00        0.233         64.7
     1217.00        0.233         62.5
     1218.00        0.317         60.9
     1219.00        0.400         59.6
     1220.00        0.267         58.6
     1221.00        0.200         57.9
     1222.00        0.167         57.8
     1223.00        0.133         58.2
     1224.00        0.167         58.7
     1225.00        0.133         58.9
     1226.00        0.133         58.9
     1227.00        3.317        165.1
     1228.00        0.367        222.4
     1229.00        0.333        203.9
     1230.00        0.300        156.8
     1231.00        0.300        117.4
     1232.00        0.300         99.1
     1233.00        0.250         95.6
     1234.00        0.267         96.6
     1235.00        0.300         93.4
     1236.00        0.233         83.8
     1237.00        0.200         75.2
     1238.00        0.167         68.8
     1239.00        0.167         64.5
     1240.00        0.100         63.4
     1241.00        0.100         63.4
     1242.00        0.167         65.1
     1243.00        0.233         68.2
     1244.00        0.200         70.7
     1245.00        0.167         72.3
     1246.00        0.200         72.9
     1247.00        0.200         72.0
     1248.00        0.167         70.4
     1249.00        0.217         68.7
     1250.00        0.200         67.3
     1251.00        0.167         66.6
     1252.00        0.233         65.6
     1253.00        0.233         64.1
     1254.00        0.200         62.6
     1255.00        0.200         60.9
     1256.00        0.200         59.2
     1257.00        0.167         57.8
     1258.00        3.383        158.5
     1259.00        0.400        282.2
     1260.00        0.367        306.1
     1261.00        0.333        232.7
     1262.00        0.200        181.0
     1263.00        0.167        148.1
     1264.00        0.167        129.9
     1265.00        0.183        121.6
     1266.00        0.100        118.5
     1267.00        0.133        115.0
     1268.00        0.167        110.6
     1269.00        0.200        104.3
     1270.00        0.167         97.5
     1271.00        0.167         90.3
     1272.00        0.167         84.2
     1273.00        0.200         78.0
     1274.00        0.167         74.3
     1275.00        0.167         72.5
     1276.00        0.167         72.2
     1277.00        0.167         72.3
     1278.00        0.133         72.4
     1279.00        0.167         72.1
     1280.00        0.167         70.9
     1281.00        0.133         69.7
     1282.00        0.167         67.9
     1283.00        0.167         66.1
     1284.00        0.167         64.3
     1285.00        0.183         62.4
     1286.00        0.167         60.4
     1287.00        0.133         58.8
     1288.00        3.717        251.8
     1289.00        0.100        266.9
     1290.00        0.233        266.5
     1291.00        0.733        121.2
     1292.00        0.567         80.7
     1293.00        0.500         78.5
     1294.00        0.550         68.8
     1295.00        0.400         62.3
     1296.00        0.300         59.2
     1297.00        0.267         58.9
     1298.00        0.333         56.8
     1299.00        0.467         57.6
     1300.00        0.400         61.4
     1301.00        0.267         62.2
     1302.00        0.167         61.2
