~Version Information
VERS.                      2.0: CWLS Log ASCII Standard - VERSION 2.0
WRAP.                       NO: One line per depth step
~Well Information Block
STRT.FT                -7.5000: 
STOP.FT              2339.2500: 
STEP.FT                 0.2500: 
NULL.                -999.2500: 
COMP.          Pioneer Natural Resources: COMPANY
WELL.            Harrier 44-33: WELL
FLD.           Purgatorie River: FIELD
LOC.           456' FSL & 930' FEL--: LOCATION
PROV.                       CO: PROVINCE
CNTY.               Las Animas: COUNTRY
SRVC.          Patterson Wireline: SERVICE COMPANY
DATE.          Wed Jun 29 11:08:51 2005: LOG DATE
UWI.           05 071 08398 00: UNIQUE WELL ID
~Curve Information Block
DEPT.FT            0 000 00 00: Depth
CCL.                          : Casing Collar Locator
TT3.usec                      : CBL 3' Travel Time
AMP3.mV                       : CBL 3' Amplitude
GR.GAPI                       : Gamma Ray
~Parameter Information Block
~A  Depth       CCL         TT3         AMP3         GR     
# ...
   294.0000      0.0000    766.3785      5.0250     98.6641
   294.2500      0.0000    763.1508      5.0139     92.7798
   294.5000      0.0000    754.7508      5.0724     88.5152
   294.7500      0.0000    737.9454      5.2116     86.0689
   295.0000      0.0000    712.6208      5.4073     84.9259
   295.2500      0.0000    685.2900      5.5885     84.6197
   295.5000      0.0000    667.6970      5.6553     84.6596
   295.7500      0.0000    668.8421      5.5399     84.6232
   296.0000      0.0000    688.3329      5.2767     84.6923
   296.2500      0.0000    718.5909      4.9937     85.4986
   296.5000      0.0000    751.1924      4.8126     87.2127
   296.7500      0.0000    779.7223      4.7591     89.3164
   297.0000      0.0000    800.5010      4.7751     91.4245
   297.2500      2.0000    813.1218      4.7927     93.8407
   297.5000      0.0000    818.3767      4.7837     97.0841
   297.7500      0.0000    816.1117      4.7677    101.1016
   298.0000      0.0000    807.3596      4.7951    105.1430
   298.2500      0.0000    796.7579      4.9064    108.4239
   298.5000      0.0000    789.7199      5.0834    110.8993
   298.7500      0.0000    787.8691      5.2480    113.0150
   299.0000      0.0000    788.7656      5.3288    114.4286
   299.2500      0.0000    788.9984      5.3251    113.6344
   299.5000      0.0000    786.6168      5.2958    109.7757
   299.7500      0.0000    781.7504      5.2973    104.5329
   300.0000      0.0000    775.9649      5.3414    101.1494
   300.2500      0.0000    770.7223      5.4010    101.2003
   300.5000      0.0000    765.9153      5.4398    102.8960
   300.7500      0.0000    759.3569      5.4370    103.0601
   301.0000      0.0000    747.5233      5.3966    100.4373
   301.2500      0.0000    728.0381      5.3414     96.6133
   301.5000      0.0000    702.9017      5.2946     94.1660
   301.7500      0.0000    678.4222      5.2636     94.5367
   302.0000      0.0000    659.9767      5.2381     97.2711
   302.2500      0.0000    647.4291      5.2044    100.4917
   302.5000      0.0000    637.0699      5.1602    102.1799
   302.7500      0.0000    626.1817      5.1199    101.5841
   303.0000      0.0000    614.2058      5.1074     99.6128
   303.2500      0.0000    602.2075      5.1396     97.8659
   303.5000      0.0000    593.5012      5.2099     97.4574
   303.7500      0.0000    593.1737      5.2916     98.5948
   304.0000      0.0000    604.9516      5.3557    100.6497
   304.2500      0.0000    627.8938      5.3856    102.2829
   304.5000      0.0000    655.9899      5.3801    102.0361
   304.7500      0.0000    681.4638      5.3515     99.5473
   305.0000      0.0000    699.2970      5.3221     96.2320
   305.2500      0.0000    709.1097      5.3143     94.2127
   305.5000      0.0000    713.4174      5.3392     94.3258
   305.7500      0.0000    714.9603      5.3927     95.3538
   306.0000      0.0000    715.5147      5.4621     95.3248
   306.2500      0.0000    716.1165      5.5334     93.6173
   306.5000      0.0000    717.6545      5.5937     91.9073
   306.7500      0.0000    721.1111      5.6309     92.9500
   307.0000      0.0000    727.2100      5.6377     98.1201
   307.2500      0.0000    735.6165      5.6167    105.9093
   307.5000      0.0000    744.4979      5.5779    112.8198
   307.7500      0.0000    751.1797      5.5328    115.9284
   308.0000      0.0000    753.5518      5.4916    114.9252
   308.2500      0.0000    751.1306      5.4603    111.9146
   308.5000      0.0000    745.3005      5.4346    109.3797
   308.7500      0.0000    738.7647      5.4034    108.5149
   309.0000      0.0000    734.1276      5.3625    109.3857
   309.2500      0.0000    732.2894      5.3192    111.9059
   309.5000      0.0000    732.0610      5.2821    115.9115
   309.7500      0.0000    731.0975      5.2513    120.5235
   310.0000      0.0000    726.6467      5.2192    124.2430
   310.2500      0.0000    715.8275      5.1803    125.8551
   310.5000      0.0000    697.1607      5.1415    124.9966
   310.7500      0.0000    673.0956      5.1217    122.2605
   311.0000      0.0000    649.9674      5.1389    119.2304
   311.2500      0.0000    634.0551      5.1941    117.6441
   311.5000      0.0000    628.1796      5.2672    117.6930
   311.7500      0.0000    632.3438      5.3276    117.6605
   312.0000      0.0000    645.1042      5.3504    115.8870
   312.2500      0.0000    662.3383      5.3275    112.6279
   312.5000      0.0000    677.1758      5.2687    109.5270
   312.7500      0.0000    684.3776      5.1961    107.8249
   313.0000      0.0000    684.6481      5.1346    107.5539
   313.2500      0.0000    682.9349      5.1012    107.9272
   313.5000      0.0000    682.6227      5.0969    107.9520
   313.7500      0.0000    683.2155      5.1083    107.0336
   314.0000      0.0000    683.9268      5.1215    105.3275
   314.2500      0.0000    686.7565      5.1326    103.4735
   314.5000      0.0000    694.2065      5.1430    102.0677
   314.7500      0.0000    705.9201      5.1480    101.3858
   315.0000      0.0000    719.6412      5.1395    101.4683
   315.2500      0.0000    733.9487      5.1185    102.4072
   315.5000      0.0000    747.7597      5.0975    104.2736
   315.7500      0.0000    758.0005      5.0883    106.2691
   316.0000      0.0000    760.6429      5.0865    106.3282
   316.2500      0.0000    755.1956      5.0689    102.5787
   316.5000      0.0000    746.6450      5.0076     95.3135
   316.7500      0.0000    741.5517      4.8944     87.0162
   317.0000      0.0000    742.8722      4.7547     80.6122
   317.2500      0.0000    749.1895      4.6370     77.9964
   317.5000      0.0000    757.8215      4.5850     79.6612
   317.7500      0.0000    766.9921      4.6160     84.8771
   318.0000      0.0000    774.8303      4.7170     91.8863
   318.2500      0.0000    778.2270      4.8597     98.1934
   318.5000      0.0000    775.0158      5.0220    101.4307
   318.7500      0.0000    767.1024      5.1956    100.7443
   319.0000      0.0000    759.3629      5.3733     97.5156
   319.2500      0.0000    755.1490      5.5347     94.3058
   319.5000      0.0000    754.4341      5.6489     92.7490
   319.7500      0.0000    756.3968      5.6927     92.4173
   320.0000      0.0000    762.0080      5.6640     91.8798
   320.2500      0.0000    773.1992      5.5822     90.7068
   320.5000      0.0000    790.0982      5.4745     89.9881
   320.7500      0.0000    809.6707      5.3637     90.8788
   321.0000      0.0000    827.1598      5.2632     93.2799
   321.2500      0.0000    838.9390      5.1799     96.1547
   321.5000      0.0000    843.8595      5.1204     98.3952
   321.7500      0.0000    842.0251      5.0937     99.0355
   322.0000      0.0000    833.4291      5.1052     97.4779
   322.2500      0.0000    818.8227      5.1469     94.1507
   322.5000      0.0000    801.5084      5.1940     90.4709
   322.7500      0.0000    787.2349      5.2138     87.6608
   323.0000      0.0000    781.2240      5.1777     85.7710
   323.2500      0.0000    784.0009      5.0724     83.9598
   323.5000      0.0000    789.7558      4.9073     81.5627
   323.7500      0.0000    790.1738      4.7146     78.8740
   324.0000      0.0000    781.5170      4.5364     77.1223
   324.2500      0.0000    768.2465      4.4053     77.6957
   324.5000      0.0000    759.3027      4.3354     81.0184
   324.7500      0.0000    760.6551      4.3271     85.8946
   325.0000      0.0000    771.0916      4.3738     90.1686
   325.2500      0.0000    784.4277      4.4611     92.3104
   325.5000      0.0000    795.3711      4.5645     92.4647
   325.7500      0.0000    803.2167      4.6530     92.0223
   326.0000      0.0000    810.1282      4.7027     92.2772
   326.2500      0.0000    817.0489      4.7101     93.5023
   326.5000      0.0000    822.7736      4.6928     95.0812
   326.7500      0.0000    826.6435      4.6764     96.1239
   327.0000      0.0000    830.3306      4.6781     95.8949
   327.2500      0.0000    836.2164      4.7017     94.0328
